t,x,y,z,roll,pitch,yaw,v_x,v_y,v_z,ref_x,ref_y,ref_z,ref_v_x,ref_v_y,ref_v_z,a_com,a_x,a_y,a_z,thrust,wind_x,wind_y,wind_z
0.0,1.3215023154472545,-1.0038543221242924,2.6472825962093163,0.0253474992942233,0.0996217842295281,0.0417679606949903,0.0003986722515664,-0.0065561103915291,-0.0005680349854335,1.3215139362589388,-1.0040720772886356,2.647263849668068,-0.099608083979897,0.0929094359538556,-0.1006104071834858,0.3296368713249549,0.0199336125783202,-0.3278055195764572,-0.0284017492716776,10.26079136502267,-0.9401583623518712,0.2553086061905272,-0.8807107377071245
0.02,1.3216726220267232,-1.0042159054436084,2.647161560271901,0.01534104441783,0.0943083693240307,0.0409772603849693,0.0159800260362628,-0.0252946974179122,-0.0118678624715429,1.3215139362589388,-1.0040720772886356,2.647263849668068,-0.099608083979897,0.0929094359538556,-0.1006104071834858,1.3431300483618889,0.779067689234824,-0.9369293513191576,-0.5649913743054699,9.637032716021167,-0.9463762377237436,0.2573303115174717,-0.879497804216312
0.04,1.3221074842699496,-1.0047233541053853,2.646737692692036,-0.001309506169041,0.0790452594367427,0.0397785572006665,0.0251193482320901,-0.0237748303382638,-0.0298214801173434,1.3215139362589388,-1.0040720772886356,2.647263849668068,-0.099608083979897,0.0929094359538556,-0.1006104071834858,1.0101603742853629,0.4569661097913641,0.0759933539824219,-0.8976808822900226,9.637032716021167,-0.9515523952404972,0.2728446208158791,-0.8658844522975098
0.06,1.322581885703553,-1.005104915757021,2.645985447268362,-0.0174290975525085,0.0590189463754573,0.0389703378858121,0.0234717213630825,-0.0161688727111173,-0.0484341073404675,1.3205178554191397,-1.003142982929097,2.646257745596233,-0.1196080842779202,0.1129094362518788,-0.120610407481509,1.008706049689907,-0.0823813434503828,0.380297881357324,-0.9306313611562086,9.223340538826506,-0.962064974336551,0.2861513768404159,-0.8494795776499301
0.08,1.3229447015546274,-1.0053146970666005,2.6448014234681696,-0.033720786636079,0.0359726958114685,0.0386313270301705,0.0121250265513165,-0.004885344966281,-0.0690595754428316,1.3185256937395418,-1.0012847942100198,2.6442455374525635,-0.1596080848739667,0.1529094368479253,-0.1606104080775555,1.3052542050894582,-0.5673347405882962,0.5641763872418178,-1.0312734051182035,9.114027177466596,-0.9762716134530792,0.2973827996635158,-0.8308901620895682
0.1,1.3229864578696873,-1.005270117172529,2.6431957379102085,-0.0492111929917239,0.0138893230163706,0.0387480069391292,-0.0077123525624289,0.0090889555069298,-0.0905231527911104,1.3165335320599438,-0.9994266054909428,2.642233329308893,-0.1996080854700131,0.1929094374439717,-0.2006104086736019,1.6197899836117626,-0.9918689556872788,0.6987150236605446,-1.0731788674139395,9.065261177147022,-0.9914967519416916,0.3067083294809855,-0.8126625643596592
0.12,1.322560117261945,-1.0049194922070213,2.6411550196195126,-0.063934540737644,-0.0052517811476527,0.0391538193444612,-0.0340041509018686,0.0255744831665046,-0.1125258763421468,1.3125413703505435,-0.9955684167420632,2.6382211211354214,-0.2396080860660596,0.2329094380400182,-0.2406104092696484,1.9020719793160417,-1.314589916971982,0.8242763829787364,-1.1001361775518212,9.079723584092337,-1.0050067288043,0.3141125399009047,-0.7975922826828177
0.14,1.3216222912706848,-1.0042499612549407,2.6388008895685284,-0.0769848275657273,-0.0197115790217658,0.0396511605674076,-0.0632782888966632,0.0441408400419561,-0.134202928891163,1.3085492086411434,-0.991710227993184,2.6342089129619493,-0.2796080866621061,0.2729094386360647,-0.2806104098656949,2.044247642885835,-1.4637068997397318,0.9283178437725798,-1.0838526274508098,9.079723584092337,-1.0168790672966836,0.3204808083861678,-0.7857478352212326
0.16,1.3200012257759768,-1.003121590113161,2.63586742054526,-0.0889516400284261,-0.0305221415725271,0.0401697826645181,-0.0972597165787717,0.0674861049614877,-0.1580318627439673,1.303557046916842,-0.9868520392294032,2.6291967047735763,-0.3196080872581525,0.3129094392321111,-0.3206104104617413,2.380943568230253,-1.699071384105425,1.1672632459765766,-1.191446692640216,9.085793076915706,-1.025298216523273,0.3255364837571808,-0.778755873908079
0.18,1.3176694438082863,-1.0015000274743566,2.6324501608246846,-0.0984880203795304,-0.0362135648925612,0.0405261895870177,-0.1342521695128486,0.0931203394178002,-0.1825030768069518,1.2975648851776391,-0.9809938504507216,2.623184496570302,-0.3596080878541989,0.3529094398281575,-0.3606104110577877,2.56144288827484,-1.8496226467038408,1.281711722815628,-1.2235607031492248,9.085793076915706,-1.0290338826017316,0.3288622099159997,-0.7783480902586659
0.2,1.3147581421413406,-0.9994705300932126,2.6287483769318447,-0.1052033282559693,-0.036340249503007,0.0405508545499988,-0.1696639955242652,0.118704566118121,-0.2058153734826094,1.310956835332644,-0.9968440105034666,2.623325006984337,-0.2342521710029647,0.1931203409079164,-0.282503078297068,2.475890371972333,-1.7705913005708298,1.2792113350160397,-1.1656148337828756,9.114527060959515,-1.0306577159217991,0.329615176727416,-0.7836551742906231
0.22,1.3109427552528805,-0.99666106597826,2.624579381572803,-0.1062278126000626,-0.0308022960026969,0.0404033194055824,-0.209313861332079,0.1593780856593329,-0.2084002861251926,1.310956835332644,-0.9968440105034666,2.623325006984337,-0.2342521710029647,0.1931203409079164,-0.282503078297068,2.843030435915511,-1.9824932903906936,2.033675977060592,-0.1292456321291615,9.122144179189943,-1.033811117794948,0.3270349835421172,-0.7853667235043336
0.24,1.3063883692134686,-0.9931213502659354,2.620392711298756,-0.1007718583945125,-0.0201296162919281,0.0401889851854197,-0.243341567187671,0.1912455593289451,-0.2101973163213887,1.310956835332644,-0.9968440105034666,2.623325006984337,-0.2342521710029647,0.1931203409079164,-0.282503078297068,2.3327290677467003,-1.7013852927795974,1.5933736834806116,-0.089851509809806,10.589744533709563,-1.0313806846180351,0.3231262999307771,-0.7902925636023976
0.26,1.3014890294558932,-0.9892407165191948,2.6163454668466475,-0.0938837554430225,-0.0073565534442409,0.0399079021587112,-0.2701304213010778,0.2153514487373448,-0.2156318968275274,1.3086143136226145,-0.9949128070943876,2.6204999762013665,-0.2542521713009879,0.2131203412059396,-0.3025030785950912,1.822272807620397,-1.3394427056703406,1.205294470419982,-0.2717290253069368,10.308720973949676,-1.025391090003034,0.3180511202880332,-0.7999190528540541
0.28,1.2958405618864552,-0.9847039177278544,2.611936996856034,-0.0867640611365509,0.0070875120155134,0.0396040078622435,-0.2928241603209224,0.2370043972184538,-0.2251093468674109,1.3039292702025551,-0.991050400276229,2.614849914635425,-0.2942521718970343,0.253120341801986,-0.3425030791911376,1.638351326703819,-1.134686950992228,1.0826474240554538,-0.4738725019941714,10.001826724507737,-1.016693553813265,0.3128123470314623,-0.8133915533453374
0.3,1.2897904495016728,-0.9797585568452613,2.6072976113348254,-0.0804984185243676,0.021168562378674,0.0393639133192139,-0.3107161055876608,0.256500352888481,-0.2385438029969022,1.2992442267824955,-0.9871879934580708,2.609199853069484,-0.3342521724930808,0.2931203423980325,-0.3825030797871841,1.4838283293653374,-0.8945972633369187,0.9747977835013564,-0.6717228064745658,9.506448710217228,-1.0063236697614513,0.3079938075371592,-0.8287751746316907
0.32,1.2834260318827255,-0.974439582262618,2.602348512114728,-0.0752841099748209,0.0338899147406946,0.0392325098739327,-0.3246925070744825,0.2745989712533327,-0.2557267854459172,1.2925591833326342,-0.98132558661011,2.60154979147374,-0.3742521730891272,0.3331203429940789,-0.4225030803832305,1.4301701569048892,-0.6988200743410888,0.9049309182425884,-0.8591491224507516,9.31944207097149,-0.995791732597054,0.3040853900616476,-0.8436437099542254
0.34,1.2771508769670996,-0.969060184802819,2.5973082884539687,-0.0712710294465627,0.0441768357577064,0.0392243439697788,-0.3351290394308017,0.2909234748390872,-0.2740091355546098,1.2858741398827724,-0.9754631797621496,2.593899729877996,-0.4142521736851737,0.3731203435901254,-0.462503080979277,1.3319674831265755,-0.5218266178159597,0.8162251792877218,-0.914117505434628,9.31944207097149,-0.9853644520401492,0.3004100820532617,-0.8583314246290479
0.36,1.270348700363589,-0.9630608590400423,2.5916091508439383,-0.0677065131421984,0.0529732791527166,0.0393452981679268,-0.3444795608435509,0.3081311459155829,-0.29504517646397,1.2781890964180096,-0.9686007728992876,2.585249668267352,-0.4542521742812201,0.4131203441861719,-0.5025030815753234,1.437055332709411,-0.4675260706374612,0.8603835538247839,-1.0518020454680088,9.222004860541348,-0.9755500841886814,0.2971822940848754,-0.87190278703367
0.38,1.2633721119122616,-0.9567196715908994,2.5854731857626194,-0.0644539829916254,0.0598599750219903,0.0395932459103833,-0.3526868639331074,0.3250542386213744,-0.3175743181957995,1.2695040529383457,-0.9607383660215246,2.5755996066418057,-0.4942521748772666,0.4531203447822183,-0.5425030821713699,1.4674068266039275,-0.4103651544778236,0.8461546352895782,-1.1264570865914785,9.1399049238089,-0.9672766711101266,0.2942837094472058,-0.8833422665957146
0.4,1.2566000422584764,-0.9503866361768292,2.5792134989962907,-0.0614964412091425,0.0648483516198876,0.039930192723002,-0.3597822740788574,0.340652532667261,-0.3402255851473061,1.2457377687156062,-0.9404669596598308,2.569594469852829,-0.4526868654232235,0.4250542401114905,-0.4175743196859157,1.4201509750610697,-0.3547705072874968,0.7799147022943265,-1.1325633475753272,9.0225048598586,-0.9602080284055512,0.2913310086989888,-0.8932986356432746
0.42,1.249362423237249,-0.9433956072801918,2.572429795744711,-0.0587116683421682,0.068240042225855,0.04037981988229,-0.363600654005925,0.3577540246102017,-0.3355289177468288,1.2457377687156062,-0.9404669596598308,2.569594469852829,-0.4526868654232235,0.4250542401114905,-0.4175743196859157,0.9070553133803452,-0.1909189963533841,0.8550745971470375,0.2348333700238625,9.0225048598586,-0.9656646228028816,0.2884656043328214,-0.8892542116732624
0.44,1.2420556172996986,-0.9360776337351736,2.5657444137466485,-0.0567303254443659,0.0693739558280863,0.0409026744820457,-0.3670461200334516,0.373344605860838,-0.3337260787132373,1.2457377687156062,-0.9404669596598308,2.569594469852829,-0.4526868654232235,0.4250542401114905,-0.4175743196859157,0.8034109914305607,-0.17227330137633,0.7795290625318169,0.0901419516795787,10.748158009352665,-0.9638581055063496,0.2886726810658475,-0.8893528134913967
0.46,1.2350440537439478,-0.928838234014461,2.559367520600967,-0.0556339290561565,0.0684701595562656,0.0414498771053522,-0.3709423356226582,0.3879350587298424,-0.3378560292143231,1.241210900061374,-0.9362164172587158,2.5654187266559703,-0.4726868657212468,0.4450542404095137,-0.4375743199839388,0.7828127202301213,-0.1948107794603304,0.7295226434502172,-0.2064975250542916,10.017310659411123,-0.963256707338454,0.2890660157526841,-0.8887898783133529
0.48,1.2275757619417582,-0.9209248597347184,2.552517329380387,-0.0552606727465896,0.0655390587590385,0.0420734261011237,-0.3758235270397062,0.4026724393190959,-0.3471268873428934,1.2321571627529095,-0.927715332456486,2.5570672402622523,-0.5126868663172932,0.4850542410055602,-0.4775743205799853,0.9041089905570662,-0.2440595708523951,0.7368690294626778,-0.4635429064285129,10.017310659411123,-0.9645448062939882,0.2896777210234438,-0.8866233511261801
0.5,1.219996434802207,-0.9127204271276812,2.545438834543505,-0.0557694137394521,0.0607082283252315,0.0427355129881891,-0.3821664147664921,0.4171084222060969,-0.3602368072877676,1.223103425444445,-0.9192142476542562,2.548715753868534,-0.5526868669133397,0.5250542416016066,-0.5175743211760317,1.0253046225261624,-0.3171443863392992,0.7217991443500466,-0.6554959972437102,9.563796605823882,-0.9669665847562124,0.2906350781024434,-0.8835262819770908
0.52,1.2126531808391094,-0.904659383038687,2.5384456675451808,-0.0570646942929,0.0549770408279794,0.043373074858625,-0.3907265536544999,0.4307694399886875,-0.3752231454186573,1.2120496881061782,-0.908713162822224,2.5383642674450133,-0.5926868675093862,0.5650542421976531,-0.5575743217720782,1.1005563538633538,-0.4280069444003859,0.68305088912953,-0.7493169065444893,9.563796605823882,-0.9708401226964196,0.2920425471262912,-0.8790348645884885
0.54,1.2047223824195503,-0.8958924698593497,2.530766289700593,-0.059291123716465,0.0485690372553707,0.0440149219070778,-0.4021180512985967,0.4453786853445729,-0.3919654185188804,1.2009959507679115,-0.898212077990192,2.5280127810214927,-0.6326868681054326,0.6050542427936996,-0.5975743223681247,1.2484990758971093,-0.5695748822048402,0.7304622677942713,-0.8371136550111513,9.426498760381037,-0.9761304745002496,0.2939616948448787,-0.8729614731970456
0.56,1.1965350584412704,-0.8868094067203419,2.522745743442566,-0.0617062388838454,0.0425284790329188,0.0446366896094182,-0.4161758380162777,0.4621632150681038,-0.4092578292538255,1.1889422134147436,-0.8867109931432586,2.516661294583071,-0.672686868701479,0.6450542433897459,-0.637574322964171,1.3949635071086497,-0.7028893358840521,0.8392264861765447,-0.8646205367472543,9.364294105196675,-0.9816140160848214,0.296060706789349,-0.8664397751180037
0.58,1.1880410066428315,-0.8773783007828407,2.5143738325598464,-0.0635013860656749,0.0376367586261547,0.0452412262858466,-0.4326750776988684,0.4799528771154647,-0.4270793042635171,1.1758884760466743,-0.8742099082814242,2.504309808129748,-0.7126868692975254,0.6850542439857924,-0.6775743235602175,1.505242469989432,-0.8249619841295353,0.8894831023680466,-0.8910737504845834,9.364294105196675,-0.9859291365652356,0.2975599321707942,-0.8613863406606739
0.6,1.1796418171727738,-0.8680821193867374,2.50608284054688,-0.0642879518907048,0.0349125499460863,0.0457590312300685,-0.4506427037481648,0.4975233608082788,-0.4447509717151967,1.1664072527578884,-0.8533806569270675,2.4930198673466704,-0.5326750791889845,0.5799528786055809,-0.5270793057536333,1.5361032790551157,-0.898381302464818,0.8785241846407055,-0.8835833725839792,9.347187706946896,-0.9890725131318938,0.2983348125657216,-0.8579329190272831
0.62,1.1703939763363744,-0.8578809436793337,2.497268387876913,-0.0627398440273376,0.0357862912354362,0.0462235198261245,-0.4726618280760177,0.5213798544039571,-0.4341886984522461,1.1664072527578884,-0.8533806569270675,2.4930198673466704,-0.5326750791889845,0.5799528786055809,-0.5270793057536333,1.7069971729087023,-1.1009562163926456,1.1928246797839104,0.5281136631475308,9.321148783594252,-0.999790226393717,0.2972535680295324,-0.8457099041643812
0.64,1.1607352933375183,-0.8472335755956463,2.4886683173287407,-0.058530199634079,0.0406374061421803,0.0466220637675882,-0.4915416545172982,0.5414860739888478,-0.4264178024660867,1.1664072527578884,-0.8533806569270675,2.4930198673466704,-0.5326750791889845,0.5799528786055809,-0.5270793057536333,1.43273753429966,-0.943991322064025,1.0053109792445392,0.3885447993079688,11.19409763126987,-0.9993595170525036,0.2961040753860223,-0.8444477256079659
0.66,1.151243437392284,-0.8367850122275294,2.480576971066874,-0.0539495830974296,0.0473948543967586,0.0469276039745891,-0.5062985285102154,0.5572445991503784,-0.425647724706548,1.1610805019659984,-0.8475811281410117,2.487749074289134,-0.5526750794870077,0.599952878903604,-0.5470793060516564,1.080149833431875,-0.7378436996458598,0.7879262580765267,0.0385038879769372,10.302619335898273,-0.9954061964803654,0.293911133360922,-0.8483226633590853
0.68,1.1409833643360516,-0.8254870705024694,2.4720164459247598,-0.0494098994855547,0.0555172546291491,0.0471965686498746,-0.518633223738978,0.5717131726888058,-0.4307113854273646,1.1504270003822188,-0.8359820705689002,2.4772074881740616,-0.5926750800830541,0.6399528794996505,-0.5870793066477029,0.9837746013682244,-0.6167347614381313,0.7234286769213727,-0.2531830360408299,10.302619335898273,-0.9892395916919277,0.2913045293648136,-0.8556668467519939
0.7000000000000001,1.1305067184007516,-0.8139141594463469,2.463292400522724,-0.0454923662233959,0.0636896202042397,0.0474407495479496,-0.52822773446752,0.5849505643679653,-0.4414271153199616,1.1397734987984391,-0.8243830129967885,2.4666659020589887,-0.6326750806791006,0.679952880095697,-0.6270793072437494,0.9773817597524082,-0.4797255364271002,0.6618695839579747,-0.5357864946298502,9.944431610993888,-0.9822973793914248,0.2888337844018458,-0.8641231725784702
0.72,1.119862749122098,-0.802085417692591,2.4543080168092444,-0.0422314342920573,0.0712406758225192,0.0476826089043523,-0.5355889213268655,0.5973724069483077,-0.456489271737227,1.1271199971848571,-0.8107839553948746,2.4541243159141137,-0.6726750812751471,0.7199528806917435,-0.6670793078397959,1.0432614737053905,-0.3680593429672751,0.6210921290171201,-0.7531078208632691,9.427521060490108,-0.9753248607629602,0.2865659737849327,-0.872857704176207
0.74,1.1096330315806713,-0.7906236094321,2.445471266208,-0.0397316248135885,0.0774295932120877,0.0479196537705292,-0.5408370241991161,0.6086289085227009,-0.4729578023728851,1.114466495571275,-0.7971848977929605,2.4415827297692387,-0.7126750818711935,0.7599528812877899,-0.7070793084358423,1.031338829810131,-0.2624051436125263,0.5628250787196587,-0.8234265317829087,9.427521060490108,-0.968550592107066,0.2843059354956048,-0.8816418143475414
0.76,1.0987666649414294,-0.7783236418087953,2.435813206578479,-0.0374434338263832,0.0827915178315101,0.0481925124631167,-0.5454799824124774,0.6207236498700931,-0.4920684475161214,1.100812993942792,-0.7825858401761455,2.428041143609463,-0.7526750824672399,0.7999528818838363,-0.7470793090318887,1.1544009128353534,-0.2321479106680679,0.6047370673696095,-0.9555322571618148,9.319085371304029,-0.9622650671167312,0.2822291728929234,-0.8897741293385104
0.78,1.0878144627411386,-0.7657824229224834,2.4257566156220984,-0.0351949122949333,0.0870855713368228,0.0485002341492385,-0.5494807443430465,0.6326922268503167,-0.5127004715788223,1.0861594922994076,-0.7669867825444292,2.4134995574347853,-0.7926750830632864,0.8399528824798828,-0.7870793096279352,1.209269767132725,-0.2000380965284542,0.5984288490111789,-1.0316012031350408,9.232415987440618,-0.9569126839663566,0.2801474563611592,-0.896894682408851
0.8,1.0773403598932192,-0.7536497604283352,2.4158065579105474,-0.0329796014092739,0.0902962517529621,0.0488240319294478,-0.5528566863730033,0.6437109247764202,-0.5336441282620489,1.0603404255239863,-0.7341478115799676,2.400121592043157,-0.6494807458331626,0.7326922283404328,-0.6127004730689384,1.1952462547956495,-0.1687971014978417,0.5509348963051774,-1.047182834161331,9.099226908103446,-0.9520258938483364,0.2778367045116803,-0.9035734482530328
0.8200000000000001,1.066270686694713,-0.7406424992164317,2.4052022741768035,-0.0304160731650993,0.0930580526368975,0.0491943516438574,-0.5537505414964512,0.6562995912017995,-0.5240799629525879,1.0603404255239863,-0.7341478115799676,2.400121592043157,-0.6494807458331626,0.7326922283404328,-0.6127004730689384,0.7917492617898085,-0.0446927561723931,0.6294333212689629,0.4782082654730513,9.099226908103446,-0.9556247625522296,0.27443400378936,-0.9029558662780052
0.84,1.0551971595831635,-0.7274068636240261,2.394787244285047,-0.0281118240668865,0.0951468355564552,0.0495579497098829,-0.553639383934947,0.6668093872259496,-0.5180881954206238,1.0603404255239863,-0.7341478115799676,2.400121592043157,-0.6494807458331626,0.7326922283404328,-0.6127004730689384,0.6049162062422787,0.0055578780752074,0.5254898012075071,0.2995883765982032,11.054550216837017,-0.953415276651276,0.2744386668860926,-0.9033514673727284
0.86,1.0441264769233665,-0.7139659633861479,2.3844179057438533,-0.0263812801783323,0.0962502834939535,0.0498981201935524,-0.5535437134451168,0.6768459806262644,-0.5191335497709955,1.0538456180656548,-0.7268208892965632,2.393994587312468,-0.6694807461311858,0.752692228638456,-0.6327004733669616,0.5045669570129131,0.0047835244915139,0.501829670015741,-0.0522677175185837,10.607766243082551,-0.9511779777179912,0.274247400762419,-0.9044819980331652
0.88,1.0336085401287698,-0.7010165742653783,2.3744940306738607,-0.0252673169958364,0.0963082252800923,0.0501987321496234,-0.5537195646281549,0.6858009067374357,-0.525419605828307,1.0408560031489915,-0.7121670447297546,2.381740577851089,-0.7094807467272323,0.7926922292345024,-0.672700473963008,0.5471200189418578,-0.0087925591519044,0.4477463055585606,-0.3143028028655792,10.209688822989849,-0.9497764826046344,0.2740594060283994,-0.9052725144583154
0.9,1.0225296755070636,-0.6872087003473729,2.363875836096802,-0.0248422339195187,0.0952838539242421,0.0504780471453906,-0.5542279260387855,0.6945625033311583,-0.5362529339520206,1.0278663882323282,-0.6975132001629459,2.36948656838971,-0.7494807473232787,0.8326922298305489,-0.7127004745590545,0.6971101140261005,-0.0254180705315298,0.4380798296861332,-0.5416664061856757,9.905230128755647,-0.9495756033171864,0.2742373566251486,-0.905014397389634
0.92,1.011437571848602,-0.6732298048737937,2.3530015689161328,-0.025396817049813,0.0929804530531041,0.0507105201999653,-0.5550675611742135,0.7029995924116604,-0.5506104084677239,1.0128767732858626,-0.6808593555663349,2.355232558898529,-0.7894807479193252,0.8726922304265954,-0.752700475155101,0.8337063838397252,-0.0419817567714031,0.4218544540251057,-0.7178737257851675,9.492397692350096,-0.9503762003410648,0.2748619270416246,-0.9039969231852834
0.94,1.0003243717338224,-0.6590822377091061,2.341828097998143,-0.0270281231418806,0.0892400414811586,0.0508998327177367,-0.5563541631332349,0.711463432587746,-0.56600515273773,0.9978871583393972,-0.6642055109697239,2.3409785494073483,-0.8294807485153717,0.912692231022642,-0.7927004757511474,0.8807526415886637,-0.0643300979510708,0.4231920088042795,-0.7697372135003044,9.440519874150596,-0.9526432743118208,0.2761676151806003,-0.901372733474233
0.96,0.9897295795742737,-0.6454711644963215,2.3309238425698977,-0.0292507958819855,0.084441499924743,0.0510696183104993,-0.5590531023547,0.7209332026359231,-0.5810337731101447,0.9818975433780304,-0.6465516663582118,2.325724539901266,-0.869480749111418,0.9526922316186884,-0.8327004763471938,0.8983599612414167,-0.1349469610732512,0.4734885024088531,-0.7514310186207351,9.418436535087494,-0.9557659583961003,0.2781183849029264,-0.8976385851157443
0.98,0.9784970455297504,-0.630933171460862,2.31913174724093,-0.0315229981925626,0.0787110150713895,0.0512809009900762,-0.5642759692809934,0.7323251770808139,-0.5974002285739263,0.9649079284017624,-0.6278978217317985,2.3094705303802825,-0.9094807497074644,0.9926922322147348,-0.8727004769432403,1.0306748822140297,-0.2611433463146739,0.5695987222445409,-0.8183227731890785,9.418436535087494,-0.9603581691464004,0.2802215223325628,-0.8920221855779256
1.0,0.967135282459852,-0.6161567766179953,2.3070076230195413,-0.0332015520979775,0.0730164626400198,0.0515387169294806,-0.5717452402797208,0.7445580388277636,-0.6141750418336533,0.9502832470657008,-0.5943169126068213,2.2892617358122336,-0.6642759707711096,0.83232517857093,-0.6974002300640424,1.1032081350215956,-0.3734635499363703,0.6116430873474854,-0.8387406629863536,9.387872075977612,-0.96523169074884,0.2817560020827224,-0.8862348427331368
1.02,0.9561502835997694,-0.6018420433200584,2.295476442242459,-0.0328105453942497,0.0698461169377187,0.0518447010908198,-0.584209533543307,0.7610046910818307,-0.5987520988744249,0.9502832470657008,-0.5943169126068213,2.2892617358122336,-0.6642759707711096,0.83232517857093,-0.6974002300640424,1.2881363926720844,-0.6232146631793056,0.8223326127033526,0.7711471479614207,9.368187341960038,-0.9725536286345252,0.2787688659110923,-0.882988875886329
1.04,0.9443314562573024,-0.5864651377981106,2.283628893899893,-0.0299281157051947,0.0707994548742886,0.0521849846376901,-0.5965004459971857,0.7755863184203672,-0.5872024429690861,0.9502832470657008,-0.5943169126068213,2.2892617358122336,-0.6642759707711096,0.83232517857093,-0.6974002300640424,1.1147700842781378,-0.614545622693935,0.7290813669268259,0.5774827952669426,11.43619126977319,-0.9756092110154996,0.2791659922377832,-0.8764748797803278
1.06,0.9322954245330396,-0.5708288576501743,2.2719331526097104,-0.0258926021356394,0.0745591768176685,0.0525143729482217,-0.6061643160834889,0.7870415662185363,-0.5832457047250561,0.9436404873579896,-0.585993660821112,2.282287733511593,-0.6842759710691327,0.8523251788689532,-0.7174002303620656,0.7750304263288202,-0.4831935043151603,0.5727623899084544,0.1978369122014989,10.933729726332786,-0.9744038170284912,0.2779197890024221,-0.8760713094369694
1.08,0.9200924314774884,-0.554989032061825,2.2602444034767317,-0.0219083649959617,0.079758561897129,0.0528048834386529,-0.6134118292754493,0.7963479351571916,-0.5860972483968101,0.9303549679425676,-0.5693471572496934,2.268339728910312,-0.7242759716651792,0.8923251794649997,-0.757400230958112,0.6067665358313902,-0.3623756595980243,0.4653184469327664,-0.1425771835876998,10.062562245160734,-0.9709470916776416,0.2762992105566294,-0.8788966696311986
1.1,0.9083858905645216,-0.5397818448635561,2.249026891616237,-0.0186086112087798,0.085097793604044,0.0530427655199445,-0.6183594603762579,0.8040418928840442,-0.5945302835975578,0.9170694485271452,-0.5527006536782748,2.2543917243090315,-0.7642759722612257,0.932325180061046,-0.7974002315541585,0.622077410193722,-0.2473815550404268,0.3846978863426276,-0.4216517600373837,9.749996226714757,-0.9660160726041352,0.2744890579125784,-0.8838138880595405
1.12,0.8959797879258541,-0.523624278857675,2.237000627080601,-0.0157849781102831,0.0904545828402754,0.053255438634934,-0.6218915518113753,0.8114014109160139,-0.6078601283372066,0.9017839290819208,-0.5340541500770539,2.2384437196779485,-0.8042759728572721,0.9723251806570926,-0.837400232150205,0.7815416437274179,-0.1766045717558728,0.3679759015984885,-0.6664922369824411,9.749996226714757,-0.9606721132546384,0.2727412476341182,-0.8895829972483317
1.14,0.8835192642894169,-0.5073243450526401,2.2246771402858463,-0.0136574354491631,0.0950451601262417,0.0534301146895656,-0.6239812006310004,0.8183751460516069,-0.62381994165185,0.8864984096366962,-0.5154076464758329,2.222495715046865,-0.8442759734533186,1.012325181253139,-0.8774002327462515,0.8770907235985218,-0.1044824409812517,0.3486867567796481,-0.7979906657321678,9.389247902779973,-0.9554912468987478,0.2709372721080189,-0.8957794858024483
1.16,0.8710234180792715,-0.4908780946226891,2.212016995164229,-0.0118419288564625,0.0987352553564662,0.0535897923005588,-0.6254922231709458,0.8258353294647984,-0.6414042414412073,0.8702128901765707,-0.4957611428597108,2.205547710400881,-0.884275974049365,1.0523251818491854,-0.9174002333422978,0.9580515705804612,-0.0755511269972697,0.3730091706595773,-0.8792149894678691,9.31272800187162,-0.9509510543580674,0.2692952943295551,-0.9013135648615712
1.18,0.8591283574343511,-0.4751161680047919,2.199650491183789,-0.0101201912393509,0.1014812221989418,0.0537430769972335,-0.6265476311199167,0.8328468176943998,-0.6594594712381526,0.8529273707015438,-0.4751146392286876,2.1875997057399954,-0.9242759746454114,1.0923251824452318,-0.9574002339383444,0.9698790854445354,-0.0527703974485482,0.3505744114800702,-0.9027614898472648,9.31272800187162,-0.9467214925044544,0.2674458514232372,-0.9066475034506716
1.2,0.8465881309350178,-0.4583848743809453,2.186247636136473,-0.0082654633283492,0.1036604676594028,0.0539054215898601,-0.6274220315065303,0.8398350877270726,-0.6799484340107538,0.8278009758783553,-0.4334738271200719,2.1666775176218813,-0.7265476326100329,0.932846819184516,-0.7594594727282687,1.083279845633964,-0.0437200193306785,0.3494135016336386,-1.0244481386300577,9.24401198398482,-0.9429649184595408,0.2654536246913637,-0.9115636097368904
1.22,0.8340466397749506,-0.4415027388750666,2.172745147770507,-0.0059614828979421,0.1057763473379891,0.0540891507829087,-0.6264186278519414,0.8477419548880577,-0.6676060905342611,0.8278009758783553,-0.4334738271200719,2.1666775176218813,-0.7265476326100329,0.932846819184516,-0.7594594727282687,0.7346067139756276,0.0501701827294476,0.3953433580492549,0.6171171738246328,11.238684500979616,-0.9440406391749402,0.2583511114772786,-0.9188621764516536
1.24,0.8221664660463872,-0.4253433873281398,2.1601462037229635,-0.0037733426244138,0.107945098716945,0.0542527325679145,-0.6241736684698139,0.8529919793835479,-0.6594048001049754,0.8278009758783553,-0.4334738271200719,2.1666775176218813,-0.7265476326100329,0.932846819184516,-0.7594594727282687,0.4996592952606374,0.1122479691063715,0.2625012247745084,0.4100645214642873,11.238684500979616,-0.9423458706537814,0.258830244077101,-0.917723344701178
1.26,0.8097137543790179,-0.4082333956060197,2.1469809338135017,-0.0020766738022904,0.1097260530067986,0.0543740138392425,-0.6212549338613755,0.8578193712066637,-0.6578735796295601,0.820535499552255,-0.4241453589282267,2.1590829228945987,-0.746547632908056,0.9528468194825392,-0.7794594730262919,0.2922642625806012,0.1459367304219194,0.2413695911557933,0.0765610237707659,10.76348299939309,-0.9399159856489026,0.2593807050314827,-0.9177333341071326
1.28,0.7973213220662506,-0.3910324142809481,2.133780363415552,-0.0011709484863232,0.1105953295001925,0.0544304699662671,-0.6182262011308342,0.8620942399423293,-0.6624956926727505,0.8060045469000543,-0.4054884225445364,2.143893733440033,-0.7865476335041025,0.9928468200785856,-0.8194594736223384,0.3493266867999595,0.1514366365270691,0.2137434367832758,-0.2311056521595245,10.333792401292158,-0.9383554064123372,0.2599399188299799,-0.9175919452034702
1.3,0.784988837977404,-0.3737519642346704,2.1204321062279616,-0.0013131216083552,0.1103145177983107,0.0544040598444148,-0.6152921928938405,0.8658761608844583,-0.6720708284679552,0.7914735942478537,-0.386831486160846,2.128704543985468,-0.826547634100149,1.032846820674632,-0.8594594742183849,0.5352442336071211,0.1467004118496817,0.1890960471064517,-0.4787567897602318,9.998547738556226,-0.9375142271494424,0.2606871673389131,-0.9173811912433284
1.32,0.7733262723953175,-0.3572675742047062,2.107540864696368,-0.0026127113012724,0.1087843107671561,0.0542921518672851,-0.6125914804945443,0.869284335608432,-0.6844086122763593,0.7749426415658507,-0.3661745497473534,2.1115153545011,-0.8665476346961954,1.0728468212706783,-0.8994594748144313,0.6540841148425874,0.1350356199648128,0.170408736198685,-0.6168891904202056,9.748292481796852,-0.9379300289896204,0.2620386234128642,-0.9161896559428035
1.34,0.7611044456153853,-0.3398432420491369,2.0937049828961656,-0.0053416683776983,0.1055457147758303,0.0540838981792138,-0.6098486931551225,0.8733208991098557,-0.6985644079447277,0.7584116888838477,-0.3455176133338608,2.0943261650167324,-0.906547635292242,1.112846821866725,-0.9394594754104778,0.7486709529140906,0.1371393669710896,0.2018281750711836,-0.7077897834184221,9.566482419641943,-0.9399942326329151,0.2641107877156292,-0.9136189497206262
1.36,0.7489266830875159,-0.3223079471951779,2.0795824024284424,-0.0086016666877035,0.1005048824124093,0.053859171058348,-0.6083653553399228,0.8800600699552591,-0.7129766742741973,0.7408807361869435,-0.3238606769054669,2.076136975517464,-0.9465476358882884,1.1528468224627713,-0.9794594760065242,0.7989526511457035,0.0741668907599857,0.3369585422701715,-0.7206133164734785,9.503754733473215,-0.943516411518202,0.2666844886602704,-0.9092916727717932
1.38,0.737361789516304,-0.3055096534243056,2.065898052543797,-0.0113142169867027,0.0945762180258859,0.053697002806569,-0.609306379784066,0.887708556501946,-0.7267447194143801,0.7223497834751382,-0.301203740462172,2.0569477860032936,-0.9865476364843347,1.1928468230588176,-1.0194594766025706,0.7888978711491077,-0.0470512222071617,0.3824243273343464,-0.6884022570091408,9.482738208082992,-0.9483039493164096,0.2688864119608157,-0.9036361542036137
1.4,0.7251436214917565,-0.2876657586004009,2.05120675743906,-0.0135649856413514,0.0878959758097652,0.0535876249068345,-0.6126781078423282,0.8961748010511262,-0.7416713823546858,0.7068964705271007,-0.2611242255992083,2.029560816573078,-0.7093063812741821,0.987708557992062,-0.8267447209044962,0.8744299763258498,-0.1685864029131123,0.4233122274590106,-0.7463331470152823,9.452509332012596,-0.9541640259848144,0.2707358166430589,-0.896857632654256
1.42,0.7127996374818485,-0.2696000442101374,2.0365229572720644,-0.013629304367481,0.0832289790254284,0.0536070976282117,-0.6217647212735038,0.9095083438786998,-0.7243198931530562,0.7068964705271007,-0.2611242255992083,2.029560816573078,-0.7093063812741821,0.987708557992062,-0.8267447209044962,1.1847194662626108,-0.454330671558778,0.6666771413786798,0.8675744600814772,9.452509332012596,-0.9581939683221566,0.2644385533823098,-0.9020464869950192
1.44,0.7002625891934514,-0.2512925451204077,2.022187281489842,-0.010873915558671,0.082978097384019,0.0537501735934623,-0.6309087005089717,0.9203264118953102,-0.7102584871365425,0.7068964705271007,-0.2611242255992083,2.029560816573078,-0.7093063812741821,0.987708557992062,-0.8267447209044962,0.9979555238485396,-0.4571989617733973,0.5409034008305169,0.7030703008256867,11.610630692854102,-0.9634423973599416,0.2660622610533291,-0.891684960292861
1.46,0.6882065677631266,-0.2337300269201653,2.008753992525386,-0.0070464233414667,0.0854006337470362,0.0539322528207901,-0.6374001948214594,0.9275679716116094,-0.7044452143585086,0.6998034067143589,-0.2512471400192877,2.021293369364033,-0.7293063815722053,1.007708558290085,-0.8467447212025194,0.5665108691049477,-0.3245747156243816,0.3620779858149625,0.2906636389016948,11.102603350219397,-0.9640962720979274,0.2657496422225132,-0.8877571732190823
1.48,0.6754062248294194,-0.2151213689824476,1.9946650342711203,-0.0031146322279699,0.089368294173721,0.0541062565758153,-0.6420897183680148,0.9329313219110156,-0.7050586119405293,0.6856172790888753,-0.2314929688594464,2.0047584749459437,-0.7693063821682518,1.047708558886132,-0.8867447217985659,0.3575381592273277,-0.2344761773277692,0.2681675149703078,-0.0306698791010362,10.594367504241744,-0.9616315649172048,0.2643357452843356,-0.8887831212764505
1.5,0.6625311942563341,-0.1964177940335488,1.9804990638766744,0.0002170535772101,0.0937853057841827,0.0542392482060313,-0.6450522315841051,0.9372367911951544,-0.71175143157877,0.6714311514633916,-0.2117387976996052,1.9882235805278528,-0.8093063827642982,1.0877085594821785,-0.9267447223946124,0.4245803369863936,-0.1481256608045156,0.2152734642069387,-0.3346409819120322,10.18175709715615,-0.9577550007474894,0.2625255855578268,-0.892344310271886
1.52,0.6496120695844552,-0.1776354348532826,1.9661421382894804,0.002813294613414,0.0979532309611712,0.0543216802335846,-0.646667593024074,0.9409476730434044,-0.7235924411169953,0.6552450238081057,-0.1899846265099616,1.969688686079961,-0.8493063833603447,1.1277085600782246,-0.9667447229906588,0.62567871858837,-0.0807680719984438,0.1855440924125095,-0.5920504769112656,9.594309561318369,-0.9535930768601212,0.2607570826773897,-0.8968160600914981
1.54,0.6373205556014713,-0.1597269813365712,1.952259640682483,0.0046140488723851,0.1012752316392144,0.0543495251035449,-0.6471147540433694,0.944122148896152,-0.7371322090282296,0.6390588961528196,-0.168230455320318,1.9511537916320687,-0.8893063839563912,1.1677085606742712,-1.0067447235867053,0.6957056938945972,-0.0223580509647713,0.1587237926373719,-0.6769883955617173,9.477122844114092,-0.9494811070865192,0.2587793358796587,-0.901939501120138
1.56,0.6243767033686922,-0.1408051194447815,1.9373511127999552,0.0060887211949031,0.1039724614994009,0.0543405010874471,-0.6472480841120076,0.947872847731817,-0.7530878081393342,0.6218727684826325,-0.1454762841157733,1.9316188971692756,-0.9293063845524376,1.2077085612703176,-1.0467447241827517,0.8195527159026176,-0.0066665034319124,0.1875349417832517,-0.7977799555552278,9.477122844114092,-0.9457579183943992,0.2569774233678194,-0.9067106922904165
1.58,0.6114324552951912,-0.1218075970843727,1.9221079569491424,0.0074035422899065,0.1059281709526021,0.0543086494775273,-0.6471817677233338,0.9516429171266332,-0.7704909876917639,0.6036866407975443,-0.1217221128963275,1.911084002691581,-0.969306385148484,1.247708561866364,-1.086744724778798,0.8903489198612609,0.0033158194336913,0.1885034697408083,-0.870158977621488,9.389748480526578,-0.9426024266202648,0.2551108828293879,-0.9110640009893444
1.6,0.5984905750354444,-0.1027357152015503,1.9065015463931003,0.0086810741140203,0.1072245188129893,0.0542610177733004,-0.6470420195489655,0.9552859262226946,-0.7892819652500608,0.5790733669090244,-0.0742254512280411,1.8835834075645543,-0.7471817692134499,1.0380978450479283,-0.8664573491548339,0.957068287039437,0.0069874087184174,0.1821504548030705,-0.939548877914842,9.31985386742872,-0.9400632812968764,0.2532168236098492,-0.9148743835542013
1.62,0.5862093969039419,-0.0844944764691976,1.8916513403358168,0.0118732266949709,0.1086286834179114,0.0543463537214815,-0.6454636592288447,0.9632240880226052,-0.7729460641311952,0.5790733669090244,-0.0742254512280411,1.8835834075645543,-0.7471817692134499,1.0380978450479283,-0.8664573491548339,0.9115471729798847,0.0789180160060354,0.3969080899955346,0.8167950559432813,9.25478562443186,-0.9403800331942972,0.2438017537412785,-0.924512133704042
1.64,0.5733312268514047,-0.0651959247744095,1.876323998702732,0.016803041025769,0.1105432586847381,0.0545414631403589,-0.6423841654324001,0.9660060928825392,-0.7611228653684734,0.5790733669090244,-0.0742254512280411,1.8835834075645543,-0.7471817692134499,1.0380978450479283,-0.8664573491548339,0.6265198761130062,0.1539746898222338,0.1391002429966981,0.5911599381360877,10.922623446733269,-0.9395849980789216,0.242586204995106,-0.9222441634253754
1.66,0.5605226630423171,-0.0458711486931008,1.8611470122882705,0.0215359888211256,0.1121183457701514,0.0547082514702764,-0.6386601444643933,0.9663455909297584,-0.7574994081102282,0.57160154921689,-0.0638444727775618,1.874918834073006,-0.7671817695114731,1.0553888306321877,-0.8856506214474478,0.2603508862888181,0.1862010484003362,0.0169749023609611,0.1811728629122599,10.922623446733269,-0.9381372816096496,0.2408863807746062,-0.9216232589088303
1.68,0.5477911936141208,-0.0265549652691648,1.845963712379778,0.0254755037625541,0.1128394176497575,0.0547898362059068,-0.6347958393822447,0.9654236129102282,-0.7609745830272392,0.556657913832621,-0.0430825158766032,1.8575896870899091,-0.8071817701075196,1.0899708018007055,-0.9240371660326758,0.2639116231820756,0.1932152541074316,-0.0460989009765155,-0.1737587458505496,10.443314020295476,-0.9365496132237432,0.2385850930659382,-0.9223235533511956
1.7,0.5357671319684026,-0.0082285706617298,1.831426120960411,0.0283625323251706,0.1124945160391981,0.0547678830447985,-0.6311929064024548,0.9639075440999616,-0.7691072462034091,0.541714278448352,-0.0223205589756447,1.8402605401068128,-0.847181770703566,1.1245527729692235,-0.9624237106179038,0.4511646069655463,0.1801466489894931,-0.0758034405133278,-0.4066331588084948,10.073162276502444,-0.9356540262618726,0.2362338021833938,-0.9231596535922874
1.72,0.5231828932353896,0.0110278578689697,1.8159178581717077,0.0305141265142173,0.1107831916469581,0.0546282693264803,-0.6274998374810451,0.9619740078207216,-0.7814478907405599,0.5247706430342807,0.0001704964837397,1.8210120658944544,-0.8871817712996125,1.1591347441377415,-1.0008102552031315,0.6512849380143239,0.1846534460704874,-0.0966768139619933,-0.617032226857539,9.58920098728322,-0.9358857974517172,0.234080616337171,-0.923377685643862
1.74,0.5106736823396345,0.0302402730760144,1.800143147269496,0.0317052550812987,0.1072837034142665,0.0543504231962573,-0.6237602216215382,0.95952347285109,-0.7953749339857603,0.5078270076202093,0.0226615519431242,1.8017635916820964,-0.927181771895659,1.1937167153062598,-1.0391967997883598,0.7313555598471707,0.1869807929753442,-0.1225267484815939,-0.6963521622600222,9.58920098728322,-0.9378371015847474,0.2320213049942137,-0.9225868458241944
1.76,0.4982278279899358,0.0494064248605144,1.7840845873270137,0.0320361838117632,0.1018764276896293,0.0539385853132674,-0.6214008922403514,0.9572429320383872,-0.8097677713148684,0.4898833721912368,0.0460171566817216,1.7815554538551075,-0.9671817724917052,1.2282986864747778,-1.0775833443735878,0.7381074920184432,0.1179664690593385,-0.1140270406351395,-0.7196418664554061,9.521176632942115,-0.9407979660941848,0.2304202184373697,-0.92088504927035
1.78,0.486423287451248,0.0675713762099752,1.7685596812850235,0.0316732274174303,0.095603903122199,0.0534561535095898,-0.6215541167910729,0.9550012185742308,-0.8237005344570375,0.4709397367473631,0.070237310699532,1.7603876524134885,-1.0071817730877517,1.2628806576432958,-1.1159698889588157,0.7056391531691474,-0.007661227536071,-0.1120856732078179,-0.6966381571084534,9.49427911143266,-0.94544453948227,0.229216118716495,-0.9175670756338294
1.8,0.4739693415970579,0.0866460153997989,1.7519272078642931,0.0305891499289338,0.0885257239258802,0.0528831885975079,-0.6240712633363333,0.9526229104027036,-0.8388281985854843,0.4553455816116943,0.1153214371386867,1.7273746545621718,-0.721554118281189,0.9647454632018851,-0.8792945577741361,0.7759487716211773,-0.1258573272630236,-0.1189154085763588,-0.7563832064223397,9.475966628105198,-0.9509090373559824,0.2285528358208499,-0.9133468672782996
1.82,0.4614192530160008,0.1059229947757587,1.7353454998550593,0.0371830300906355,0.0827633157947764,0.0528667197128025,-0.6307635408438855,0.9711387924772064,-0.8167931242217973,0.4553455816116943,0.1153214371386867,1.7273746545621718,-0.721554118281189,0.9647454632018851,-0.8792945577741361,1.4774716320865529,-0.3346138753776095,0.9257941037251416,1.1017537181843506,9.44561895372044,-0.9572542079582356,0.2167437527367554,-0.9168909593330526
1.84,0.4493639381027484,0.1243756084525369,1.720009481934344,0.0503576018778918,0.0802371796050531,0.0533687311523889,-0.6377349958083982,0.969576790258386,-0.7988495707816078,0.4553455816116943,0.1153214371386867,1.7273746545621718,-0.721554118281189,0.9647454632018851,-0.8792945577741361,0.9656761171774476,-0.348572748225634,-0.0781001109410206,0.8971776720094748,11.373830005887612,-0.9626233747236036,0.2079632867434002,-0.91020734293954
1.86,0.4365423983258696,0.1436859044719033,1.7041551821848706,0.0648724706254925,0.0800608458641846,0.0540096296700026,-0.6438280856411496,0.9611494283191302,-0.7878976712590599,0.4481300404288825,0.1249688917707056,1.7185817089844304,-0.7415541185792122,0.9666943121274162,-0.8904133624375559,0.7551328957825573,-0.3046544916375682,-0.4213680969627875,0.5475949761273968,11.373830005887612,-0.9646956929925844,0.197635529270176,-0.9082771667490624
1.88,0.4236141798352647,0.1627907453306309,1.688443353987149,0.0788972303495765,0.0812380168480835,0.0546741915411245,-0.6485567885342078,0.949434887697882,-0.7841334034143861,0.4336989580632587,0.1442638010347433,1.7009958178289477,-0.7815541191752586,0.970592009978478,-0.9126509717643952,0.6590918096595769,-0.2364351446529133,-0.5857270310624052,0.1882133922336881,10.857467126441406,-0.9641733752574452,0.1869190372628896,-0.9103290024499022
1.9,0.4106037263815861,0.1816347606133592,1.672740272155897,0.0922568803768845,0.0829032913483583,0.055314966100559,-0.6521743756326092,0.9352342858900948,-0.786372676434049,0.4192678756976349,0.163558710298781,1.683409926673465,-0.8215541197713051,0.9744897078295398,-0.9348885810912348,0.7412124725313985,-0.180879354920066,-0.7100300903893686,-0.1119636509831434,10.450892311053394,-0.962146354868376,0.1747578992888051,-0.9152814787130092
1.92,0.3981857335169393,0.1992517733202178,1.6577384831383273,0.1043286577424935,0.0844149509727199,0.0558610502438691,-0.6547868751374115,0.9196381758335124,-0.7926810551357715,0.4028367933022088,0.1830485044553718,1.6647121550516404,-0.8615541203673516,0.9783874056806016,-0.9571261904180742,0.8512629505681071,-0.1306249752401178,-0.7798055028291173,-0.3154189350861258,10.147057942597712,-0.9593790204218136,0.1619735374713355,-0.9218415475826568
1.94,0.3850694938200341,0.2174404593334594,1.6417956942412033,0.1160246261718545,0.0855698543393294,0.0563010604060386,-0.6567107663504597,0.8999781071672968,-0.8013546658042636,0.3864057109067826,0.2025382986119626,1.6460143834298155,-0.901554120963398,0.9822851035316634,-0.9793637997449136,1.078715879400755,-0.0961945606524072,-0.9830034333107808,-0.4336805334246074,9.92295445880336,-0.9568978771758958,0.1488834661021404,-0.928919113519036
1.96,0.3719166395347096,0.2352007364743545,1.625663298686866,0.1260656731052054,0.0861893723297708,0.0565372307134204,-0.6585176469959884,0.877188304984596,-0.8114908624028893,0.3689746284964554,0.2221255352148299,1.62676067157482,-0.9415541215594444,0.9861828013827252,-1.001601409071753,1.250382324211088,-0.0903440322764348,-1.1394901091350385,-0.5068098299312818,9.841640269493835,-0.9546229943809008,0.1369660111488977,-0.9358342019037807
1.98,0.3593883696458305,0.2516280488170022,1.6101390370703557,0.1336936654665869,0.086385628725237,0.0565497096730082,-0.6602114710336744,0.8535316068323381,-0.8221036833690964,0.350543546071227,0.2418102142639738,1.6069510194866532,-0.981554122155491,0.990080499233787,-1.0238390183985924,1.2991731757145124,-0.0846912018843015,-1.1828349076128952,-0.5306410483103596,9.796474485275212,-0.9525159376034342,0.1255661394963161,-0.9428799468722056
2.0,0.3461655149560837,0.2684233283682066,1.5935728890778134,0.1398056362132884,0.0862522979434893,0.0563512134989383,-0.6620324314436891,0.8275140199870027,-0.8339518241048243,0.3263777960941468,0.2943046291586191,1.5690338529019008,-0.7602114725237905,0.7762571725638635,-0.8404392399805152,1.432313828184158,-0.0910480205007335,-1.3008793422667695,-0.592407036786391,9.74973604666684,-0.9507885450790856,0.1155945616434627,-0.9493981825504304
2.02,0.3329061895845664,0.2847601454024338,1.576990157740544,0.1473890506039705,0.0862321557032028,0.0562395178162848,-0.6636212261408772,0.8058227698397797,-0.8228085214723841,0.3263777960941468,0.2943046291586191,1.5690338529019008,-0.7602114725237905,0.7762571725638635,-0.8404392399805152,1.221891765969228,-0.0794397348594044,-1.0845625073611476,0.5571651316220061,9.74973604666684,-0.9546167681754272,0.1058085827833568,-0.9502129440261752
2.04,0.320293956475483,0.2998053707202107,1.5614443658923371,0.1563417026168005,0.0864184756962593,0.0562523622016865,-0.6639199577153257,0.7786613357172775,-0.8143282177808296,0.3263777960941468,0.2943046291586191,1.5690338529019008,-0.7602114725237905,0.7762571725638635,-0.8404392399805152,1.4228038294557652,-0.0149365787224298,-1.3580717061251135,0.4240151845777251,10.925492360984208,-0.9544991244439032,0.0960102303781896,-0.9521814973117546
2.06,0.3070199684238182,0.3150526314399435,1.5452246449858926,0.1656746700606953,0.0862385576534344,0.056161842231484,-0.6635123690637529,0.7472561596121996,-0.8082355715140108,0.3187756813689089,0.3020672008842578,1.5606294605020956,-0.7802114728218137,0.7608022857101686,-0.8441063513027989,1.59966524094295,0.0203794325786432,-1.5702588052538935,0.3046323133409412,10.925492360984208,-0.9544338625354598,0.0854882496632077,-0.9546712111865552
2.08,0.2937589101308424,0.329651060277874,1.5291043000512403,0.1745880379558716,0.0852581307408252,0.0558625782288799,-0.6626643599153718,0.7139401772115854,-0.8042072621856723,0.3035714519184331,0.317592344335535,1.5438206757024853,-0.8202114734178602,0.7298925120027787,-0.8514405739473664,1.678467365544048,0.0424004574190561,-1.6657991200307087,0.2014154664169265,10.688458977570008,-0.9555257199161298,0.0750899566196606,-0.9561061618683302
2.1,0.2805198622344448,0.3435648175008139,1.5130493788295087,0.1830384920669978,0.0830232816987712,0.0552544846864822,-0.6613999454889268,0.6788821292150101,-0.8015194856799727,0.2883672224679572,0.3331174877868123,1.527011890902875,-0.8602114740139066,0.6989827382953889,-0.8587747965919339,1.759182775976228,0.0632207213222491,-1.7529023998287652,0.1343888252849812,10.635484580182492,-0.9577356033380594,0.0652692110931893,-0.95642624516881
2.12,0.2679679485225029,0.3561169098007576,1.4978404495581932,0.1906438357541301,0.0793097685868887,0.05429046963122,-0.6600602789707372,0.6439601320519802,-0.7995831272549249,0.2711629929876791,0.3470971425527201,1.5098363949710365,-0.9002114746099531,0.6680729645879991,-0.8661090192365014,1.750064338949343,0.0669833259094809,-1.7460998581514953,0.09681792125239,10.635484580182492,-0.9617239794619004,0.0550416310628728,-0.9551771630713444
2.14,0.2547760278673706,0.3685933295829672,1.4818762248213255,0.1982234990578736,0.073435718821374,0.0527869647095229,-0.6596272784820149,0.6052966901124954,-0.7969319849954252,0.253958763507401,0.3610767973186279,1.4926608990391976,-0.9402114752059996,0.6371631908806092,-0.8734432418810689,1.9378324149105683,0.021650024436115,-1.9331720969742396,0.1325571129749847,10.615655507970589,-0.9673948181124152,0.0447747255369371,-0.9523705188043764
2.16,0.2415628209293302,0.3802496545142186,1.4659701823826807,0.2045712435034359,0.0661973284764531,0.0508332704485777,-0.6620671020943347,0.5625065376786637,-0.7936994227118189,0.2357545340122217,0.3742837077418509,1.4753020475412448,-0.980211475802046,0.6062534171732195,-0.8807774645256363,2.1490691842558176,-0.1219911806159934,-2.1395076216915885,0.1616281141803122,10.675097658679988,-0.9750007206812844,0.0354112888104262,-0.9476608805330023
2.18,0.2289380842781779,0.3904972833195299,1.450928666999563,0.2084351296756543,0.0588988231914937,0.0486645865717501,-0.6669905824609819,0.5190462253673853,-0.7896409716528,0.2165503045021412,0.3867178738223892,1.4577598404771777,-1.0202114763980925,0.5753436434658297,-0.8881116871702038,2.1963096492258685,-0.2461740183323568,-2.1730156155639166,0.2029225529509459,10.758209820322918,-0.98275615583303,0.0281843337325866,-0.9426523223059988
2.2,0.2155216170726983,0.4003797308638151,1.4351909523912048,0.2099546189615437,0.0513911542856431,0.0461883516769384,-0.6746363572851048,0.47190627799822,-0.7841904427143799,0.1955885551551288,0.4164495945878992,1.411446618416923,-0.7604801250644746,0.4190462238772692,-0.7682695325534882,2.40330021862512,-0.3822887412061493,-2.3569973684582632,0.2725264469210064,10.852931647962578,-0.990858951790644,0.0227334104938718,-0.9373206104782515
2.22,0.2018660580961642,0.4093506951779058,1.419638663515833,0.2103693351956417,0.0464628172569914,0.0441573428011355,-0.690875350545133,0.4273604948042133,-0.771008202212838,0.1955885551551288,0.4164495945878992,1.411446618416923,-0.7604801250644746,0.4190462238772692,-0.7682695325534882,2.460590969212063,-0.81194966300141,-2.227289159700335,0.6591120250770965,11.516219019451457,-0.9965150761043142,0.0179747760823875,-0.9347453635624404
2.24,0.1878800705492521,0.4173932714605435,1.404373308946741,0.2100370417109833,0.0463843217686451,0.0430894107188781,-0.7063128131488319,0.3794873240563559,-0.7561191336605837,0.1955885551551288,0.4164495945878992,1.411446618416923,-0.7604801250644746,0.4190462238772692,-0.7682695325534882,2.622899202908795,-0.7718731301849413,-2.3936585373928705,0.7444534276127124,11.516219019451457,-1.0009437358357711,0.0157468617161205,-0.9324241827187758
2.26,0.1743385332223111,0.4241239872471544,1.3901531725990084,0.2074767410083558,0.0492136004159363,0.0425201596805768,-0.7180469374975347,0.3320610478507919,-0.7413355622447236,0.1879837539044841,0.4206400568266719,1.403763923091388,-0.7791780335851731,0.3990462235792459,-0.7639952447336258,2.5522026431913183,-0.5867062174351401,-2.3713138102782,0.7391785707930032,11.5714099234674,-1.0008793616855431,0.0145722859983819,-0.9353871785235192
2.28,0.1598740416522581,0.4302569879663356,1.3755010457460577,0.2022846173815624,0.0538072236391838,0.042062059393669,-0.7275400110711944,0.2845065178847124,-0.7244535898319773,0.1727741514031946,0.4290209813042173,1.3883985324403183,-0.8165738506265703,0.3590462229831995,-0.7554466690939011,2.567368671769992,-0.4746536786829847,-2.377726498303978,0.844098620637318,11.609222274465536,-1.0001631541956473,0.0172278710421014,-0.9376855215300758
2.3000000000000003,0.1452467833413828,0.4354650399466495,1.361196728221392,0.1954659192860861,0.0589561796092941,0.0415711173052977,-0.7345406999800934,0.2393037284742269,-0.706688922058563,0.1575645489019051,0.4374019057817627,1.3730331417892483,-0.8539696676679673,0.3190462223871531,-0.7468980934541763,2.4535103610886084,-0.3500344454449522,-2.260139470524273,0.8882333886707117,11.641351937460968,-0.9979438632356464,0.02123576084713,-0.9413724793339948
2.32,0.1305029966739164,0.4397930127533866,1.3472533431864488,0.1874329525490458,0.0638671280643062,0.0409114882151856,-0.7394315313245725,0.1964620191303938,-0.6884151583912618,0.1404851555485458,0.4437828302295057,1.358095179920165,-0.8913654847093644,0.2790462217911066,-0.7383495178144516,2.3416141491020617,-0.2445415672239548,-2.142085467191651,0.9136881833650634,11.652668181556692,-0.9948722845448448,0.0259446677611939,-0.9456664524555488
2.34,0.1164220155609677,0.443135622489587,1.3343508575672292,0.1790547850286872,0.0678310080921578,0.0400685457033952,-0.7425489346770371,0.1580796741303586,-0.6705672555939625,0.1234057621951864,0.4501637546772488,1.3431572180510816,-0.9287613017507615,0.2390462211950601,-0.7298009421747269,2.1221865172655825,-0.1558701676232288,-1.9191172500017604,0.8923951398649654,11.650596483927984,-0.9919908374572378,0.0317081646529116,-0.9495677832802576
2.36,0.1015432243216546,0.4458894741543276,1.3211404451763016,0.1696265448780382,0.0710979968881141,0.0389502681270545,-0.7451659622588871,0.1198607054639676,-0.6513226853721639,0.1053914734157921,0.4555446791100906,1.3284329705729911,-0.9661571187921586,0.1990462205990137,-0.7212523665350021,2.143532063154458,-0.1308513790925003,-1.910948433319553,0.9622285110899298,11.65566143003889,-0.9898182444047195,0.0381308598149584,-0.9525347180081698
2.38,0.0866168230216256,0.4479026514262194,1.308317816612455,0.1595916558383975,0.0734967664942022,0.0376259281286065,-0.7473905280939788,0.0840096824818089,-0.6318036869835585,0.0864422892103629,0.4599256035280314,1.3139224374858938,-1.0035529358335558,0.1590462200029673,-0.7127037908952775,2.044037573111309,-0.1112282917545837,-1.792551149107935,0.975949919430269,11.6653718090256,-0.9886154558716936,0.0450185974103207,-0.95412969753899
2.4,0.0723969907755798,0.4491775012126251,1.2965000336429244,0.1496788703831887,0.0750678383017095,0.0362233745856866,-0.7493714228553137,0.0524827885205832,-0.6130748244586277,0.0492472966169267,0.4521031355503099,1.276727632263277,-0.7981773511282653,-0.0159903190083072,-0.5794866450798243,1.836191219873088,-0.0990447380667447,-1.576344698061283,0.9364431262465388,11.659971149805642,-0.988204405506137,0.0529149415680945,-0.954572017396443
2.42,0.0573093783921067,0.4499723383605821,1.284466517165891,0.1414840392913362,0.0785370076441832,0.0351668227948932,-0.7589103450010699,0.0278110584960982,-0.591342338552198,0.0492472966169267,0.4521031355503099,1.276727632263277,-0.7981773511282653,-0.0159903190083072,-0.5794866450798243,1.7117142297832886,-0.4769461072878123,-1.2335865012242482,1.0866242953214866,11.647705496681738,-0.98436488299029,0.0590998900834608,-0.9580769530073828
2.44,0.0420670904597499,0.4502477238867376,1.272869798354743,0.1358194925914241,0.0853929342705612,0.0347486667485095,-0.7643037388502897,0.0008887065173399,-0.569411401536569,0.0492472966169267,0.4521031355503099,1.276727632263277,-0.7981773511282653,-0.0159903190083072,-0.5794866450798243,1.757034242455479,-0.2696696924609887,-1.3461175989379164,1.096546850781449,11.775966833489292,-0.9812389048629042,0.0639632779387592,-0.96072940209199
2.46,0.0267635292503098,0.4499810212493202,1.2617109938678477,0.1310041799896293,0.0937039989517984,0.0345583763351123,-0.7654171885328296,-0.0261077857504855,-0.5475729428105799,0.041265523105644,0.4519432323602268,1.2709327658124787,-0.8083347157351226,-0.0359903193063304,-0.5690232366990774,1.7370727132801906,-0.0556724841269951,-1.3498246133912764,1.0919229362994554,11.771218583750851,-0.976072569638242,0.0679485515126024,-0.96530072352758
2.48,0.0122420222523144,0.4492345511141211,1.251511764505001,0.1267369867497343,0.101703248467947,0.0343845657031663,-0.7629324920745663,-0.0509936105096638,-0.5271297142687421,0.0253019760830787,0.4516234259800606,1.2593430329108823,-0.8286494449488372,-0.0759903199023768,-0.5480964199375837,1.6150879106476286,0.1242348229131662,-1.244291237958915,1.0221614270918888,11.752059581033793,-0.9696070082916544,0.0716683492384895,-0.971171490688599
2.5,-0.0029606776547486,0.4479501095059671,1.24119349796653,0.1224734204880991,0.1093170347430429,0.0340892173930575,-0.7573134665829973,-0.0760292739788918,-0.5057910025494211,0.0093384290605134,0.4513036195998945,1.2477533000092855,-0.8489641741625518,-0.1159903204984233,-0.5271696031760901,1.6686060879216131,0.2809512745784503,-1.251783173461401,1.06693558596605,11.72653898819317,-0.9638981471353568,0.0753621857264263,-0.9760408101729062
2.52,-0.0180247928919427,0.4461758556700691,1.2312983555854176,0.1184226695147653,0.1154736734738165,0.0336103740754326,-0.7493310576272155,-0.1000337186331267,-0.4848138606162741,-0.0076408544227375,0.448983813189926,1.237209907945764,-0.8692789033762663,-0.1559903210944697,-0.5062427864145964,1.6431469042503195,0.3991204477890864,-1.2002222327117416,1.0488570966573518,11.715527758015014,-0.9591234735082578,0.0787531321177131,-0.9799899235295678
2.54,-0.0329099175011128,0.4439325329766121,1.2218208999182807,0.1145751648746807,0.1197562810991508,0.0329127727885829,-0.739705832547387,-0.1230148617672423,-0.4639857197030931,-0.0246201379059886,0.4466640067799575,1.226666515882242,-0.889593632589981,-0.1959903216905162,-0.4853159696531027,1.62372207557774,0.4812612539914274,-1.1490571567057817,1.0414070456590483,11.69553214570078,-0.9560052004519668,0.0817697397761909,-0.9823191946233508
2.56,-0.0468665555794185,0.4413776696181185,1.2132032834213782,0.1109079992583435,0.1220647778674731,0.032045686987849,-0.7300383777910084,-0.1445587308576491,-0.4441548039756768,-0.0421072896195825,0.4433442003550879,1.2166462942377576,-0.9099083618036956,-0.2359903222865627,-0.464389152891609,1.541803485726292,0.4833727378189267,-1.0771934545203392,0.9915457863708148,11.691292167959546,-0.9542045641989656,0.0848307844761236,-0.9833725787856864
2.58,-0.0613595335292385,0.4382553223387833,1.204543775744254,0.1069179638362293,0.122846056812258,0.0309476350515127,-0.7198978217592288,-0.1663586870982575,-0.4227981224948571,-0.0601023095635192,0.4390243939153171,1.2071492430123103,-0.9302230910174102,-0.2759903228826091,-0.4434623361301154,1.6079309784621425,0.5070278015889829,-1.08999781203042,1.0678340740409824,11.700115582236322,-0.9541211593901076,0.088036892422475,-0.9827080249171056
2.6,-0.0756522886038302,0.4347060271260776,1.196315871849886,0.1027971132168336,0.1221411450105906,0.0296965130786509,-0.709977712752989,-0.1872858531008746,-0.4010217199953669,-0.0973544246172,0.4299373879838704,1.1834038696195113,-0.7299321547424246,-0.2663586885883736,-0.3322355777317689,1.589470466394842,0.496005450311987,-1.046358300130852,1.0888201249745126,11.73036062285064,-0.9559287389013884,0.0915221075421387,-0.9800554963483188
2.62,-0.0898414124082377,0.430740162664104,1.188472474952608,0.0982105172215397,0.1227318314779064,0.0285619562733121,-0.7088458968615904,-0.2077595071771037,-0.3843607624572771,-0.0973544246172,0.4299373879838704,1.1834038696195113,-0.7299321547424246,-0.2663586885883736,-0.3322355777317689,1.3210214083533498,0.0565907945699328,-1.023682703811457,0.8330478769044886,11.440739758359086,-0.9512264097425688,0.0934392729210191,-0.9849809575086058
2.64,-0.103271209604388,0.4266200334348005,1.1813540300176508,0.093834784054313,0.1259030440941654,0.0277488536871664,-0.7045798741979196,-0.2248891840377321,-0.3657731003678905,-0.0973544246172,0.4299373879838704,1.1834038696195113,-0.7299321547424246,-0.2663586885883736,-0.3322355777317689,1.2817234107498787,0.213301133183541,-0.8564838430314192,0.9293831044693308,11.440739758359086,-0.9514793016311786,0.0979994900411788,-0.9834803666018992
