t,x,y,z,roll,pitch,yaw,v_x,v_y,v_z,ref_x,ref_y,ref_z,ref_v_x,ref_v_y,ref_v_z,a_com,a_x,a_y,a_z,thrust,wind_x,wind_y,wind_z
0.0,1.0514123195346288,0.4553585732291721,1.7297843798963677,0.0216318993667981,0.0994612256201566,0.0415393382878035,-0.0003325268597822,0.0030908810606208,0.0001210884434468,1.0514198451458456,0.4552340851604027,1.7297819653494075,-0.0999736427005765,-0.1019782453684688,-0.0243659006450435,0.1555537065977368,-0.0166263429891137,0.1545440530310442,0.0060544221723404,10.257026051329376,-0.9412670119456684,0.2600709883783677,-0.876434021343615
0.02,1.0515844327077943,0.4556648413561316,1.7297557719196586,0.0299713169896664,0.0932170699546725,0.0419593770990223,0.0170561699586926,0.0234675417602096,-0.0031701644446622,1.0514198451458456,0.4552340851604027,1.7297819653494075,-0.0999736427005765,-0.1019782453684688,-0.0243659006450435,1.349451206865675,0.8694348409237438,1.018833034979439,-0.1645626444054553,10.256280064946624,-0.9566456554317428,0.2567315762000174,-0.8587320213163369
0.04,1.052042933253422,0.4561682919935481,1.729609497016233,0.0444362344894714,0.0761517037603542,0.0422860883702992,0.0264341791981211,0.0250714323984056,-0.011456958261363,1.0514198451458456,0.4552340851604027,1.7297819653494075,-0.0999736427005765,-0.1019782453684688,-0.0243659006450435,0.6308535373496164,0.4689004619714289,0.0801945319097998,-0.4143396908350352,10.062985445666072,-0.962248962783677,0.2486003827070448,-0.8506656558994405
0.06,1.0525463926427068,0.4566023745823987,1.7293085352775486,0.0584952240426331,0.0544277105447917,0.0420485199747216,0.0251456976698629,0.0201895600340384,-0.0197681543286942,1.0504201087188398,0.4542143027067181,1.729538306342957,-0.1199736429985997,-0.121978245666492,-0.029239021429803,0.4862325639554017,-0.064424076412913,-0.2440936182183585,-0.4155598033665639,9.698715917627853,-0.9759608730522764,0.2368194227129261,-0.8375051179393119
0.08,1.052949795830293,0.4569175319731119,1.7288251221814948,0.0727332695160403,0.0294182560914897,0.0412298225458392,0.0144002283048247,0.011203344113973,-0.028145030812811,1.0484206358648285,0.4521747377993487,1.7290509883300562,-0.1599736435946462,-0.1619782462625385,-0.0389852629993221,0.8160717616532867,-0.537273468251908,-0.4493107960032722,-0.4188438242058376,9.67080833266391,-0.9940387923280962,0.2235481088335992,-0.8215309253956203
0.1,1.0530374504059452,0.4570172581588194,1.728176623810145,0.0863019050101035,0.0050809664422462,0.0400035916049763,-0.005677583249879,-0.0011287987389307,-0.036326362314488,1.046421163010817,0.4501351728919793,1.7285636703171554,-0.1999736441906927,-0.2019782468585849,-0.0487315045688411,1.247131157207367,-1.0038905777351887,-0.616607142645189,-0.409066575083849,9.755329390251063,-1.0126500194255188,0.2090948611094198,-0.8064469849743123
0.12,1.0526713506741396,0.4568539087524134,1.727409529529439,0.0985947688825601,-0.0152081338993205,0.0387015635478067,-0.0319342739897973,-0.0157243097655305,-0.0440715199185311,1.0424216901270031,0.4460956079548075,1.7275890402257783,-0.2399736447867391,-0.2419782474546314,-0.0584777461383601,1.551152972026597,-1.3128345369959162,-0.7297755513299921,-0.3872578802021586,9.755329390251063,-1.0295575811443818,0.1939951185981778,-0.7949635392170976
0.14,1.0516941583365176,0.4563529270886552,1.7264421954065765,0.110930208739858,-0.0324100929358576,0.0374080572029048,-0.0645048015747013,-0.0339166968366962,-0.0522830774438049,1.0384222172431892,0.4420560430176359,1.7266144101344016,-0.2799736453827856,-0.2819782480506779,-0.0682239877078792,1.909994693380712,-1.6285263792452014,-0.9096193535582856,-0.4105778762636892,9.818997569894236,-1.045551969664846,0.1774577043055928,-0.7861918581083523
0.16,1.0500197243701963,0.4554587532474651,1.725310770122364,0.1226597967885299,-0.044648527151781,0.036401502491744,-0.1012858282171406,-0.0548841588582201,-0.0604653538297151,1.033422744344474,0.437016478065563,1.725396124003787,-0.319973645978832,-0.3219782486467243,-0.0779702292773982,2.156054284654781,-1.8390513321219648,-1.0483731010761923,-0.4091138192955069,9.878088762682635,-1.0580699678987395,0.16056731682566,-0.7824866067986552
0.18,1.0475709034993523,0.4540869424997425,1.7240127651321435,0.1328275631702921,-0.0510053563559662,0.0358723099955313,-0.1415996653849669,-0.0808343429340133,-0.0688817863365799,1.027423271430858,0.430976913098589,1.7239341818339342,-0.3599736465748784,-0.3619782492427708,-0.0877164708469173,2.43385181189415,-2.015691858391315,-1.2975092037896596,-0.4208216253432425,9.94770963479914,-1.0658764259823177,0.1456334504582765,-0.7837833835435631
0.2,1.0444920933413817,0.452270209023871,1.722626484049473,0.1401538867882763,-0.0512119681940037,0.0359347436586406,-0.1798027625394261,-0.1084579394185999,-0.0764428792355415,1.040490920230104,0.4500452253530418,1.7205686758153147,-0.241599666875083,-0.1808343444241294,-0.0946985007276922,2.3873153545159487,-1.9101548577229608,-1.381179824229331,-0.3780546449480816,10.028366475214623,-1.071832808786392,0.1320329270777315,-0.7877581153048728
0.22,1.040460088811247,0.4496334217013804,1.7210573697962432,0.1409458093308082,-0.045239921987292,0.0363827554185201,-0.2207520840367692,-0.151909924961036,-0.079300689992272,1.040490920230104,0.4500452253530418,1.7205686758153147,-0.241599666875083,-0.1808343444241294,-0.0946985007276922,2.988766075236621,-2.0474660748671547,-2.172599277121805,-0.1428905378365201,10.070635284803757,-1.073775610874927,0.1239765191197141,-0.7957724708755491
0.24,1.0356644666656738,0.4462256778524879,1.719477272581847,0.1343133280481219,-0.0338535211224669,0.0370363471518234,-0.2560196839024463,-0.1850430090836258,-0.0782317490498597,1.040490920230104,0.4500452253530418,1.7205686758153147,-0.241599666875083,-0.1808343444241294,-0.0946985007276922,2.4200968464601167,-1.7633799932838534,-1.6566542061294889,0.0534470471206138,10.541499839741846,-1.0738035186406711,0.1273107664252996,-0.7983810519877861
0.26,1.030513343811643,0.442458305589534,1.7180066051364065,0.126157108722681,-0.0205887199596791,0.0377647027710218,-0.283943776655161,-0.2094768594659588,-0.0765276040372885,1.0380749235613531,0.4482368819088005,1.7196216908080375,-0.2615996671731063,-0.2008343447221526,-0.0998618436059147,1.85719688697262,-1.396204637635734,-1.2216925191166474,0.0852072506285599,10.541499839741846,-1.0694785762650458,0.132761617946892,-0.8055209378076447
0.28,1.024576551360523,0.4380420760153627,1.7164901857617494,0.1177311960713406,-0.0060076270486376,0.0384993889190002,-0.3078059969008059,-0.2307467634797901,-0.0752544001161676,1.0332429302238515,0.444620195020318,1.717727720793484,-0.3015996677691527,-0.2408343453181991,-0.1101885293623596,1.5995588610879752,-1.1931110122822468,-1.063495200691568,0.0636601960560444,10.447832476435906,-1.0629352697241,0.1381091266892512,-0.8151001917902101
0.3,1.0182150199741151,0.4332322796304438,1.7149854154671902,0.1102904028118529,0.0077450956890501,0.0390906001271795,-0.3268454068423083,-0.2491944937632916,-0.0753934098999949,1.02841093688635,0.4410035081318354,1.71583375077893,-0.3415996683651991,-0.2808343459142455,-0.1205152151188046,1.3255538533509252,-0.9519704970751164,-0.9223865141750732,-0.0069504891913638,10.342241424047645,-1.0549156617462798,0.1425130344206105,-0.826280402295126
0.32,1.011516127776365,0.4280765922452214,1.7134595248608864,0.1041061797752643,0.0196561684459277,0.0394776574522889,-0.3420070974160875,-0.2656574952678692,-0.0772509033519024,1.021578943519046,0.4353868212135505,1.713423446476554,-0.3815996689612456,-0.3208343465102919,-0.1308419008752495,1.12289532183395,-0.7580845286889598,-0.823150075228879,-0.0928746725953784,10.130428795177068,-1.0473332181377626,0.1455239895982868,-0.8368786273716335
0.34,1.0048988251620272,0.4228865977919689,1.711963376925795,0.0993719031895136,0.0287871303293344,0.0396414165945908,-0.3538168288290148,-0.2800474867521638,-0.0802076851152955,1.014746950151742,0.4297701342952655,1.711013142174178,-0.4215996695572921,-0.3608343471063385,-0.1411685866316945,0.9424491622362046,-0.5904865706463674,-0.7194995742147325,-0.1478390881696545,10.06418101323925,-1.0402450301669257,0.1475156873970424,-0.8470320880348241
0.36,0.997704653410436,0.4171292044995141,1.7103165008594676,0.0952618561701376,0.0360856051340852,0.0396086561603909,-0.3649726371431702,-0.2949552916868722,-0.0843993494053601,1.0069149567695368,0.4231534473620795,1.7083446707278906,-0.4615996701533385,-0.4008343477023849,-0.1514952723881394,0.9542860638117062,-0.5577904157077679,-0.7453902467354195,-0.2095832145032269,10.06418101323925,-1.0338299932108068,0.1484331866480147,-0.8565170339217085
0.38,0.9902952807480137,0.4110776390626946,1.7085764943035682,0.0916914387284084,0.0413325945579719,0.0393956823234969,-0.3754338396249429,-0.3094342607953418,-0.089442719091538,0.9980829633724304,0.4155367604139923,1.7054180321376924,-0.5015996707493849,-0.4408343482984313,-0.1618219581445843,0.9280529101297552,-0.5230601240886368,-0.7239484554234787,-0.2521684843088976,10.015712190346676,-1.028712313690887,0.1488088126985752,-0.8644953735586726
0.4,0.9826801077424752,0.4047421975301152,1.7067284614933154,0.0884852814041182,0.0449069065053711,0.0390419369917336,-0.3856305960877543,-0.3233690890771065,-0.0951291082395525,0.9715235887667664,0.3956059260229275,1.7041043583489912,-0.475433841115059,-0.4094342622854579,-0.1083969514266287,0.9089668629092208,-0.5098378231405715,-0.6967414140882339,-0.2843194574007238,9.956272139161229,-1.0248952079667872,0.1487647230565113,-0.8709541667060791
0.42,0.9752791681837372,0.3984624526534198,1.704951958257148,0.0856702076110907,0.0465297672030903,0.0385600784462983,-0.3931184468404859,-0.3369196561299077,-0.0915998866532231,0.9715235887667664,0.3956059260229275,1.7041043583489912,-0.475433841115059,-0.4094342622854579,-0.1083969514266287,0.7939477019191156,-0.3743925376365781,-0.6775283526400611,0.1764610793164693,10.510820119217897,-1.025601966616246,0.1488476213762592,-0.8725069965581336
0.44,0.9673347158345168,0.3915932107343761,1.703148788167979,0.0833102242858633,0.046002285956112,0.0379046840933288,-0.401027238226014,-0.3494584570238558,-0.089037717737533,0.9715235887667664,0.3956059260229275,1.7041043583489912,-0.475433841115059,-0.4094342622854579,-0.1083969514266287,0.7522220725796428,-0.395439569276404,-0.6269400446974049,0.1281084457845048,10.510820119217897,-1.0269959134619957,0.1499961087114406,-0.8711187214538679
0.46,0.9592248964524256,0.3844771771367121,1.7013801486014617,0.0817755757681247,0.0432557937093467,0.0371274137682217,-0.4097084134691247,-0.3616060006294772,-0.0880181485881914,0.966769250355616,0.3915115834000729,1.7030203888347248,-0.4954338414130823,-0.4294342625834811,-0.1121877978936468,0.7482732463852391,-0.4340587621555369,-0.6073771802810712,0.0509784574670789,10.39687062973644,-1.0300937497155875,0.1503693639508663,-0.8679114593874095
0.48,0.9509272197620552,0.3771235158501691,1.6996199512250816,0.0811182221508037,0.0385711289495413,0.0362582970254199,-0.4198839479470733,-0.3732842534411555,-0.0880565481172828,0.9572605735333148,0.3833228981543638,1.7008524498061923,-0.5354338420091287,-0.4694342631795276,-0.119769490827683,0.7744749272397835,-0.5087767238974278,-0.5839126405839168,-0.0019199764545681,10.310703099014972,-1.0339766034309583,0.1496978450332446,-0.8641753613169345
0.5,0.9428301722609912,0.3699231077946603,1.697940635016585,0.0814265229990322,0.0330000858791755,0.0354075465132042,-0.4321567637769807,-0.3841922733382411,-0.0887209248643444,0.9477518967110136,0.3751342129086547,1.6986845107776598,-0.5754338426051752,-0.509434263775574,-0.1273511837617193,0.8216573235419935,-0.6136407914953734,-0.5454009948542754,-0.0332188373530807,10.254879052302384,-1.038790506900474,0.1478840791950344,-0.8598284676714054
0.52,0.934027661315452,0.3621188927411199,1.6961551542465485,0.0828540414724257,0.0268950048984149,0.0345621810654833,-0.447639732144882,-0.3957713620182918,-0.0898137040642948,0.93624321985891,0.3649455276331432,1.6961374871024253,-0.6154338432012216,-0.5494342643716205,-0.1349328766957556,0.9682352122828348,-0.7741484183950625,-0.5789544340025377,-0.0546389599975175,10.224278948267964,-1.0443198247471477,0.1451823581243594,-0.8548258936410699
0.54,0.9248895233785962,0.354074723013039,1.6943484699763347,0.0853698127118426,0.021300179975298,0.0338190341730905,-0.4655605633182072,-0.4083250322378613,-0.0908059054085192,0.9247345430068066,0.3547568423576316,1.693590463427191,-0.6554338437972681,-0.5894342649676669,-0.1425145696297918,1.0951430151263482,-0.8960415586662607,-0.6276835109784745,-0.0496100672112226,10.208948362937008,-1.0493772064003546,0.141745460010411,-0.850537094678966
0.56,0.9158478938103192,0.3461714596958596,1.692613596532751,0.0879059368301275,0.0173896590436115,0.0332259580457139,-0.4853664721332654,-0.4228764390852277,-0.0917601932066587,0.9122258661398018,0.343568157067219,1.6908538974286056,-0.6954338443933145,-0.6294342655637133,-0.1500962625638281,1.229764337616824,-0.9902954407529084,-0.7275703423683194,-0.047714389906972,10.264124839100075,-1.0528233409974883,0.1375109197383595,-0.8487793562159802
0.58,0.9059005408606672,0.3375394675525603,1.690767185665406,0.0899462467327709,0.0158695779195524,0.0327756046903681,-0.5082228137761127,-0.4394049585715687,-0.0927970593605719,0.898717189257896,0.3313794717619052,1.6879277891066695,-0.7354338449893609,-0.6694342661597598,-0.1576779554978643,1.4112754879239922,-1.1428170821423638,-0.8264259743170521,-0.0518433076956648,10.264124839100075,-1.055132652074957,0.1341282095095214,-0.8481208715813965
0.6,0.8954989892317994,0.3285666394308197,1.6888997823238947,0.0910008413659806,0.0172459653471362,0.0325149938173072,-0.53047821748017,-0.4569329634037982,-0.0938554638476198,0.8804894001718614,0.3155692196239819,1.6861273326973776,-0.6082228152662288,-0.5325728149072086,-0.1102318594042741,1.4174397407715695,-1.112770185202866,-0.8764002416114719,-0.0529202243523908,10.281136253371187,-1.0558965561463045,0.1318920985891535,-0.8489992239211867
0.62,0.8846545248694037,0.3191413404146064,1.6870680988067082,0.0878295206505749,0.0214819936834187,0.0322174709365779,-0.552370636433042,-0.4830007851590073,-0.0890485205963606,0.8804894001718614,0.3155692196239819,1.6861273326973776,-0.6082228152662288,-0.5325728149072086,-0.1102318594042741,1.7189502916680337,-1.0946209476435986,-1.303391087760455,0.2403471625629566,10.27596808474209,-1.054829447031753,0.1317267597551649,-0.8529728499274948
0.64,0.8739786411624394,0.3097886899383142,1.6854186642158162,0.0813007884130305,0.0274855755392793,0.0318443317561148,-0.5700312583744513,-0.4995781002234357,-0.0847665503972894,0.8804894001718614,0.3155692196239819,1.6861273326973776,-0.6082228152662288,-0.5325728149072086,-0.1102318594042741,1.2298782570730824,-0.8830310970704691,-0.8288657532214194,0.2140985099535627,10.682867199750037,-1.0520463449361737,0.1362759456844231,-0.8565577874869506
0.66,0.8624088995975308,0.2996644891563764,1.6837531764809914,0.0741443782642232,0.0345485120847534,0.0314565303667965,-0.5857574824174252,-0.5118791083400521,-0.0821142170116026,0.8744071720191992,0.3102434914749098,1.685025014103335,-0.628222815564252,-0.5512063861743366,-0.1137188194130145,1.0070548591359123,-0.7863112021486929,-0.615050405830822,0.1326166692843369,10.55748234803741,-1.0481261681643423,0.1411580996695984,-0.8612902671243862
0.68,0.8505516816346,0.2893270549346626,1.68211704443297,0.0678995583946778,0.0414879156786683,0.0310872410444119,-0.5990001629272648,-0.5213462277971912,-0.0817517954432273,0.8622427157138746,0.2995920351767657,1.6828203769152494,-0.6682228161602984,-0.5884735287085926,-0.1206927394304953,0.8141349508752365,-0.6621340254919783,-0.4733559728569536,0.0181210784187646,10.26136624861283,-1.0436268246634717,0.1452231287194875,-0.8668078107133085
0.7000000000000001,0.8384523573904985,0.2788205651793492,1.6804647589660848,0.0629803681953379,0.0476834601162669,0.0307338306795883,-0.6102009994904646,-0.5291298301563624,-0.0835242128565821,0.85007825940855,0.2889405788786215,1.680615739727164,-0.7082228167563449,-0.6257406712428486,-0.1276666594479762,0.6877220893798093,-0.5600418281599906,-0.3891801179585596,-0.0886208706677355,10.146882232601456,-1.039292992770757,0.14800188873776,-0.8722712414552221
0.72,0.8267655374485656,0.2687043390093872,1.678847117787743,0.0595224377196575,0.0525556017773871,0.0304056003877078,-0.6194259930328518,-0.5356351659128751,-0.0866976542747665,0.8359138030734231,0.2764257654537645,1.6780624065382044,-0.7482228173523914,-0.6630078137771046,-0.134640579465457,0.5862819918705885,-0.461249677119363,-0.3252667878256343,-0.1586720709092243,10.146882232601456,-1.035150863855096,0.1498057662054852,-0.8777228648626193
0.74,0.8142853015901643,0.2579261668019978,1.6770702978340888,0.0570393455652837,0.0564532139541827,0.0300629205613243,-0.6281079876039203,-0.5420507871092606,-0.0908773316338892,0.8217493467382961,0.2639109520289076,1.6755090733492448,-0.7882228179484378,-0.7002749563113606,-0.1416144994829379,0.5788068069181973,-0.434099728553422,-0.320781059819275,-0.2089838679561348,10.063259269921218,-1.0317697461079909,0.1505303946296997,-0.8825215444526063
0.76,0.8016336830774762,0.2470143162551752,1.6752026523302983,0.0553681151559077,0.0592125069487859,0.0297132904616531,-0.6366477982571497,-0.5489018549691637,-0.0956936633322067,0.8065848903882681,0.2504644600406942,1.6727813921598484,-0.8282228185444842,-0.7375420988456165,-0.1485884195004188,0.598043785692621,-0.4269905326614698,-0.3425533929951541,-0.2408165849158719,10.021688430128052,-1.029041545092587,0.1504296264627226,-0.8867607202701797
0.78,0.7894559773724122,0.2365203310789758,1.673336126916556,0.0542055255375704,0.0611116700259005,0.0293746880815608,-0.6447966457337752,-0.5553975144799507,-0.1005504799423902,0.790420434023339,0.2360862894891244,1.6698793629700148,-0.8682228191405307,-0.7748092413798725,-0.1555623395178996,0.5748607989381807,-0.4074423738312738,-0.3247829755393505,-0.2428408305091743,9.989503921970936,-1.0268071761389308,0.1499436684999963,-0.890558913301333
0.8,0.7764696803948887,0.2253428361801006,1.671269377608559,0.0533858242714007,0.062621755175753,0.0290251240073528,-0.6534004668748824,-0.5620106951155369,-0.1058837804693689,0.7572161450857234,0.2087504553549783,1.6683086029194365,-0.7447966472238913,-0.6128190795357978,-0.1121461286558001,0.6045742114458081,-0.4301910570553624,-0.3306590317793123,-0.2666650263489354,9.989503921970936,-1.025051664351213,0.1491461065947667,-0.8938351673103049
0.8200000000000001,0.7633157677022935,0.2138929175174018,1.6691569539281688,0.0485799455756416,0.0639433332170119,0.0283944607524833,-0.6615629715224662,-0.5804002076618978,-0.1046018679351393,0.7572161450857234,0.2087504553549783,1.6683086029194365,-0.7447966472238913,-0.6128190795357978,-0.1121461286558001,1.0080227596140965,-0.4081252323791917,-0.9194756273180448,0.0640956267114772,9.981520211413226,-1.024915886996112,0.1507380527302574,-0.8957483723942474
0.84,0.7500054466675387,0.202189630836606,1.6670801846804266,0.0398905244808629,0.0650239670830362,0.0274926079475323,-0.6691118511415419,-0.5883957721871254,-0.1031543388711402,0.7572161450857234,0.2087504553549783,1.6683086029194365,-0.7447966472238913,-0.6128190795357978,-0.1121461286558001,0.5545493124409578,-0.3774439809537844,-0.3997782262613769,0.0723764531999578,10.43801576497026,-1.0247561937386862,0.1573750934525635,-0.8949571026880492
0.86,0.7372204453826183,0.1909843375240228,1.665117722132151,0.0316375024316076,0.0656106270051554,0.0266329422338885,-0.6763387599616898,-0.5907795909662323,-0.1035018677988261,0.7497681786134845,0.2026222645596203,1.6671871416328785,-0.7647966475219145,-0.6243033925469673,-0.114465258398482,0.3808923057175503,-0.3613454410073935,-0.1191909389553491,-0.0173764463842977,10.356179798826815,-1.0247912524308511,0.1640622080794818,-0.8938914553128371
0.88,0.7236129503880045,0.1791723895396577,1.663029164927959,0.0241790073695583,0.065768115022344,0.0258187112943389,-0.6840697436781398,-0.590445154447302,-0.1054177577715606,0.7348722456690067,0.1903658829689043,1.6649442190597623,-0.8047966481179609,-0.6472720185693062,-0.119103517883846,0.3985931239899699,-0.386549185822499,0.0167218259465196,-0.0957944986367226,10.239408512577029,-1.0250955689819572,0.1696277518963671,-0.8927908636044954
0.9,0.7098478737741941,0.1673858605783279,1.6608883339393172,0.0183442417828852,0.0655108233881618,0.0251295259152443,-0.6920932193039755,-0.5884661043931673,-0.1086289062896823,0.7199763127245289,0.1781095013781884,1.6627012964866463,-0.8447966487140074,-0.670240644591645,-0.12374177736921,0.4432952600710542,-0.4011737812917859,0.0989525027067339,-0.160557425906084,10.147886600357197,-1.0255484267271606,0.1737641430557248,-0.8918778289719119
0.92,0.6959188923354257,0.1556501880505869,1.6586731971167503,0.014162445275132,0.0649434719472696,0.024571370913639,-0.7004442643042499,-0.5855964369822029,-0.1127291477889775,0.7030803797502487,0.1647046884863555,1.660226460939262,-0.8847966493100539,-0.6932092706139839,-0.1283800368545739,0.4867928820317276,-0.4175522500137196,0.1434833705482197,-0.2050120749647638,10.079871508873111,-1.026109948510909,0.1763619350537388,-0.891201555438838
0.94,0.6825286791314626,0.1445576912715772,1.6564911169665353,0.0115140696655332,0.0642142214403199,0.0241488297200688,-0.7086645735155469,-0.582509413805327,-0.1167627764562217,0.6861844467759686,0.1512998755945226,1.6577516253918778,-0.9247966499061004,-0.7161778966363228,-0.1330182963399379,0.4831494485382279,-0.4110154605648508,0.1543511588437962,-0.2016814333622073,10.03753964759744,-1.0268496948102657,0.1779079512449879,-0.8906397325801415
0.96,0.6682580048035037,0.1329399481393196,1.6541115490767528,0.0097537767803216,0.0634629874992653,0.0237923254342242,-0.717983296073828,-0.5795475802171538,-0.1209794934822088,0.6682885137867872,0.1373208470521312,1.6551608333573595,-0.9647966505021468,-0.7391465226586617,-0.1376565558253018,0.532427813885361,-0.4659361279140572,0.1480916794086573,-0.2108358512993541,10.039108578293964,-1.0273942504838205,0.1785212773049938,-0.8905659782855716
0.98,0.6537949216042553,0.121382496387702,1.6516488773663514,0.0088444883350457,0.0630284985576266,0.0235126172973216,-0.7278360424663087,-0.5764026656380876,-0.1250692369988113,0.6493925807827048,0.1227676028591814,1.6524540848357072,-1.0047966510981932,-0.7621151486810005,-0.1422948153106658,0.5560870013220875,-0.4926373196240341,0.1572457289533091,-0.2044871758301265,10.0492938866264,-1.027855732337015,0.1785548256253425,-0.8906088924127137
1.0,0.6391311873712846,0.1098911020442936,1.6491057768863626,0.0088649207820127,0.0631192256343583,0.0233143436629442,-0.7379605612955292,-0.5730021267080714,-0.1290319513305445,0.61740311948094,0.0925623631057976,1.6453954155164108,-0.8278360439564248,-0.5932902540645584,-0.1429427086016088,0.5695889996583499,-0.5062259414610248,0.1700269465008119,-0.1981357165866587,10.056747931374955,-1.028340614307615,0.1781419537597625,-0.8904387584760202
1.02,0.6249968994842336,0.0988850044935212,1.6466363725714237,0.0049576685426332,0.0644227590227864,0.0228737647165235,-0.74911510966356,-0.5828027036379252,-0.1306606579151465,0.61740311948094,0.0925623631057976,1.6453954155164108,-0.8278360439564248,-0.5932902540645584,-0.1429427086016088,0.7468733871805956,-0.5577274184015379,-0.4900288464926905,-0.0814353292301006,10.056747931374955,-1.027680199877457,0.1799542423444808,-0.8922879745870541
1.04,0.6099092373602466,0.0872224906700468,1.6439990872232,-0.0032608503772712,0.0671025211810382,0.0221387192978976,-0.7588936058277899,-0.5822894898404778,-0.1330330956326169,0.61740311948094,0.0925623631057976,1.6453954155164108,-0.8278360439564248,-0.5932902540645584,-0.1429427086016088,0.5037629312460008,-0.4889248082114938,0.0256606898723699,-0.1186218858735224,10.134680026257229,-1.0265354843179328,0.1864903999444851,-0.8923659445250811
1.06,0.5946410330240551,0.0756392897422513,1.6412950893078435,-0.011737115270477,0.0701941178751295,0.0213854161251502,-0.7673370690427749,-0.5760676815274496,-0.1372519373024956,0.6091247590413758,0.0866294605651521,1.6439659884303948,-0.847836044254448,-0.5966677717498525,-0.1465174029221683,0.5652468371923373,-0.4221731607492507,0.3110904156514105,-0.2109420834939313,10.134680026257229,-1.0245771767025724,0.1929046685942,-0.8933386449738356
1.08,0.5799909737454817,0.0647830565255237,1.638633054678083,-0.0186882170173341,0.0730654591695317,0.0207481099002536,-0.7743036434792493,-0.567279285691039,-0.1427542697977384,0.5925680381622472,0.0747636554838609,1.6411071342583623,-0.8878360448504945,-0.6034228071204408,-0.1536667915632873,0.6245893123576941,-0.3483287218237207,0.4394197918205278,-0.2751166247621436,10.030889950276103,-1.022368890886734,0.1987806485219049,-0.8946324010725081
1.1,0.5644366876733579,0.0535512693785665,1.635706636561086,-0.0244869939539511,0.075689966807273,0.0201957651929946,-0.7807218420328055,-0.556582242764259,-0.1496468445265266,0.5760113172831187,0.0628978504025697,1.6382482800863305,-0.927836045446541,-0.6101778424910291,-0.1608161802044063,0.7126141775922188,-0.3209099276778093,0.5348521463389988,-0.344628736439409,9.949010867878314,-1.0203390978382971,0.2033937417078168,-0.8959737552785922
1.12,0.5487611746315418,0.0425437723323999,1.6326341896775385,-0.0287213812145462,0.077702082567097,0.0197780927766456,-0.786505973789091,-0.544961760243183,-0.1572772836859824,0.5574545963741879,0.0506942935527491,1.6350319564822422,-0.9678360460425872,-0.6169328778616174,-0.1679655688455253,0.7528535647170387,-0.289206587814278,0.5810241260538029,-0.3815219579727871,9.892322294468611,-1.0186799330667906,0.2067240635173419,-0.8971892381972685
1.14,0.5329747940121851,0.0317749519798325,1.6294061424502504,-0.0314811346919449,0.0790088194393374,0.0194981780759145,-0.791890056027858,-0.532881534530743,-0.1651385117449857,0.538897875465257,0.0384907367029285,1.631815632878154,-1.0078360466386338,-0.6236879132322057,-0.1751149574866443,0.7692839225750168,-0.2692041119383481,0.604011285621997,-0.393061402950165,9.85932347538892,-1.0176432735463588,0.2087786838282271,-0.897979736629411
1.16,0.5178751820635987,0.0217689473685264,1.6261949078448028,-0.0329593106544674,0.0797524946585791,0.0193428432816448,-0.7972841776596743,-0.5212136758304854,-0.1724876188920816,0.519341154541425,0.0261183039688432,1.6284205745580378,-1.0478360472346802,-0.630442948602794,-0.1822643461277633,0.7403459507005896,-0.2697060815908148,0.583392935012883,-0.3674553573547984,9.853313907912709,-1.0167403910667268,0.2099420808616532,-0.8988625727356909
1.18,0.5018678846734183,0.0114775829731906,1.6226655652412725,-0.0333412062707265,0.0802814576800144,0.0192852423198785,-0.8031633066227185,-0.5086438958650047,-0.1800473399491315,0.4987844336026919,0.0135769953504933,1.624846781521894,-1.0878360478307263,-0.6371979839733823,-0.1894137347688823,0.790115352662364,-0.2939564481522105,0.6284889982740349,-0.3779860528524942,9.865140371781308,-1.01614985983479,0.2101886579523356,-0.8995337771819767
1.2,0.4857408823515077,0.001442400198716,1.618988534546024,-0.0322865331880435,0.0807536605485762,0.0193440068633849,-0.8092162899416828,-0.4957164576723502,-0.1872695338392999,0.4617097193422823,-0.0139546118200596,1.613663198243816,-0.9031633081128346,-0.4850405403529817,-0.1662631372020846,0.7998708487495783,-0.3026491659482155,0.6463719096327258,-0.3611096945084185,9.878342977811371,-1.0156889953085957,0.2093717066149351,-0.9002662296385009
1.22,0.4703059281285715,-0.007987871362919,1.6154236427335082,-0.034179843164043,0.0815464794050618,0.0192002392064004,-0.8151527186685691,-0.4964263855281484,-0.1873174311754013,0.4617097193422823,-0.0139546118200596,1.613663198243816,-0.9031633081128346,-0.4850405403529817,-0.1662631372020846,0.2989459723120733,-0.2968214363443133,-0.0354963927899104,-0.0023948668050693,9.89880762514622,-1.0167025043665503,0.2101579530979278,-0.8999388114691349
1.24,0.4539480804460102,-0.0178459873188558,1.6116846354865602,-0.0408611817833282,0.0827725676101205,0.01872662640573,-0.8202692633561723,-0.4884699810725455,-0.1866390180170413,0.4617097193422823,-0.0139546118200596,1.613663198243816,-0.9031633081128346,-0.4850405403529817,-0.1662631372020846,0.4741931194534937,-0.2558272343801626,0.397820222780143,0.0339206579180004,10.321624752091338,-1.016490049588482,0.216118392864333,-0.8982588280462601
1.26,0.4374957468778844,-0.0274750886663124,1.6079537516762346,-0.0481776984545374,0.083852498755101,0.0182339251963573,-0.8247240415385642,-0.4747885215218973,-0.1864902455049583,0.4526780862611539,-0.0188050172235894,1.612000566871795,-0.9231633084108578,-0.4803198692505771,-0.1635062966526752,0.7194607656965883,-0.2227389091195908,0.68407297753241,0.0074386256041503,10.321624752091338,-1.0164241011381707,0.2223738960123282,-0.896214903435357
1.28,0.4217876985617174,-0.0363368227959307,1.6044087855897258,-0.0542650326816929,0.0845209188505516,0.0178630324537944,-0.8285690684139116,-0.4589434270859449,-0.1866617565876387,0.4346148200988973,-0.028505828030649,1.6086753041277533,-0.9631633090069044,-0.4708785270457679,-0.1579926155538564,0.8152923791620369,-0.1922513437673745,0.7922547217976222,-0.0085755541340229,10.298948076767374,-1.0166785514476662,0.2283215950426465,-0.8937008554959515
1.3,0.405176438689831,-0.0453246335827445,1.6006734815920192,-0.0593476870662728,0.0847164842468225,0.0176157352156321,-0.8323961204499106,-0.440861866003655,-0.1868440251709402,0.4165515539366406,-0.0382066388377087,1.6053500413837116,-1.0031633096029506,-0.4614371848409587,-0.1524789344550376,0.9241515031304148,-0.1913526017999489,0.9040780541144932,-0.0091134291650751,10.288890318762242,-1.0174931069754984,0.2331954836902077,-0.8907421490112085
1.32,0.3884889950034326,-0.053938159933813,1.59693710301057,-0.0629563407825079,0.0843319748397265,0.0175304090151166,-0.8362414671726575,-0.4217701364321283,-0.1867595358738554,0.3964882877445816,-0.0474353825345278,1.602300462694611,-1.043163310198997,-0.4519958426361495,-0.1469652533562188,0.9737658444048128,-0.1922673361373417,0.954586478576333,0.0042244648542397,10.293939525276071,-1.0187407604327627,0.2367409880926974,-0.8876110679167517
1.34,0.3717230719127372,-0.0621649864576371,1.5932102189760906,-0.0652146009847071,0.0833991818189653,0.0175978033399235,-0.8402357232472261,-0.4022302058050458,-0.1859039950735455,0.3764250215525225,-0.056664126231347,1.5992508840055102,-1.0831633107950436,-0.4425545004313403,-0.1414515722574001,0.9981168776268377,-0.1997128037284301,0.976996531354124,0.0427770400154972,10.31187666610458,-1.0206878147315306,0.2394647536398894,-0.8837729327245513
1.36,0.3557137010457966,-0.0696120272462598,1.5896935884925811,-0.066099048621241,0.0822027865459655,0.0177898026466239,-0.8448157441819192,-0.382891973264335,-0.184288261618408,0.3553617553455623,-0.065656836373046,1.5963391473438795,-1.12316331139109,-0.4331131582265312,-0.1359378911585813,0.9969383433278164,-0.2290010467346559,0.966911627035541,0.0807866727568717,10.355849544986995,-1.0225089169646375,0.2411290590494957,-0.8803179588037177
1.38,0.3387598878156242,-0.0770490629306305,1.5860332912271484,-0.065408546368501,0.0809795682845001,0.018118807497367,-0.8503500195395263,-0.3619982630656551,-0.1817681341861808,0.3332984891237011,-0.0744135129596247,1.59356525270972,-1.1631633119871363,-0.423671816021722,-0.1304242100597625,1.0880330554203128,-0.2767137678803544,1.0446855099339984,0.1260063716113618,10.456330194341716,-1.0246839523876194,0.2415977812628275,-0.8766063790678448
1.4,0.3216893047672742,-0.0840633502832224,1.5824328667168288,-0.062661922840951,0.080043047096658,0.0185828678517517,-0.8564043992747676,-0.3409127683196349,-0.1783592379202018,0.2962423868386479,-0.0951489760839132,1.576944884517839,-0.9451639922510894,-0.3136405267463515,-0.156074982086333,1.1100384862867916,-0.3027189867620683,1.0542747373010055,0.1704448132989491,10.456330194341716,-1.0268578858749762,0.2406152808827278,-0.8732456656890423
1.42,0.3044550901274869,-0.0907726157233358,1.578853533066022,-0.0611544095160189,0.0807066297618655,0.0188696551531487,-0.8663202963501694,-0.3298920166999818,-0.1798084968643305,0.2962423868386479,-0.0951489760839132,1.576944884517839,-0.9451639922510894,-0.3136405267463515,-0.156074982086333,0.7447857620805891,-0.4957948537700873,0.5510375809826579,-0.0724629472064322,10.500792139808254,-1.0256062462253617,0.2396220768053475,-0.8748059370606662
1.44,0.2879221042296367,-0.0969164382509458,1.5754364670741043,-0.0622795081362499,0.0831040546629571,0.0188678814779335,-0.8733188853342135,-0.3171382876773448,-0.1798038136072267,0.2962423868386479,-0.0951489760839132,1.576944884517839,-0.9451639922510894,-0.3136405267463515,-0.156074982086333,0.7273889497430742,-0.3499294492022076,0.637686451131847,0.0002341628551894,10.1911613736238,-1.025834104297073,0.2412765710684901,-0.8735085482189585
1.46,0.270397348448244,-0.1031014875253095,1.5718512399145452,-0.0651258488099981,0.0863356254185535,0.0187166723292757,-0.878644788369133,-0.3017141795365822,-0.1786892760641946,0.286790746916137,-0.0982853813513768,1.575384134696976,-0.964126786793402,-0.3039689794824908,-0.1509363516663635,0.8177874861633239,-0.266295151745971,0.7712054070381308,0.0557268771516031,10.286493616099506,-1.0246093516114954,0.244417671682376,-0.8733351634762202
1.48,0.252784958955557,-0.1089431951019597,1.5682968107528013,-0.0684058902806762,0.089550094897329,0.0185447623738404,-0.8822802222717117,-0.283218289887618,-0.1768201494773595,0.2678874670711152,-0.1045581918863038,1.572262635055249,-1.002052375878027,-0.2846258849547695,-0.1406590908264244,0.9471113289422392,-0.1817716951289349,0.9247944824482102,0.0934563293417581,10.348014213944223,-1.0232819749868185,0.2478771497862427,-0.8730388848972176
1.5,0.2359988074302858,-0.1141313924212343,1.5649607152866194,-0.0709991053923683,0.0921356965594722,0.018458719373894,-0.8845117934252248,-0.26401879093212,-0.1744343929300656,0.2489841872260934,-0.1108310024212308,1.5691411354135227,-1.0399779649626524,-0.265282790427048,-0.1303818299864852,0.9737716676129934,-0.1115785576756567,0.9599749477748998,0.1192878273646919,10.39399219084862,-1.0221914395144296,0.251189438888611,-0.8723403843293258
1.52,0.2182929492342613,-0.1191914453838818,1.5615052117281245,-0.072931040118099,0.0940688506866838,0.018491784389187,-0.8859709779609407,-0.243137722338408,-0.1711977205888129,0.2281846279268403,-0.1161366582297718,1.5665334988137931,-1.0779035540472777,-0.2459396958993266,-0.1201045691465461,1.0590376444787144,-0.0729592267857959,1.0440534296856012,0.1618336170626358,10.435849555840832,-1.021732271146333,0.2539304016335558,-0.8709724184385694
1.54,0.2005632755099744,-0.1238252746271015,1.55812053234574,-0.0738879706595524,0.0950467587001737,0.0186768061722763,-0.8869819878279837,-0.2213851034478768,-0.1674005771687027,0.2073850686275873,-0.1214423140383127,1.5639258622140633,-1.115829143131903,-0.2265966013716052,-0.109827308306607,1.1052339884622164,-0.0505504933521472,1.0876309445265602,0.1898571710055113,10.481618263024757,-1.021909120269709,0.2559268220526932,-0.8690010508925741
1.56,0.1828101726862392,-0.128009420758229,1.5548190388447647,-0.0732966230484849,0.0952053299838687,0.0190442636027692,-0.8883509331168906,-0.1984107356436227,-0.1629107137179412,0.1856373696012186,-0.1262643924836607,1.561575157135332,-1.153754732216528,-0.2072535068438838,-0.0995500474666679,1.1724487846124123,-0.0684472644453482,1.1487183902127025,0.2244931725380733,10.515149756255596,-1.022870492757023,0.2571122491530685,-0.8659706101809438
1.58,0.1659148448714927,-0.1315537183622179,1.5517741621175467,-0.0708247572744282,0.0948955950191452,0.0195697575804024,-0.8900775165576937,-0.1761714636378255,-0.1577887223983436,0.1629415308477343,-0.1306028935658156,1.5594813835775994,-1.191680321301153,-0.1879104123161624,-0.0892727866267288,1.144335074184921,-0.086329172040156,1.11196360028986,0.2560995659798781,10.558443537426683,-1.0252446378841955,0.2570390468120854,-0.8612796172800037
1.6,0.1480912307556085,-0.134851340383296,1.5486851819619265,-0.0665698155560693,0.0943175984560477,0.0202601198550985,-0.8922213348202268,-0.1552449469024169,-0.1512944941549278,0.121410969043608,-0.1403622915441092,1.5438847259976296,-0.9171390031744244,-0.1168535060279336,-0.1249665344083935,1.100783879671308,-0.1071909131266535,1.04632583677043,0.3247114121707931,10.607557373156853,-1.028028996580733,0.255532333430234,-0.8567224488590728
1.62,0.1310261876664009,-0.1376594730454399,1.545803051249961,-0.0630386668227574,0.0963776329656384,0.0207148492646336,-0.9037156252638856,-0.141061163130047,-0.1528537978173927,0.121410969043608,-0.1403622915441092,1.5438847259976296,-0.9171390031744244,-0.1168535060279336,-0.1249665344083935,0.9161466351194923,-0.5747145221829397,0.7091891886184976,-0.0779651831232436,10.655282405035903,-1.0214650972534811,0.2532197701602733,-0.8646896432102511
1.64,0.1128651955601371,-0.1403191003521533,1.5427354534126518,-0.060601995131983,0.1031997443121386,0.0208289707177229,-0.9111207059173424,-0.1254668448063519,-0.1536908162483763,0.121410969043608,-0.1403622915441092,1.5438847259976296,-0.9171390031744244,-0.1168535060279336,-0.1249665344083935,0.8641738588367791,-0.3702540326728454,0.7797159161847533,-0.0418509215491816,10.167926781995448,-1.0195567786860542,0.252507114413349,-0.8664441820923882
1.66,0.0946084282840086,-0.1426596502576684,1.5396670732403142,-0.0588229867592985,0.1123441043505902,0.020780584971848,-0.9137393483050488,-0.109313840470622,-0.1530653279691381,0.1122395790118638,-0.1415308266043885,1.5426350606535455,-0.9225513004977706,-0.1049899145059553,-0.1184020968104034,0.8187919036792314,-0.1309321193853074,0.8076502167864936,0.0312744139619111,10.313599432324736,-1.0140632974705994,0.2523650659192985,-0.8720329274683777
1.68,0.0763402707074387,-0.1446749653220506,1.5366222143133017,-0.0573823632838278,0.1224193485384532,0.0206775235563729,-0.912582690777352,-0.0930291292703594,-0.1514826825555494,0.0938967989483753,-0.1438678967249472,1.5401357299653775,-0.9333758951444628,-0.0812627314619985,-0.1052732216144234,0.8201134708342052,0.057832876384839,0.8142355600131324,0.0791322706794356,10.313599432324736,-1.007122798905176,0.252524251769482,-0.879031707875662
1.7,0.0590372876505997,-0.1462880740696621,1.5337648782679671,-0.0562246453418956,0.1321643453240892,0.0205753943815472,-0.9085695683816306,-0.0776065471496547,-0.149396356571831,0.0755540188848868,-0.1462049668455059,1.53763639927721,-0.9442004897911552,-0.0575355484180417,-0.0921443464184433,0.803607408414175,0.2006561197860634,0.7711291060352357,0.1043162991859178,10.365591162913915,-0.9989441121845564,0.2529199719663035,-0.8870742525033894
1.72,0.0409341535792046,-0.1476713208006586,1.530805389148514,-0.0552254737585382,0.1422186794193119,0.0204835273256989,-0.9016677554735104,-0.0615439597117412,-0.146660040207985,0.0566700090890637,-0.1473556778138667,1.535793512348841,-0.9550250844378474,-0.033808365374085,-0.0790154712224632,0.8847728011506131,0.3450906454060043,0.8031293718956747,0.1368158181923012,10.409678972654548,-0.9904697401282472,0.2535503796380178,-0.8951266987231019
1.74,0.0229946274751575,-0.1487333527810185,1.52790187438593,-0.0544343421053282,0.1518637401422208,0.020417358431018,-0.8923767397179031,-0.045483138925697,-0.1438521901414796,0.0377859992932406,-0.1485063887822275,1.5339506254204722,-0.9658496790845396,-0.0100811823301282,-0.0658865960264831,0.938292278674864,0.4645507877803712,0.8030410393022075,0.1403925033252678,10.47320807480446,-0.9818621069293048,0.2544058670378096,-0.9029998421229544
1.76,0.0052639291188778,-0.1494669757981731,1.5250553394086843,-0.0535648405179177,0.161006825973518,0.0204003244707688,-0.8809249944367175,-0.0288056390128196,-0.1409716144764773,0.0186313746312502,-0.1490639201744895,1.5324359603720028,-0.976674273731232,0.0136460007138284,-0.0527577208305031,1.0217377225724156,0.5725872640592822,0.83387499564387,0.1440287832501136,10.47320807480446,-0.9738065675784436,0.2552446586842785,-0.9100835747738256
1.78,-0.0113355537988681,-0.1498506278545884,1.5224055903069782,-0.0523231338380639,0.1687658296483497,0.0204792677812054,-0.8669087400604617,-0.0125603902856904,-0.1381128114635301,-0.0007938648969074,-0.1490282719906525,1.531249517203433,-0.9874988683779242,0.0373731837577852,-0.039628845634523,1.0822849065900348,0.7008127188127877,0.8122624363564634,0.1429401506473637,10.495532962855576,-0.9665260530812652,0.2559135525804427,-0.9160975869627704
1.8,-0.0284948261765528,-0.1499213677301447,1.5196782805650912,-0.0503680588738474,0.1752882285812051,0.0207129427936771,-0.8497079751734958,0.0044404966256553,-0.1347504616009897,-0.0546809908018912,-0.1504786473688729,1.5154999497338018,-0.8400988856275212,0.0595895942528647,-0.1168699954623532,1.2208622619558378,0.8600382443482935,0.8500443455672863,0.1681174931270207,10.523574685577842,-0.9605445768410068,0.2562643380719912,-0.9204707666387174
1.82,-0.0453610375006873,-0.14970454662334,1.5168745319604633,-0.0490053765821004,0.1811985268508363,0.0209553531412938,-0.837765291733783,0.0166044971028257,-0.1466137350614922,-0.0546809908018912,-0.1504786473688729,1.5154999497338018,-0.8400988856275212,0.0595895942528647,-0.1168699954623532,1.0384217020898334,0.5971341719856416,0.6082000238585233,-0.593163673025128,10.564118811597837,-0.948518987671927,0.2559931404155545,-0.9315950799808146
1.84,-0.0611489936779147,-0.1492741189300351,1.513984045209181,-0.0491776718897523,0.1873109540189408,0.0210690852160028,-0.8244977156171783,0.0282857956573184,-0.1570118286707808,-0.0546809908018912,-0.1504786473688729,1.5154999497338018,-0.8400988856275212,0.0595895942528647,-0.1168699954623532,1.0254287671952391,0.6633788058302337,0.5840649277246318,-0.5199046804644308,9.608127487209458,-0.9409171729492316,0.2566036067849533,-0.938880026995797
1.86,-0.0774699408165174,-0.1485726248416185,1.510757303504361,-0.0506707786861442,0.1938126479050437,0.0210972553082033,-0.8080755690628285,0.041362990560624,-0.1650084435636134,-0.0630819796581664,-0.1498827514263443,1.5143312497791783,-0.8347369147409331,0.0740195911605757,-0.1126214322621179,1.123216112037056,0.8211073277174907,0.653859745165279,-0.3998307446416271,9.77502270754303,-0.9330966970747588,0.2585842322082592,-0.9456621944188138
1.88,-0.0934387923853659,-0.14759654126459,1.5073999934351925,-0.0532126016556573,0.2001312321758987,0.0210586867891153,-0.7894449812666828,0.0558253783427799,-0.1702465395441924,-0.0798839573707168,-0.148690959541287,1.5119938498699312,-0.8240129729677569,0.1028795849759978,-0.1041243058616471,1.2079912163309612,0.931529389807284,0.7231193891077944,-0.2619047990289502,9.966007162310234,-0.9258564487889036,0.2616784423812599,-0.95110379076441
1.9,-0.1082451471473849,-0.1463777421792304,1.5041381540782877,-0.0558377715780239,0.2058491479376203,0.0210176201513644,-0.7699234755565553,0.0717465358011198,-0.1728865603847497,-0.0966859350832672,-0.1474991676562297,1.5096564499606842,-0.8132890311945807,0.1317395787914199,-0.0956271794611764,1.2664341179492653,0.976075285506378,0.796057872916997,-0.1320010420278641,10.138068503920294,-0.918702194446482,0.265530517354514,-0.9557314896371416
1.92,-0.1234085021626691,-0.1447539136588698,1.5006691612609977,-0.0582107605725014,0.2113876480222147,0.0210258374347285,-0.7472972464904888,0.089752959737298,-0.1738026131317767,-0.1129517157071588,-0.1448643760804013,1.5077439063714606,-0.8025650894214046,0.1605995726068419,-0.0871300530607057,1.4465620427022994,1.1313114533033242,0.9003211968089113,-0.0458026373513512,10.290488138408364,-0.9123994428240922,0.269368827181197,-0.9591537747943412
1.94,-0.1380933456323412,-0.1427592806120921,1.4971944364035454,-0.0599385530092261,0.215958532892407,0.0211375866504644,-0.7222635135165755,0.1087109461383656,-0.1735846877957694,-0.1292174963310505,-0.1422295845045729,1.505831362782237,-0.7918411476482283,0.189459566422264,-0.0786329266602349,1.570143724666896,1.2516866486956657,0.947899320053381,0.0108962668003628,10.423000564367612,-0.9074612458094918,0.2727603007666392,-0.9611643192626056
1.96,-0.1522553632405028,-0.1403678868674359,1.4937365569144097,-0.0605309908644961,0.2189530299873196,0.0214309221836729,-0.6953285411593209,0.1292304268037736,-0.1722027023889111,-0.1452151784106127,-0.1388732930833589,1.5041312473530255,-0.7811172058750522,0.2183195602376861,-0.0701358002597642,1.6944406941000405,1.3467486178627308,1.025974033270398,0.0690992703429177,10.504970173876243,-0.9030809990666018,0.2756247891549225,-0.9623673738212788
1.98,-0.1651986828372476,-0.1377050073997108,1.4904898489082177,-0.0594573556746669,0.2200519340393219,0.02193984868286,-0.6686377519789556,0.1497600699869409,-0.1695942487404127,-0.1609447619458455,-0.1347955018167594,1.5026435600838255,-0.7703932641018759,0.2471795540531081,-0.0616386738592935,1.6886892155864826,1.3345394590182635,1.026482159158365,0.1304226824249188,10.683476670109483,-0.90048248334643,0.2769849055903648,-0.9623106160427785
2.0,-0.1782690545575319,-0.1344808319539766,1.4871409622295222,-0.0562534851035492,0.2192037973247105,0.0227461972241327,-0.6398488396641278,0.1711147874760274,-0.1653180066230197,-0.1986305704361954,-0.1302170039003638,1.482010136471197,-0.5974031532231191,0.2131848882046953,-0.1295812744483728,1.8049319086575728,1.4394456157413915,1.0677358744543244,0.2138121058696498,10.683476670109483,-0.9004677250679676,0.2765286965477874,-0.9603825052634696
2.02,-0.1908661762174886,-0.1308298131150414,1.4837715248595242,-0.0504495675835079,0.2185806806557386,0.0237211109836819,-0.6215179647983365,0.191854599726338,-0.1723973416958393,-0.1986305704361954,-0.1302170039003638,1.482010136471197,-0.5974031532231191,0.2131848882046953,-0.1295812744483728,1.4285287629206858,0.9165437432895608,1.0369906125155286,-0.3539667536409788,10.77672521387285,-0.8897150273827696,0.2733390108789942,-0.9689814611608516
2.04,-0.2024826095343722,-0.1270331764254605,1.4804547161669397,-0.0437609247880478,0.2202905195610615,0.0246113281005341,-0.6018843340963793,0.2065838004607587,-0.1763474529183029,-0.1986305704361954,-0.1302170039003638,1.482010136471197,-0.5974031532231191,0.2131848882046953,-0.1295812744483728,1.2430126583079613,0.9816815350978614,0.7364600367210344,-0.1975055611231818,10.005684601445864,-0.8873517548233237,0.2681049855271878,-0.9720082085907942
2.06,-0.2142761604368798,-0.1227633419835623,1.4769189584941709,-0.0370808955975489,0.2233033646493285,0.0254800670789045,-0.5782756484735597,0.2195944030037012,-0.1768877194016166,-0.2046046019684265,-0.1280851550183168,1.4807143237267133,-0.5831562334719518,0.2258698518482461,-0.1215786795899648,1.348089113560879,1.1804342811409796,0.6505301271471253,-0.0270133241656853,10.245248749739403,-0.882757854462175,0.2633451245070018,-0.9765747321057436
2.08,-0.2255716911336552,-0.118250097390379,1.473405819964881,-0.0312149678532267,0.2268513719323103,0.0262868054297246,-0.5522799474855451,0.2311165893451386,-0.1743058222307148,-0.2165526650328889,-0.1238214572542229,1.478122698237746,-0.5546623939696173,0.2512397791353479,-0.1055734898731489,1.4275883868837882,1.2997850494007313,0.5761093170718712,0.129094858545091,10.469376571376417,-0.8769758386020943,0.2595488681503173,-0.9817497714266156
2.1,-0.2357982929733677,-0.1137597251685452,1.470143014635419,-0.0265004711412742,0.2302601478397049,0.0270049388622695,-0.5254348989143033,0.241095401683311,-0.1693206910226577,-0.2285007280973513,-0.119557759490129,1.4755310727487785,-0.5261685544672826,0.2766097064224496,-0.0895683001563329,1.4535171667668203,1.3422524285620907,0.4989406169086191,0.2492565604028537,10.661300981031673,-0.8706127669356623,0.2564925395783216,-0.986925702175501
2.12,-0.2459879170334405,-0.1088351999266553,1.466830821467811,-0.0223811214524646,0.2333476016893891,0.0277249726971935,-0.4948720116993487,0.2509049704029747,-0.1620852317814244,-0.2390240991866969,-0.11402556536168,1.473739706745652,-0.497674714964948,0.3019796337095514,-0.073563110439517,1.6451972403114683,1.5281443607477296,0.4904784359831882,0.3617729620616641,10.824405031221431,-0.8646364682639227,0.2542017686448837,-0.9914869265755768
2.14,-0.2555459491383142,-0.1037197016044604,1.463678000669144,-0.0190295813568581,0.2353538561265372,0.0284201568341191,-0.4624839556827864,0.2602188984199524,-0.1535144221936186,-0.2495474702760426,-0.108493371233231,1.4719483407425251,-0.4691808754626134,0.3273495609966531,-0.057557920722701,1.738673491938495,1.6194028008281125,0.4656964008488806,0.4285404793902936,10.968034882007489,-0.8585944049885886,0.2528205551715519,-0.9955845447342434
2.16,-0.264437469660172,-0.0984172524715796,1.4607110135917711,-0.0161772990512932,0.235729544214547,0.0291100784245797,-0.42846901222155,0.2695433586267125,-0.1436072712536192,-0.2593584953778299,-0.1023269289226045,1.470557104482319,-0.4406870359602788,0.3527194882837549,-0.0415527310058851,1.8317434158244552,1.7007471730618229,0.4662230103380071,0.4953575469999693,11.15344184075002,-0.8538125183359907,0.2520160612122758,-0.9981316106008224
2.18,-0.2722423639422277,-0.093209080170952,1.4580891333573929,-0.0136993877004114,0.2340919314558038,0.0297746458557636,-0.3949383349226783,0.2781744090802656,-0.1328610771793159,-0.2684571744920588,-0.0955262384298004,1.469565997965033,-0.4121931964579443,0.3780894155708566,-0.0255475412890692,1.812651399977004,1.6765338649435828,0.4315525226776556,0.5373097037151622,11.15344184075002,-0.85109954293351,0.2515536095243675,-0.9986972178372564
2.2,-0.2797628773301305,-0.0875538595889095,1.455565018980271,-0.0112646152769568,0.2296908305758425,0.0304844389019132,-0.3590578437566003,0.2868431933701711,-0.1200097732762257,-0.2919892806883616,-0.0793003597169387,1.451446079498427,-0.2951491103576492,0.3218558182902323,-0.1062638567286762,1.9542987741089497,1.7940245583038998,0.4334392144952764,0.6425651951545138,11.249141073079045,-0.8502410246973978,0.251270904906414,-0.9975510760320122
2.22,-0.2866939432084499,-0.081678028704916,1.453132911535726,-0.0071337139495018,0.2247668399858572,0.0312973505674519,-0.3363961967024274,0.2992295139486188,-0.1247429629015711,-0.2919892806883616,-0.0793003597169387,1.451446079498427,-0.2951491103576492,0.3218558182902323,-0.1062638567286762,1.3127968890021209,1.1330823527086475,0.6193160289223815,-0.236659481267272,10.12946948030458,-0.8373056814528753,0.250656520541606,-1.0044449710561052
2.24,-0.2932008883290036,-0.075613903530849,1.4506055632321333,-0.0015911615739379,0.2226322283080314,0.0321580770827054,-0.3152847022886315,0.3063721130191241,-0.1276657182589183,-0.2919892806883616,-0.0793003597169387,1.451446079498427,-0.2951491103576492,0.3218558182902323,-0.1062638567286762,1.1238932519868352,1.055574720689792,0.3571299535252648,-0.1461377678673589,10.12946948030458,-0.8355413733916589,0.247183805263116,-1.0055299263030386
2.26,-0.2989746505381742,-0.0697474877212532,1.44818366575755,0.0034047979915295,0.223040842311867,0.0329344490434713,-0.2932716416413695,0.3108487518135909,-0.12716981626208,-0.2949407717919381,-0.0760818015340364,1.4503834409311402,-0.2751912654446433,0.3305921001322256,-0.1009444126385483,1.1234556652874992,1.1006530323631023,0.2238319397233429,0.0247950998419149,10.349703464376034,-0.8327871735098579,0.2437423434633558,-1.0074683985503547
2.28,-0.3045730430566404,-0.0634949079249356,1.4456699629854657,0.0079226273038752,0.2250027208844332,0.033697678363283,-0.2675093258455229,0.3142508392212749,-0.1241355367313177,-0.3008437539990911,-0.0696446851682317,1.4482581637965666,-0.2352755756186317,0.3480646638162123,-0.0903055244582924,1.3081264906013976,1.2881157897923294,0.1701043703841998,0.1517139765381127,10.550055886878,-0.8280389011082476,0.2415760590455926,-1.0100989569558596
2.3000000000000003,-0.3096283224225545,-0.0571832999314843,1.443240394363029,0.011568736836934,0.2275915374849768,0.0344020879604734,-0.2391611476351956,0.316848489865052,-0.1188987057675561,-0.3067467362062441,-0.0632075688024271,1.4461328866619931,-0.19535988579262,0.3655372275001989,-0.0796666362780365,1.4472313181162515,1.4174089105163628,0.1298825321888519,0.2618415481880832,10.715172852511389,-0.822514891610954,0.2407658281283874,-1.0124460662857715
2.32,-0.3140907753638768,-0.0508256275012429,1.4409377884016945,0.0143595731107339,0.2299817117581203,0.0350413684002345,-0.2085075225769997,0.3189693310480097,-0.1116358994394592,-0.3106539339220965,-0.0558968242524231,1.4445395539364323,-0.1554441959666083,0.3830097911841856,-0.0690277480977806,1.578679077814132,1.5326812529097968,0.1060420591478872,0.3631403164048425,10.98793457901047,-0.8178417107131648,0.2418277334419646,-1.0127043733597412
2.34,-0.3177468382397533,-0.044748522724241,1.4388943655427546,0.0163296079356246,0.2315451904270337,0.0355861448650253,-0.1779493897579325,0.3207703008250657,-0.1038131987638702,-0.3145611316379489,-0.0485860797024191,1.4429462212108717,-0.1155285061405966,0.4004823548681723,-0.0583888599175247,1.579744931456879,1.5279066409533582,0.090048488852798,0.3911350337794515,11.052637830574897,-0.8143037170653232,0.2448548823219002,-1.0102367820994909
2.36,-0.3209555164875588,-0.0383125231653817,1.4369134963307768,0.0178735227868942,0.2320275929680786,0.0360964306814543,-0.1446042186624817,0.3227477502662549,-0.094617482604204,-0.317470437108151,-0.0408385210603155,1.4416188606898177,-0.075612816314585,0.4179549185521589,-0.0477499717372688,1.7323192094461777,1.6672585547725396,0.0988724720594608,0.4597858079833087,11.052637830574897,-0.8125905962346608,0.2488090753438424,-1.005735140977241
2.38,-0.3234837312868978,-0.0318384696940246,1.435128233208266,0.018932229794336,0.2307977604123142,0.0365333333606001,-0.1100301897169916,0.3245841616988839,-0.0843327540513679,-0.3193818503327028,-0.0326541483261121,1.4405574723732697,-0.0356971264885734,0.4354274822361456,-0.0371110835570129,1.8059011087812904,1.728701447274504,0.0918205716314485,0.5142364276418038,11.117850575267768,-0.8136876811865397,0.2533144185180037,-0.9988509400553848
2.4,-0.3252362657348618,-0.0256546317348826,1.4336331215350602,0.0194815434468091,0.2274345207440372,0.0368664002098905,-0.0763477943772891,0.3262771891435895,-0.0735039593680547,-0.3289852407727474,-0.0156092616090804,1.4309115955056977,-0.0100301882268755,0.3460033050031126,-0.0573412544634744,1.7710398725338534,1.684119766985125,0.0846513722352809,0.5414397341656586,11.240528142328005,-0.8191089048497079,0.2596754048420779,-0.9867267002031253
2.42,-0.326424485045808,-0.0190239718320256,1.4321863308671066,0.0222949323002445,0.221177964670461,0.0373060092953218,-0.0448342169380577,0.335538221078196,-0.0722151375586493,-0.3289852407727474,-0.0156092616090804,1.4309115955056977,-0.0100301882268755,0.3460033050031126,-0.0573412544634744,1.643573345768782,1.5756788719615709,0.4630515967303239,0.0644410904702734,11.240528142328005,-0.8249466324621683,0.267879916753147,-0.9698082612314473
2.44,-0.3270202590752732,-0.0122733102746217,1.4307713951700411,0.0275515618655126,0.2130881163782973,0.0378287223385543,-0.0166449452369582,0.3386737865201665,-0.0690891714416891,-0.3289852407727474,-0.0156092616090804,1.4309115955056977,-0.0100301882268755,0.3460033050031126,-0.0573412544634744,1.4267432090636287,1.4094635850549757,0.1567782720985289,0.1562983058480072,10.506699769821353,-0.830222936924459,0.2678924815775853,-0.9609286688613906
2.46,-0.3270825095382323,-0.005500256887814,1.4294511020564522,0.0328836411846346,0.204452364752346,0.0382775019844692,0.0087388955761679,0.3384585962701636,-0.0630434106930918,-0.3290855426550162,-0.0121492285590493,1.4303381829610629,0.0099698120711476,0.3502871336639584,-0.0519429545458957,1.3047383878570302,1.2691920406563073,-0.0107595125001441,0.3022880374298653,10.665003652586163,-0.8376212675959943,0.2680211585095272,-0.9504027418595336
2.48,-0.3266971275693681,0.0009100517376812,1.4283288682211992,0.0373021365094745,0.1965356721293056,0.038611776847173,0.0304009968419652,0.3364534416402535,-0.0553434334359038,-0.3292861464195537,-0.005229162458987,1.4291913578717934,0.0499698126671941,0.3588547909856499,-0.0411463547107383,1.1538597467854612,1.0831050632898689,-0.1002577314955094,0.3849988628594012,10.89086193444018,-0.8464742414543435,0.2688514273060728,-0.9381814458073104
2.5,-0.325870374264586,0.0076054413161265,1.4273215035480913,0.0410736525241337,0.189075015149574,0.0388876014383169,0.0509925386952804,0.3332982598455062,-0.0457025267565169,-0.3294867501840912,0.0016909036410752,1.428044532782524,0.0899698132632405,0.3674224483073414,-0.0303497548755809,1.1477302052914915,1.0295770926657557,-0.1577590897373637,0.4820453339693459,10.89086193444018,-0.8551939937696296,0.2704806086145087,-0.9258468681401976
2.52,-0.3246529182679815,0.0142298162882655,1.426519272909146,0.0439339367865851,0.1829139600984659,0.0391188528222967,0.0695549198227922,0.3294312615990949,-0.0349286046595763,-0.3276873539188264,0.009039352607222,1.4274375376850124,0.129969813859287,0.3759901056290329,-0.0195531550404235,1.0904048169277565,0.9281190563755932,-0.1933499123205617,0.5386961048470307,11.005834880162183,-0.862887035875458,0.2729873396095928,-0.914062566755897
2.54,-0.3230874353597289,0.0207717905757409,1.425937548950462,0.0459343939808103,0.1785877274633869,0.0393496650226934,0.0859746348791509,0.3251668207958344,-0.0237448235688267,-0.3258879576535616,0.0163878015733688,1.4268305425875007,0.1699698144553335,0.3845577629507244,-0.0087565552052661,1.0159594693962102,0.8209857528179334,-0.2132220401630274,0.5591890545374759,11.005834880162183,-0.8687359372447299,0.2760259913933018,-0.904031204608616
2.56,-0.3213068450342367,0.0269062265130397,1.4255939215716464,0.0471537194439713,0.1765221968568995,0.0396052340474217,0.100672185110622,0.3208687872554573,-0.0129660484471433,-0.3230885613733956,0.0239504419725579,1.426493462485868,0.2099698150513799,0.393125420272416,0.0020400446298911,0.9363133399731174,0.7348775115735562,-0.2149016770188527,0.5389387560841741,11.010106285062648,-0.8737100916562704,0.2793555644158469,-0.8950978640781391
2.58,-0.3191232919351143,0.0332730860855626,1.4254557130682752,0.0476581914003453,0.1761735897450166,0.0399017823195814,0.1170755102211792,0.3161072013305929,-0.0014053876527307,-0.3192891650783285,0.0317272738047893,1.4264262973801145,0.2499698156474263,0.4016930775941075,0.0128366444650485,1.0312500341890536,0.8201662555278565,-0.2380792962432237,0.5780330397206289,11.001611311533452,-0.8775553285382015,0.2833088095221986,-0.8872141475737833
2.6,-0.3165960363702684,0.0395440293474222,1.4255507831409469,0.0472444802901375,0.1767938008958581,0.0401794006065266,0.1349137405923222,0.3113088243090141,0.0103565594431717,-0.3132695164240553,0.0490784461520923,1.4253854436856388,0.2170755117112953,0.2997611732559707,0.0404346105627062,1.0949546615065802,0.8919115185571542,-0.2399188510789407,0.5880973547951238,11.004860538506364,-0.880522724894148,0.2882613698774116,-0.8796607862420303
2.62,-0.3136970130106533,0.0458524985272538,1.4258386915211272,0.0499698101560929,0.1770946225113079,0.0406603824048852,0.1540512944085406,0.318362270825,0.0175391618915563,-0.3132695164240553,0.0490784461520923,1.4253854436856388,0.2170755117112953,0.2997611732559707,0.0404346105627062,1.081187832610583,0.9568776908109172,0.3526723257992969,0.3591301224192302,11.004860538506364,-0.8861681709276993,0.2935446230571521,-0.8676110191770352
2.64,-0.3105888372437171,0.0519020913196707,1.4262476629295675,0.0563513753290256,0.1764891799755144,0.0413279335526434,0.1720957426616484,0.317418370996791,0.0251725962950019,-0.3132695164240553,0.0490784461520923,1.4253854436856388,0.2170755117112953,0.2997611732559707,0.0404346105627062,0.980768041430396,0.9022224126553916,-0.0471949914104485,0.38167172017228,10.749814797164618,-0.8879398265396367,0.2922433308364375,-0.8634759788199738
