t,x,y,z,roll,pitch,yaw,v_x,v_y,v_z,ref_x,ref_y,ref_z,ref_v_x,ref_v_y,ref_v_z,a_com,a_x,a_y,a_z,thrust,wind_x,wind_y,wind_z
0.0,0.2773791176028816,0.181815000985106,2.4067287564245,0.0305600376699618,0.0996342061394378,0.0421628192190661,-6.142842533757218e-05,0.0058177849506922,-0.0008039715955077,0.2773754534408408,0.1820356451185286,2.406706210046056,-0.0916761295249229,-0.0045802424879607,-0.1007650258808725,0.2936697358867773,-0.0030714212668786,0.2908892475346118,-0.0401985797753882,10.254915543960124,-0.9404368057507624,0.2529250445777081,-0.879279908780409
0.02,0.2775410147710347,0.1819469553225767,2.406616946586936,0.0328921847811984,0.0941008766112231,0.0421408052659379,0.015714254144667,0.0070835049729151,-0.0108593885120382,0.2773754534408408,0.1820356451185286,2.406706210046056,-0.0916761295249229,-0.0045802424879607,-0.1007650258808725,0.9375308222792608,0.7887841285002323,0.0632860011111446,-0.5027708458265217,10.25540905480375,-0.9501243970945668,0.2507023191409722,-0.8705319719326907
0.04,0.2779802968497782,0.1820890724192456,2.406239889494302,0.0356771658197022,0.0780571576808376,0.0417674508999671,0.0257639632076059,0.0068352877007776,-0.0262153558054686,0.2773754534408408,0.1820356451185286,2.406706210046056,-0.0916761295249229,-0.0045802424879607,-0.1007650258808725,0.9176927530235924,0.5024854531469437,-0.0124108636068722,-0.7677983646715214,9.376637348831082,-0.9552270615011816,0.2493867351475227,-0.8632078188057437
0.06,0.2784731509392907,0.1822021137226566,2.405574859978912,0.038232179057767,0.0569868898763882,0.041140038674586,0.0246813558796497,0.0050462702326164,-0.0429807538273561,0.2764586921455916,0.181989842693649,2.405698559787248,-0.1099899114420181,-0.0068874144213137,-0.1207650261788957,0.84476504567874,-0.0541303663978077,-0.0894508734080626,-0.8382699010943776,9.376637348831082,-0.9661057996435704,0.2460463641061506,-0.8520504669593401
0.08,0.2788624658955033,0.1822726981659995,2.4045129241446497,0.0405970014138857,0.0327213313072836,0.0403085227652577,0.0135015714450825,0.0020928267858014,-0.0624280420835603,0.2746251695550931,0.1818982378438898,2.40368325926963,-0.1466174752762085,-0.0115017582880196,-0.1607650267749421,1.1312685674905207,-0.5589892217283611,-0.1476721723407473,-0.972364412810208,9.224213205502563,-0.980748329886621,0.2407087568588017,-0.8396816492991265
0.1,0.278932654556479,0.1822744505403814,2.40304486884366,0.0425521418560519,0.0093648681531213,0.0394228825328383,-0.0064244508394619,-0.0017467941479879,-0.0834975901490756,0.2727916469645947,0.1818066329941306,2.401667958752012,-0.1832450391103988,-0.0161161021547255,-0.2007650273709886,1.4626302580321002,-0.9963011142272252,-0.191981046689472,-1.0534774032757668,9.083041728170883,-0.9960509850821428,0.2335769866577022,-0.8293022122375849
0.12,0.2785274171117307,0.1821905679850156,2.4011401280683424,0.0440286488199906,-0.0108888085736777,0.0385891414333152,-0.0331632185173979,-0.0063914950227461,-0.1059532981099282,0.2691267461823867,0.1814843109510361,2.3976526582045925,-0.2198726029445892,-0.0207304460214314,-0.240765027967035,1.7612451299958989,-1.336938383896798,-0.2322350437379104,-1.1227853980426263,9.083041728170883,-1.0099799304348196,0.2261955395066675,-0.8214090874403442
0.14,0.2776011318481348,0.1820174516163763,2.398901641378118,0.0448687097720005,-0.0262312890677792,0.0379030049184297,-0.0628830010868974,-0.0115409259943441,-0.128565173421187,0.2654618454001787,0.1811619889079415,2.393637357657173,-0.2565001667787797,-0.0253447898881373,-0.2807650285630815,1.8848600879120303,-1.485989128474979,-0.2574715485798991,-1.13059376556294,9.03612008625305,-1.0226729133160113,0.2180747969258709,-0.8165350741251061
0.16,0.2759847931817776,0.1817228567005049,2.3960687314235805,0.0449560928608177,-0.0378218589069618,0.0373193072014858,-0.0971384755904794,-0.0176036182737641,-0.1535868306149609,0.260881255522116,0.1807243082681794,2.388622057094852,-0.29312773061297,-0.0299591337548432,-0.3207650291591279,2.142590196388025,-1.712773725179096,-0.3031346139710007,-1.2510828596886985,9.03612008625305,-1.0318429645006857,0.2096115943166394,-0.8173207937419746
0.18,0.2736514619968253,0.181301000144819,2.3927245330884945,0.0439896167568377,-0.044161754805689,0.0369007398757291,-0.1343597392808886,-0.0241530228195271,-0.1795853128722956,0.2553849765481985,0.1801712690317496,2.38260675651763,-0.3297552944471603,-0.0345734776215491,-0.3607650297551744,2.2935988371443576,-1.8610631845204595,-0.3274702272881494,-1.2999241128667336,9.01001682893775,-1.036321433243493,0.2030686317999573,-0.8221622010702253
0.2,0.2707347016766773,0.1807785064507333,2.389060626840718,0.0419804084225516,-0.044849053148764,0.0366676430832334,-0.1701462794739485,-0.0303694325317816,-0.2046892268077019,0.2669334750327809,0.1800933490038427,2.38374526744488,-0.2343597407710047,-0.0400156479117951,-0.2795853143624117,2.2076722489855656,-1.789327009652998,-0.3108204856127254,-1.2551956967703142,9.010708963995512,-1.0398797105746378,0.1978670334619518,-0.8275277769374677
0.22,0.2669052746152086,0.180118758544417,2.384931551346983,0.0394983876378664,-0.0397359783220987,0.0366377953198392,-0.210289005469652,-0.0353103256267115,-0.2054797493877295,0.2669334750327809,0.1800933490038427,2.38374526744488,-0.2343597407710047,-0.0400156479117951,-0.2795853143624117,2.022668905735185,-2.0071362997851754,-0.2470446547464925,-0.0395261290013784,8.993172652787507,-1.0445095704273857,0.1926632551407016,-0.8322316454561846
0.24,0.2623238884201511,0.1793668200737389,2.380806910198548,0.0373769526362814,-0.0293296421280714,0.0368253128299534,-0.2450846715840611,-0.0396071425360502,-0.2072071830859555,0.2669334750327809,0.1800933490038427,2.38374526744488,-0.2343597407710047,-0.0400156479117951,-0.2795853143624117,1.755124670130002,-1.739783305720452,-0.2148408454669362,-0.0863716849113016,10.576535844995306,-1.0431615461855726,0.1939844565155452,-0.8341598238256965
0.26,0.2573827582239718,0.1785789638915148,2.376806851844225,0.0355894135401984,-0.0167190235033171,0.0370980564372675,-0.2727617704527727,-0.0430854457895423,-0.2136793146518281,0.2645898776250708,0.1796931925247247,2.380949414301256,-0.2543597410690279,-0.0431881729302487,-0.299585314660435,1.4317898609063209,-1.383854943435581,-0.1739151626746073,-0.3236065782936309,10.244987740844408,-1.037254450389521,0.1949269260153237,-0.8421442923317993
0.28,0.2516707797919122,0.17768531641513,2.372421915450162,0.0338996848849169,-0.002399319274799,0.0374091963536226,-0.2965014948913816,-0.0460641959976138,-0.2246573327495655,0.2599026828096508,0.1788928795664888,2.375357708014007,-0.2943597416650744,-0.0495332229671559,-0.3395853152564814,1.3162108024338468,-1.1869862219304443,-0.148937510403576,-0.5489009048868704,9.916539650967024,-1.0284314324129695,0.1952673917887995,-0.8541546656675995
0.3,0.2455351645419849,0.1767392354894388,2.367775290218776,0.0324232360804666,0.0115778329141056,0.0376981658571816,-0.3155378978634828,-0.0483681556075257,-0.2396323463628291,0.2552154879942306,0.1780925666082529,2.369766001726759,-0.3343597422611208,-0.0558782730040631,-0.3795853158525278,1.2164948630365842,-0.951820148605062,-0.1151979804955918,-0.748750680663178,9.423824188883373,-1.0180120573068798,0.1949409045034489,-0.8684558572266748
0.32,0.2393923200560501,0.1758046405525501,2.3630469575931428,0.0312990468964319,0.0236091889767383,0.0379321339249956,-0.3300075567975982,-0.0499069128907096,-0.2573550935637353,0.2485282931490082,0.1769750011481716,2.362174295409708,-0.3743597428571673,-0.0622233230409703,-0.4195853164485743,1.146554154841154,-0.7234829467057696,-0.0769378641591975,-0.8861373600453095,9.423824188883373,-1.00764531676564,0.1940110627812937,-0.8828006257648294
0.34,0.232659764194826,0.1747947981238985,2.357685422035445,0.0305287505319937,0.0343879660273494,0.0381335668727248,-0.3423662670958315,-0.0510032000680264,-0.2779811775097838,0.2418410983037858,0.1758574356880904,2.354582589092658,-0.4143597434532138,-0.0685683730778775,-0.4595853170446208,1.20351039127239,-0.6179355149116661,-0.0548143588658369,-1.0313041973024266,9.242967071027124,-0.9974984917188288,0.1923852668892469,-0.8971722695533323
0.36,0.2256988130534326,0.1737653840319089,2.351894339966352,0.0302564624361111,0.0430825478313357,0.0382970050851387,-0.3530583333641674,-0.0518997584757493,-0.3001828457167588,0.2341539034436622,0.1745812439770864,2.3459908827607063,-0.4543597440492602,-0.0749134231147847,-0.4995853176406672,1.232921499161188,-0.5346033134167927,-0.0448279203861468,-1.11008341034875,9.14836288214792,-0.9885007127901024,0.1902693367356223,-0.9101395914479647
0.38,0.2185367537466543,0.1727187704027619,2.3456435378919887,0.0304938790448053,0.0498763771824047,0.0384335834451645,-0.3626315971109721,-0.0527541772921996,-0.3238198228184039,0.2254667085686375,0.1731464260151598,2.3363991764138534,-0.4943597446453066,-0.0812584731516919,-0.5395853182367136,1.2758174798766089,-0.4786631873402336,-0.0427209408225132,-1.1818488550822517,9.02699804180611,-0.9801235170326732,0.1874742244069072,-0.92264001493589
0.4,0.211190540039925,0.1716535074377869,2.33890713077541,0.0312119090481679,0.0550538025762942,0.038551527738475,-0.3715352317893709,-0.0537677560624013,-0.3486692966157009,0.2004051738911057,0.1700810615381519,2.3294525467510683,-0.4393529896828982,-0.0722707552363591,-0.42381982430852,1.3207937011626198,-0.4451817339199415,-0.0506789385100854,-1.2424736898648507,9.02699804180611,-0.9728733867386552,0.1841210563108369,-0.9340228729765002
0.42,0.2040421491404241,0.1706208267403877,2.3323139977955107,0.0326072039073239,0.0594819384795998,0.0386962678722857,-0.3802647816305509,-0.055043831717479,-0.3440887177638171,0.2004051738911057,0.1700810615381519,2.3294525467510683,-0.4393529896828982,-0.0722707552363591,-0.42381982430852,0.4970289531945086,-0.4364774920589981,-0.0638037827538861,0.2290289425941866,10.695645698834596,-0.9761085872789294,0.1811332391399098,-0.9335360263851828
0.44,0.1963558441956369,0.1695021994541152,2.3254382444406154,0.0349655625024575,0.0641315888219413,0.038910586135001,-0.3878012856845425,-0.0570035294448362,-0.3438264449986608,0.2004051738911057,0.1700810615381519,2.3294525467510683,-0.4393529896828982,-0.0722707552363591,-0.42381982430852,0.3895769999043323,-0.3768252026995822,-0.0979848863678582,0.0131136382578167,10.695645698834596,-0.9724649529001804,0.1794481949563616,-0.9371966024141904
0.46,0.1889256946040375,0.1683869063779215,2.318852820695289,0.0374584372407626,0.0680935683029222,0.0391174413890579,-0.3939070055524245,-0.0603336908690811,-0.3493869071754406,0.1960116439942767,0.1693583539857883,2.3252143485079837,-0.4546972681972834,-0.076174070825191,-0.4438198246065432,0.4452205347801701,-0.3052859933940999,-0.1665080712122474,-0.2780231088389873,10.316633920537242,-0.9678910218602697,0.1766889016337254,-0.9428395637654118
0.48,0.1809875482932425,0.1671357758970368,2.311757430120129,0.0398472269336237,0.0715577088671759,0.0392920335926077,-0.3995667845150835,-0.0645856602708517,-0.3600800401580997,0.1872245842006187,0.1679129388810611,2.3167379520218128,-0.4853858252260539,-0.0839807020028548,-0.4838198252025897,0.6412008941910936,-0.2829889481329478,-0.2125984700885267,-0.5346566491329585,9.98265142364653,-0.9631859144809498,0.1734301093122541,-0.9493874554990293
0.5,0.1729414261481953,0.1657946466842547,2.3044045106316324,0.0418392941929795,0.0741911655072887,0.0394026122655043,-0.4047750518393249,-0.0692661688670574,-0.374839160693054,0.1784375244069608,0.1664675237763339,2.3082615555356423,-0.5160743822548244,-0.0917873331805186,-0.5238198257986362,0.8167999268566711,-0.26041336621207,-0.2340254298102882,-0.7379560267477131,9.717182108289308,-0.9591553940477652,0.1702894150724111,-0.9553932845263324
0.52,0.1647934648939933,0.1643568755797754,2.29672192440103,0.0433923976592088,0.0759977854929483,0.0394420788547749,-0.4097914182014175,-0.074246482916869,-0.3928119747829132,0.1681160367618643,0.1646317771127236,2.2977851590196696,-0.5467629392835949,-0.0995939643581824,-0.5638198263946826,0.9656468114975127,-0.2508183181046314,-0.2490157024905764,-0.898640704492959,9.512910815026771,-0.9557602627171016,0.1674426764947415,-0.9608107708972864
0.54,0.1569615031893421,0.162894768885431,2.289074490782769,0.0443822202278399,0.0769893749896467,0.0394071926274953,-0.414430835490187,-0.0793686508282941,-0.4112785457233949,0.1577945491167678,0.1627960304491132,2.287308762503697,-0.5774514963123653,-0.1074005955358462,-0.6038198269907291,0.985868955784708,-0.2319708644384771,-0.2561083955712549,-0.9233285470240882,9.35466008885396,-0.9529968237087174,0.1645579950065353,-0.966022725774952
0.56,0.1486184410116995,0.1612458126389967,2.2806348217033747,0.0447592349098728,0.0774624461927629,0.0392907322264265,-0.4196690868949144,-0.0852173831870547,-0.4317645901047093,0.1467058475459521,0.1607651180060612,2.275832365972823,-0.6081400533411357,-0.11520722671351,-0.6438198275867755,1.0969559726542426,-0.2619125702363695,-0.2924366179380334,-1.0243022190657205,9.29723883999668,-0.9509432709907156,0.1622193292434515,-0.9704832434145576
0.58,0.1401666102274054,0.1594763509656361,2.2717761516560917,0.0442577975822667,0.07762577363768,0.0390916151701843,-0.4252733714805887,-0.0913663958287998,-0.4531119446450906,0.1348499320494171,0.1585390397835676,2.263355969427048,-0.6388286103699061,-0.1230138578911738,-0.6838198281828219,1.1455652622813597,-0.2802142292837123,-0.3074506320872534,-1.067367727019064,9.247952522114248,-0.9493197518428852,0.160621625214392,-0.9744446976422936
0.6,0.1315992803938798,0.1575836692479974,2.262481832432344,0.0427403842047849,0.0776953084084776,0.0388116833923601,-0.4311857569942124,-0.0974992015117204,-0.4752857837922886,0.1189029416533759,0.1549080311741962,2.2491205544238366,-0.4687936693357274,-0.1106115342206522,-0.5531119461352068,1.1876939320927566,-0.2956192756811887,-0.3066402841460279,-1.1086919573599,9.209822993070702,-0.9477947198950728,0.159901770620811,-0.97812178437021
0.62,0.1232948193217486,0.1556638265376859,2.253509274415572,0.0404116854103924,0.0802367629966618,0.0385819516898482,-0.4419078638582732,-0.1040282853820381,-0.4680261389838765,0.1189029416533759,0.1549080311741962,2.2491205544238366,-0.4687936693357274,-0.1106115342206522,-0.5531119461352068,0.7250775036751009,-0.536105343203036,-0.3264541935158869,0.3629822404206062,9.171294746779497,-0.9473556449694084,0.1587247980434813,-0.9824651217247754
0.64,0.11436614143217,0.1535293946507031,2.244191182429404,0.0375866617151595,0.0869311847899205,0.0384601469873629,-0.4498694825300955,-0.1089117639815567,-0.4645330948862294,0.1189029416533759,0.1549080311741962,2.2491205544238366,-0.4687936693357274,-0.1106115342206522,-0.5531119461352068,0.4985907444376946,-0.3980809335911189,-0.2441739299759299,0.1746522048823529,10.97865589144476,-0.9439212416588126,0.1623416298408948,-0.9838202910323016
0.66,0.1053183635960363,0.1513136665409499,2.234868779102561,0.0348410678384039,0.0958928536830642,0.038403722635166,-0.4540729570107418,-0.1123618589705797,-0.4678567880156873,0.1142150049600187,0.1538019158319896,2.2435894349624848,-0.4774977289067552,-0.1144605618990226,-0.5731119464332299,0.3186663190609092,-0.2101737240323142,-0.1725047494511487,-0.1661846564728952,10.172602834268218,-0.936830425493318,0.1651452894995905,-0.9894744871077948
0.68,0.0962245733835553,0.1490410293592455,2.225421666902434,0.0323466607057032,0.1056000624102156,0.0383628133299535,-0.4548281061151728,-0.1146198123943562,-0.4762402899394906,0.1048391315733041,0.1515896851475766,2.232527196039781,-0.4949058480488107,-0.1221586172557636,-0.6131119470292764,0.4357513865160941,-0.0377574552215487,-0.1128976711888274,-0.4191750961901608,9.87071009119245,-0.9270401674282612,0.1672702914672495,-0.9983215995648328
0.7000000000000001,0.0880532716646949,0.1469623171290916,2.216731896668056,0.0303838547808274,0.114088693650748,0.0383155155372355,-0.4529299063308897,-0.1161247878831648,-0.488597280047156,0.0954632581865896,0.1493774544631635,2.2214649571170764,-0.5123139671908663,-0.1298566726125046,-0.6531119476253229,0.6296096373228192,0.0949099892141563,-0.0752487744404284,-0.6178495053832722,9.87071009119245,-0.9166361928219244,0.1685804548450675,-1.0081823312774232
0.72,0.0790372586015888,0.1446302151125317,2.2067794552238635,0.0285854405866346,0.1225089496876432,0.0382389847854532,-0.44868576793645,-0.1170803895045719,-0.5060050871980496,0.0852169788427723,0.1467803210109134,2.20840271816457,-0.5297220863329218,-0.1375547279692455,-0.6931119482213693,0.8971588975380762,0.2122069197219855,-0.0477800810703546,-0.8703903575446786,9.631715153774168,-0.9058782223898908,0.1691034614093338,-1.0188156335469143
0.74,0.0705697033153741,0.1424018181051466,2.1969846735666847,0.0272597252922727,0.1291534142982828,0.0381396740955876,-0.4428484142758683,-0.1174886547216427,-0.5241796550688108,0.0749706994989549,0.1441831875586634,2.195340479212063,-0.5471302054749774,-0.1452527833259865,-0.7331119488174158,0.9546678683383576,0.2918676830290817,-0.0204132608535419,-0.9087283935380608,9.43961896165547,-0.8953620717668007,0.1689118881529752,-1.0296463114215764
0.76,0.0617879492653968,0.1400507851771764,2.186288354067193,0.0263240723265204,0.1345813551876866,0.0380140510773945,-0.4356239920439161,-0.117603735087946,-0.5445701507956011,0.0642892171765862,0.1413936027224948,2.181278240244656,-0.5645383246170328,-0.1529508386827274,-0.7731119494134622,1.0816397691242765,0.3612211115976094,-0.0057540183151648,-1.0195247863395152,9.318710412052496,-0.8856645969479446,0.1680458942087103,-1.0399815273421762
0.78,0.0531590864199284,0.1377005253078658,2.175173477197116,0.0259305072611701,0.1384505572048966,0.0378781065012957,-0.4276507089187553,-0.1174423073816923,-0.5659514039665013,0.0531725318756661,0.1384115665024076,2.166216001262347,-0.5819464437590883,-0.1606488940394684,-0.8131119500095086,1.14100535697302,0.3986641562580412,0.0080713853126856,-1.0690626585450114,9.318710412052496,-0.8776544321611885,0.1666730556818801,-1.048832889589264
0.8,0.0446940781629033,0.135354881134624,2.163622136547321,0.0261520354854617,0.1408746474559038,0.0377425360860645,-0.4193034345891397,-0.117172299760874,-0.5881584339045514,0.0317765509739907,0.1318284099387812,2.146875906998791,-0.4384210139786055,-0.1240183681648103,-0.6659514054566175,1.1862778674478092,0.4173637164807786,0.0135003810409144,-1.1103514969025008,9.282243577343252,-0.8704035809112451,0.1645621601699033,-1.0572832428398338
0.8200000000000001,0.0367881190661157,0.133078010191183,2.152509722795391,0.0255488337922941,0.1439516643763407,0.0375725235409254,-0.4128207990699332,-0.1219476369949204,-0.5804519654775415,0.0317765509739907,0.1318284099387812,2.146875906998791,-0.4384210139786055,-0.1240183681648103,-0.6659514054566175,0.5572657906920341,0.3241317759603263,-0.2387668617023185,0.3853234213504919,9.251182496611364,-0.8663828615342571,0.1618406699047921,-1.0645011984141102
0.84,0.0286216882349233,0.1306005212181021,2.1409471330104024,0.0232608359293679,0.1493528015158624,0.0373236558651122,-0.403863683004882,-0.1252540735333341,-0.5766086388773921,0.0317765509739907,0.1318284099387812,2.146875906998791,-0.4384210139786055,-0.1240183681648103,-0.6659514054566175,0.5146202729702075,0.4478558032525614,-0.1653218269206877,0.1921663300074705,11.08075368700247,-0.8601995818949544,0.1645824057931008,-1.0682245721372043
0.86,0.0206603076930865,0.1280836708315988,2.1293894864881904,0.0201866929264098,0.1556063866886283,0.037022889280049,-0.3925195841075234,-0.1260643638178462,-0.5793449092513507,0.0273923408342046,0.1305882262571331,2.140216392944225,-0.4405750749905756,-0.1253335803214339,-0.6859514057546406,0.5848767513280702,0.56720494486793,-0.0405145142256008,-0.1368135186979313,10.67948079845428,-0.8517302507837403,0.1678372771747484,-1.0741338929716593
0.88,0.0133270138210571,0.1256955641531085,2.118309805491392,0.0172973816719329,0.1613136298933336,0.0367172910133165,-0.3798987882624198,-0.1252674328301428,-0.5868161374915274,0.0186239205546325,0.1281078588938368,2.1268973648350924,-0.4448831970145157,-0.1279640046346811,-0.7259514063506871,0.7344025431937143,0.631039792255178,0.0398465493851654,-0.3735614120088326,10.052078805794736,-0.8419946281948785,0.1705666134616556,-1.0816956639048196
0.9,0.0058811060790822,0.1232088344085549,2.106452667618765,0.014585935775217,0.1664255951025903,0.036388248864903,-0.365315822881406,-0.1234626722072241,-0.5986992013593633,0.0098555002750604,0.1256274915305406,2.11357833672596,-0.4491913190384557,-0.1305944289479283,-0.7659514069467336,0.9448905321477076,0.729148269050689,0.0902380311459394,-0.5941531933917943,10.052078805794736,-0.8320188160295126,0.1725391407479654,-1.0900140203321962
0.92,-0.0012625454664186,0.1207657093036929,2.094322601775916,0.0123225413734028,0.1702446354506409,0.0360615253412029,-0.3498003849039296,-0.120991340896292,-0.6138517080790684,0.0008716738942913,0.1230156029515821,2.0982593085870254,-0.4534994410623958,-0.1332248532611755,-0.80595140754278,1.091369270655012,0.7757718988738227,0.1235665655466018,-0.7576253359852569,9.683412225313075,-0.8231531503146733,0.1737250806960458,-1.0978351333646232
0.94,-0.0080874463786699,0.1183772904800201,2.081872538374376,0.0105500636102408,0.1725504480047366,0.0357454083411353,-0.3335847884966453,-0.1180803293182851,-0.6303997992904877,-0.0081121524864777,0.1204037143726235,2.0829402804480908,-0.4578075630863359,-0.1358552775744227,-0.8459514081388265,1.1675389479506386,0.810779820364213,0.1455505789003448,-0.8274045605709657,9.683412225313075,-0.8153530788609372,0.1743546953493533,-1.1051267048282964
0.96,-0.0142675242417922,0.1161655969114456,2.069731916632995,0.009327839936963,0.1733126164194424,0.0354610338718814,-0.3178818725792038,-0.1149292533928833,-0.6467351579942312,-0.0172036819178454,0.1177260651858338,2.066621252294255,-0.462115685110276,-0.1384857018876699,-0.8859514087348729,1.143847445879316,0.7851457958720776,0.1575537962700907,-0.8167679351871737,9.61023069244493,-0.8103501365177157,0.1748996544380725,-1.1097728501924229
0.98,-0.0204508390881774,0.1139061069199492,2.0566092491692856,0.0086430158042265,0.1726022154060599,0.0351902656550563,-0.3013342960143346,-0.1112197072886144,-0.6647083198491873,-0.0264029143998115,0.1149826553912128,2.049302224125518,-0.4664238071342161,-0.1411161262009171,-0.9259514093309194,1.2355338618734366,0.8273788282434608,0.1854773052134467,-0.8986580927478061,9.61023069244493,-0.8072021099916372,0.1748508588380429,-1.1130992230683967
1.0,-0.0263020312846995,0.1117243292637209,2.043120973016465,0.0087342139701655,0.170156267878485,0.0349587832427088,-0.2846895012910171,-0.1072045029222851,-0.6832360101412608,-0.0355175538888941,0.1083451215555185,2.023373833176826,-0.2853072850370663,-0.1171647499956404,-0.7647083213393034,1.261394431813222,0.832239736165874,0.2007602183164647,-0.9263845146036732,9.570460063373504,-0.8058582317417493,0.1739098015403179,-1.1153824319799386
1.02,-0.031852634751265,0.1096206921576929,2.0294581782870806,0.0097522202790522,0.1677554825960835,0.0347894741405502,-0.2718374141474341,-0.103419428915236,-0.6771954109942658,-0.0355175538888941,0.1083451215555185,2.023373833176826,-0.2853072850370663,-0.1171647499956404,-0.7647083213393034,0.7348329184919623,0.6426043571791495,0.1892537003524541,0.3020299573497476,11.47867661942837,-0.8007764261391461,0.1683326634907439,-1.125804418673187
1.04,-0.0369042367799936,0.1076912891545193,2.016678318244023,0.0118090710369783,0.1690614519940567,0.034736031367435,-0.2600320988125992,-0.100004226810289,-0.6687940379047583,-0.0355175538888941,0.1083451215555185,2.023373833176826,-0.2853072850370663,-0.1171647499956404,-0.7647083213393034,0.7443321593240884,0.590265766741746,0.1707601052473514,0.4200686544753751,11.47867661942837,-0.7985263712905037,0.1673844257386025,-1.125910600720094
1.06,-0.0419514532344054,0.1057162547741202,2.003338141980723,0.0147920258497495,0.1727239281044214,0.03476572594095,-0.2450462002803826,-0.097931458677858,-0.6659583947193976,-0.0383706267392648,0.1071734740555621,2.015726749963433,-0.2821018828416127,-0.1183537585370456,-0.7847083216373266,0.7696011870173303,0.7492949266108259,0.1036384066215478,0.141782159268039,11.098803711542132,-0.7923702954497671,0.165009455798827,-1.1297231962693686
1.08,-0.0466752273324062,0.1037669653805594,1.9899919805419248,0.0178962640393746,0.1771732037568527,0.0348224252707418,-0.227930694090801,-0.0971764641005646,-0.6688009442761613,-0.0440767724400061,0.1048301790556493,2.000432583536647,-0.2756910784507054,-0.120731775619856,-0.8247083222333731,0.8683182839834804,0.8557753094790801,0.0377497288646687,-0.1421274778381887,10.7187365994032,-0.7856660098386168,0.1625338448759004,-1.1340178994112513
1.1,-0.0510381520983622,0.1018236118633359,1.97654364923348,0.0208145452926742,0.1813576386109684,0.0348687614766608,-0.2091779665430014,-0.0972196508672509,-0.6759047220256464,-0.0497829181407474,0.1024868840557365,1.985138417109861,-0.2692802740597981,-0.1231097927026664,-0.8647083228294196,1.0026593562782191,0.9376363773899832,-0.0021593383343149,-0.3551888874742559,10.419838624347904,-0.7775895304328543,0.1595748725341593,-1.1399565496294413
1.12,-0.0548241441044236,0.0999708845510191,1.963603787366353,0.0233174009197839,0.1844915696901685,0.0348806817646133,-0.1903285033397367,-0.0977990032036082,-0.685837863479196,-0.0551685236219434,0.1000246882016831,1.9678442506532725,-0.2628694696688908,-0.1254878097854768,-0.904708323425466,1.0657218343886643,0.9424731601632348,-0.0289676168178661,-0.4966570726774755,10.19602556787322,-0.7696442771587173,0.1564976240059815,-1.1462875140246087
1.14,-0.0584151775734472,0.0980040584677886,1.9497626483939343,0.0256480721722052,0.1865965400997412,0.0348446188918268,-0.169818497786235,-0.0988610967711977,-0.6978174103566033,-0.0605541291031394,0.0975624923476298,1.950550084196684,-0.2564586652779835,-0.1278658268682872,-0.9447083240215124,1.1887997244479231,1.025500277675083,-0.0531046783794703,-0.598977343870366,10.025691682819344,-0.7624830968904236,0.1533046589335116,-1.1525814469146232
1.16,-0.061588007627834,0.0960103573322249,1.9356706869353508,0.0276288647111613,0.1872377097173018,0.0347431019635741,-0.148638227058304,-0.1004163898360755,-0.7107757556535707,-0.0657794644745626,0.0950408460665062,1.9322559177251943,-0.2500478608870763,-0.1302438439510976,-0.9847083246175588,1.2439267637822842,1.0590135363965525,-0.0777646532438905,-0.6479172648483689,9.956190262015298,-0.7572493170597219,0.1504573455646473,-1.1576101490187705
1.18,-0.064332730200311,0.0939815304871152,1.9213104727221468,0.0292440462796117,0.186155428755858,0.0345615331385981,-0.1270108036106542,-0.1023454095935052,-0.7245936780344375,-0.0708445297362132,0.0924597493583124,1.912961751238804,-0.243637056496169,-0.132621861033908,-1.024708325213605,1.2868581323636348,1.0813711723824906,-0.096450987871486,-0.6908961190433438,9.918518410894649,-0.7539475739431553,0.1477559760528645,-1.1614432061833826
1.2,-0.0665363361985817,0.0920143686356881,1.9074043556368845,0.0303933370430886,0.1831405395032914,0.034295470132598,-0.1061637585514691,-0.1046031590527796,-0.7385038225475282,-0.0706832703808437,0.0888642600074399,1.8850807888204248,-0.1152560440233066,-0.1132200293009704,-0.8245936795245536,1.2581621921433808,1.0423522529592548,-0.112887472963722,-0.6955072256545347,9.837697276501784,-0.7530247168166757,0.1453965475904532,-1.163806736479979
1.22,-0.0683969379758731,0.0898954567023116,1.8927718945439809,0.031438433242063,0.1781116624929963,0.0339372533576989,-0.0810587751424691,-0.1072982973434687,-0.7224473950497784,-0.0706832703808437,0.0888642600074399,1.8850807888204248,-0.1152560440233066,-0.1132200293009704,-0.8245936795245536,1.4961056332714278,1.2552491704499993,-0.1347569145344541,0.8028213748874913,9.837697276501784,-0.7537558625580157,0.1398256293993137,-1.169341611541272
1.24,-0.0697732214362801,0.0877145477620464,1.8784691078679556,0.0324027603602782,0.1719830942659024,0.0335268738224664,-0.0581906542174151,-0.1106737949620539,-0.7090868471453766,-0.0706832703808437,0.0888642600074399,1.8850807888204248,-0.1152560440233066,-0.1132200293009704,-0.8245936795245536,1.3349617776567426,1.1434060462526987,-0.168774880929258,0.6680273952200888,11.873457095524827,-0.7568923411652634,0.1399846181896184,-1.1662469932709465
1.26,-0.07072118612893,0.085460519216183,1.864358778923436,0.0329777114840579,0.1649007349243021,0.0330481983711501,-0.0380930124270136,-0.1145248317325367,-0.7025414142323064,-0.0718358308210768,0.0877320597144302,1.8768348520251796,-0.1129050921058371,-0.1153949532424634,-0.8445936798225768,1.0742304009876154,1.004882089520074,-0.1925518385241395,0.3272716456535096,11.42435180744269,-0.7610825050248117,0.1401362203826385,-1.1629174599613372
1.28,-0.071276686824354,0.083244916526325,1.8510248339206297,0.03296683866047,0.157456084838846,0.0325260710821365,-0.0216766565637129,-0.118446420496626,-0.7013105874678052,-0.0741409517015429,0.0854676591284108,1.8603429784346883,-0.1082031882708981,-0.1197448011254495,-0.8845936804186233,0.846153846515769,0.820817793165036,-0.1960794382044689,0.0615413382250629,10.689651346378014,-0.7665466688847591,0.1403847881461228,-1.15927249053378
1.3,-0.0715547731073458,0.0808319754781147,1.8369725363020843,0.0322501578870673,0.149162945796714,0.0319144859912976,-0.007311411396408,-0.1225831079711368,-0.7041418669324885,-0.076446072582009,0.0832032585423914,1.8438511048441968,-0.1035012844359591,-0.1240946490084355,-0.9245936810146698,0.7607374635603396,0.7182622583652434,-0.2068343737255382,-0.1415639732341655,10.689651346378014,-0.773231778234266,0.141139442035033,-1.154929921989942
1.32,-0.0715757916188749,0.0783376874979682,1.8228248759114751,0.0307399930907742,0.140734316593868,0.0312547117644351,0.0042146238879198,-0.1265585125157472,-0.71060256417453,-0.0785160982707282,0.0807213655622227,1.825359231223904,-0.0987993806010201,-0.1284444968914216,-0.9645936816107162,0.689916552059386,0.5763017642163963,-0.1987702272305179,-0.3230348621020784,10.42624174449611,-0.7805071352410585,0.1424666186776657,-1.1503269902719575
1.34,-0.0713933671928194,0.0757680654003655,1.8085251549223265,0.0284288722583585,0.1324756582444123,0.0305656306166167,0.0132334377704279,-0.1300083266856342,-0.7189991446701315,-0.0805861239594474,0.078239472582054,1.8068673576036105,-0.0940974767660811,-0.1327943447744077,-1.0045936822067627,0.6398101000945277,0.450940694125403,-0.1724907084943508,-0.4198290247800718,10.210541139616907,-0.7877407203251614,0.1442646650936608,-1.145835384733046
1.36,-0.0710741946040155,0.0732756780941317,1.794772303532655,0.0258302060931036,0.1250023421145426,0.0299199586080346,0.0197532975340283,-0.1320401302301353,-0.7282254085117772,-0.0825386020522931,0.0756488334048106,1.787375483968416,-0.0893955729311421,-0.1371441926573938,-1.044593682802809,0.5739354089445134,0.3259929881800221,-0.1015901772250554,-0.4613131920822855,10.105629165919709,-0.7953044420944232,0.1465714613412668,-1.1410144441839765
1.38,-0.0706253873197269,0.0706214108268087,1.7800915275081677,0.0230908355592349,0.1176915027509145,0.0292835461387648,0.0246139130968844,-0.1332149989479292,-0.7394253661086272,-0.0843735325492653,0.0729494480304926,1.76688361031832,-0.0846936690962031,-0.1414940405403798,-1.0845936833988554,0.6132800141965487,0.243030778142805,-0.0587434358896951,-0.5599978798424998,10.021512009160688,-0.8024365219174152,0.1488587918712617,-1.136426039581741
1.4,-0.0700989084025903,0.0679511144325997,1.7651712273080815,0.0205067252185985,0.1110880245704059,0.0287021284371541,0.0276591187831061,-0.1337178940900955,-0.7520949418813789,-0.0693946916648826,0.0639606608794123,1.7431202592027364,0.048441434227327,-0.1309984691483039,-0.8394253675987433,0.6520052366678302,0.1522602843110856,-0.0251447571083127,-0.633478788637587,9.83814538407023,-0.8090024164107097,0.1509067066132503,-1.132249632838827
1.42,-0.0695635943728727,0.0652440103636343,1.750358461779084,0.0173963891241525,0.1077773828587594,0.0281726360176733,0.0258406328003991,-0.1363991297639052,-0.7285218189017378,-0.0693946916648826,0.0639606608794123,1.7431202592027364,0.048441434227327,-0.1309984691483039,-0.8394253675987433,1.189735309870534,-0.090924299135349,-0.1340617836904853,1.1786561489820546,9.83814538407023,-0.8110389659155536,0.1485785165283213,-1.1377736310107869
1.44,-0.0690905511664137,0.0626435444489756,1.7366813791160718,0.0139648243524583,0.1096887470788089,0.0277351961961087,0.0246681699246049,-0.1369908517595002,-0.7124352364495009,-0.0693946916648826,0.0639606608794123,1.7431202592027364,0.048441434227327,-0.1309984691483039,-0.8394253675987433,0.807005172083494,-0.0586231437897143,-0.0295860997797506,0.8043291226118465,12.23307136209678,-0.8111666756106762,0.1547387570467356,-1.1333211871954636
1.46,-0.0685838337164315,0.0599124942438906,1.7225402867029456,0.0103445816700361,0.1152110481047577,0.0273189343912166,0.0264960827164165,-0.1359683321470802,-0.7028480426549416,-0.0689102773226094,0.0626506761879292,1.734726005526749,0.0532069384534156,-0.1305551631883789,-0.8594253678967665,0.4906656101325227,0.0913956395905803,0.0511259806209973,0.479359689727965,11.590385313964362,-0.806288911509433,0.1603423803190688,-1.1333883982834625
1.48,-0.068007978046806,0.0572159074463048,1.7085217066243574,0.0069636742022848,0.1226613194508761,0.0269258478927614,0.0313436475201283,-0.1336887936081802,-0.6997542154115264,-0.0679414486380628,0.0600307068049631,1.717937498174774,0.0627379469055926,-0.1296685512685288,-0.899425368492813,0.3093014204971177,0.2423782401855893,0.1139769269450002,0.1546913621707613,10.704224884983889,-0.7983411117683675,0.1651445898622804,-1.1365606776411294
1.5,-0.0673052494952887,0.0545756723912076,1.6945087314587408,0.0039468188947327,0.1307868382743073,0.0265470707426969,0.0389492981414738,-0.1304373385788252,-0.7019191327563615,-0.0669726199535163,0.057410737421997,1.7011489908227992,0.0722689553577697,-0.1287819393486786,-0.9394253690888594,0.4275065739022618,0.3802825310672764,0.162572751467753,-0.1082458672417574,10.4133286137685,-0.7892083938408985,0.1689928463534304,-1.141327517544346
1.52,-0.06647344261744,0.0521356165865884,1.681111837935839,0.0014861122262954,0.1383015017505051,0.0262024168234639,0.0483745085421659,-0.1266251573575303,-0.708177196752071,-0.0655272408463609,0.0548350986350235,1.682360483441022,0.0817999638099467,-0.1278953274288285,-0.979425369684906,0.5969310716818645,0.4712605200346068,0.190609061064742,-0.3129031997854747,10.191345853996609,-0.7791571896041152,0.1722383078993374,-1.1472324992718952
1.54,-0.0653829136858272,0.0496507498929305,1.6668605404623482,-0.0006773475692226,0.1454423914987604,0.0258600757730805,0.0603120955735285,-0.1220956251543484,-0.7167198499602213,-0.0640818617392055,0.0522594598480499,1.663571976059245,0.0913309722621238,-0.1270087155089784,-1.0194253702809524,0.7681138749328444,0.5968793515681317,0.2264766101590959,-0.4271326604075143,10.191345853996609,-0.7694226223484311,0.1746470233149005,-1.1535020670682798
1.56,-0.0640332540597855,0.047261632691577,1.6524227111861676,-0.0023976742619961,0.1513777071355745,0.0255464032834203,0.074113679725708,-0.1170873860047743,-0.7267064157532352,-0.0623982074207457,0.0497059863590726,1.6437834686625663,0.1008619807143008,-0.1261221035891283,-1.0594253708769987,0.8878311788104951,0.6900792076089713,0.2504119574787064,-0.4993282896506967,10.099241205416549,-0.7606183645494589,0.176500804996504,-1.159335694247317
1.58,-0.0623924312489998,0.044978714394102,1.6377692406615942,-0.0035898121391503,0.1557712191597549,0.0252753489766634,0.0892066276213937,-0.1115205557244566,-0.7381556905920148,-0.0604762778909814,0.0471746781680915,1.6229949612509869,0.1103929891664778,-0.1252354916692782,-1.099425371473045,0.987259552860414,0.7546473947842879,0.2783415140158854,-0.5724637419389778,10.037596423158902,-0.7530635725519155,0.1777547143558704,-1.16452676307957
1.6,-0.0604421289888563,0.0428127267343661,1.6228725466359386,-0.0040742648039672,0.1585217703880554,0.0250657002691073,0.1049486271684894,-0.1054459375360603,-0.7509497626570798,-0.0579320998679302,0.0394026866078792,1.6008614561319936,0.1150621036580616,-0.0965227232473638,-0.782577553402865,1.05877265723293,0.787099977354784,0.303730909419813,-0.6397036032532499,9.973668706516037,-0.7474754193487267,0.1780872332936155,-1.1687329958588673
1.62,-0.0582017023585021,0.0408354756375672,1.6088723756810122,-0.0049354879029793,0.1586988168146111,0.0248563775721568,0.129844569376941,-0.1025684017638283,-0.722100532268869,-0.0579320998679302,0.0394026866078792,1.6008614561319936,0.1150621036580616,-0.0965227232473638,-0.782577553402865,1.910736928883131,1.2447971104225768,0.1438767886115993,1.4424615194105372,12.762646459757889,-0.7487116339079013,0.1751616417187368,-1.1724214385771057
1.64,-0.0553343886355388,0.0388296984373338,1.5947170775706725,-0.0068119026020577,0.1552923924208146,0.024600118037899,0.1552972476819218,-0.0980232194521718,-0.6953454303124972,-0.0579320998679302,0.0394026866078792,1.6008614561319936,0.1150621036580616,-0.0965227232473638,-0.782577553402865,1.8603312849052545,1.272633915249044,0.2272591155828278,1.3377550978185937,12.762646459757889,-0.7496634210562455,0.1798853590929809,-1.1685678600686784
1.66,-0.0519868490100991,0.0369319695357557,1.581023688693859,-0.0089608192465276,0.1483270731454886,0.0243738333536268,0.1775138763379465,-0.0919333691460947,-0.6752374932120793,-0.0567814788313495,0.0384374593754056,1.5930356805979649,0.1202331988653951,-0.0935231567519453,-0.791461925965035,1.5288835796296634,1.110831432801232,0.304492515303853,1.0053968550208958,11.854282386365412,-0.7538467612442356,0.1850297597125058,-1.162637818729987
1.68,-0.0484386841097847,0.0352517831589902,1.568338067248476,-0.0107692413760591,0.1393955808483887,0.0242250474651048,0.1943907591506477,-0.0853032830975258,-0.6610325979043374,-0.0544802367581883,0.0365070049104583,1.5773841295299076,0.1305753892800623,-0.0875240237611082,-0.8092306710893751,1.1517012038599497,0.8438441406350611,0.3315043024284425,0.7102447653870914,11.854282386365412,-0.7611158727817715,0.1892783765166314,-1.1551929145749342
1.7,-0.0444046877299788,0.0336238911926957,1.5552356975157666,-0.01225974478795,0.1286226223561266,0.0241431641204023,0.2076446284648741,-0.0778700426609544,-0.650096749341457,-0.0521789946850271,0.034576550445511,1.5617325784618503,0.1409175796947294,-0.0815248907702711,-0.8269994162137151,0.9360968152076032,0.6626934657113212,0.3716620218285699,0.5467924281440217,11.501282857044316,-0.7709640299809359,0.1932819224599184,-1.1456889368844505
1.72,-0.0401528344940345,0.0321508071334068,1.542308493890454,-0.0131358964099002,0.1173739468942457,0.0241368471551421,0.2165151715822687,-0.0698969134467994,-0.6431104276005819,-0.0493606430911325,0.0329460526301056,1.545192590137576,0.1512597701093965,-0.075525757779434,-0.8447681613380551,0.6911331567255936,0.4435271558697301,0.3986564607077525,0.349316087043755,11.21812531262094,-0.7814496054992958,0.1961419832640236,-1.1360937842487897
1.74,-0.0359862012711892,0.0309028940429815,1.530142253530264,-0.0132008756637647,0.1069512371846576,0.0241967703342371,0.2214035471201625,-0.061961461210035,-0.6378593463676664,-0.0465422914972379,0.0313155548147002,1.5286526018133018,0.1616019605240637,-0.0695266247885969,-0.8625369064623952,0.5348866041417681,0.2444187768946878,0.3967726118382211,0.2625540616457755,10.974569930263897,-0.7929304394735757,0.1975984794811215,-1.126381118326521
1.76,-0.0315325042715635,0.0297536454751543,1.517432591617309,-0.0122725601483864,0.0967796548574985,0.0243230823998238,0.2234690034600824,-0.0534823292831401,-0.6334152067147983,-0.0434653851429766,0.0298350353240657,1.5116683948609189,0.1719441509387308,-0.0635274917977598,-0.8803056515867352,0.4896737826859786,0.1032728169959945,0.4239565963447454,0.2222069826434025,10.880978530828544,-0.8040784711824515,0.19778273047996,-1.1169723591784524
1.78,-0.0275128288300615,0.0288633870857968,1.506059122284154,-0.0104276208789949,0.0886166767588893,0.0244875827386396,0.222925812475884,-0.0459609475019692,-0.6305700187673937,-0.0401299240283487,0.0285044941582021,1.4942399692804276,0.1822863413533979,-0.0575283588069227,-0.8980743967110754,0.4029929738826115,-0.0271595492099194,0.3760690890585449,0.1422593973702313,10.802492354391688,-0.8126556342969041,0.1967696712862758,-1.10989018519493
1.8,-0.0233010097888554,0.0280595717777258,1.4940965556945272,-0.0075601709777205,0.0812480747844777,0.0246951663149375,0.2203607552476608,-0.0394039906236824,-0.628847967421078,-0.0163665382062673,0.0265653397106983,1.4745306213457845,0.2346027880017996,-0.0385298888231931,-0.6316805397961434,0.3624177938757985,-0.12825286141116,0.3278478439143389,0.0861025673157878,10.717284821587782,-0.8212995800843629,0.1942139868536099,-1.1031650191409674
1.82,-0.0189183997274343,0.0273436563418443,1.481789956547603,-0.0037971911691569,0.0749883118961919,0.0249308305450302,0.2179526472927646,-0.0329191032281904,-0.6005482038986886,-0.0163665382062673,0.0265653397106983,1.4745306213457845,0.2346027880017996,-0.0385298888231931,-0.6316805397961434,1.4566480047336472,-0.1204053977448077,0.3242443697746001,1.4149881761194694,10.63079191307952,-0.8304325163806295,0.186844209776947,-1.1012518916711076
1.84,-0.014606008237417,0.026731212974121,1.4700681041232206,0.0002958127146225,0.0706599410509872,0.0251586934241603,0.2132382558216655,-0.0287858122460148,-0.5733970980595794,-0.0163665382062673,0.0265653397106983,1.4745306213457845,0.2346027880017996,-0.0385298888231931,-0.6316805397961434,1.393280418268891,-0.2357195735549558,0.2066645491087771,1.357555291955459,12.501754853602506,-0.8356606580919673,0.1858488255048462,-1.0933556909325208
1.86,-0.0104094168677132,0.0261847215075979,1.4588384336862563,0.0041591374887567,0.0688492785047621,0.0253571592838274,0.2068759763722049,-0.0260968912625772,-0.550884914691205,-0.0140205103262493,0.0261800408224664,1.4682138159478229,0.2369381831069827,-0.0370436770874379,-0.6319026440018933,1.1773989296957834,-0.3181139724730303,0.1344460491718812,1.1256091684187175,12.194779834183464,-0.8396043770956259,0.1842812942295152,-1.086962216940333
1.88,-0.006535610170224,0.0257051903548242,1.4485539089151247,0.0074433636256975,0.0692174133871909,0.0255241243824286,0.2014304463924999,-0.0244847903392056,-0.5327971121664684,-0.0093284545662133,0.0254094430460025,1.4555802051519,0.241608973317349,-0.0340712536159275,-0.6323468524133932,0.9479204427599268,-0.2722764989852494,0.0806050461685818,0.9043901262368316,11.894502142980857,-0.8412602094846755,0.1824810711264854,-1.083184894401935
1.9,-0.0025577086253225,0.0252261249999241,1.4380736772649922,0.0104361248502971,0.0711038158253871,0.0256827374080562,0.1968250728275497,-0.0234863342963774,-0.5162811964864613,-0.0046363988061773,0.0246388452695387,1.4429465943559772,0.2462797635277152,-0.0310988301444171,-0.632791060824893,0.8587517844105286,-0.230268678247511,0.0499228021414095,0.8257957840003549,11.65687964729932,-0.8408867350161856,0.1808289370009764,-1.081515608690255
1.92,0.0013410244261359,0.02476086341034,1.4278992505615344,0.0129387870664569,0.0739444670127595,0.0258249549936353,0.1934362282851308,-0.0230486010335384,-0.5020743254474433,0.0002891964643769,0.0240168686666503,1.4302907731394794,0.2509505537380815,-0.0281264066729067,-0.6332352692363928,0.7306008870466921,-0.1694422271209444,0.0218866631419472,0.7103435519508983,11.481251994974627,-0.8391991136560045,0.1795657889492709,-1.0810438036303829
1.94,0.005186199457252,0.0242992705583783,1.417997760903064,0.0149489358685835,0.0772556965303648,0.0259478477705019,0.1913856951997786,-0.0230430105427757,-0.4887722863456262,0.0052147917349312,0.023394892063762,1.4176349519229816,0.2556213439484478,-0.0251539832013963,-0.6336794776478927,0.6729579508668838,-0.1025266542676109,0.0002795245381369,0.6651019550908549,11.333400661258564,-0.8369706820395596,0.1785320920115255,-1.0814771709751625
1.96,0.0088140640546259,0.0238579994004148,1.4088322134359736,0.0164388840895213,0.080459428351121,0.0260440366564205,0.1906736502514945,-0.023351024968797,-0.476687390780233,0.0102571567607446,0.0228472260476614,1.4049680254961965,0.260292134158814,-0.0221815597298859,-0.6341236860593926,0.6054886079057863,-0.0356022474142056,-0.0154007213010662,0.6042447782696608,11.2861181728249,-0.8343166031350256,0.1778510275918472,-1.0822187928139906
1.98,0.0126296837970989,0.0233836727306472,1.3994264238298435,0.0175276801939858,0.0835945686710915,0.02611504746869,0.1909965566686895,-0.0240496872775922,-0.4645566893143801,0.0154162915418172,0.0223738706183486,1.392289993859123,0.2649629243691803,-0.0192091362583755,-0.6345678944708925,0.607754711272655,0.016145320859752,-0.0349331154397603,0.6065350732926467,11.24937135291202,-0.8316368473906467,0.1776581601130373,-1.0829884702536376
2.0,0.0164614764811711,0.0228913746222369,1.3902552558583294,0.0179914523236619,0.0862811139515766,0.0261405401031351,0.1922027004521304,-0.0251088887218069,-0.4532011568166441,0.0221795116305334,0.0221811883667675,1.3761985893641246,0.1836718685321119,-0.0297884359807442,-0.4100079116745142,0.5734213303342015,0.0603071891720416,-0.0529600722107313,0.567776624886801,11.212070608094107,-0.8292363870536932,0.1781202580436297,-1.083466483038917
2.02,0.020413578683268,0.0224174028404438,1.3814785347455465,0.0190746196099126,0.0859416059673443,0.0261578769150838,0.2025899491085946,-0.0227388611464452,-0.4250352883350882,0.0221795116305334,0.0221811883667675,1.3761985893641246,0.1836718685321119,-0.0297884359807442,-0.4100079116745142,1.5056793422567545,0.5193624328232116,0.1185013787680816,1.4082934240777916,11.16524860575828,-0.8370854376251557,0.1768012212265055,-1.076301262480591
2.04,0.0243493711396842,0.0219925681358386,1.3736662669807882,0.021119316479156,0.0809194385108471,0.0261505212557907,0.2104743968736728,-0.0223117206215356,-0.3987414839286257,0.0221795116305334,0.0221811883667675,1.3761985893641246,0.1836718685321119,-0.0297884359807442,-0.4100079116745142,1.3726899829837524,0.3942223882539106,0.0213570262454812,1.3146902203231252,12.288437820230683,-0.8420737059289767,0.1783021797116215,-1.0678417890388965
2.06,0.0286033155318518,0.0215346463975646,1.3659705899831842,0.0234650005003553,0.0724124586921255,0.0260711059012173,0.2139406508431055,-0.0235678960613594,-0.3722377340876192,0.0240162303158545,0.0218833040069601,1.3720985102473795,0.1822069309047964,-0.0309361857213746,-0.399098156146541,1.3379477278194365,0.1733126984716365,-0.0628087719911893,1.3251874920503253,12.17006781877626,-0.8518978371330437,0.1791163744907043,-1.055871801991885
2.08,0.0328738092268433,0.0210396976318385,1.3587907279275804,0.0255532911898717,0.0623490953254316,0.0259149157506447,0.212473355346998,-0.0258426745917062,-0.3470995134343677,0.0276896676864968,0.0212875352873452,1.3638983520138892,0.1792770556501653,-0.0332316852026353,-0.3772786450905947,1.2641773125699023,-0.0733647748053761,-0.1137389265173396,1.2569110326625748,12.0742571189312,-0.8653323855546295,0.1810644339671938,-1.0391123075616433
2.1,0.0368590503592483,0.0205208771385566,1.3524236235567446,0.0271414846898023,0.05263188609303,0.025716724976116,0.2067965457991305,-0.0286168120697088,-0.324407866361581,0.031363105057139,0.0206917665677303,1.355698193780399,0.1763471803955343,-0.0355271846838961,-0.3554591340346483,1.1777445099272672,-0.2838404773933739,-0.1387068739001311,1.1345823536393351,11.97079819022565,-0.8801694102049052,0.1831844369334914,-1.020802568820189
2.12,0.0408965432350153,0.0199120820483384,1.346177168681514,0.0282775886571505,0.043266219705901,0.0254819523251547,0.1970209881808341,-0.0320901549523078,-0.3014379654088753,0.0348900486650497,0.0199812228740524,1.348589011099706,0.1734173051409033,-0.0378226841651569,-0.333639622978702,1.2602003683004608,-0.488777880914823,-0.1736671441299497,1.1484950476352866,11.881271168746023,-0.8951388071810245,0.1852626534786302,-1.0024704137003653
2.14,0.0447029072343661,0.0192278582514104,1.3403859115045902,0.0286818955529464,0.0355248298509505,0.0252388663989117,0.1839309531486408,-0.0361062917448692,-0.2788214489131877,0.0384169922729604,0.0192706791803745,1.341479828419013,0.1704874298862722,-0.0401181836464177,-0.3118201119227556,1.321916402689974,-0.6545017516096637,-0.2008068396280694,1.1308258247843788,11.819570579845276,-0.908896931629025,0.1876463575038428,-0.9851690507729216
2.16,0.0480467967823202,0.0185001448397286,1.335300431705003,0.0282024821289556,0.0303832798923187,0.0250170356918653,0.168540191417486,-0.0402218367444421,-0.2576190863418187,0.0418706889995053,0.018502747999665,1.3349161335147186,0.1675575546316412,-0.0424136831276784,-0.2900006008668093,1.326040568682268,-0.7695380865577403,-0.2057772499786454,1.0601181285684491,11.799745357570828,-0.9197273752043852,0.1905870827415356,-0.9705402278839746
2.18,0.0512239470730212,0.0176504798077435,1.330381697766414,0.0266627027298309,0.0282330979792869,0.0248154253688162,0.1501677360214186,-0.0444118244969023,-0.2353246251573679,0.0452511388446844,0.0176774293319241,1.328897926386823,0.1646276793770101,-0.0447091826089392,-0.2681810898108629,1.459577091276128,-0.9186227698033678,-0.2094993876230088,1.1147230592225388,11.784332198052653,-0.9294823502438392,0.1940194710478091,-0.9569569909378658
2.2,0.054038542264517,0.01672465512882,1.325908973938302,0.0241164096781338,0.029359437445772,0.024642988904092,0.1325236333637388,-0.0476577217075248,-0.2130168756975014,0.0587323338740921,0.0154298885828984,1.3186154665085457,0.1525705617681039,-0.0531652182736171,-0.1370843762984392,1.4313332013029385,-0.8822051328839925,-0.1622948605311248,1.115387472993326,11.75072062232357,-0.9362316604618852,0.1981293603408157,-0.9461756352189644
2.22,0.0563860380690136,0.015817707543446,1.3220595635376569,0.0217459750216664,0.0331694622904483,0.0245539991867683,0.1159270443628667,-0.0478302111090855,-0.1932531424687182,0.0587323338740921,0.0154298885828984,1.3186154665085457,0.1525705617681039,-0.0531652182736171,-0.1370843762984392,1.2904279040264404,-0.8298294500436038,-0.0086244700780346,0.988186661439161,11.75072062232357,-0.9393495795695648,0.2028866510744371,-0.9382812488694852
2.24,0.0585477477270619,0.0148622329085778,1.3184352068533842,0.019786935180741,0.039437064456773,0.0245472009556493,0.101506909841169,-0.047739860904916,-0.170071674556307,0.0587323338740921,0.0154298885828984,1.3186154665085457,0.1525705617681039,-0.0531652182736171,-0.1370843762984392,1.3650356198259082,-0.721006726084885,0.004517510208471,1.1590733956205592,11.629905259682346,-0.9418290777327007,0.2063676096777839,-0.9322121264504756
2.26,0.0604541854079249,0.0139139121797265,1.315299952954711,0.0183027946557588,0.0469172116831904,0.0245966577460495,0.090186500387668,-0.047141149115155,-0.1445935033003888,0.0602580394917731,0.0148982364001622,1.3172446227455612,0.153051126917441,-0.05491589702896,-0.1174363265266535,1.3943164423365395,-0.5660204726750502,0.0299355894880528,1.27390856279591,11.765707439591097,-0.9432307649207876,0.2102862894888252,-0.9262293708822252
2.28,0.0620847505540379,0.0130297371421459,1.3128096456172442,0.0173916986156711,0.0543401530172689,0.0246852321989518,0.0822272735680237,-0.0459949520326926,-0.1188010229366736,0.0633094507271352,0.0138349320346899,1.3145029352195925,0.154012257216115,-0.0584172545396459,-0.078140226983082,1.3508470515115938,-0.3979613409822169,0.0573098541231196,1.2896240181857614,11.87518251630172,-0.9445973785909588,0.2151835155025118,-0.9186200500208044
2.3000000000000003,0.063665523966716,0.0121276627970799,1.310732632598803,0.0170926719785928,0.0618346092189701,0.0248241196522336,0.0764675014447908,-0.0442937638756159,-0.0901767968996417,0.0663608619624973,0.0127716276692175,1.3117612476936238,0.1549733875147892,-0.0619186120503319,-0.0388441274395106,1.4623742102112909,-0.2879886061616411,0.0850594078538363,1.4312113018515913,11.958668265130656,-0.9469124303708488,0.2208493092649023,-0.9085332822387788
2.32,0.0651556800030024,0.0112632364964932,1.309239254363745,0.0175974890654767,0.0685182122087351,0.0250156899370119,0.0729617806053508,-0.0422807280981751,-0.0605414763511512,0.0694603297127931,0.0115332554282109,1.3109843651448336,0.1559345178134633,-0.0654199695610178,0.0004519721040608,1.4954887291928376,-0.1752860419720003,0.1006517888720373,1.4817660274245248,12.038215453523662,-0.9499785931229384,0.2264490848854442,-0.8973165351292918
2.34,0.0665956210014917,0.0104393672259653,1.308346209219549,0.0189719723492241,0.0740521805752881,0.0252626610133011,0.0712200095530811,-0.0402951023468911,-0.0302213144321831,0.0725597974630889,0.0102948831872043,1.3102074825960432,0.1568956481121374,-0.0689213270717037,0.0397480716476323,1.5217495644940502,-0.087088552613488,0.0992812875641988,1.5160080959484068,12.081063333684142,-0.9542237473165914,0.2322503624258001,-0.8840989386896616
2.36,0.0679429838783981,0.009688735538404,1.308063500577513,0.0210011170523859,0.0781226951084193,0.0255412204998346,0.0706620706120363,-0.0388941024614408,-0.001027201597949,0.0756832934708515,0.0089689770084305,1.3104130025358425,0.1578567784108115,-0.0724226845823896,0.0790441711912038,1.4616517375207387,-0.0278969470522388,0.0700499942725148,1.459705641711705,12.111648832127685,-0.9595827462642776,0.2377666310713102,-0.8697035688607534
2.38,0.0693567888778992,0.0089133902023157,1.3083711208469369,0.0235110812737632,0.0811771696791204,0.0258510125451093,0.0707231346967006,-0.0388328126026562,0.0303033730984999,0.078830817736081,0.0075555368918895,1.3116009249642306,0.1588179087094856,-0.0759240420930756,0.1183402707347752,1.5665347076261953,0.0030532042332179,0.0030644929392333,1.5665287348224497,12.111648832127685,-0.9661522190279624,0.2430422191051573,-0.8542978382620747
2.4,0.0707750418247983,0.0081262123405488,1.3093087932903535,0.025825703518415,0.0830782089716452,0.0261344627074534,0.0710394477224998,-0.039859107854631,0.0619355411655431,0.0728929456127342,0.0069717495721828,1.309886289501862,0.0607622383611584,-0.0432474715961388,0.130303374588616,1.58251966219711,0.0158156512899583,-0.0513147625987423,1.5816084033521585,12.132439382949087,-0.9739197481650894,0.2488241377353187,-0.8373286543193679
2.42,0.0721652162792243,0.0073268803034315,1.31059735217376,0.0265706285469371,0.0822870328529675,0.0262462215932539,0.075021889267259,-0.0436865284141621,0.0721414171448303,0.0728929456127342,0.0069717495721828,1.309886289501862,0.0607622383611584,-0.0432474715961388,0.130303374588616,0.5802346363789755,0.1991220772379572,-0.1913710279765543,0.5102937989643612,12.132439382949087,-0.9776405049148288,0.2559828325476929,-0.823458708919647
2.44,0.0736977386921868,0.0064226867304896,1.3121771243227636,0.025402290302611,0.0772703763957353,0.026133335277434,0.0774154694123215,-0.0464025197884973,0.0855801927153282,0.0728929456127342,0.0069717495721828,1.309886289501862,0.0607622383611584,-0.0432474715961388,0.130303374588616,0.6958924555750573,0.1196790072531289,-0.1357995687167597,0.671938778524897,10.973483320713967,-0.9845530448477566,0.2599558887666869,-0.8114086300537545
2.46,0.0752312421565791,0.0054748755534004,1.3140696289359255,0.0228162840973537,0.0696306668085001,0.0258865364886155,0.0753576091288928,-0.0480263053586932,0.10303211891839,0.0735005679963458,0.0065392748562215,1.311189323247748,0.05877005909405,-0.0441304033948353,0.1503033748866392,0.8823848320336237,-0.1028930141714387,-0.0811892785097957,0.8725963101530864,10.973483320713967,-0.9952580661765416,0.2655101144729395,-0.7937266379451405
2.48,0.0766749694725152,0.0045208801934509,1.3163431772408574,0.0197076789395087,0.06120885859415,0.0256312681488328,0.0688423636358646,-0.0472000166646503,0.1234920346776126,0.0747158127635689,0.0056743254242987,1.3137953907395203,0.0547857005598331,-0.0458962669922283,0.1903033754826857,1.0744060332514138,-0.3257622746514095,0.041314434702145,1.022995787961133,11.180806496186053,-1.0086283663427436,0.2724747296086588,-0.7711785842408028
2.5,0.0778876164126503,0.003646966547183,1.3189041841081486,0.017108146797195,0.0537566917356852,0.0254677284792883,0.0590402097484087,-0.0449409954613422,0.145098528489698,0.0759310575307921,0.0048093759923759,1.3164014582312926,0.0508013420256162,-0.0476621305896214,0.2303033760787322,1.1916647729983088,-0.4901076943727947,0.1129510601654077,1.0803246906042667,11.343650695564063,-1.02252588692454,0.2793856521586419,-0.7473802475577987
2.52,0.0789301660002683,0.0027811337999507,1.3220631390822148,0.0150049492062123,0.0474594220153834,0.0254041389864909,0.0455131333198546,-0.0418608940322785,0.1697680104033737,0.0769470843713044,0.0038561333805835,1.3210075257528673,0.0468169834913994,-0.0494279941870144,0.2703033766747786,1.4151432431086577,-0.6763538214277054,0.1540050714531809,1.2334740956837842,11.590918491193406,-1.0355986482286228,0.2859632440988723,-0.7242642963707836
2.54,0.0796642511044029,0.0019839764422862,1.3257230978825325,0.0136652138576734,0.0439459762657364,0.0254644065726811,0.0285394862063013,-0.0381400922017694,0.1950243794913012,0.0779631112118168,0.002902890768791,1.325613593274442,0.0428326249571825,-0.0511938577844074,0.3103033772708251,1.5328349895724065,-0.8486823556776627,0.1860400915254568,1.2628184543963763,11.590918491193406,-1.046112250742865,0.2917869404316717,-0.704781348101332
2.56,0.0800350952437169,0.0013009746523236,1.3296713023082365,0.0132321463578887,0.0439056396533066,0.0256442425217232,0.0117712411694859,-0.0340402707621767,0.2193731024780794,0.0788795290889737,0.0019055015670638,1.3312196608109177,0.0388482664229656,-0.0529597213818005,0.3503033778668715,1.492349564058376,-0.8384122518407706,0.2049910719796356,1.21743614933891,11.62320250751236,-1.0563540547118304,0.2968443213413068,-0.6869981303997842
2.58,0.0800981637791392,0.0006691155958236,1.3343351703547122,0.0138137817657399,0.046679587161397,0.0259596596961003,-0.0042592330017728,-0.0294369293462287,0.2458019303840708,0.0796963380027751,0.0008639657754017,1.3378257283622943,0.0348639078887487,-0.0547255849791935,0.3903033784629179,1.5625698375046222,-0.8015237085629385,0.2301670707974007,1.3214413952995718,11.612319686915724,-1.063812038956054,0.3008817346050865,-0.6740450884360233
2.6,0.079862866530956,0.000128886835585,1.339533618032752,0.0155441941039527,0.0514549126016442,0.026402143910597,-0.0181599026753821,-0.0249159369991671,0.2727652841941544,0.0798852021290506,-0.0008027308714877,1.3466252668739158,-0.0149269985148353,-0.0411077236842166,0.3458019318741869,1.5335338583356573,-0.695033483680467,0.2260496173530803,1.3481676905041775,11.62687046431074,-1.0686476722172025,0.3040099525627013,-0.6654005569925715
2.62,0.0793791982672784,-0.0003137974283868,1.3450386762685085,0.01862165152032,0.0568604498475898,0.0269736549575977,-0.0293917640425021,-0.0201529787591703,0.2763650208425904,0.0798852021290506,-0.0008027308714877,1.3466252668739158,-0.0149269985148353,-0.0411077236842166,0.3458019318741869,0.6360003634123372,-0.5615930683560014,0.2381479119998378,0.1799868324218023,11.62630464731319,-1.06540528807514,0.3096862095074022,-0.6615032827356838
2.64,0.078730549494385,-0.0006737371666026,1.350352197204435,0.022048473441219,0.0616265353477834,0.0275720969475442,-0.0382543476013361,-0.0180756932390175,0.2828290443510737,0.0798852021290506,-0.0008027308714877,1.3466252668739158,-0.0149269985148353,-0.0411077236842166,0.3458019318741869,0.5582206158584948,-0.4431291779416987,0.1038642760076416,0.323201175424162,10.13188534773508,-1.0645341072193732,0.3065246237789939,-0.6671186864938474
