t,x,y,z,roll,pitch,yaw,v_x,v_y,v_z,ref_x,ref_y,ref_z,ref_v_x,ref_v_y,ref_v_z,a_com,a_x,a_y,a_z,thrust,wind_x,wind_y,wind_z
0.0,1.6312454082053978,-1.756040101094244,2.321970476893456,0.0334391954164432,0.099790426570037,0.0423923527183502,-0.0002060428281528,0.0006869007651762,-0.0001311738974135,1.6312322031936572,-1.7559187990280896,2.3219697306763063,-0.1003716422675539,0.1031147813579817,-0.0416726362324842,0.0364517797780684,-0.0103021414076409,0.0343450382588102,-0.0065586948706755,10.257278747986676,-0.9401042933108832,0.2498584752314191,-0.8812806995061492
0.02,1.6314270892032043,-1.7563142167341808,2.321914044380421,0.0244446564594835,0.0940808955348933,0.0415987920682163,0.0176243228991737,-0.0232853278589615,-0.0054554074535901,1.6312322031936572,-1.7559187990280896,2.3219697306763063,-0.1003716422675539,0.1031147813579817,-0.0416726362324842,1.5173473153326391,0.8915182863663259,-1.1986114312068883,-0.2662116778088298,10.257278747986676,-0.9490662532427582,0.2503826051153242,-0.8791054457380564
0.04,1.6319012819425651,-1.756811479550518,2.3217139028434834,0.007566745455058,0.0780549497509331,0.0402195526989773,0.0274097340240042,-0.0243711862445438,-0.0143993111992323,1.6312322031936572,-1.7559187990280896,2.3219697306763063,-0.1003716422675539,0.1031147813579817,-0.0416726362324842,0.6650691195785757,0.4892705562415255,-0.0542929192791146,-0.4471951872821101,10.031946409897955,-0.9568682516327652,0.2669903160027185,-0.860804117386002
0.06,1.6324241917158409,-1.7572213206311615,2.3213526155100173,-0.008948727520511,0.0572602399158732,0.0391986354406541,0.0261909351835176,-0.0183878013823581,-0.0231252631073232,1.6302284867709818,-1.7548876512145095,2.3215530043139814,-0.1203716425655771,0.1231147816560049,-0.0499970991529116,0.5325143231053054,-0.0609399420243269,0.2991692431092855,-0.4362975954045479,9.687301657811986,-0.9709972929195388,0.2822625759769803,-0.8375107773814714
0.08,1.632841858609578,-1.7574897307252817,2.320795756166354,-0.0256658014502676,0.0333865929849344,0.0386440595969537,0.0148056961146618,-0.0084061148660371,-0.0321066341166572,1.6282210539256303,-1.75282535558735,2.320719551589332,-0.1603716431616236,0.1631147822520514,-0.0666460249937662,0.880231162213099,-0.5692619534427896,0.4990843258160502,-0.4490685504666977,9.647646645985333,-0.988881153932476,0.295600741256796,-0.8107718206704582
0.1,1.6329334788034549,-1.7575261604671792,2.320059480499157,-0.0415613598964573,0.0104552980976925,0.0385807491390056,-0.0056124719187528,0.0046041731498944,-0.0410997004201162,1.6262136210802796,-1.7507630599601904,2.319886098864682,-0.20037164375767,0.2031147828480978,-0.0832949508346209,1.2913601566145891,-1.0209084016707362,0.6505144007965794,-0.4496533151729521,9.688681360612463,-1.0073914818480851,0.3070454937199449,-0.7837727408802941
0.12,1.6325351050417878,-1.7572725956855573,2.319144610365424,-0.0566678404234133,-0.009323040599164,0.0388444831378124,-0.0332889063492366,0.0204380338048164,-0.0499707929265532,1.6222061882051262,-1.7467007643032284,2.31822019984799,-0.2403716443537165,0.2431147834441443,-0.0999438766754755,1.654835677856054,-1.3838217215241924,0.7916930327461019,-0.4435546253218489,9.688681360612463,-1.023842818297757,0.3162595247182111,-0.760069664349479
0.14,1.6315928897398138,-1.7567098014747553,2.318111185747535,-0.0702411876150146,-0.0241010784951144,0.0392228709847605,-0.0643847106751761,0.0382338579934303,-0.0583792988992947,1.6181987553299728,-1.7426384686462664,2.316554300831297,-0.280371644949763,0.2831147840401908,-0.1165928025163302,1.8400702282269024,-1.554790216296975,0.8897912094306941,-0.4204252986370765,9.742140910899252,-1.0385933399133298,0.3244662160373142,-0.7390093171665866
0.16,1.6299244658558278,-1.755698158444344,2.316847523847815,-0.0828078050842428,-0.0348418194253726,0.0396264815256143,-0.1008418544942479,0.0617677556921915,-0.06753746646232,1.613191322439918,-1.7375761729744033,2.314472178668584,-0.3203716455458094,0.3231147846362372,-0.1332417283571848,2.217453330654723,-1.822857190953588,1.1766948849380614,-0.4579083781512654,9.789415832344275,-1.0495279666227322,0.3312959394025102,-0.723158364507959
0.18,1.6274902912743543,-1.7541827006028674,2.3153987567652976,-0.0927390169894272,-0.039837217068982,0.0398642621450564,-0.1406132301254767,0.0881832823192539,-0.0768257730182278,1.6071838895349624,-1.731513877287639,2.3119738333598483,-0.3603716461418558,0.3631147852322836,-0.1498906541980394,2.431982218922382,-1.9885687815614368,1.3207763313531171,-0.4644153277953859,9.831634431049224,-1.0562742090019763,0.3356337959185421,-0.7151992382980205
0.2,1.6242581375282272,-1.7521187828493787,2.3137687361118737,-0.0998364939974213,-0.0388115798135896,0.0397812807277874,-0.1798343773512025,0.1162160841107312,-0.0855570743310014,1.6204596297680804,-1.7497735364869047,2.311557468114386,-0.2406132316155928,0.18818328380937,-0.1222524807330238,2.4496795650639496,-1.9610573612862947,1.4016400895738648,-0.4365650656386797,9.880976681810353,-1.059788518864208,0.3373152410334982,-0.7141042354183893
0.22,1.6204416442070926,-1.749490933221452,2.3121154457254423,-0.0999270414817123,-0.0322427966515979,0.0396091674172563,-0.2188802432300647,0.1563447271557079,-0.0876350836484479,1.6204596297680804,-1.7497735364869047,2.311557468114386,-0.2406132316155928,0.18818328380937,-0.1222524807330238,2.8014307762216086,-1.952293293943108,2.006432152248834,-0.1039004658723245,9.906398261398865,-1.060534521434957,0.3367303501630613,-0.7152504384408271
0.24,1.615692114589057,-1.7460250978988283,2.310354443708148,-0.0934309023942843,-0.020420683347234,0.0394384264790154,-0.2532106353764724,0.1869410902836887,-0.0882047597453354,1.6204596297680804,-1.7497735364869047,2.311557468114386,-0.2406132316155928,0.18818328380937,-0.1222524807330238,2.299477001646656,-1.716519607320384,1.5298181563990405,-0.0284838048443793,10.410068109349597,-1.0564150200821698,0.3305872475652232,-0.7279516965943637
0.26,1.610325220797702,-1.742029709531695,2.3085764786449383,-0.0853947288828656,-0.0061213484405819,0.039239193526347,-0.2811535063841252,0.2108023157148396,-0.0895924808111573,1.6180534974519245,-1.747891703648811,2.310334943307056,-0.260613231913616,0.2081832841073932,-0.1313378222759831,1.838537386744591,-1.3971435503826402,1.1930612715575453,-0.0693860532910942,10.297617587272724,-1.049996551385925,0.3247769546923116,-0.7417237374556434
0.28,1.6044624585336835,-1.7375991580470924,2.3067537749236524,-0.0777721336924744,0.0087633373868334,0.0390740571681297,-0.3032709804314313,0.2310613708868529,-0.0927061424585158,1.6132412328196126,-1.7441280379726236,2.3078898936923955,-0.3006132325096624,0.2481832847034397,-0.1495085053619015,1.5077357722344538,-1.1058737023653065,1.0129527586006646,-0.1556830823679252,10.153239529968232,-1.0414603665677955,0.3190359514650323,-0.7577937454132907
0.3,1.5985330528885255,-1.7330375641653504,2.304943430582336,-0.0715964087708426,0.0221036915694324,0.0389976927463068,-0.3195878723378315,0.2483014576688516,-0.0977332454567629,1.6084289681873007,-1.740364372296436,2.305444844077735,-0.3406132331057089,0.2881832852994861,-0.1676791884478199,1.2131913681391917,-0.8158445953200061,0.8620043390999351,-0.2513551499123557,10.011585904375352,-1.0322189930757566,0.3143455053557616,-0.7733226577726913
0.32,1.5919969954557216,-1.7278947850779245,2.302915315342244,-0.0663453018824441,0.0343978121097576,0.0390271578348737,-0.3329837086682589,0.2652268275408157,-0.1049427774650022,1.6016167035251865,-1.7346007065904463,2.3020912603087784,-0.3806132337017553,0.3281832858955326,-0.1858498715337383,1.1378641483852732,-0.6697918165213729,0.8462684935982053,-0.3604766004119644,9.882961849820276,-1.0236020136514428,0.3107795105390999,-0.7866984075287656
0.34,1.5852245588245122,-1.722420931611497,2.300726192401036,-0.0622970591513281,0.0443638491079528,0.0391743852664303,-0.3435313538489638,0.2814651153707524,-0.1137070429686936,1.5948044388630722,-1.7288370408844569,2.298737676539822,-0.4206132342978018,0.3681832864915791,-0.2040205546196568,1.0627172252357553,-0.5273822590352445,0.8119143914968374,-0.4382132751845672,9.774216397840974,-1.0157768687654336,0.3080241254893276,-0.7983392930692458
0.36,1.5782573482705538,-1.7166188197968002,2.2983482187064275,-0.0590080167276357,0.0519449040736147,0.0394436185290116,-0.3526608263083702,0.297930325079456,-0.1237186145276732,1.5869921741860569,-1.7220733751635655,2.2949298256937176,-0.4606132348938482,0.4081832870876255,-0.2221912377055752,1.0661636403704815,-0.4564736229703214,0.823260485435176,-0.5005785779489819,9.70112074876215,-1.0093135579093182,0.3060411178498503,-0.8074464282888707
0.38,1.5714780314079848,-1.7108033399896474,2.295894064591985,-0.0562044573210776,0.0571794949867446,0.0398061413155634,-0.3605636764190518,0.3133597628433078,-0.1341281325603487,1.5781799094941404,-1.7143097094277735,2.2906677077704654,-0.5006132354898947,0.4481832876836719,-0.2403619207914936,1.0110398795955975,-0.3951425055340768,0.771471888192593,-0.5204759016337719,9.648929954963933,-1.003787354128039,0.3041438182288118,-0.8152313994181034
0.4,1.5641826778863075,-1.704370103105286,2.293089390410845,-0.05345917361823,0.0609863385426351,0.0402749855421292,-0.3685953057255544,0.3290986327599693,-0.1458338856642794,1.5534498475870322,-1.695135351847482,2.289187657963968,-0.4605636779091679,0.413359764333424,-0.1747807391966344,1.0597685493786455,-0.4015814653251293,0.7869434958330757,-0.5852876551965355,9.610808927599464,-0.9994902128703854,0.3022905221507616,-0.8214904348860078
0.42,1.5567480450567606,-1.6976194596334797,2.290184512511794,-0.0508841455426818,0.0629972291557549,0.0408275278172571,-0.3745367277608406,0.3451615699189514,-0.1433462513035904,1.5534498475870322,-1.695135351847482,2.289187657963968,-0.4605636779091679,0.413359764333424,-0.1747807391966344,0.8653131957379241,-0.2970711017643124,0.8031468579491025,0.1243817180344469,9.57639916070002,-1.0031644715060104,0.300092780376843,-0.8192914370594825
0.44,1.549199162032429,-1.690566436314369,2.287331641027329,-0.0489106581142771,0.0629537691975819,0.041436757686272,-0.3802308567332828,0.3595870379851565,-0.1421539798291263,1.5534498475870322,-1.695135351847482,2.289187657963968,-0.4605636779091679,0.413359764333424,-0.1747807391966344,0.7777190124857589,-0.2847064486221101,0.7212734033102547,0.0596135737232078,10.444982427927243,-1.004135254990472,0.3007139434441672,-0.8160144436521525
0.46,1.5419163749481948,-1.6836015336312782,2.284618040354496,-0.0477784654124794,0.0610862949747958,0.0420449308014699,-0.3862267298443201,0.372928687197947,-0.1435360435358826,1.5488442108079403,-1.6910017542041478,2.2874398505720013,-0.4805636782071911,0.4333597646314471,-0.1829112605238916,0.7346090766018772,-0.2997936555518637,0.6670824606395231,-0.069103185337814,10.265135133271542,-1.0062660427161303,0.3017729177227078,-0.8112225232658102
0.48,1.534117622680667,-1.6760017727390322,2.281714048478744,-0.0474737147753366,0.0573520767180747,0.042699890746281,-0.3934916931924079,0.3864074671046983,-0.1468662210394241,1.539632937249757,-1.6827345589174794,2.2839442357880686,-0.5205636788032376,0.4733597652274936,-0.1991723031784059,0.7834974193141894,-0.3632481674043925,0.6739389953375668,-0.1665088751770793,10.113770958161696,-1.009742849867847,0.303122544577296,-0.8050844148479389
0.5,1.5261560951868984,-1.668135138759394,2.2787265407866544,-0.0482352301011147,0.0520989773023619,0.0433498838621567,-0.4026173475973257,0.3996912239259668,-0.1517064048832376,1.5304216636915735,-1.674467363630811,2.280448621004136,-0.5605636793992841,0.51335976582354,-0.2154333458329202,0.8413726036164163,-0.4562827202458902,0.6641878410634267,-0.242009192190673,9.921356376971744,-1.0138801852245294,0.3051514201597118,-0.7978455222069596
0.52,1.517982642097211,-1.6600013576077028,2.2756318078126365,-0.0500666437782824,0.0461549612309404,0.0439645061111535,-0.4144790548222105,0.4131354637692048,-0.1575167734583558,1.519210390103588,-1.66420016831434,2.2761399540874776,-0.6005636799953306,0.5533597664195865,-0.2316943884874345,0.9423482188529264,-0.5930853612442388,0.6722119921619002,-0.2905184287559106,9.921356376971744,-1.0187675548975126,0.3074255006873698,-0.7900399206950498
0.54,1.5099744382344524,-1.6520163652649644,2.2725831955419675,-0.0526106492388605,0.0406210483953488,0.0444999695809357,-0.4280082718596066,0.4269919972316703,-0.1630990182056866,1.5079991165156024,-1.6539329729978691,2.2718312871708197,-0.640563680591377,0.593359767015633,-0.2479554311419489,1.0077260164108313,-0.6764608518698062,0.692826673123273,-0.2791122373665411,9.8702909505937,-1.0247788147907333,0.3101834024346731,-0.780847238121694
0.56,1.5012401230488537,-1.6433017322581611,2.2692584962053504,-0.0551979015617474,0.0356541711734579,0.0450405614965891,-0.4448960448571631,0.4436643271007427,-0.1690705025028931,1.4957878429127156,-1.6426657776664977,2.2671160941877977,-0.6805636811874234,0.6333597676116793,-0.2642164737964632,1.223542076097042,-0.8443886498778225,0.8336164934536205,-0.2985742148603226,9.872366082052396,-1.0299968076010524,0.3130318677070086,-0.7722911026749042
0.58,1.4921368540065338,-1.6342401618563542,2.265813139943841,-0.0570033426370185,0.0326717109391264,0.0455351307186992,-0.4646239563811694,0.461395204908029,-0.1751470977067895,1.4825765692949278,-1.6303985823202245,2.2619943751384137,-0.7205636817834699,0.6733597682077258,-0.2804775164509775,1.360606050798646,-0.9863955762003164,0.8865438903643136,-0.3038297601948195,9.879927696486448,-1.0336661713004986,0.3151421270827874,-0.766140700456176
0.6,1.4831078294103506,-1.625296404899761,2.262424821535036,-0.0577071529165245,0.032521652658248,0.0459224716014804,-0.4844206212553681,0.4789896067487025,-0.1811699246874782,1.4689056561874754,-1.6111704016109527,2.2570557850585016,-0.5646239578712855,0.5613952063981451,-0.2122958527505345,1.3580734158282268,-0.989833243709934,0.8797200920336756,-0.3011413490344353,9.891507676915351,-1.0368458782148724,0.3159043196806467,-0.7623132791084779
0.62,1.473187608518444,-1.615469160104634,2.2588507592316818,-0.0557460081973891,0.0356347511959318,0.0463260365172287,-0.506125585896575,0.502385814340172,-0.1752070141095069,1.4689056561874754,-1.6111704016109527,2.2570557850585016,-0.5646239578712855,0.5613952063981451,-0.2122958527505345,1.623302438164295,-1.085248232060343,1.169810379573477,0.2981455288985621,9.87547389525389,-1.041338851305809,0.3151003268856277,-0.7575873697452551
0.64,1.4628689039786131,-1.6052177332534152,2.255402657096475,-0.0509976948432,0.0416834757777376,0.0467669284731718,-0.5242125938411594,0.5209506781595138,-0.1700444333358404,1.4689056561874754,-1.6111704016109527,2.2570557850585016,-0.5646239578712855,0.5613952063981451,-0.2122958527505345,1.32140669861969,-0.90435039722922,0.9282431909670874,0.2581290386833287,10.46725806910854,-1.0411856252244582,0.3134283204685384,-0.7579540929924538
0.66,1.4522258325345123,-1.5946390801212804,2.2520239729679026,-0.0459252270902283,0.0491284942250788,0.0471802870182896,-0.5388759208726137,0.5359263532506783,-0.1682264928183926,1.4632594166087625,-1.6055564495469712,2.254932826530996,-0.5846239581693087,0.5813952066961683,-0.2197256037592835,1.0518898609080731,-0.7331663515727171,0.7487837545582243,0.0908970258723884,10.242781444145294,-1.038242195768634,0.3114590131574321,-0.7621937967546719
0.68,1.4418734757329168,-1.584332645316436,2.248814215724445,-0.0416542386283839,0.0564678068039199,0.0475448381462556,-0.549948212397859,0.5483469131389462,-0.1697287575779444,1.4519669374513369,-1.5943285454190084,2.2506869094759856,-0.6246239587653551,0.6213952072922148,-0.2345851057767815,0.8353483509378883,-0.5536145762622624,0.6210279944133978,-0.0751132379775879,10.242781444145294,-1.0337315488563217,0.3093352023762035,-0.76881990939561
0.7000000000000001,1.4307756640279263,-1.573240117956975,2.245378423907217,-0.0380132445545972,0.0636805397800311,0.0479084421388032,-0.5591100195625289,0.5603779014782928,-0.1739062005945869,1.440674458293911,-1.5831006412910456,2.246440992420975,-0.6646239593614016,0.6613952078882612,-0.2494446077942796,0.7844335872165771,-0.4580903582334983,0.6015494169673286,-0.2088721508321289,10.05220312198344,-1.0285810182685955,0.3073786546202918,-0.77641047873515
0.72,1.4195158836771886,-1.561912572447768,2.241834381380422,-0.0352591883126361,0.0698305282174144,0.0482605871998039,-0.5663486512940528,0.571900965141617,-0.1803990932249211,1.427381979106683,-1.5698727371332803,2.2414521002650893,-0.7046239599574481,0.7013952084843077,-0.2643041098117776,0.7538840100484524,-0.3619315865761918,0.5761531831662114,-0.3246446315167059,9.902506570125295,-1.023375954127279,0.3057245471523394,-0.7839858746238614
0.74,1.408127640866313,-1.5503582550704968,2.238145092186428,-0.0333040723514683,0.0745945725527647,0.048607757367296,-0.5721698969823086,0.5831319903617074,-0.1882221899377632,1.4140894999194549,-1.5566448329755151,2.236463208109204,-0.7446239605534946,0.7413952090803542,-0.2791636118292756,0.7436794857931478,-0.2910622844127908,0.561551261004517,-0.3911548356421088,9.72689391833137,-1.0190836562914447,0.3044375925468213,-0.7903103302535112
0.76,1.397204756755121,-1.5391665470152414,2.234487475076396,-0.0317942528234443,0.0778911756470854,0.0489508879735011,-0.5773507988738064,0.5943334588033568,-0.1964081821393666,1.3997970207173258,-1.5424169288028489,2.231102828402881,-0.7846239611495409,0.7813952096764005,-0.2940231138467736,0.740481444708954,-0.259045094574889,0.5600734220824688,-0.4092996100801702,9.72689391833137,-1.0151438183370711,0.3033495708665474,-0.7959287056150074
0.78,1.385602198438044,-1.5271563362039453,2.230462998044456,-0.0302682503232734,0.0803270806282315,0.049334143335553,-0.5826499770835868,0.6060379002991967,-0.205641297603738,1.3845045415002954,-1.5271890246152813,2.2253709611461203,-0.8246239617455874,0.821395210272447,-0.3088826158642716,0.7910841636750235,-0.2649589104890215,0.5852220747919967,-0.4616557732185666,9.693709417186255,-1.0118988899660064,0.3021449134585611,-0.8007953754626826
0.8,1.3738936242801227,-1.5149130103171606,2.2262484632325923,-0.0286723525588966,0.0819563959731085,0.0497383181633138,-0.5879589072460567,0.6176208949281533,-0.2153725268988339,1.3564696995838648,-1.4968544411889857,2.220180933164269,-0.6826499785737029,0.7060379017893128,-0.256101733053815,0.8016347791203837,-0.2654465081234958,0.5791497314478311,-0.4865614647547978,9.66558146324951,-1.0093741259056406,0.3008729770425142,-0.8047958200104771
0.8200000000000001,1.3620731233796104,-1.5024224061881923,2.2219550825902363,-0.0264289743329507,0.0834503427269878,0.0501820001939923,-0.593689621085532,0.6303890421206705,-0.2134499008923994,1.3564696995838648,-1.4968544411889857,2.220180933164269,-0.6826499785737029,0.7060379017893128,-0.256101733053815,0.7063341181770076,-0.286535691973766,0.6384073596258588,0.0961313003217237,9.64481378682649,-1.0115183227865665,0.2997472868642266,-0.8031639648396904
0.84,1.3507498226102557,-1.49035159399754,2.217895185126693,-0.0243108786403441,0.0848645466727621,0.0505934060238008,-0.5979722065537146,0.6397818366901924,-0.2140428310558264,1.3564696995838648,-1.4968544411889857,2.220180933164269,-0.6826499785737029,0.7060379017893128,-0.256101733053815,0.5170026457771535,-0.2141292734091304,0.4696397284760956,-0.0296465081713492,10.129948737641826,-1.0108483295820372,0.2993556429309908,-0.8032641542926234
0.86,1.338747338501708,-1.477459961615957,2.213578887362348,-0.0227523396647148,0.0859161423011623,0.0509802971729944,-0.6020795563432307,0.6489645617374267,-0.2176961869727447,1.3496431997981275,-1.4897940621710923,2.2176199158337315,-0.7026499788717261,0.726037902087336,-0.2661938201438305,0.5351162748464658,-0.205367489475805,0.4591362523617137,-0.182667795845913,10.129948737641826,-1.0093753546537974,0.2988597770591497,-0.8048132430227098
0.88,1.326664194313364,-1.4643902970680096,2.2091622867416105,-0.0220422835732722,0.0863782525988103,0.0513108855479847,-0.6060815467838303,0.6576016258053777,-0.2238821741182126,1.3359902002266535,-1.475673304135306,2.2124978811726552,-0.7426499794677726,0.7660379026833825,-0.2863779943238613,0.56762936887646,-0.2000995220299783,0.431853203397553,-0.3092993572733932,9.954495413351651,-1.008011831727958,0.2986027986986366,-0.8064585103371672
0.9,1.314500425940649,-1.4511529185657464,2.204599966840997,-0.0223864235596354,0.0862138895676714,0.0515720741095559,-0.6101852308437175,0.6658351097672076,-0.2320369868109408,1.3223372006551797,-1.4615525460995198,2.207375846511579,-0.782649980063819,0.8060379032794289,-0.3065621685038921,0.6146776615970427,-0.2051842029943573,0.4116741980914939,-0.4077406346364123,9.82121503460894,-1.0069292623984618,0.2987247774306436,-0.8079388788390824
0.92,1.3028667023207836,-1.4384253512578822,2.200102282629886,-0.0238039808113176,0.0855100790928313,0.0517497476504105,-0.6142813756684098,0.6736252124525179,-0.2409977652706857,1.3066842010539033,-1.4454317880339311,2.201244603141501,-0.8226499806598655,0.8460379038754754,-0.3267463426839229,0.6280120478087192,-0.2048072412346169,0.3895051342655165,-0.4480389229872428,9.724724605462145,-1.0062413877727674,0.2994227273562905,-0.8090193537020015
0.94,1.2905346109159568,-1.4248632800172294,2.195178935995357,-0.0264564877049332,0.0841828898052573,0.0518670295272821,-0.618778163141439,0.6824991744107007,-0.2508898981708232,1.2910312014526268,-1.4293110299683425,2.1951133597714234,-0.862649981255912,0.8860379044715219,-0.3469305168639537,0.7014673758038417,-0.2248393736514586,0.4436980979091398,-0.4946066450068773,9.658965777529374,-1.0062321767316855,0.3009284036376108,-0.8090788448781174
0.96,1.2781033775755768,-1.411093174244479,2.190056515915476,-0.0293510956554323,0.0823691960860992,0.0519813683250451,-0.6242011757802594,0.6940430136270425,-0.2608534835449547,1.2743782018364491,-1.4121902718878527,2.1884775120468447,-0.9026499818519584,0.9260379050675682,-0.3671146910439846,0.8092316161661641,-0.2711506319410195,0.5771919608170861,-0.4981792687065722,9.64114314723338,-1.0064796449774125,0.3027182030403417,-0.8084481914645405
0.98,1.265552162961226,-1.3970763101072274,2.1847352027704945,-0.0315806587016092,0.0804539533808201,0.0521459591745328,-0.6306960602836803,0.706826781936469,-0.2707734033094063,1.2567252022053708,-1.394069513792462,2.181337059967765,-0.9426499824480048,0.9660379056636148,-0.3872988652240154,0.8717985217856145,-0.3247442251710475,0.6391884154713257,-0.4959959882225806,9.64114314723338,-1.007037242202108,0.3042421699486443,-0.8074736914676864
1.0,1.253497662079254,-1.3835168714905488,2.179495264163749,-0.0328328032362722,0.0789305344758709,0.0523513540313841,-0.6379007241689021,0.719647577531037,-0.2802978818595337,1.234017359947042,-1.361734971010404,2.171196532605024,-0.7306960617737964,0.8068267834265851,-0.31847123797995,0.8760645995423976,-0.3602331942610892,0.6410397797284029,-0.4762239275063723,9.648128724912567,-1.0074137950794253,0.3051192033436259,-0.8069468419475383
1.02,1.2406309037801608,-1.36893388252539,2.1739262109448148,-0.0317606313632011,0.0789823359997194,0.0526727799450608,-0.6481188035445734,0.7375869749364321,-0.2753040983481267,1.234017359947042,-1.361734971010404,2.171196532605024,-0.7306960617737964,0.8068267834265851,-0.31847123797995,1.0620369569311323,-0.5109039687835659,0.8969698702697537,0.2496891755703528,9.64678890205505,-1.0123001516331953,0.305317481944234,-0.8009691757468128
1.04,1.2275791474803377,-1.35402161268676,2.1684595391615478,-0.0278893189244907,0.0811572781998168,0.0531122651506398,-0.6562733353652254,0.7521360751233642,-0.2716601413877419,1.234017359947042,-1.361734971010404,2.171196532605024,-0.7306960617737964,0.8068267834265851,-0.31847123797995,0.8535969889130199,-0.4077265910325978,0.7274550093466059,0.182197848019236,10.60231435660262,-1.0132694435872134,0.3045182901532426,-0.7986505815878049
1.06,1.2143851828375716,-1.3388618282311875,2.163029142185757,-0.0233364760909952,0.0843094279296533,0.0535675923744612,-0.6625623982550012,0.7630037787114053,-0.2717383757191463,1.226710399329304,-1.3536667031761382,2.1680118202252245,-0.7506960620718196,0.8268267837246083,-0.3280108049140587,0.627824445843915,-0.314453144488791,0.5433851794020561,-0.0039117165702151,10.386066285164816,-1.0117396901192246,0.3026201925685476,-0.8003784272546367
1.08,1.201749858775872,-1.324280548882274,2.1578309058774616,-0.0194165081649487,0.0874920442862645,0.0539658893087777,-0.6670979509372869,0.7714384792078921,-0.2754315996364113,1.212096478093828,-1.3375301675076066,2.1616423954656256,-0.7906960626678661,0.8668267843206547,-0.3470899387822762,0.5132136823543421,-0.2267776341142835,0.4217350248243379,-0.1846611958632532,10.146723616911004,-1.0088566614673349,0.3001720961998965,-0.8045115519950409
1.1,1.1883691737662534,-1.3087702647578072,2.1522547122858566,-0.0160727877741544,0.0905110002129422,0.0543338231785609,-0.6706969336966061,0.7792654162888486,-0.2821290866839108,1.1974825568583525,-1.3213936318390749,2.1552729707060267,-0.8306960632639125,0.9068267849167012,-0.3661690726504936,0.5455958983591975,-0.1799491379659623,0.3913468540478249,-0.3348743523749725,9.944350036631477,-1.0054608858790683,0.2977527543909723,-0.8096253100603569
1.12,1.1749255510707006,-1.2931091844218336,2.1465195113909084,-0.0135833487929972,0.0928470861202391,0.0546466957479881,-0.6734983432935621,0.7865801665523001,-0.2911562668126259,1.180868635593074,-1.3032570961407408,2.1479495892530167,-0.870696063859959,0.9468267855127476,-0.3852482065187111,0.5975856595979591,-0.140070479847798,0.3657375131725759,-0.4513590064357586,9.787650111211406,-1.0023171534887954,0.2957017717414563,-0.8144214321400585
1.14,1.1614324507233202,-1.2773064342343527,2.140590168698953,-0.0119200016787146,0.0943033034992308,0.0549044816166221,-0.6757566163984431,0.7934886176825654,-0.3013311174226438,1.1642547143277957,-1.2851205604424067,2.140626207800007,-0.9106960644560056,0.986826786108794,-0.4043273403869286,0.6252081240908358,-0.1129136552440512,0.345422556513264,-0.5087425305008914,9.62185817007412,-0.9999489882211128,0.294065274069183,-0.8183181479774947
1.16,1.148569813639931,-1.2621598671951002,2.1347634860107005,-0.0108108212734596,0.0949641688837582,0.0551148161301103,-0.6781399282386648,0.8005118890864618,-0.3114966847370255,1.1466407930476163,-1.2659840247291716,2.132825848000292,-0.9506960650520518,1.0268267867048404,-0.423406474255146,0.6291765955670858,-0.1191655920110834,0.3511635701948179,-0.5082783657190865,9.599840776780184,-0.9983067754596824,0.2928652408534606,-0.82104299755519
1.18,1.1349782232349717,-1.2460717118891558,2.128416980580531,-0.0098679191363161,0.095140188264312,0.0553145476001791,-0.6809314524896686,0.8078963281563056,-0.3226398156595176,1.1280268717525357,-1.2458474890010354,2.124548509853871,-0.9906960656480982,1.0668267873008868,-0.4424856081233635,0.6828102129727915,-0.1395762125501909,0.3692219534921936,-0.557156546124607,9.599840776780184,-0.997303237018464,0.2918890629873807,-0.8228772280875045
1.2,1.121327298594718,-1.2298353870825016,2.1218440176159645,-0.0090160178586122,0.0949842923833512,0.0554990216228344,-0.6840493489297679,0.8153168340380397,-0.3341119719186227,1.1009316506104885,-1.2056768954813406,2.1122849897975557,-0.7809314539797847,0.9078963296464218,-0.3760666066420025,0.7007059921703205,-0.1558948220049649,0.371025294086702,-0.5736078129552541,9.577686071264909,-0.9966155495065278,0.2909072645607672,-0.8244018637934162
1.22,1.1075927615229886,-1.2134254425109188,2.1151912642413726,-0.0073102203043197,0.0956599524145048,0.055723202548565,-0.6889338181506508,0.8248872195587904,-0.3305679047432001,1.1009316506104885,-1.2056768954813406,2.1122849897975557,-0.7809314539797847,0.9078963296464218,-0.3760666066420025,0.5657091362384382,-0.2442234610441462,0.4785192760375367,0.1772033587711302,9.562921581908997,-0.9980211742332064,0.288798227737609,-0.8250610539296326
1.24,1.093780388936022,-1.1968587849331087,2.108590516347677,-0.0051102424295432,0.097482673104798,0.0559615682469677,-0.6919512782666616,0.8313842478726625,-0.329727076360969,1.1009316506104885,-1.2056768954813406,2.1122849897975557,-0.7809314539797847,0.9078963296464218,-0.3760666066420025,0.3606363640543513,-0.1508730058005392,0.3248514156936055,0.0420414191115547,10.449960894686228,-0.9977647824934364,0.2883959375475755,-0.8245591996825709
1.26,1.0806149807602123,-1.1810105869432632,2.1022999692612068,-0.0034703455652718,0.0994313583602597,0.0561461747636705,-0.6937057253232202,0.8366546820697759,-0.3324755396366824,1.0931223360706903,-1.1965979321848763,2.1085243237311357,-0.8009314542778079,0.9278963299444448,-0.3867519648384994,0.3098774414115774,-0.0877223528279291,0.2635217098556686,-0.1374231637856687,10.2279903515373,-0.9961115996915656,0.2878117329617153,-0.826087819223075
1.28,1.066729932562926,-1.164227237854245,2.095592258251322,-0.0024971684202503,0.1011811567935443,0.0562792227025493,-0.6947059218799136,0.8414694347545197,-0.3382834815704323,1.0775037069910949,-1.178440005591948,2.1010029915982957,-0.8409314548738543,0.9678963305404914,-0.4081226812314933,0.3805076414248473,-0.0500098278346738,0.2407376342371925,-0.2903970966874947,10.017105603651544,-0.9941940608138264,0.2873639123564125,-0.8282130391297614
1.3,1.0528306947997348,-1.1473530163780985,2.088743020901214,-0.0026007755510848,0.1022856263229719,0.0563285877468544,-0.6952125259862451,0.845803364247911,-0.3464425682141369,1.061885077911499,-1.1602820789990196,2.0934816594654557,-0.8809314554699008,1.007896331136538,-0.4294933976244873,0.462629137197707,-0.0253302053165704,0.2166964746695643,-0.4079543321852313,9.852612708756167,-0.9924816841031968,0.2873380484174016,-0.8302208506834505
1.32,1.0389241151148156,-1.130394840045526,2.0817112725302214,-0.0040223042775101,0.1025614513716041,0.0562792908643549,-0.6955017321368574,0.8497362985060675,-0.3558201570519338,1.044266448802101,-1.1401241523762888,2.0848917915129657,-0.9209314560659472,1.0478963317325842,-0.4508641140174812,0.5086521023433065,-0.0144603075306171,0.1966467129078219,-0.4688794418898467,9.731539758281542,-0.9911070161287796,0.2879784040632648,-0.8318380489783813
1.34,1.0257074384764264,-1.1142036217396285,2.0748433684405128,-0.0066498845469587,0.1019918983314686,0.0561419979232444,-0.6957738684765675,0.8545146998467688,-0.3661252240073225,1.026647819692703,-1.119966225753558,2.076301923560476,-0.9609314566619938,1.0878963323286308,-0.4722348304104751,0.5681143866230846,-0.0136068169855063,0.2389200670350644,-0.5152533477694315,9.649270363477626,-0.9903958536177668,0.2893395999856932,-0.8327434871568558
1.36,1.0117842177930223,-1.0970362068117074,2.0674131007624186,-0.0098353081871446,0.100545264094674,0.0559737895012139,-0.6966114100993532,0.8620302432815058,-0.3763774233415056,1.0080291905684038,-1.0988082991159265,2.0671777876981614,-1.00093145725804,1.1278963329246772,-0.4936055468034691,0.6369702902748716,-0.0418770811392854,0.3757771717368519,-0.5126099667091544,9.629038304815367,-0.990586000867946,0.2913262373979028,-0.8320968693612502
1.38,0.9978367499944206,-1.079700975842232,2.059780196394574,-0.0125228815856634,0.0984137525048842,0.0558492717315315,-0.6981717817788332,0.8709992649700745,-0.3863834228605086,0.9884105614292034,-1.0766503724633931,2.0575193839260217,-1.0409314578540865,1.1678963335207235,-0.514976263196463,0.6763840185176402,-0.0780185839739988,0.4484510844284362,-0.5002999759501525,9.636650772952637,-0.9917164420389551,0.2931902288706391,-0.8301735413344379
1.4,0.9838486634250808,-1.0621779022846254,2.0519489344069406,-0.0143848907244752,0.0958313900990718,0.0557894069882527,-0.7006357324891105,0.8806275572374233,-0.3962335066685835,0.962928160905479,-1.0361510125937283,2.0404610252515485,-0.7981717832689493,0.9709992664601906,-0.4314583327859694,0.6996413654763821,-0.1231975355138637,0.4814146133674368,-0.4925041904037447,9.651357268774518,-0.9933599355858548,0.2945838472955944,-0.8276089904205653
1.42,0.9704752209027392,-1.0453037487918293,2.0444868333023347,-0.0138818502484547,0.0945616594681198,0.0558699727423223,-0.7067757233902233,0.8943939773158074,-0.3887259255132791,0.962928160905479,-1.0361510125937283,2.0404610252515485,-0.7981717832689493,0.9709992664601906,-0.4314583327859694,0.8419881009310172,-0.3069995450556417,0.6883210039192067,0.375379057765221,9.658253811760916,-0.9967285216301098,0.2934350304979991,-0.8254381357218579
1.44,0.9562862351549872,-1.0272921037918423,2.036776622980057,-0.0106043474398889,0.0954834655076996,0.0561038993279371,-0.7115509793024425,0.9056689201601164,-0.3828820976892992,0.962928160905479,-1.0361510125937283,2.0404610252515485,-0.7981717832689493,0.9709992664601906,-0.4314583327859694,0.6783762392764427,-0.2387627956109583,0.5637471422154483,0.2921913911989954,10.51115564684278,-0.9987524813505038,0.2933136247238282,-0.8211219200359416
1.46,0.9420205435558888,-1.009094433334644,2.029141002489797,-0.006359381345895,0.0975019753768922,0.0563847054667515,-0.7146494929047805,0.9133625552346524,-0.3811467925809152,0.9549464430727894,-1.0264410199291265,2.0361464419236888,-0.8181717835669725,0.990999266758214,-0.4404733147710616,0.4236864731826766,-0.1549256801169019,0.3846817537268066,0.0867652554191994,10.259414055487468,-0.9982877030576672,0.2916920005826769,-0.8208800521317473
1.48,0.9277075332041272,-0.9907674976609636,2.0215000482281797,-0.0024367074411405,0.0997896265501826,0.0566354399003993,-0.7164362992533243,0.9189971622243732,-0.3831900293132397,0.9389830074074104,-1.0070210345999226,2.0275172752679693,-0.858171784163019,1.0309992673542605,-0.4585032787412459,0.3127150827835386,-0.0893403174271889,0.2817303494860368,-0.1021618366162241,10.259414055487468,-0.9967050851486527,0.2897616061232991,-0.8225990688327741
1.5,0.9140870903193744,-0.9732643740195214,2.0141708762052266,0.0005618151978118,0.1016698030724065,0.0568178777290931,-0.7172321066428693,0.9233330920386148,-0.3881904123132216,0.9230195717420316,-0.9876010492707188,2.01888810861225,-0.8981717847590655,1.0709992679503069,-0.4765332427114302,0.3333070165095201,-0.0397903694772494,0.2167964907120734,-0.2500191499990978,10.047793124143029,-0.9947241987987536,0.2878556356688462,-0.8250407540353185
1.52,0.8997397475085384,-0.9547566438285742,2.0063306427447936,0.0028745066984384,0.103002655644254,0.0569428205724377,-0.7175024508991578,0.9273608191588448,-0.395669951269479,0.9050561360468502,-0.9661810639117128,2.009357443758021,-0.938171785355112,1.1109992685463532,-0.4945632066816146,0.424968159895885,-0.0135172128144234,0.201386356011507,-0.3739769478128707,9.761656741624392,-0.992950721536316,0.2862126607576331,-0.8274300452300958
1.54,0.8853914409705566,-0.936173341072956,1.9983280999373176,0.0042812643525878,0.1034631982461496,0.0569924501088893,-0.7174319982133034,0.930927973383418,-0.4042037090672564,0.8870927003516689,-0.9447610785527064,1.999826778903793,-0.9781717859511584,1.1509992691423998,-0.512593170651799,0.4624785805687652,0.0035226342927185,0.1783577112286549,-0.4266878898888687,9.717262313162792,-0.9917354022447376,0.28484189907881,-0.8294171722644257
1.56,0.8710397704404043,-0.917512657551598,1.9901508235093832,0.0050316503833042,0.1031564755112877,0.056983034618654,-0.7178233952446026,0.9349536926385216,-0.4130962545283314,0.8681292646415865,-0.9223410931787992,1.9898453649503092,-1.0181717865472049,1.1909992697384462,-0.5306231346219833,0.4884592407107969,-0.01956985156496,0.2012859627551877,-0.4446272730537465,9.717262313162792,-0.9911427449774676,0.2839581496118056,-0.8305068677054547
1.58,0.857393780199288,-0.8997084719933359,1.9822158458830097,0.0054024210819795,0.1023851953664243,0.0569389402238085,-0.7186298907186522,0.9389389594759316,-0.4217191165868584,0.8481658289166027,-0.8989211077899908,1.9794132018975716,-1.0581717871432512,1.2309992703344923,-0.5486530985921676,0.4766721535694296,-0.0403247737024825,0.1992633418704925,-0.431143102926354,9.692571693303762,-0.9910560354217304,0.2832301663206295,-0.8310379297965689
1.6,0.8430084950623032,-0.8808851192041657,1.973683484665147,0.005551681133042,0.1012316073894777,0.0568652006050904,-0.7199076618914313,0.9431681156098346,-0.431075774435954,0.8214622856633554,-0.8527615240195393,1.961129890053667,-0.8186298922087684,1.0389389609660475,-0.4883860996548478,0.5173623171433069,-0.0638885586389526,0.2114578066951533,-0.4678328924547781,9.692571693303762,-0.9913361601726522,0.2826634265281475,-0.831112859714611
1.62,0.8285609372194954,-0.8619471712784373,1.9650797843515964,0.0065597208345393,0.1011965647672679,0.0568486087368611,-0.7245715387539496,0.950146189726448,-0.4282050665061009,0.8214622856633554,-0.8527615240195393,1.961129890053667,-0.8186298922087684,1.0389389609660475,-0.4883860996548478,0.4435262951173413,-0.2331938431259173,0.3489037058306721,0.1435353964926555,9.676560929994594,-0.9918865621416104,0.2801286925852673,-0.83331388116899
1.64,0.8140388880279353,-0.8428988124590214,1.9565231434318675,0.0084805996418904,0.1030479627947199,0.0568986807506358,-0.7272081818932042,0.9544121194952172,-0.4276743870247398,0.8214622856633554,-0.8527615240195393,1.961129890053667,-0.8186298922087684,1.0389389609660475,-0.4883860996548478,0.252149085601093,-0.1318321569627301,0.213296488438458,0.0265339740680548,10.450305341431886,-0.9916094373417492,0.2797109058874321,-0.8328872559912738
1.66,0.8002100981561947,-0.8247347489373278,1.94836417412748,0.0101989627646785,0.1054350919139544,0.0569377842443593,-0.72824838729864,0.9574453420425216,-0.4311892732984472,0.8132759867412678,-0.8423721344098788,1.9562460290571184,-0.8386298925067915,1.0589389612640707,-0.5017194962684457,0.2378912137094902,-0.0520102702717906,0.1516611273652157,-0.1757443136853692,10.214993388935907,-0.989606939896155,0.2789214348068711,-0.8348059290784886
1.68,0.7856452441668634,-0.8055624200110019,1.9396689246276115,0.0114276705831613,0.1078759195042711,0.0569316837293235,-0.728145766007865,0.9596921683706164,-0.4383066942603288,0.7969033888970923,-0.8215933551905579,1.9464783070640213,-0.878629893102838,1.0989389618601173,-0.5283862894956414,0.3732172317383435,0.0051310645387547,0.1123413164047404,-0.3558710480940835,9.784020668394078,-0.9868864763864688,0.2779962288420911,-0.8380044814605896
1.7,0.7710917689287531,-0.7863521652587323,1.93080104675188,0.0116597272947384,0.1097498401482269,0.0568427354749725,-0.7272272456648331,0.9613104569739956,-0.4482365951038644,0.780530791052917,-0.800814575971237,1.9367105850709243,-0.9186298936988844,1.1389389624561637,-0.5550530827228372,0.5051372793281982,0.0459260171515929,0.0809144301689601,-0.4964950421767755,9.641167732662325,-0.9842181751778336,0.2773806886717055,-0.8413466870768718
1.72,0.756562552721046,-0.7671142549236901,1.9217108888833816,0.0105617688266577,0.1107522524571944,0.0566440947949581,-0.7258471115905056,0.96258340149723,-0.4602757831544981,0.7621581931789393,-0.7780357967221136,1.925609523416468,-0.9586298942949308,1.17893896305221,-0.5817198759500329,0.6092356004471394,0.0690067037163733,0.0636472261617171,-0.6019594025316877,9.641167732662325,-0.981747276278748,0.2773146593348898,-0.8445836042976661
1.74,0.7427877913762235,-0.748813524144246,1.9128450111363609,0.0081268639282921,0.110774978780806,0.0563446132418246,-0.7243083178740286,0.9640164728091069,-0.4723691353081511,0.7437855953049617,-0.7552570174729903,1.9145084617620107,-0.9986298948909772,1.2189389636482566,-0.6083866691772286,0.613740062646758,0.0769396858238513,0.0716535655938488,-0.6046676076826518,9.542046366676004,-0.9799381315377532,0.2779682435891414,-0.8472247279894823
1.76,0.7283145299750785,-0.7294919311098321,1.9032621378957464,0.0048219949548285,0.1098544011442781,0.0559707426940781,-0.7231723774093696,0.968209795660877,-0.485287880559248,0.7244129974160828,-0.731478238208966,1.9027407302768744,-1.0386298954870237,1.258938964244303,-0.6350534624044244,0.681484218711563,0.0567970232329517,0.2096661425885049,-0.645937262554841,9.51135360270382,-0.979191029196216,0.2795737777107435,-0.8480299222401856
1.78,0.7138586802167642,-0.7100662696512752,1.8934222302345036,0.0018151818009986,0.1080969714014168,0.0556180343430437,-0.7225384284057821,0.974077507645848,-0.4980454685339725,0.7040403995123028,-0.7066994589300404,1.890306328961057,-1.07862989608307,1.298938964840349,-0.6617202556316201,0.702829969143602,0.0316974501793743,0.2933855992485523,-0.6378793987362269,9.502897956007471,-0.9795345885008926,0.2811732501308487,-0.8473551291062692
1.8,0.699409003539734,-0.6905132549707141,1.883328636366484,-0.0004984909226474,0.1056218198666271,0.0553177593553399,-0.7225443337370505,0.9807378138399502,-0.5106714005327847,0.6777317587964752,-0.6613623942689828,1.8685199568078048,-0.8225384298958982,1.074077509135964,-0.5541040728041924,0.7137469304851031,-0.0002952665634214,0.3330153097051092,-0.6312965999406089,9.513654800080984,-0.9807666256358196,0.2825892573632054,-0.8455237301497215
1.82,0.6856495831547399,-0.671764991222269,1.8737070639182765,-0.0004687266830345,0.1041250560005538,0.0551876722671099,-0.7257124543076536,0.991657783551406,-0.5014728492955493,0.6777317587964752,-0.6613623942689828,1.8685199568078048,-0.8225384298958982,1.074077509135964,-0.5541040728041924,0.7312593098775468,-0.1584060285301558,0.5459984855727851,0.4599275618617726,9.51911395570096,-0.983086788023363,0.2793036964332064,-0.847605057208738
1.84,0.6711113319758994,-0.6518390145058748,1.8637559765192333,0.0022443819750816,0.1045866508122427,0.0552287259288563,-0.7277361301343858,1.0001635504915507,-0.4943691673405197,0.6777317587964752,-0.6613623942689828,1.8685199568078048,-0.8225384298958982,1.074077509135964,-0.5541040728041924,0.5632620003381479,-0.1011837913366064,0.425288347007241,0.3551840977514764,10.868328435410149,-0.9851412213342284,0.279772824970667,-0.8426531008957192
1.86,0.656548375735472,-0.6317760389712854,1.853896386261976,0.0061061085219393,0.1059726905853493,0.0553440643425813,-0.7283630321326598,1.0054635435582315,-0.4921496886300993,0.6695063744975162,-0.6506216191776232,1.862978916079763,-0.8425384301939214,1.0940775094339872,-0.5653157936582364,0.2890026745910591,-0.0313450999137043,0.2649996533340415,0.1109739355210193,10.59308106977005,-0.9851507853972418,0.278714667280324,-0.8410452891493366
1.88,0.6419845150363147,-0.6116336837191894,1.844030028265473,0.0097166699386147,0.1074677973568457,0.0554366802736478,-0.727988840425274,1.0086128260287794,-0.494578496502831,0.6530556058995982,-0.6291400689949038,1.851896834623679,-0.8825384307899679,1.1340775100300338,-0.5877392353663242,0.1997317400653929,0.018709585369292,0.1574641235273954,-0.1214403936365821,10.298554586036516,-0.9839799307953035,0.2769808512835635,-0.8418508234519109
1.9,0.6281623786134394,-0.5924510752031689,1.8345785545492543,0.012464888359424,0.1085144414439527,0.0554678709984655,-0.7270473532108926,1.0106289085593472,-0.5001864164103896,0.6366048373016803,-0.6076585188121846,1.8408147531675951,-0.9225384313860144,1.17407751062608,-0.6101626770744122,0.3016610375674022,0.0470743607190682,0.1008041265283865,-0.2803959953779328,10.052159050494993,-0.9823918783883496,0.2749773760968334,-0.8437450909808869
1.92,0.6136351208215537,-0.5722227821339897,1.8244883445122244,0.0145269989323573,0.108934072212129,0.0554271951993551,-0.7258009871672864,1.0122492990826626,-0.5086513640084069,0.6181540686739599,-0.584176968599663,1.828611499626107,-0.9625384319820608,1.2140775112221265,-0.6325861187825002,0.4354148355301071,0.0623183021803142,0.0810195261657709,-0.4232473799008651,9.864711189737136,-0.9810580138915158,0.2732541992282312,-0.8455362733520256
1.94,0.5991345525031022,-0.5519666400836971,1.8142147863768443,0.015687887390237,0.1084821674937143,0.0553032798981218,-0.7243736660248932,1.0133580641570952,-0.5182706903165113,0.5997033000462396,-0.5606954183871414,1.8164082460846187,-1.0025384325781073,1.254077511818173,-0.655009560490588,0.4893823767147544,0.0713660571196594,0.0554382537216291,-0.4809663154052179,9.723307879023196,-0.9804961124192656,0.271846361858391,-0.8467643492374354
1.96,0.5853825513722,-0.5326994635055055,1.8042730651329504,0.016036495888499,0.1072053635428321,0.0551134040764786,-0.7233534950230815,1.0147284710000335,-0.5277420932385655,0.5802525314036182,-0.5362138681597186,1.803644406500428,-1.0425384331741536,1.2940775124142194,-0.677433002198676,0.4812126273800554,0.051008550090581,0.0685203421469271,-0.4735701461027086,9.674490507482004,-0.9804903667367106,0.2707918661830905,-0.8473857990777324
1.98,0.5709224997155612,-0.5123884883487421,1.7936108236682675,0.015827560579691,0.1050750585114048,0.0548559787758158,-0.7227865107201514,1.0163067306925435,-0.5379934260678484,0.5598017627460956,-0.5107323179173947,1.7903199808735355,-1.0825384337702,1.3340775130102658,-0.6998564439067638,0.51937991786722,0.0283492151465059,0.0789129846254899,-0.5125666414641461,9.657779110630145,-0.9813023539243972,0.2701930574130284,-0.8469443965105974
2.0,0.5564666599144229,-0.4920427848009158,1.782742525560178,0.0151669785270521,0.1022373942274735,0.0545534691280152,-0.7229267438301236,1.0181787520851555,-0.5483171591119025,0.5347831741795537,-0.4615731518141149,1.766711152364875,-0.8227865122102676,1.1163067321826596,-0.5641407376212074,0.5246512970164656,-0.0070116554986066,0.0936010696306,-0.5161866522027048,9.641243612724791,-0.9827273342408468,0.2699070031177377,-0.8457403235429141
2.02,0.5427015573149381,-0.472648325448705,1.7724328260474809,0.0153333030555109,0.1003222045597211,0.0543306941987502,-0.7260270735324266,1.022802228031013,-0.5363878190609312,0.5347831741795537,-0.4615731518141149,1.766711152364875,-0.8227865122102676,1.1163067321826596,-0.5641407376212074,0.6582129749112574,-0.1550164851151503,0.2311737972928718,0.5964670025485619,9.637164599730568,-0.9849608569026352,0.2652558633426402,-0.8493169071003215
2.04,0.5281545946535372,-0.4521630778708798,1.761822542544631,0.0165583513869381,0.1003408283447183,0.0541938882266785,-0.7282942553616523,1.0254639767901843,-0.525474521315007,0.5347831741795537,-0.4615731518141149,1.766711152364875,-0.8227865122102676,1.1163067321826596,-0.5641407376212074,0.5729857930065012,-0.1133590914612847,0.1330874379585678,0.54566488729621,11.033428822881431,-0.9873932965812036,0.2661291087984285,-0.8445908782539236
2.06,0.5135781090341578,-0.4316376479949584,1.751392075402156,0.0179072591435628,0.1013186744105354,0.0540755828347887,-0.7291647702041406,1.026980688303192,-0.518270475105028,0.526555309057451,-0.4504100844922883,1.761069744988663,-0.8427865125082907,1.1363067324806828,-0.5693701999318792,0.3706632288890961,-0.0435257421244172,0.0758355756503847,0.3602023104989527,10.819434648838069,-0.9880432942826866,0.2665735488358521,-0.8422166307678882
2.08,0.4989962109120479,-0.4110931270475249,1.7410681326418125,0.0187910917768206,0.1024039848776408,0.0539222016203481,-0.728997168827325,1.0275323693563343,-0.5144651210501168,0.5100995788132456,-0.428083949848635,1.749786930236239,-0.8827865131043372,1.1763067330767294,-0.5798291245532229,0.1924393520640738,0.0083800688407797,0.0275840526571258,0.1902677027455612,10.590435262665778,-0.9879041726981111,0.26679971844663,-0.8413034133226007
2.1,0.48515338855053,-0.3915725999492344,1.7313070455178674,0.0187829873027297,0.1030404448784285,0.0537066223291581,-0.7282220825566283,1.027390703427948,-0.5131992626621291,0.4936438485690403,-0.4057578152049819,1.7385041154838148,-0.9227865137003836,1.2163067336727758,-0.5902880491745665,0.0745524215020333,0.0387543135348333,-0.007083296419319,0.0632929193993825,10.404636398725415,-0.9876136274409224,0.2672345934501245,-0.8408215377945364
2.12,0.4706009836115462,-0.3710315892998113,1.7210406733653278,0.0175073737167275,0.1029932325531668,0.0533762563690632,-0.7271461846206038,1.026864591538464,-0.5135741937061811,0.4751881182950326,-0.3814316805315264,1.7266983545003234,-0.96278651429643,1.256306734268822,-0.60074697379591,0.0627479756006603,0.0537948968012291,-0.0263055944742074,-0.0187465522025975,10.265875839612818,-0.9876404506433026,0.2683088688586731,-0.8400486017744848
2.14,0.4560720452196567,-0.3504986436400794,1.7107624604591405,0.0147115839053086,0.1020082634033409,0.0529265068988969,-0.7258692224164668,1.0268557758112824,-0.5142157908499063,0.4567323880210249,-0.3571055458580708,1.714892593516832,-1.0027865148924766,1.2963067348648687,-0.6112058984172537,0.0714555295739333,0.0638481102068488,-0.0004407863590794,-0.0320798571862623,10.167335142354204,-0.9883981283152627,0.2700612330046291,-0.8386828066143266
2.16,0.4415648061166318,-0.329934046698534,1.7004759702701058,0.0113051333179952,0.0999514923172546,0.0524281068959167,-0.7250305179523165,1.0296812374017428,-0.5143910857554814,0.4372766577321161,-0.3317794111697141,1.702825359417807,-1.042786515488523,1.336306735460915,-0.6216648230385973,0.1476261044096962,0.041935223207512,0.1412730795230188,-0.0087647452787553,10.158395596221451,-0.9901510823794508,0.2724614708932183,-0.8356549649651209
2.18,0.4277918922801186,-0.3103284948594441,1.690705788957367,0.0083875708540432,0.0970691327062854,0.0519791547904205,-0.7248939728808921,1.0338201494339443,-0.514031280502774,0.4168209274283061,-0.3054532764664563,1.6904966522032487,-1.082786516084569,1.3763067360569614,-0.632123747659941,0.2078382615563749,0.0068272535712232,0.2069456016100868,0.01799026263537,10.18174931111389,-0.9931946654301984,0.2750789852309469,-0.8307169317420514
2.2,0.4132870267936285,-0.2895990221175287,1.6804319670271364,0.0058967925935396,0.0931766340107741,0.0515545147291343,-0.7257332244015895,1.0388269575274889,-0.5133474416275149,0.391547193636074,-0.2586374873877468,1.665004224932228,-0.8248939743710082,1.1338201509240606,-0.5201197953150647,0.2561254868608842,-0.0419625760348707,0.2503404046772184,0.0341919437629567,10.20817152494692,-0.9972583418423624,0.2775257894280021,-0.8243232313789555
2.22,0.3987136335718373,-0.2687113311513175,1.6702964967814944,0.0058469261028588,0.0901005305922254,0.0513134615895805,-0.7318222983934028,1.0491185631228674,-0.499566393104043,0.391547193636074,-0.2586374873877468,1.665004224932228,-0.8248939743710082,1.1338201509240606,-0.5201197953150647,0.9122928069086318,-0.3044536995906677,0.5145802797689281,0.6890524261735947,10.21925557854138,-1.001950637967915,0.2770043246315798,-0.819679069156037
2.24,0.3840114587550346,-0.2476489772060668,1.6604473932751005,0.0088779616658917,0.0897155947268605,0.0512981032492019,-0.7377316630264551,1.056248865614489,-0.4860870554581101,0.391547193636074,-0.2586374873877468,1.665004224932228,-0.8248939743710082,1.1338201509240606,-0.5201197953150647,0.8177015766180501,-0.2954682316526125,0.3565151245810805,0.6739668822966449,11.10320884081466,-1.005801092542507,0.2770585650364835,-0.81329967345729
2.26,0.3699530800854337,-0.2275453493384145,1.65131230576863,0.0127568230981463,0.0908342335935344,0.0513616840541526,-0.7416682006355271,1.059444336862131,-0.4761668351762438,0.3832982538923639,-0.2472992858785062,1.6598030269790771,-0.8448939746690314,1.1538201512220838,-0.5213374982775228,0.5570415946832262,-0.1968268804535988,0.1597735623820817,0.4960110140933116,10.95801194033811,-1.0073857907098964,0.2759967417695808,-0.8100873372060945
2.28,0.3550903676334659,-0.2063442362833827,1.6418727657343406,0.0164293034440049,0.092624113035923,0.0514073133392111,-0.7443164213093835,1.06060318909883,-0.468429578337073,0.3668003744049438,-0.224622882860025,1.649400631072776,-0.8848939752650778,1.1938201518181304,-0.523772904202439,0.4129804917887729,-0.1324110336928197,0.0579426118349601,0.3868628419585407,10.75674996172802,-1.0075048070262558,0.2745068459954837,-0.8093754000325091
2.3000000000000003,0.3401873870263459,-0.1851322816589389,1.6325594237734302,0.0191538359531992,0.0943346198536047,0.0513863133195008,-0.7458656288594622,1.0607978236775029,-0.4632776495088935,0.3503024949175236,-0.2019464798415438,1.6389982351664747,-0.9248939758611244,1.2338201524141768,-0.5262083101273554,0.2691667573413507,-0.077460377503935,0.0097317289336484,0.2575964414089748,10.44480130768261,-1.0070616651831183,0.2732673848396914,-0.8095661966283325
2.32,0.3252617213476942,-0.1639218931912412,1.6233302513009706,0.0208483861508037,0.095525633071034,0.0512836035897837,-0.7466943604512801,1.0604724754981312,-0.4598904377447417,0.3318046154003011,-0.1772700767932602,1.6284740689639277,-0.9648939764571708,1.273820153010223,-0.5286437160522717,0.175113184999776,-0.0414365795908977,-0.0162674089685843,0.1693605882075927,10.44480130768261,-1.0067051698929648,0.2724784176551071,-0.8097604843060802
2.34,0.3110717068327675,-0.1437834277408341,1.6146187403211651,0.0213649802507201,0.0959394654626703,0.0510945218241169,-0.7470521838545268,1.059561758499653,-0.4572732650751877,0.3133067358830786,-0.1525936737449767,1.6179499027613804,-1.0048939770532173,1.3138201536062697,-0.5310791219771879,0.1397053669467303,-0.0178911701623318,-0.0455358499239055,0.1308586334776984,10.34652536930571,-1.0068004095139524,0.2721121003308596,-0.8095571547434258
2.36,0.2961239120785581,-0.1225983851033749,1.605501328633012,0.0207821064489229,0.0956463808472626,0.0508022463445039,-0.747787453323138,1.059056684709078,-0.4546035418616215,0.293808856350955,-0.126917270681792,1.6073648514107104,-1.0448939776492636,1.353820154202316,-0.5335145279021042,0.1407403883259176,-0.0367634734305621,-0.025253689528748,0.1334861606783116,10.31496842173692,-1.0074558360270225,0.2725199099591747,-0.8084557645757381
2.38,0.2811566602676205,-0.1014177292399842,1.5964389955097549,0.0192767919197219,0.0948103323519169,0.0504379528240569,-0.7489854334509471,1.0590952691922773,-0.4517566959883708,0.2733109768039302,-0.1002408676037061,1.5967189149119176,-1.08489397824531,1.3938201547983624,-0.5359499338270204,0.1544439750768338,-0.0598990063904569,0.0019292241599577,0.1423422936625312,10.320147510825336,-1.0086270763204352,0.2735063744074575,-0.806588775831699
2.4,0.2669106213674376,-0.0812879951231258,1.5878852375108572,0.0172151289120113,0.0936867987565406,0.0500477225677827,-0.7505985709501417,1.0598840203493975,-0.4487749470924455,0.2437073885950731,-0.0484629657803703,1.5738511607103365,-0.8176121278321842,1.1092600469778169,-0.412050357791378,0.1740342456064222,-0.080656874959728,0.0394375578560146,0.1490874447962697,10.334021518255213,-1.0102903818521185,0.2750493964131655,-0.8039317113950291
2.42,0.2518009648111298,-0.059864222477821,1.5790531212400618,0.0215632182274063,0.0947009608660874,0.0501334922764461,-0.7597973648770459,1.0796460442764568,-0.4340044976829847,0.2437073885950731,-0.0484629657803703,1.5738511607103365,-0.8176121278321842,1.1092600469778169,-0.412050357791378,1.3165500134449415,-0.4599396963452073,0.988101196352964,0.7385224704730353,10.334021518255213,-1.011672637351798,0.2716952338120775,-0.8039690581004545
2.44,0.2365450842970095,-0.0382058178241411,1.5705371806402977,0.0331510327393222,0.0994441732886061,0.0508215144892001,-0.7647962437993365,1.0840848357453432,-0.4184285729440261,0.2437073885950731,-0.0484629657803703,1.5738511607103365,-0.8176121278321842,1.1092600469778169,-0.412050357791378,0.8474979227963984,-0.2499439461145336,0.2219395734443185,0.7787962369479318,11.13480493266161,-1.01174164397752,0.2655606631409884,-0.8046816234258566
2.46,0.2212323905456619,-0.0165563810376904,1.5623016805653704,0.0456313918365228,0.1059686048250701,0.0516848767308208,-0.765896740325075,1.0804211063497822,-0.406078965241789,0.2355312673167513,-0.0373703653105921,1.5697306571324223,-0.8313374667084316,1.1192930025349248,-0.4041090901519794,0.6464263610153431,-0.0550248262869257,-0.1831864697780516,0.6174803851118571,11.04951327636718,-1.0083255947502303,0.2582591558850375,-0.8103261794051142
2.48,0.206698331061975,0.0038946724431877,1.5546719931420243,0.0562837689896254,0.1125189115361569,0.052498115118172,-0.7638115738693857,1.0727463172403926,-0.3976708042428923,0.2191790247601076,-0.0151851643710358,1.561489649976595,-0.8587881444609264,1.1393589136491409,-0.3882265548731822,0.5786784046534464,0.1042583227844673,-0.3837394554694784,0.4204080499448315,10.83773663154625,-1.002952349050921,0.2503338823674084,-0.8189372994901776
2.5,0.1914705142434251,0.0252386142388741,1.5467902754112428,0.0655860156101982,0.1188099683548441,0.0532397798509249,-0.7589743211540334,1.0622742300835792,-0.3910446407960125,0.2028267822034639,0.0070000365685204,1.5532486428207677,-0.8862388222134212,1.1594248247633565,-0.3723440195943851,0.6651497299045636,0.2418626357676145,-0.5236043578406679,0.3313081723439942,10.65891933041894,-0.9970570479271008,0.2429560478484424,-0.8282171850088809
2.52,0.1763635883898852,0.0463529888031824,1.5390219278186728,0.0727171200758933,0.1237699278539179,0.0537756966012046,-0.7520388928442568,1.0501518312533236,-0.3861133747258345,0.1851020057591955,0.0301885330637876,1.5458017624288798,-0.913689499965916,1.1794907358775724,-0.356461484315588,0.7405573986780545,0.3467714154888279,-0.6061199415127838,0.2465633035088982,10.550863320964709,-0.991836048764938,0.236940370423607,-0.8362843114293349
2.54,0.1621552343579308,0.0661771668389409,1.5317310255633303,0.0776062548406836,0.1268914220758899,0.0540490257002575,-0.7440704715845154,1.0376424411130083,-0.3815802137825614,0.1673772293149271,0.0533770295590547,1.538354882036992,-0.9411401777184109,1.1995566469917882,-0.3405789490367908,0.775451686426895,0.3984210629870699,-0.6254695070157523,0.2266580471636525,10.49834477348486,-0.9874350197838614,0.2315980024601233,-0.8433474068246488
2.56,0.1473667850379873,0.0867888031051025,1.5241559111743697,0.0811621102592331,0.128469777366153,0.0540907804907887,-0.7353056369724811,1.02439517585884,-0.3761216599728069,0.1489661859268463,0.0770671738321772,1.5313050650270743,-0.9685908554709056,1.219622558106004,-0.3246964137579937,0.8398038047434128,0.4382417306017183,-0.6623632627084319,0.2729276904877259,10.49834477348486,-0.984492525458822,0.227446079195218,-0.8482955171905269
2.58,0.1327566888611791,0.1071311510563703,1.5167009393451665,0.0834040700293117,0.1284161307921154,0.0538985447399161,-0.7263019281425546,1.010809492822122,-0.3696290107810921,0.1298688755949531,0.1012589658831552,1.5246523113991266,-0.9960415332234004,1.23968846922022,-0.3088138784791965,0.8772001621564677,0.4501854414963258,-0.6792841518358905,0.3246324595857386,10.55307803692358,-0.9833963101449796,0.2246142325812098,-0.8506479589889002
2.6,0.1190447671685757,0.1262002952182691,1.509749836168568,0.0844543208224733,0.1268755035322676,0.0535052644188678,-0.7176341769240123,0.9973275022928594,-0.3623743380316477,0.0964415924540513,0.1576716256974764,1.4982194888061118,-0.7580572451450894,0.9744783123390192,-0.3253977040195889,0.8796650733648584,0.433387560927112,-0.6740995264631344,0.3627336374722206,10.617563392417653,-0.983831933594968,0.222621717298932,-0.8509669819692692
2.62,0.1046666104112774,0.146202841579606,1.5025084762781715,0.0909808729141483,0.1267017117332789,0.0535820924320759,-0.7204873497180632,1.000456913092237,-0.3628704249594205,0.0964415924540513,0.1576716256974764,1.4982194888061118,-0.7580572451450894,0.9744783123390192,-0.3253977040195889,0.2131895235692868,-0.142658639702542,0.1564705399688781,-0.0248043463886377,10.68877131251702,-0.9819873672897208,0.2212083382209494,-0.8491431646563729
2.64,0.090258700660931,0.1661000286259591,1.4952373779945132,0.1027011203014065,0.1303646823661537,0.0543694989417934,-0.7196311261146049,0.9884948561932316,-0.3641674847427539,0.0964415924540513,0.1576716256974764,1.4982194888061118,-0.7580572451450894,0.9744783123390192,-0.3253977040195889,0.603129936654818,0.0428111801729136,-0.5981028449502601,-0.0648529891666693,10.09809466340448,-0.9785527979748208,0.2097854872379778,-0.8576168259275158
