t,x,y,z,roll,pitch,yaw,v_x,v_y,v_z,ref_x,ref_y,ref_z,ref_v_x,ref_v_y,ref_v_z,a_com,a_x,a_y,a_z,thrust,wind_x,wind_y,wind_z
0.0,0.4451110578885383,1.1573957007499516,2.695993446610697,0.0279134054102514,0.0995485915550722,0.0419699874915465,0.0001339162479228,0.0066620320225051,-0.0007393699303909,0.4451166702386607,1.1575968934245744,2.6959713697500614,-0.0998289429506449,-0.0932742967788245,-0.1007356847419808,0.3352136338378391,0.0066958123961421,0.3331016011252554,-0.0369684965195468,10.255293767182591,-0.940646088632182,0.2552279038501864,-0.8782229269766978
0.02,0.4452760822565776,1.157736372703041,2.695890123356464,0.0367257994398399,0.0937613608634206,0.0423850570417796,0.0159225465269572,0.0237976088717865,-0.0101197475669614,0.4451166702386607,1.1575968934245744,2.6959713697500614,-0.0998289429506449,-0.0932742967788245,-0.1007356847419808,1.255886464464789,0.7894315139517223,0.8567788424640735,-0.4690188818285262,10.254991859828806,-0.9528200530126768,0.2514711678680168,-0.8638155039369934
0.04,0.4457106337583751,1.158228245497753,2.6955583405978456,0.0509773106488001,0.0775322253145744,0.0426092976435722,0.0251858951628938,0.0237837533717327,-0.0224892499294674,0.4451166702386607,1.1575968934245744,2.6959713697500614,-0.0998289429506449,-0.0932742967788245,-0.1007356847419808,0.7726810606935934,0.4631674317968299,-0.0006927750026928,-0.6184751181252979,9.675733566298277,-0.9573790956676276,0.241087999847048,-0.8598607741306434
0.06,0.4461927533219817,1.1586276049777482,2.694990328592385,0.0647380878607245,0.0565906445187504,0.042248333390341,0.0241764230819878,0.0179185136207974,-0.0366748476577842,0.4451166702386607,1.1575968934245744,2.6959713697500614,-0.0998289429506449,-0.0932742967788245,-0.1007356847419808,0.7691736704537364,-0.0504736040452995,-0.2932619875467654,-0.7092798864158438,9.515872867723374,-0.968837623187512,0.2282121249235833,-0.8505940824608083
0.08,0.4465746750249051,1.1588894188533507,2.694081944262196,0.0786605444969508,0.0325031673825129,0.0413139191872657,0.0132730516084959,0.0082183677988341,-0.0535399597857979,0.4441183808091542,1.156664150456786,2.6949640129026418,-0.1198289432486681,-0.1132742970768478,-0.120735685040004,1.1151326664872456,-0.5451685736745986,-0.4850072910981611,-0.8432556064006821,9.353454200834676,-0.9835953867768068,0.2131436305044027,-0.8406470651937068
0.1,0.4466417265922532,1.1589248499518368,2.6928178551192774,0.0919275994317921,0.0093991544143163,0.0400248988709228,-0.0063581656204237,-0.0045111065012986,-0.0720926936179713,0.4421218019501413,1.1547986645212096,2.692949299207802,-0.1598289438447145,-0.1532742976728942,-0.1607356856360505,1.4930071487557,-0.9815608614459848,-0.6364737150066445,-0.9276366916086716,9.263349395102525,-0.9981072563327912,0.1968315652075434,-0.8333723105558897
0.12,0.446275625343452,1.1586960793657906,2.691260289075861,0.1039464780873447,-0.0097492002219411,0.0386991937835369,-0.0312454048950125,-0.019191465427267,-0.0909954437291911,0.4401252230911284,1.1529331785856332,2.6909345855129625,-0.199828944440761,-0.1932742982689407,-0.2007356862320969,1.7264136082303052,-1.2443619637294396,-0.7340179462984172,-0.945137505560989,9.218341346947454,-1.012867011559611,0.1786019371982398,-0.8279587412469751
0.14,0.4453344395911391,1.1581278336454774,2.6892184159575043,0.1160061089387137,-0.025960292033427,0.037401094302868,-0.0616288849938072,-0.0371440680030524,-0.1122936198620245,0.4361286442023132,1.1490676926202543,2.6869198717883207,-0.2398289450368075,-0.2332742988649871,-0.2407356868281434,2.0609852672588094,-1.5191740049397358,-0.8976301287892724,-1.0649088066416692,9.218341346947454,-1.025899506575077,0.1598632635531297,-0.8255244140058603
0.16,0.4437529474677616,1.1571746033544867,2.6867400882194725,0.1274748674313069,-0.0377697179240791,0.0363620411148203,-0.0949302057297068,-0.0575493008138483,-0.1345310283265153,0.432132065313498,1.1452022066548757,2.6829051580636785,-0.279828945632854,-0.2732742994610336,-0.2807356874241899,2.2471391946398445,-1.6650660367949792,-1.0202616405397935,-1.1118704232245404,9.198224981521436,-1.0361029364928216,0.1405608374094617,-0.8274107251039837
0.18,0.4414740457448529,1.155767141850041,2.6838072955466017,0.1376923701368164,-0.0447131901520865,0.0357184061338585,-0.1312063347769709,-0.0819523063331373,-0.1576307413374994,0.4271354864097816,1.1403367206745956,2.677890444324136,-0.3198289462289004,-0.31327430005708,-0.3207356880202363,2.4723778828377108,-1.813806452363204,-1.2201502759644471,-1.1549856505492062,9.203678176235371,-1.041862695515123,0.1240594822511344,-0.8322959904422457
0.2,0.4386204530503884,1.1539445422519927,2.680587918105141,0.1454429234783444,-0.0461475421664337,0.0356219163166628,-0.1667602903598692,-0.108150016374221,-0.1799452476336267,0.4211389074911641,1.1344712346794144,2.6718757305696914,-0.3598289468249468,-0.3532743006531265,-0.3607356886162827,2.47403565062597,-1.7776977791449156,-1.3098855020541846,-1.1157253148063635,9.23736122714172,-1.0465102489104128,0.1092831791393825,-0.83786172413413
0.22,0.43491240717222,1.1514770191252732,2.676742899186657,0.1513829647094113,-0.0430581531789427,0.0360256214265927,-0.2017066422527912,-0.1368543016026812,-0.2032694559570501,0.4302824385323949,1.1485370414332816,2.67159065572346,-0.2667602918499854,-0.2081500178643371,-0.2799452491237428,2.5442101893393083,-1.7473175946460986,-1.4352142614230123,-1.1662104161711675,9.257897986861735,-1.0470975664699544,0.0966252408132424,-0.8474850705296006
0.24,0.4304986402247764,1.1482608134755077,2.672649393536473,0.151095873637799,-0.0354878479300372,0.0366746311717008,-0.2371700425046914,-0.1808855911447969,-0.2043769359466971,0.4302824385323949,1.1485370414332816,2.67159065572346,-0.2667602918499854,-0.2081500178643371,-0.2799452491237428,2.827381177032718,-1.7731700125950087,-2.2015644771057845,-0.055373999482354,10.700612681845088,-1.0508683005368886,0.089537004851639,-0.852693018450232
0.26,0.4256965703900724,1.1444794956443622,2.668751045221447,0.1450675715357602,-0.0249998672081393,0.037345750059537,-0.2660598190824646,-0.2136665395405038,-0.2057131352356472,0.4302824385323949,1.1485370414332816,2.67159065572346,-0.2667602918499854,-0.2081500178643371,-0.2799452491237428,2.1857465526539457,-1.4444888288886613,-1.6390474197853444,-0.066809964447502,10.422232456218808,-1.04798416318836,0.0934371202766588,-0.8575693229714729
0.28,0.4200998913867194,1.139909984826304,2.664591234000172,0.1370035431490759,-0.0124887096091863,0.0380555423830387,-0.291629701384763,-0.2411244931741698,-0.2103250751604977,0.4276148356138951,1.1464555412546382,2.6687912032322223,-0.2867602921480086,-0.2281500181623603,-0.2999452494217661,1.8901243931103957,-1.2784941151149198,-1.3728976816833007,-0.2305969962425269,10.422232456218808,-1.0416374703916529,0.0980555716548733,-0.866919691913541
0.3,0.4140391224003611,1.1348398522323693,2.660297910270992,0.1289317171979689,0.0001155293996554,0.0386702395773949,-0.3128283800665023,-0.2643334947372069,-0.2189516225276978,0.4222796297768953,1.1422925408973514,2.663192298249747,-0.326760292744055,-0.2681500187584067,-0.3399452500178125,1.629769194459166,-1.0599339340869651,-1.1604500781518534,-0.4313273683600016,10.126110627998967,-1.0331465534436417,0.1021949641207756,-0.8789290455235579
0.32,0.4075947001849961,1.1293395766618173,2.6557879399024613,0.1215755056109736,0.0118004906941385,0.039117429009287,-0.330381170234068,-0.2845685445729069,-0.2316237264296029,0.4169444239398956,1.1381295405400649,2.6575933932672724,-0.3667602933401015,-0.3081500193544532,-0.379945250613859,1.4816712707450774,-0.8776395083782834,-1.0117524917850007,-0.6336051950952576,9.859068090499022,-1.0252621817551175,0.1060609610637096,-0.889417997946962
0.34,0.4011751391203836,1.123761266392409,2.651236492159699,0.1154934238025705,0.0214877936368315,0.039359815622345,-0.3444189233768803,-0.3017338538568418,-0.2468858279504493,0.4096092180730936,1.1319665401529757,2.649994488254995,-0.4067602939361479,-0.3481500199504996,-0.4199452512099054,1.3459551431458452,-0.7018876571406152,-0.8582654641967474,-0.7631050760423183,9.63353897588422,-1.0166848809645253,0.1087961756153756,-0.9011613496146382
0.36,0.3941513932222367,1.1175531360355777,2.6461109919897154,0.1101471288390037,0.0298738052886653,0.03942332205122,-0.35714818441361,-0.3182790458191824,-0.2649951472319996,0.4022740122062916,1.1258035397658863,2.642395583242718,-0.4467602945321944,-0.3881500205465462,-0.4599452518059519,1.38177866213536,-0.6364630518364861,-0.8272595981170278,-0.905465964077516,9.339341624287954,-1.0089390925858694,0.1103126776912434,-0.9122247845036292
0.38,0.3868843353921364,1.1110162216387491,2.640604141678274,0.1055914058598159,0.0364422972531345,0.0393025444774091,-0.3689015236790626,-0.3345571843619671,-0.2848700032959277,0.3939388063245884,1.1186405393638963,2.6337966782155395,-0.4867602951282408,-0.4281500211425926,-0.4999452524019983,1.4125585668112837,-0.5876669632726289,-0.8139069271392324,-0.993742803196404,9.262321473594966,-1.002255480436305,0.1108597336009039,-0.9221980739979896
0.4,0.3797689142477843,1.1045102302550491,2.6349896222204383,0.1016668149627474,0.0412840884921264,0.0390431422384122,-0.3795179399807898,-0.3494348990089175,-0.3051518102243238,0.3846036004279841,1.110477538947005,2.62419777317346,-0.5267602957242873,-0.468150021738639,-0.5399452529980447,1.3651065713785886,-0.5308208150863608,-0.743885732347524,-1.0140903464198074,9.1984010193828,-0.9963431498899536,0.1111585232641045,-0.9313427228915566
0.42,0.3720642661300694,1.097364550057489,2.62864966487122,0.0978605171834589,0.0452181327615187,0.0386560667100361,-0.3903836143308553,-0.3643015334576456,-0.3278495914852053,0.3607930172487448,1.0870384853046031,2.6197320317092223,-0.4795179414709059,-0.4494349004990337,-0.40515181171444,1.4613940032385182,-0.5432837175032734,-0.743331722436405,-1.1348890630440729,9.1984010193828,-0.9913490158726814,0.1112379875670082,-0.939415680339936
0.44,0.3641724315887166,1.0899124739336774,2.622132555473339,0.0946904152861529,0.0477454243546693,0.0381635181039329,-0.3982457958567448,-0.3804273538329381,-0.3212769577374224,0.3607930172487448,1.0870384853046031,2.6197320317092223,-0.4795179414709059,-0.4494349004990337,-0.40515181171444,0.9553212751539782,-0.3931090762944761,-0.8062910187646211,0.3286316873891443,9.13129922537155,-0.9964210720372024,0.1119645911310689,-0.9364174429897504
0.46,0.3561288294357461,1.0821492959957415,2.6157450970491523,0.0925075332120327,0.0484686106259368,0.037563217993802,-0.4058984544756936,-0.3953678867905651,-0.3180023777853907,0.3607930172487448,1.0870384853046031,2.6197320317092223,-0.4795179414709059,-0.4494349004990337,-0.40515181171444,0.8551397296032373,-0.3826329309474408,-0.747026647881352,0.1637289976015837,10.516726785125684,-0.9961160425334884,0.1134159729158257,-0.9364341802282096
0.48,0.348337948385994,1.0744986888835024,2.6096774909714022,0.0911246325905233,0.0476610435899681,0.0369012822125764,-0.4139128696294513,-0.4092773485719703,-0.3208501181193404,0.3559978378340357,1.082544136299613,2.615680513592078,-0.4995179417689291,-0.4694349007970569,-0.4251518120124631,0.8151895520594534,-0.4007207576878835,-0.6954730890702615,-0.1423870166974816,10.516726785125684,-0.9966596586462758,0.1136492246828311,-0.9363408137014644
0.5,0.3399638266652103,1.0661669138978862,2.603184244884495,0.0902919619077557,0.0454560145812739,0.0361241885799143,-0.4231877020697656,-0.4231878854620381,-0.3285321524509372,0.3464074790046176,1.0735554382896324,2.607577477357789,-0.5395179423649755,-0.5094349013931033,-0.4651518126085096,0.9199717452694912,-0.4637416220157175,-0.6955268445033913,-0.3841017165798405,10.167391297050017,-0.9983545739764638,0.1128848872816238,-0.9356108935367502
0.52,0.331392422383779,1.0575621965708797,2.5964957891439004,0.0901850391139232,0.0420570947805464,0.0352883015485643,-0.4336226643176611,-0.4366250463639227,-0.3400801854267357,0.3368171201751995,1.0645667402796517,2.5994744411235,-0.579517942961022,-0.5494349019891498,-0.505151813204556,1.0281084522416235,-0.5217481123947737,-0.6718580450942258,-0.5774016487899242,9.899865597952155,-1.000480942788275,0.1111223840320134,-0.9349366379699204
0.54,0.3225969308101128,1.0486920358511664,2.589541524268334,0.0908778243478425,0.0377772170232274,0.0344235003731595,-0.4455406273283107,-0.4498125625436978,-0.3547605056605505,0.3252267613159791,1.0535780422398686,2.589371404859409,-0.6195179435570685,-0.5894349025851963,-0.5451518138006025,1.1526710583275668,-0.5958981505324784,-0.6593758089887575,-0.734016011690744,9.69761242002096,-1.0034227529000046,0.1082630241069086,-0.9339472312641348
0.56,0.3140047327351578,1.040019228210755,2.582652563152248,0.0922979749506462,0.0332791941750744,0.0336060809932129,-0.4584280492653423,-0.4625447475923822,-0.3696629321270271,0.3136364024567586,1.0425893442000858,2.579268368595318,-0.6595179441531149,-0.6294349031812427,-0.585151814396649,1.1728986474603955,-0.6443710968515842,-0.6366092524342198,-0.7451213233238302,9.545484599801966,-1.0069601014362628,0.1044876557258896,-0.932655080863332
0.58,0.3046733084428564,1.030614710949594,2.575085928122477,0.0942796727727851,0.0287340083820117,0.0327823371398663,-0.4742159877466211,-0.4772633547163358,-0.3862585734021456,0.3010460435826371,1.0306006461454016,2.5681653323163256,-0.6995179447491613,-0.6694349037772891,-0.6251518149926953,1.3613519993836625,-0.7893969240639398,-0.735930356197681,-0.8297820637559239,9.5030636509764,-1.0100197986327637,0.0999825910303041,-0.9322377931727368
0.6,0.294999144150595,1.0208981305814002,2.5671779005622657,0.0960871913150612,0.0253910721003713,0.0320453990974863,-0.4924883067338346,-0.493537343544425,-0.4037084654052733,0.2874556846936143,1.017611948075816,2.556062296022432,-0.7395179453452078,-0.7094349043733356,-0.6651518155887418,1.5026801759423638,-0.9136159493606716,-0.8136994414044585,-0.8724946001563816,9.470239438489443,-1.0119757415240145,0.09533399330304,-0.9333477898821724
0.62,0.285450145350062,1.011354168850094,2.5593334409261663,0.0971064512696567,0.024276865495499,0.0314866963550169,-0.5116331262086863,-0.5101212421135081,-0.4211300207782597,0.2703747288139033,0.9962212634041788,2.546992477292002,-0.5924883082239507,-0.5935373450345411,-0.5037084668953894,1.537091731231684,-0.9572409737425848,-0.8291949284541522,-0.8710777686493199,9.45143884751178,-1.012726298626252,0.0914574107416077,-0.9356804905220348
0.64,0.2750012398120772,1.000893799469881,2.5509983202975945,0.0957869884826007,0.0260479964014544,0.0310142233333881,-0.5318747659386533,-0.5347426566487152,-0.4098706051737992,0.2703747288139033,0.9962212634041788,2.546992477292002,-0.5924883082239507,-0.5935373450345411,-0.5037084668953894,1.6902015208446732,-1.0120819864983532,-1.2310707267603582,0.562970780223021,9.423394582675428,-1.0183110268154574,0.0905409839706557,-0.9320444974140372
0.66,0.2641725998824961,0.9899694836403228,2.542898465869683,0.0915249564706005,0.0304213542786197,0.0305786897187234,-0.5496588022265994,-0.5556304783237216,-0.4010662197242293,0.2703747288139033,0.9962212634041788,2.546992477292002,-0.5924883082239507,-0.5935373450345411,-0.5037084668953894,1.4405643374754595,-0.8892018143973002,-1.044391083750318,0.4402192724784953,11.341311040198889,-1.0159663271973345,0.0940768697532341,-0.93391781402883
0.68,0.253012419511963,0.9786792853721494,2.534895465224735,0.0863633662374304,0.0362109457866731,0.0301920326840145,-0.5651855917291421,-0.5721038583858326,-0.3996092740188725,0.2644498457316638,0.9902858899538336,2.541955392623048,-0.6124883085219739,-0.6135373453325643,-0.5237084671934126,1.134213531169708,-0.7763394751271357,-0.8236690031055482,0.0728472852678407,10.891507985942551,-1.0117489461332887,0.0975987179052174,-0.938411062905514
0.7000000000000001,0.2421435765509684,0.9676778539850224,2.5272611119002777,0.081600774895703,0.0422447293999308,0.0298586551799545,-0.5779432360865808,-0.5851035740172796,-0.404061609132917,0.2526000795671848,0.9784151430531428,2.53188122328514,-0.6524883091180204,-0.6535373459286108,-0.563708467789459,0.9375145119105252,-0.6378822178719379,-0.6499857815723542,-0.2226167557022235,10.44748602882919,-1.0071287385215406,0.1011357499102451,-0.9434251532087362
0.72,0.2304608944874611,0.9558516808995002,2.519083367451568,0.0771819184252805,0.0485360473218683,0.0295222120042048,-0.5894957602886585,-0.59685503731975,-0.4137130504498636,0.2407503134027057,0.966544396152452,2.5218070539472324,-0.6924883097140668,-0.6935373465246573,-0.6037084683855055,0.9548665151257544,-0.577626210103882,-0.5875731651235172,-0.4825720658473309,10.086738567722024,-1.002010431739046,0.1039158028225836,-0.9492418887174748
0.74,0.2185637894980688,0.943804654140108,2.5106655411416807,0.0735318345302725,0.0543273307971518,0.0291833574237535,-0.5995330939846181,-0.6073297704517837,-0.4277758707007342,0.2269005472084244,0.9526736492219589,2.509732884579522,-0.7324883103101133,-0.7335373471207037,-0.643708468981552,1.0102363774380585,-0.5018666847979802,-0.5237366566016866,-0.7031410125435317,9.796002232018507,-0.996812667976749,0.1057529759114368,-0.9554797836087252
0.76,0.2064803917528868,0.9315585002075636,2.50193784649222,0.070692501821076,0.0593274108008935,0.0288319144295131,-0.6082687898625724,-0.616941640154158,-0.4442993568570105,0.213050781014143,0.9388029022914656,2.4976587152118124,-0.7724883109061598,-0.7735373477167502,-0.6837084695775985,1.050863949810085,-0.4367847938977154,-0.4805934851187132,-0.8261743078138123,9.563124411173703,-0.9923456259018238,0.106652194151442,-0.9611705606097698
0.78,0.1948445134763787,0.9197433608616852,2.4933242555709083,0.0684371622104799,0.0633523849386222,0.0284723220043845,-0.6160859352626274,-0.6262596711375178,-0.4615733760065153,0.1982010148049605,0.9239321553460712,2.484584545829201,-0.8124883115022061,-0.8135373483127966,-0.7237084701736448,1.056320502013848,-0.3908572700027535,-0.4659015491679907,-0.8637009574752413,9.45174274161036,-0.987960710513476,0.107020806296815,-0.967027650565538
0.8,0.1824402396727001,0.9071180849086616,2.483887142051631,0.0662655287587428,0.0669954029839225,0.0280647036185618,-0.6238845603724547,-0.6357381384532267,-0.4813041092255498,0.1823512485808769,0.908061408385776,2.4705103764316885,-0.8524883120982526,-0.853537348908843,-0.7637084707696913,1.16185383075852,-0.3899312554913603,-0.4739233657854447,-0.9865366609517228,9.292991960162,-0.9839001026400244,0.1070989283157106,-0.9726690707887364
0.8200000000000001,0.1698836659119869,0.8943067194621936,2.474040564512185,0.064208989770481,0.0701697103313113,0.0276332211633116,-0.6313384761957441,-0.6448702111394031,-0.5024249189722731,0.1512460116540774,0.8753311779860002,2.459821936590353,-0.7238845618625708,-0.7357381399433428,-0.5813041107156659,1.2093843650837186,-0.3726957911644735,-0.456603634308822,-1.0560404873361684,9.292991960162,-0.980295041848236,0.1070098256679442,-0.977847819549282
0.84,0.1572112420044422,0.8812815374604895,2.46410899272412,0.0617756800331941,0.0728526286105778,0.0271444981479568,-0.6355257972592729,-0.6568075064231562,-0.4896500522472567,0.1512460116540774,0.8753311779860002,2.459821936590353,-0.7238845618625708,-0.7357381399433428,-0.5813041107156659,0.8989297750971956,-0.2093660531764407,-0.5968647641876546,0.6387433362508216,9.226422806424123,-0.982272765783295,0.1080222459568987,-0.9767252861698356
0.86,0.1451017055856442,0.8687147945589092,2.4548762672439857,0.0595284015666793,0.0747132259860384,0.0266441836455566,-0.639012302058078,-0.6655486619870501,-0.4829601348437801,0.1512460116540774,0.8753311779860002,2.459821936590353,-0.7238845618625708,-0.7357381399433428,-0.5813041107156659,0.5773181773719394,-0.1743252399402539,-0.4370577781946938,0.3344958701738315,11.238317424837987,-0.9806799311154014,0.1099969915925443,-0.9777501554022616
0.88,0.1322816846288091,0.8553182031598466,2.445226297764331,0.0577297235543002,0.0757974210745335,0.0261095752681471,-0.6428771705590781,-0.6737235383935634,-0.4826965965138254,0.1440071660354517,0.8679737965865668,2.454008895483197,-0.743884562160594,-0.755738140241366,-0.6013041110136891,0.4523142304945347,-0.1932434250500048,-0.4087438203256632,0.0131769164977313,10.753739810315892,-0.9793982293240072,0.1110019061382856,-0.979057281196716
0.9,0.1193796216041066,0.8417668794722566,2.4355193370942168,0.056618137511467,0.0760355026903188,0.0255802957928215,-0.647220638469225,-0.6810392573853155,-0.4882399773438644,0.1295294747982003,0.8532590337877,2.442382813268884,-0.7838845627566404,-0.7957381408374125,-0.6413041116097355,0.5077266215189065,-0.2171733955073418,-0.3657859495876048,-0.2771690415019484,10.347776452332257,-0.9786125710446706,0.1110684175120649,-0.9803189904468886
0.92,0.1070367763047518,0.8287662782032955,2.4261474965951977,0.056427370880574,0.0755794814236492,0.0251049195427999,-0.6518772189220556,-0.6872052546569946,-0.4979737808711755,0.1150517835609488,0.8385442709888331,2.4307567310545704,-0.8238845633526869,-0.8357381414334589,-0.681304112205782,0.6213899640651059,-0.2328290226415341,-0.3082998635839551,-0.4866901763655562,9.793902855029046,-0.978428536748655,0.1100986884857107,-0.9813843565295948
0.94,0.093943575948896,0.8149603243072197,2.41604871369688,0.057391925361816,0.0744641782823997,0.0246537150675311,-0.657255055895745,-0.6931786139171634,-0.5115424062771434,0.0985740922938951,0.8218295081601639,2.4171306488104545,-0.8638845639487334,-0.8757381420295054,-0.7213041128018285,0.7885267065453483,-0.268891848684466,-0.2986679630084421,-0.6784312702983936,9.793902855029046,-0.978917935095834,0.1079163755772865,-0.9820663733370512
0.96,0.0807387235945464,0.8010345084841115,2.405662940012185,0.0597495099729545,0.072709057974409,0.0242619349260185,-0.6630209243464192,-0.6993090744425503,-0.5263951629436003,0.0820964010268413,0.8051147453314947,2.403504566566339,-0.9038845645447798,-0.915738142625552,-0.761304113397875,0.8535692207384068,-0.2882934225337141,-0.3065230262693452,-0.7426378333228456,9.608835684663063,-0.9803587512982652,0.1044047389422231,-0.9820205518604777
0.98,0.0674082302458579,0.7869589444201159,2.3949717213370287,0.0628379101556757,0.0705222760404825,0.0238886151984605,-0.669811372688838,-0.7080635123131614,-0.5419872682693584,0.0646187097448865,0.7873999824879244,2.3888784843073223,-0.9438845651408262,-0.9557381432215982,-0.8013041139939213,0.956378742458996,-0.3395224171209354,-0.4377218935305571,-0.7796052662879027,9.553144817055909,-0.9818503129415465,0.100153224016366,-0.982248544121532
1.0,0.054607284117402,0.7734067235990616,2.3845205631014035,0.0654832239318028,0.068463311641537,0.0235074615890566,-0.677372560705681,-0.7179377971209153,-0.5573498968271491,0.0461410184480304,0.7686852196294529,2.3732524020334043,-0.9838845657368726,-0.9957381438176446,-0.8413041145899678,0.9882856632767364,-0.3780594008421511,-0.4937142403876937,-0.7681314278895346,9.50575811789895,-0.9832131876238648,0.0957196655346628,-0.9829121989316724
1.02,0.0409658518748377,0.758931695805145,2.3731955426023554,0.0676855286117606,0.0667636014720499,0.0230907176422108,-0.6864473637544085,-0.7289529324773164,-0.5743774218436496,0.0207386560821179,0.7375098337430158,2.356653068260046,-0.7618540756960107,-0.8179377986110314,-0.6573498983172652,1.110880130212732,-0.4537401524363771,-0.5507567678200542,-0.8513762508250255,9.50575811789895,-0.9844697520839192,0.091858830530257,-0.9835870188950884
1.04,0.0271002947248415,0.7441527977404757,2.361859133759055,0.0674870657890305,0.0677838356904376,0.0226904800674853,-0.6989725516829564,-0.7475180837578332,-0.5583158973860494,0.0207386560821179,0.7375098337430158,2.356653068260046,-0.7618540756960107,-0.8179377986110314,-0.6573498983172652,1.3779674729615417,-0.6262593964273921,-0.9282575640258416,0.8030762228800115,9.463726748866064,-0.9867452845414136,0.0902583267592507,-0.9830874601240788
1.06,0.0130114687795448,0.7290339586427271,2.3508091028846616,0.0643546657013081,0.072276942656623,0.0223200269552098,-0.7088317265322562,-0.7629692918674732,-0.5475286111948681,0.0207386560821179,0.7375098337430158,2.356653068260046,-0.7618540756960107,-0.8179377986110314,-0.6573498983172652,1.0633775248317523,-0.4929587424649939,-0.7725604054819979,0.539364309559065,11.542992195051738,-0.9846284287835309,0.0930448793624607,-0.9843945708967096
1.08,-0.0005288913106471,0.7144258369260119,2.3404387224583467,0.0601420624717572,0.0783224309751063,0.0219858258618624,-0.7156840793800702,-0.7736843523735584,-0.5445944932526218,0.0131201153251578,0.7293304557569055,2.3500795692768737,-0.7787503786940767,-0.8379377989090546,-0.6773498986152884,0.6526413818074626,-0.3426176423906968,-0.5357530253042586,0.1467058971123147,10.550842914214629,-0.979613372375474,0.0969326718121415,-0.988723521623236
1.1,-0.0148962471892379,0.6988624465352018,2.329517117143763,0.0557882183912167,0.0854061370588339,0.0216644421326769,-0.720454333431662,-0.7820544710039177,-0.5480228854208868,-0.0021169661887623,0.7129716997846849,2.336932571310528,-0.8125429846902086,-0.8779377995051011,-0.7173498992113349,0.5112926815006188,-0.2385127025795907,-0.4185059315179651,-0.1714196084132535,10.550842914214629,-0.97294843983902,0.1004846075600696,-0.9949709622438314
1.12,-0.0293365327757862,0.6831518323118049,2.318458300761766,0.0520712976159892,0.0923757593847584,0.0213635187660697,-0.7231856643815723,-0.788718454702918,-0.5576810458057401,-0.0173540477026825,0.6966129438124642,2.323785573344183,-0.8463355906863405,-0.9179378001011476,-0.7573498998073813,0.6023888061668071,-0.1365665474955146,-0.3331991849500171,-0.4829080192426616,10.154713450140662,-0.9658014887623612,0.1029443181858977,-1.0021386221396733
1.14,-0.0430891197920843,0.6681142941792638,2.3077284960761637,0.0492661616699588,0.0983849878108229,0.0210854597638913,-0.7242538385703715,-0.7940168704910244,-0.5713040579640621,-0.0342807595164093,0.6782541878104412,2.308638575348035,-0.8801281966824723,-0.957937800697194,-0.7973499004034278,0.7328039748579819,-0.0534087094399615,-0.2649207894053207,-0.6811506079161034,9.834770271598243,-0.9583256076457832,0.1045423055587747,-1.0099929973209794
1.16,-0.0575729860001963,0.6521834086043491,2.296129343924683,0.0471219320748106,0.1037306830710005,0.0207960916340845,-0.7240243791776606,-0.7989425767340447,-0.5880104951879511,-0.0512074713301362,0.6598954318084183,2.293491577351888,-0.9139208026786044,-0.9979378012932404,-0.8373499009994743,0.8709481590789075,0.0114729696355453,-0.2462853121510122,-0.8353218611944491,9.59125123175545,-0.951725082934515,0.1052243067181464,-1.0172042434861457
1.18,-0.0720446623442893,0.6361490353301219,2.284177788292755,0.0455150676779104,0.1079962583630288,0.0204938935972983,-0.7231368258976877,-0.8042482259168428,-0.6063787320393788,-0.0689789982937663,0.6405366757914942,2.2773445793408387,-0.9477134086747362,-1.0379378018892869,-0.8773499015955206,0.9569871852666846,0.0443776639986459,-0.2652824591399039,-0.9184118425713816,9.474211027609272,-0.9461392287001668,0.1053024861519789,-1.0235924074998035
1.2,-0.0857718918125467,0.620818651312113,2.2724697141118857,0.0442114073285728,0.1111601461220644,0.0201852485027607,-0.7218896274201718,-0.8091875188275519,-0.6251365090056198,-0.0875953404072996,0.620177919759669,2.260197581314889,-0.981506014670868,-1.0779378024853332,-0.9173499021915672,0.9718620210906258,0.0623599238757932,-0.2469646455354579,-0.9378888483120518,9.400661121882877,-0.9415683319730248,0.1051195132618561,-1.0290306597927383
1.22,-0.1001936664113157,0.60458340691889,2.259747266820713,0.0430436471332024,0.1136919595799676,0.0198445531022442,-0.7203584011277963,-0.8140526775935907,-0.6461859238888812,-0.1218663731835553,0.5803592753707354,2.2412128886616047,-0.763440666043028,-0.909187520317668,-0.7251365104957359,1.0829269258644516,0.0765613146187782,-0.2432579383019384,-1.0524707441630698,9.33952155575571,-0.9375047615830776,0.10475819330166,-1.0340407877431752
1.24,-0.114617192267965,0.5882173037030984,2.246908645351809,0.0414210949629731,0.1177983709872916,0.0195439036285936,-0.7215443599186802,-0.8221200428697795,-0.6349801903062487,-0.1218663731835553,0.5803592753707354,2.2412128886616047,-0.763440666043028,-0.909187520317668,-0.7251365104957359,0.6929237798597834,-0.059297939544195,-0.4033682638094393,0.5602866791316219,9.273275554683096,-0.9341242397275248,0.1038587428549501,-1.0394996164343189
1.26,-0.1290327894924178,0.5717177157830625,2.234293561290637,0.039512897141777,0.1249878331284703,0.0193499032117299,-0.7194647598222925,-0.8274998250093853,-0.6272901664617695,-0.1218663731835553,0.5803592753707354,2.2412128886616047,-0.763440666043028,-0.909187520317668,-0.7251365104957359,0.4806330699171078,0.1039800048193817,-0.2689891069802941,0.3845011922239627,10.874681290278204,-0.9276562141855442,0.1062337810239112,-1.044060290863495
1.28,-0.1426623556507643,0.5559572665840277,2.222379319358712,0.0381771859852099,0.1331931562853906,0.0192496535962802,-0.7150023713478072,-0.8313292930916673,-0.6272355418931798,-0.1295007798439856,0.5712674001675587,2.2339615235566472,-0.7717508737675992,-0.9291875206156912,-0.7451365107937591,0.2940268717903558,0.2231194237242661,-0.1914734041140953,0.0027312284294866,10.874681290278204,-0.9182561531346036,0.1077221964675322,-1.0517165331723155
1.3,-0.1568946480575295,0.5393001859602301,2.2097773830433085,0.0376346131563683,0.1424019828457106,0.0192258990544709,-0.7081793798220454,-0.8342466511047371,-0.6332522074413544,-0.1447695931648462,0.5530836497612053,2.2194587933467327,-0.7883712892167416,-0.9691875212117376,-0.7851365113898056,0.4776621595218511,0.3411495762880911,-0.1458679006534902,-0.3008332774087296,10.428840940683584,-0.9072908749542956,0.1079542174299291,-1.0611805090502249
1.32,-0.1709655817309977,0.5225944586187781,2.1969947576763333,0.0383906758050928,0.1515087997273219,0.0192971989101458,-0.6990347284336847,-0.8363771212823707,-0.6447240764727711,-0.1600384064857067,0.5348998993548519,2.204956063136818,-0.8049917046658841,-1.009187521807784,-0.825136511985852,0.7412275818977774,0.4572325694180312,-0.106523508881684,-0.5735934515708363,10.0845292422664,-0.8959874149277883,0.1066915113611815,-1.0711376587171793
1.34,-0.1841395453585224,0.50668793925497,2.184600780883834,0.0405679321204986,0.1593895104012714,0.0194544828905481,-0.6880783205085506,-0.8381062123741907,-0.6593576143257492,-0.1761382405790244,0.5147161489186962,2.188453332897101,-0.8216121201150266,-1.0491875224038305,-0.8651365125818985,0.9181136377381331,0.5478203962567096,-0.0864545545909978,-0.7316768926489081,9.627578360984444,-0.8856968020675421,0.103863857963019,-1.0803818453652787
1.36,-0.1977608934625431,0.4898945133076481,2.17123613937602,0.0442179905252787,0.1663257590051368,0.0196852599177161,-0.6745670155950619,-0.8415880542609813,-0.6764299499522305,-0.1922380746723421,0.4945323984825405,2.171950602657384,-0.838232535564169,-1.089187522999877,-0.905136513177945,1.1024327951547568,0.675565245674431,-0.1740920943395285,-0.8536167813240625,9.627578360984444,-0.8763127386892078,0.0992878031113281,-1.0891242587293524
1.38,-0.2110956956117735,0.47300095206619,2.157520975969005,0.0480980661082784,0.1715949425072497,0.0198830449203518,-0.6595914665794937,-0.8476408745237711,-0.6942675813271653,-0.2087534191518884,0.4733486480314837,2.154447872402766,-0.8548529510133115,-1.1291875235959234,-0.9451365137739912,1.2032090368254618,0.7487774507784095,-0.302641013139493,-0.8918815687467385,9.56235638876842,-0.8680435547399434,0.0941578476012562,-1.097185027577563
1.4,-0.2241194892262863,0.4559702276905733,2.1434437800528463,0.0514939563305194,0.1750971801997523,0.0199777224809712,-0.6436569549984319,-0.8550327514976477,-0.7125694760174865,-0.2256842740176631,0.4511648975655257,2.1359451421332465,-0.8714733664624539,-1.1691875241919698,-0.9851365143700378,1.2683728294349528,0.7967255790530925,-0.3695938486938277,-0.9150947345160644,9.548727111866356,-0.8616036116702036,0.0895718559132798,-1.1037389330559468
1.42,-0.2361925383488198,0.4396462504839232,2.129727811210975,0.0540928768184599,0.17684408759109,0.0199490095044706,-0.6281238871252636,-0.8627823018388445,-0.7303003759534594,-0.2563023369762079,0.4132185901156909,2.107815306251972,-0.6574044152072651,-0.9550327529877638,-0.8125694775076027,1.2406818091100968,0.7766533936584163,-0.3874775170598421,-0.8865449967986438,9.534914672792183,-0.8564178455996863,0.0852827117418746,-1.109388217924458
1.44,-0.2485936870443297,0.4222341534332003,2.115205646970662,0.0545660330493399,0.1791524646665757,0.0197895766283165,-0.6123723356753806,-0.877560800251522,-0.7195055638653123,-0.2563023369762079,0.4132185901156909,2.107815306251972,-0.6574044152072651,-0.9550327529877638,-0.8125694775076027,1.2073145369271312,0.787577572494147,-0.7389249206338766,0.5397406044073572,9.534914672792183,-0.8527332579239401,0.082757736162875,-1.114300208126156
1.46,-0.2606592041114446,0.4045513401984342,2.1009023072948527,0.0521639156820923,0.1833935314921536,0.019533964295731,-0.5946918333301924,-0.8897194866072166,-0.7115525242623246,-0.2563023369762079,0.4132185901156909,2.107815306251972,-0.6574044152072651,-0.9550327529877638,-0.8125694775076027,1.1442078657318444,0.8840251172594127,-0.6079343177847252,0.3976519801493827,11.46004258251287,-0.8469241870881822,0.0851746517407683,-1.1181989615783388
1.48,-0.2717740655426839,0.3875575837625782,2.0873969919604245,0.0484653071452033,0.1878972440710128,0.019210121408504,-0.5760866775257842,-0.8981133838701688,-0.7104489570632954,-0.2628763811282806,0.4036682625858133,2.099689611476896,-0.6601539072490318,-0.975032753285787,-0.8325694778056258,1.0220410881296216,0.9302577902204068,-0.4196948631476127,0.0551783599514632,11.053584491106449,-0.8393185345661959,0.0890138693991686,-1.1236406757163615
1.5,-0.2830787196233508,0.3695307583288361,2.073147069293103,0.0444944558500064,0.192111211847944,0.018829519928061,-0.5553357150643878,-0.9040898698056749,-0.7148602409538902,-0.2760244694324259,0.384567607526058,2.083438221926744,-0.665652891332565,-1.0150327538818336,-0.8725694784016723,1.102021157663278,1.0375481230698202,-0.2988242967752963,-0.2205641945297431,10.647568442369447,-0.831915118330579,0.0928319415307189,-1.1290427819679345
1.52,-0.293959625331772,0.3514028055892438,2.0587534902555062,0.0410653047551761,0.1951205673584277,0.0184290229776347,-0.5338865653858945,-0.908525787972727,-0.7242639609067003,-0.2891725577365712,0.3654669524663028,2.067186832376592,-0.6711518754160983,-1.05503275447788,-0.9125694789977188,1.1918193454400636,1.072457483924666,-0.2217959083526122,-0.4701859976405043,10.32232347463014,-0.8257532515037082,0.0957558872335129,-1.1337613855463802
1.54,-0.3044089531569449,0.3331965540552045,2.0441346076532434,0.0383475030718565,0.1966071016928625,0.0180180508215344,-0.5122769177660983,-0.9120478460655342,-0.737148296304737,-0.3025955952448932,0.3443662973767452,2.0489354427966373,-0.6766508594996317,-1.0950327550739265,-0.9525694795937651,1.270224253931146,1.0804823809898112,-0.1761029046403628,-0.6442167699018342,9.890770216742569,-0.8206043649954593,0.0979142567021816,-1.138040040420063
1.56,-0.3139332103435966,0.3158409351975255,2.029994496004773,0.0364657629153797,0.1964607128268907,0.0176236124159397,-0.4914612266463,-0.9148638787244938,-0.750634501801625,-0.3160186327532152,0.3232656422871875,2.030684053216683,-0.6821498435831649,-1.1350327556699729,-0.9925694801898116,1.2480993304175236,1.0407845559899125,-0.1408016329479788,-0.674310274844403,9.890770216742569,-0.8176851466108045,0.0992651456867262,-1.140771358074401
1.58,-0.3235300475367018,0.2975094997492629,2.0148253295560608,0.0349751168941769,0.19440654669972,0.0171836627505982,-0.4693986310475298,-0.918123790369165,-0.7655938290826493,-0.3295791448636255,0.3011649871827287,2.011432663621828,-0.6876488276666982,-1.1750327562660192,-1.032569480785858,1.3427272816796545,1.103129779938511,-0.1629955822335604,-0.7479663640512113,9.830322002564571,-0.8170289738116615,0.1000469162747394,-1.1419634576461577
1.6,-0.3326851736878968,0.2791132143391047,1.999352194353289,0.0337682999512373,0.1900315312973602,0.0166952106411738,-0.4474290671907727,-0.921319373830483,-0.7809583755963724,-0.3432771315761241,0.2780643320633689,1.991181274012071,-0.6931478117502314,-1.2150327568620656,-1.0725694813819044,1.3499470168183794,1.098478192837854,-0.1597791730658992,-0.7682273256861549,9.791086021014053,-0.8185275520181732,0.1003903438498908,-1.1417802006255573
1.62,-0.3409911111257408,0.2615787614101995,1.984366344143521,0.032828773222277,0.1837671628534203,0.0161879908931927,-0.4283808508530248,-0.9242349632576377,-0.7956822834054993,-0.3550566270474354,0.2330472456475805,1.9603042755734703,-0.4059911954366033,-1.0054329269968725,-0.8809583770864885,1.2125682130596327,0.9524108168873974,-0.145779471357732,-0.7361953904563456,9.768259624974236,-0.8220422904210807,0.1004307028193358,-1.1403896508490037
1.64,-0.3494177876569781,0.2429793801916308,1.968595479667712,0.029724508770582,0.1790095855782204,0.0155841315855927,-0.415429113604454,-0.9344160694745228,-0.7790027554270437,-0.3550566270474354,0.2330472456475805,1.9603042755734703,-0.4059911954366033,-1.0054329269968725,-0.8809583770864885,1.1721871385785636,0.6475868624285397,-0.5090553108442641,0.8339763989227811,11.92658599990864,-0.8228036358274883,0.1001164930862585,-1.1440631233670002
1.66,-0.3575872209298472,0.2242393972878247,1.9531499304910516,0.0245676377395722,0.1795236697816745,0.0150177325567616,-0.4015762607515864,-0.9387106892727352,-0.7665942556428379,-0.3550566270474354,0.2330472456475805,1.9603042755734703,-0.4059911954366033,-1.0054329269968725,-0.8809583770864885,0.9543533913978532,0.692642642643379,-0.2147309899106164,0.6204249892102887,11.92658599990864,-0.8226617571675362,0.1060813153853628,-1.1425577697859328
1.68,-0.3650691366453547,0.2063923569150343,1.938634714737452,0.0196927569513182,0.1827954788856853,0.0145565831126402,-0.3863845883677673,-0.9397196390801932,-0.7619552466454975,-0.3591165390018015,0.2229929163776118,1.9514946918026053,-0.3977036210857694,-1.0222556376301504,-0.9009583773845116,0.7958097982694511,0.7595836191909539,-0.0504474903729013,0.2319504498670188,11.340174809927705,-0.817696030573198,0.1121696478844779,-1.144806257209746
1.7,-0.3726152427279127,0.1876059359982982,1.9233902112344343,0.0152530732274743,0.1877406466972038,0.0141449137864993,-0.3687941891719288,-0.938939381178968,-0.7630282378236557,-0.3672363629105336,0.2028842578376743,1.933875524260876,-0.3811284723841016,-1.0559010588967062,-0.940958377980558,0.8820179367929363,0.8795199597919273,0.0390128950612689,-0.0536495589079089,10.872831066586514,-0.8087428759862365,0.1171019770351885,-1.1506761230209568
1.72,-0.3797955533353622,0.1688477150588656,1.908069894908906,0.0117486199639438,0.1933996204017647,0.0138032512272591,-0.3499253107824588,-0.9370504397756476,-0.769169824349054,-0.3753561868192656,0.1827755992977369,1.916256356719146,-0.3645533236824338,-1.089546480163262,-0.9809583785766046,0.9966465727010976,0.9434439194734968,0.0944470701660205,-0.3070793262699156,10.518695810881582,-0.7989680180654882,0.1210786662891566,-1.157096173024043
1.74,-0.386587222510417,0.1501361099331298,1.892581532234093,0.009244730110694,0.1993000567178856,0.0135309425042869,-0.3299830217697863,-0.9344535484526172,-0.7793797223081858,-0.3826472532929143,0.1609846696944716,1.896637189147614,-0.347978174980766,-1.1231919014298175,-1.020958379172651,1.127697601248307,0.9971144506336294,0.1298445661515157,-0.5104948979565871,10.250643306836537,-0.7896081783437845,0.1239116155766269,-1.1631703483758375
1.76,-0.3926571171277243,0.1324135216753798,1.8776626062911368,0.0077913093967677,0.2048807501031677,0.0133377518939806,-0.3097975933626216,-0.9314068750699764,-0.7905512237945318,-0.389938319766563,0.1391937400912063,1.8770180215760817,-0.3314030262790982,-1.1568373226963735,-1.0609583797686974,1.1635465011557284,1.0092714203582347,0.1523336691320376,-0.5585750743173024,10.054081360758572,-0.7792909865873099,0.1255270304634658,-1.1703545101598405
1.78,-0.398619031229227,0.1138181982702508,1.861718523519228,0.0071499388120031,0.210581040220993,0.0132010022497897,-0.2873059319833475,-0.9283308915336982,-0.8033378393826778,-0.3968150075226699,0.1165616749562772,1.8563988539896483,-0.3148278775774304,-1.1904827439629293,-1.1009583803647438,1.3027221926742505,1.1245830689637053,0.1537991768139124,-0.6393307794072989,9.991490903950762,-0.7687072150433325,0.1260472854958644,-1.1778876825154896
1.8,-0.4041184920070227,0.0952850855505429,1.845509853466741,0.007350678654336,0.2160251420828659,0.0131312442959666,-0.2636260266177603,-0.9251864881172268,-0.8169472934948198,-0.4032773165612353,0.0930884742896842,1.834779686388314,-0.2982527288757627,-1.224128165229485,-1.1409583809607902,1.3746294338831635,1.1839952682793586,0.1572201708235632,-0.6804727056070992,9.95165743733014,-0.7581736853310289,0.1255457850095726,-1.1856058816241284
1.82,-0.4091326845961023,0.076814854856491,1.8290210212476636,0.0084369848325817,0.2211774951205716,0.0131346407871587,-0.2388443281841916,-0.9220898905405236,-0.8312926034511804,-0.4172997933379107,0.0490257611446816,1.804662488792,-0.1913971702330061,-0.9473491881891578,-0.916947294984936,1.4400602518197316,1.239084921678432,0.154829878835172,-0.7172654978180315,9.925927597226291,-0.7470667891763264,0.1240147644891542,-1.1938159277673022
1.84,-0.413352970681614,0.0590801256954289,1.8133773511786104,0.0025014169214806,0.2256480096804023,0.0126499318273304,-0.2065959466550575,-0.9400772472719848,-0.814663654291521,-0.4172997933379107,0.0490257611446816,1.804662488792,-0.1913971702330061,-0.9473491881891578,-0.916947294984936,2.0248611456023284,1.6124190764567072,-0.8993678365730728,0.83144745798297,12.009112627642024,-0.7346539902940996,0.1258298396861333,-1.2076293138295542
1.86,-0.4171339200467096,0.0402338039568098,1.7972210449675146,-0.0112585344238458,0.2298558496313348,0.0115874172917886,-0.1732118290342805,-0.942220799130929,-0.8022954556961708,-0.4172997933379107,0.0490257611446816,1.804662488792,-0.1913971702330061,-0.9473491881891578,-0.916947294984936,1.7833020358199811,1.6692058810388477,-0.1071775929472051,0.6184099297675105,12.009112627642024,-0.7254456160163287,0.1427968289675745,-1.2105082934182705
1.88,-0.420259274235954,0.021456685100792,1.7812293233867935,-0.0265758476101673,0.2337177314323459,0.0103913529099486,-0.1409715133119142,-0.9349051317444718,-0.7978525943931984,-0.4192137650402407,0.03955226926279,1.7954930158421507,-0.1769513989560553,-0.951781728203544,-0.9369472952829592,1.6678548825846529,1.6120157861183175,0.365783369322864,0.2221430651486167,11.481547404245248,-0.7161982221529287,0.1616336025143008,-1.2129481616913336
1.9,-0.4227504171287102,0.0028900335263462,1.7652473205268422,-0.0410051794175166,0.237342743873071,0.0092437018081992,-0.1096417707892146,-0.9221030181394264,-0.8005825614224095,-0.4230417084449009,0.0206052854990069,1.777154069942452,-0.1480598564021536,-0.9606468082323164,-0.9769472958790056,1.6977187629844062,1.56648712613498,0.6401056802522731,-0.1364983514605511,10.99989603773338,-0.707198686820722,0.1784727823381046,-1.2155748230968768
1.92,-0.4245407955469784,-0.0144743003592258,1.7499636866088957,-0.0530689461583403,0.2406183956734689,0.0082659156669517,-0.0802904142442689,-0.906561405364858,-0.8081044213621422,-0.426869651849561,0.0016583017352237,1.7588151240427532,-0.1191683138482519,-0.9695118882610888,-1.016947296475052,1.7026613254080418,1.467567827247284,0.7770806387284168,-0.3760929969866378,10.351550260865224,-0.6973806327821158,0.1939692992846289,-1.2191627958093327
1.94,-0.4258209616571932,-0.0324093848051901,1.7336821342942017,-0.0638118376185146,0.2438226661932677,0.0073862663785508,-0.0492215596257216,-0.8879157780532312,-0.8198311157509894,-0.4292530181265261,-0.017731936029998,1.738476178113252,-0.0902767712943502,-0.9783769682898612,-1.0569472970710985,1.9042377126043968,1.5534427309273648,0.9322813655813388,-0.5863347194423607,10.351550260865224,-0.6875916690832242,0.2070955032873888,-1.223156134350556
1.96,-0.4264655388818021,-0.0499472461036634,1.717143369411704,-0.0724073983543237,0.2463471780849994,0.0067119592696462,-0.0168252261828519,-0.8672104449085611,-0.8334409874142561,-0.4316363844034911,-0.0371221737952198,1.7181372321837511,-0.0613852287404485,-0.9872420483186334,-1.096947297667145,2.0392779652759176,1.619816672143482,1.0352666572335023,-0.680493583163333,10.156339154256784,-0.6788854428359727,0.2172390699756005,-1.2270517608632598
1.98,-0.4264466184497493,-0.0670577349526306,1.7003235261335574,-0.0789925731011211,0.2475665168188819,0.0062982568349238,0.0169392521877439,-0.8452711333037412,-0.8478336813301179,-0.4332974621166086,-0.0567340385611608,1.696798286239349,-0.0324936861865469,-0.9961071283474058,-1.1369472982631914,2.13806164053303,1.6882239185297971,1.0969655802409994,-0.7196346957930921,10.0989957585698,-0.670706280518611,0.2256789714375575,-1.2311561694919806
2.0,-0.4257927315264847,-0.0828968850215581,1.6840730781455475,-0.0835290653444096,0.2470000327043642,0.0061966537574227,0.0501038727181387,-0.8234932399186272,-0.8619883435432115,-0.4342362512658786,-0.0765675303278212,1.6744593402800454,-0.0036021436326452,-1.004972208376178,-1.1769472988592378,2.1062544703722623,1.6582310265197422,1.088894669255697,-0.7077331106546791,10.084922565121817,-0.6650236774912803,0.2319456329233354,-1.234361149607699
2.02,-0.4244154300521479,-0.0991188786056072,1.6666719117023157,-0.0866704132848685,0.2439097771705891,0.0064575225450517,0.0858107029820695,-0.8001370933381732,-0.8773635086293872,-0.4232875378905777,-0.1240715470174895,1.6409736609683871,0.1445291858928633,-0.7747899680229802,-0.9504004644815126,2.2676436073664483,1.7853415131965351,1.167807329022702,-0.7687582543087823,10.07882080721356,-0.6623985723611737,0.2362440277685772,-1.236481117718095
2.04,-0.4223157296078063,-0.1150215362269363,1.6492851469298508,-0.0940956138391348,0.2399213240263504,0.0065450420423067,0.1221991370393756,-0.7883153562791085,-0.8591095188361875,-0.4232875378905777,-0.1240715470174895,1.6409736609683871,0.1445291858928633,-0.7747899680229802,-0.9504004644815126,2.119598867478715,1.8194217028653088,0.591086852953232,0.9126994896599848,12.299247948625634,-0.654142229414879,0.2422683458813321,-1.2478273481336737
2.06,-0.4195150816617826,-0.1305389106964422,1.6322535881033766,-0.1057657943160358,0.2378524430976134,0.006226999295539,0.1559971323637915,-0.7634320028861513,-0.8452017255046149,-0.4232875378905777,-0.1240715470174895,1.6409736609683871,0.1445291858928633,-0.7747899680229802,-0.9504004644815126,2.210719610998738,1.689899766220792,1.244167669647861,0.6953896665786274,12.299247948625634,-0.6520530081584174,0.2580557600080673,-1.2442776206139745
2.08,-0.4162303164979278,-0.144770495335653,1.6162655273342412,-0.1170476073142095,0.2371603816855859,0.0058388963044204,0.1881420082924584,-0.7355932152512216,-0.8384822096652917,-0.4218422460316491,-0.1318194466977193,1.631469656323572,0.1634142485278082,-0.7650493136438508,-0.9680828886691728,2.1525816120225416,1.6072437964333484,1.3919393817464876,0.3359757919661588,11.783393339404938,-0.6482334009506948,0.2743697580601707,-1.2419497620998872
2.1,-0.4121093546328544,-0.1591410311946449,1.5995222997947345,-0.1280728428131364,0.2366632422576469,0.0055208060870002,0.2222178458216248,-0.7028580239181074,-0.836409087643587,-0.4189516623137919,-0.1473152460581789,1.612461647033942,0.2011843737976981,-0.7455680048855919,-1.0034477370444932,2.364874885615841,1.7037918764583186,1.63675956665571,0.1036561010852366,11.375039573595132,-0.6424197855043923,0.2894096225234418,-1.2418138014113742
2.12,-0.4073044647371454,-0.172817014855157,1.5827720640592176,-0.1372347472313064,0.235587904900215,0.0054692326667896,0.2564821670320922,-0.6667997361136782,-0.8386501856707863,-0.4160610785959346,-0.1628110454186385,1.5934536377443116,0.2389544990675879,-0.7260866961273331,-1.0388125854198136,2.4896115900721583,1.7132160605233675,1.8029143902214608,-0.1120549013599647,11.093440689573072,-0.6381467660037247,0.3016961960892269,-1.241214612315478
2.14,-0.4021030821005933,-0.1851218929383373,1.5667910205985474,-0.1437627479481972,0.233405357525552,0.0057942800495947,0.2892434725380234,-0.6307678633703961,-0.8433732336667565,-0.4112819886145828,-0.1773327793411852,1.5726773860359151,0.2767246243374777,-0.7066053873690743,-1.074177433795134,2.446378023841198,1.63806527529656,1.8015936371641008,-0.2361523997985115,10.889048273801563,-0.6354858913119751,0.3120256779844751,-1.2401087475374126
2.16,-0.3959538146570012,-0.1973265699993298,1.5498655594278288,-0.1483926490102385,0.2292863453848135,0.0066242455291958,0.3238691266580775,-0.5919738767970589,-0.8488616608636835,-0.4065028986332311,-0.1918545132637318,1.551901134327519,0.3144947496073676,-0.6871240786108155,-1.1095422821704546,2.6143986644111177,1.731282706002704,1.939699328666861,-0.2744213598463496,10.75492179986668,-0.6346548244789061,0.3196009411800103,-1.2391583503621555
2.18,-0.389115294598974,-0.2087417401599258,1.5328289005477078,-0.1506602084689133,0.2228106699302191,0.0080357732832834,0.3577952131543319,-0.5519819144954929,-0.8543881066107591,-0.400779555520132,-0.205889214467322,1.5302407614097395,0.3522648748772574,-0.6676427698525567,-1.144907130545775,2.6367015361415955,1.6963043248127196,1.9995981150782995,-0.2763222873537807,10.740758091259522,-0.6353193244101029,0.324617557132583,-1.2386556888560376
2.2,-0.3816216662330883,-0.219341903864689,1.51568147802808,-0.1501173354854346,0.2141814754777319,0.0100142109200768,0.3893692462364774,-0.5106335281295451,-0.8599043075801232,-0.3941119592752858,-0.2194368829519557,1.507696267282577,0.3900350001471472,-0.6481614610942978,-1.1802719789210954,2.615834997316601,1.5787016541072785,2.067419318297392,-0.2758100484682002,10.731852197782246,-0.6406974431443835,0.3267667514813592,-1.2348996617818395
2.22,-0.3739453191137624,-0.2286358914368783,1.499288712704287,-0.1462957200331473,0.2044374400818878,0.0123608520000352,0.4166778486562974,-0.4706964623775355,-0.8651541410979665,-0.3621532039212644,-0.2448735802711663,1.472686262649074,0.4893692477265935,-0.4230445547861727,-0.8532281119251051,2.433253860044821,1.3654301209909985,1.9968532876004808,-0.262491675892168,10.731852197782246,-0.6489324024597588,0.3252600107244671,-1.2299891572296937
2.24,-0.3652773055452413,-0.2376839769277241,1.4823136184748054,-0.14276823120559,0.1936005564000641,0.0148438118206794,0.4486036985981778,-0.4350789498947013,-0.8302254156607939,-0.3621532039212644,-0.2448735802711663,1.472686262649074,0.4893692477265935,-0.4230445547861727,-0.8532281119251051,2.961369172630164,1.5962924970940209,1.780875624141709,1.7464362718586313,10.702492214982158,-0.6599299403715426,0.3219593292876178,-1.2263005393281712
2.26,-0.3559949235944982,-0.2459637457229792,1.4660765568394258,-0.1409293424078368,0.1829594202566992,0.0171649432025647,0.4776249774911993,-0.3948425182151869,-0.7953449193117516,-0.3621532039212644,-0.2448735802711663,1.472686262649074,0.4893692477265935,-0.4230445547861727,-0.8532281119251051,3.032265691047835,1.4510639446510765,2.01182158397572,1.744024817452117,13.59277583248786,-0.6720701103037825,0.3251096786692362,-1.2126398352311352
2.28,-0.346170180526217,-0.2534189315028066,1.450496101902884,-0.1383276868058847,0.1724764594555284,0.019505766801722,0.5030594492353547,-0.3532959902281676,-0.7642823849129579,-0.3572595114439985,-0.249104025819028,1.464153981529823,0.5093692480246168,-0.4055267601174983,-0.8518928727941014,2.888731288973004,1.271723587207768,2.0773263993509623,1.5531267199396848,13.246990902926882,-0.6840013374936968,0.3274125153742807,-1.1993188909359471
2.3000000000000003,-0.3363987621891871,-0.2597398809312962,1.436241999618996,-0.1345915913168876,0.1627568315671869,0.0217583255587914,0.5239820209063026,-0.3147592263890249,-0.7375535243742372,-0.3474721264894666,-0.2575649169147515,1.4470894192913208,0.5493692486206633,-0.3704911707801493,-0.8492223945320942,2.5677169617279625,1.0461285835473957,1.9268381919571365,1.336443026936035,12.940229127433668,-0.6953773599970448,0.3285191471177406,-1.185979981139057
2.32,-0.3257176241531905,-0.265623320350066,1.4217662854797322,-0.1295432042898492,0.1529897976991442,0.0240995445775834,0.5427443868929125,-0.2761020754843297,-0.7114259160318053,-0.3376847415349348,-0.266025808010475,1.430024857052819,0.5893692492167097,-0.3354555814428004,-0.846551916270087,2.514484843451729,0.9381182993304926,1.932857545234759,1.3063804171215945,12.686522497662736,-0.7061327847579149,0.3283518331615404,-1.173111562414369
2.34,-0.3146950028453028,-0.2707520653249476,1.4077877617595502,-0.123514845726079,0.1439551798231115,0.0263552570330736,0.5583953269616274,-0.2393026955785591,-0.6875964633711809,-0.3258973565506006,-0.272734919639331,1.413093818727417,0.6293692498127562,-0.3004199921054514,-0.8438814380080797,2.327546508981444,0.7825470034357462,1.8399689952885323,1.1914726330312209,12.487486929376246,-0.7168222616504684,0.326578353083104,-1.1609254561055236
2.36,-0.3033866615495406,-0.275166373559638,1.3942816042580717,-0.1167565613547779,0.1358568711013291,0.0284800888682209,0.5715224660408833,-0.2044962165237517,-0.6640942539951404,-0.3141099715662663,-0.279444031268187,1.3961627804020151,0.6693692504088027,-0.2653844027681025,-0.8412109597460725,2.200094662823691,0.6563569539627945,1.7403239527403704,1.1751104688020209,12.293266067576951,-0.7273857806214582,0.3240886818895179,-1.148598119873069
2.38,-0.2924177547302034,-0.2787299342924113,1.3818829323012238,-0.1097080631094221,0.1290447460616995,0.030375944218184,0.5823390316672783,-0.1728947470718352,-0.6421045663038172,-0.301322586567031,-0.2852772531636093,1.3792985040331636,0.709369251004849,-0.2303488134307535,-0.8385404814840652,1.9994982672113344,0.5408282813197496,1.580073472595822,1.0994843845661628,12.233024201458647,-0.7376848471328261,0.3207724362657229,-1.1361271264594937
2.4,-0.2806668892273196,-0.2818567089757058,1.3692804994882553,-0.1017607569609653,0.1227319738598363,0.0322469367096756,0.5920132309662192,-0.141891623047727,-0.619251293632111,-0.2875352015528944,-0.2902345853255978,1.3625009896208622,0.7493692516008955,-0.1953132240934046,-0.8358700032220581,1.9856081581830392,0.4837099649470433,1.550156201205409,1.142663633585311,12.1067028012867,-0.7465034772065393,0.3167323249527413,-1.1251927440977345
2.42,-0.2687425290534269,-0.2843862006692032,1.3571260805214764,-0.0934084485546843,0.1174309159711463,0.0339764179936606,0.5998150491002292,-0.113110733966272,-0.5972487681789831,-0.2510662276790086,-0.2889512901280922,1.3383179348066496,0.6920132324563353,-0.0536315684594091,-0.5661020106998295,1.8529159916404223,0.390090906700502,1.4390444540727507,1.1001262726563932,12.1067028012867,-0.7536723810764347,0.3124013879310531,-1.1159467951514508
2.44,-0.2566556788633707,-0.2863918107580401,1.3455637922236747,-0.0861556706317316,0.1132353175299292,0.0354674989045675,0.6082985931731675,-0.0884077253731677,-0.560088009246791,-0.2510662276790086,-0.2889512901280922,1.3383179348066496,0.6920132324563353,-0.0536315684594091,-0.5661020106998295,2.2710851800433214,0.4241772036469138,1.2351504296552145,1.858037946609603,12.018863392398089,-0.7598872162400734,0.3071757776861945,-1.1097931537600263
2.46,-0.2450367054199111,-0.2878348289741221,1.3352641767931206,-0.0803794973378915,0.1105966201318206,0.0366532506814966,0.6142512481083583,-0.0647999598910321,-0.5259428213483367,-0.2510662276790086,-0.2889512901280922,1.3383179348066496,0.6920132324563353,-0.0536315684594091,-0.5661020106998295,2.096815769481024,0.2976327467595407,1.1803882741067826,1.7072593949227166,13.088178228198558,-0.7670927907369914,0.3070661860321606,-1.0952850196161028
2.48,-0.2326949691527914,-0.2888793336634686,1.3251111010775427,-0.0748598422928562,0.1096691393653849,0.0376891082839585,0.6197895686979645,-0.0409891806403874,-0.491184807645756,-0.2441460953544453,-0.2894876058126863,1.3326569146996514,0.7120132327543585,-0.0359795575417456,-0.5554721541133731,2.124703344013568,0.2769160294803119,1.190538962532234,1.7379006851290346,12.925693693257015,-0.7742768669564066,0.3077832304256634,-1.0796839760571588
2.5,-0.2202387055013,-0.2894592416988126,1.3156382848539885,-0.0697574441243217,0.1103245145228084,0.0385635479126539,0.625748216822252,-0.0182795021394991,-0.4577817529631262,-0.2303058307053186,-0.2905602371818745,1.3213348744856548,0.7520132333504049,-0.0006755357064184,-0.5342124409404606,2.041444982857449,0.297932406214374,1.1354839250444146,1.6701527341314917,12.67835596752684,-0.7801460679229675,0.3096478497054208,-1.064192117190001
2.52,-0.2082878298265185,-0.2895998987546909,1.30724901230026,-0.065243749411462,0.1120047126376027,0.0392918418197171,0.6320887976631653,0.0022844299022505,-0.426920890410097,-0.2164655660561918,-0.2916328685510627,1.3100128342716582,0.7920132339464514,0.0346284861289086,-0.512952727767548,1.881137358046196,0.3170290420456634,1.028196602087482,1.5430431276514556,12.579394592404242,-0.7868675587340359,0.3138040282059059,-1.0442365876487434
2.54,-0.1955686889280261,-0.2893368548149075,1.2990475878174852,-0.0608825774383792,0.1145231502230576,0.0399819713362396,0.6396245636778554,0.0229002420981614,-0.3948323383664159,-0.2006253013772628,-0.2909402988284845,1.2997537797163072,0.8320132345424979,0.0699325079642358,-0.4916930145946354,1.9438844192654927,0.3767883007345041,1.030790609795545,1.6044276021840551,12.579394592404242,-0.7933295663985243,0.3188812866037649,-1.0238446415798892
2.56,-0.1826877481571131,-0.2886694852656257,1.2914867548309128,-0.0569292245099734,0.1174820856898124,0.0406193745698421,0.6482114710681854,0.0427744712328335,-0.3628259391245535,-0.1847850366983338,-0.2902477291059063,1.2894947251609563,0.8720132351385443,0.105236529799563,-0.4704333014217227,1.932051729805034,0.4293453695165039,0.9937114567336086,1.600319962093122,12.51468329729596,-0.7990444212474062,0.3241086917871482,-1.0050895552133654
2.58,-0.1696194452442024,-0.2876053297743323,1.2845640498209825,-0.0531495524785913,0.120411107710476,0.0412498356237429,0.6582362500596954,0.0624954987967436,-0.3309872865012001,-0.1679447720045036,-0.288672558837445,1.279767163434928,0.9120132357345908,0.1405405516348901,-0.4491735882488101,1.9385013044074089,0.5012389495754999,0.9860513781955008,1.5919326311676725,12.478361144771045,-0.8054048041896819,0.33003777256442,-0.985020259488195
2.6,-0.1570077915948492,-0.2862337121802494,1.27857541675236,-0.0495356289072029,0.1227296820122508,0.0418777637897125,0.6687871329542403,0.0807412062669934,-0.3009335451066504,-0.1501045072957723,-0.2862147880231004,1.270571094538223,0.9520132363306372,0.1758445734702172,-0.4279138750758976,1.8353843894092048,0.5275441447272433,0.912285373512492,1.5026870697274846,12.43686407399946,-0.8124473211604444,0.336325780749697,-0.9642555025513428
2.62,-0.1435095281680875,-0.2844239633892181,1.2728880957115911,-0.0457148386526878,0.1244336019607739,0.0425772812211917,0.6804548101310239,0.0991424486320081,-0.2693413913402684,-0.1235684349471372,-0.2821966518668998,1.2635287394970274,0.7612538076993232,0.1805416365052403,-0.2009335436165342,1.9188568151873449,0.5833838588391815,0.920062118250734,1.5796076883190957,12.355163956624892,-0.8209353265220477,0.3425977641453175,-0.9426246017550716
2.64,-0.1296931842926972,-0.2822632637078778,1.267872467752195,-0.0423643484061444,0.1228269176666836,0.0433875627361454,0.7002078268784814,0.1161896649034281,-0.2337071596066644,-0.1235684349471372,-0.2821966518668998,1.2635287394970274,0.7612538076993232,0.1805416365052403,-0.2009335436165342,2.20827292497672,0.987650837372872,0.8523608135710028,1.7817115866802014,12.355163956624892,-0.8365220292214719,0.3479100012193841,-0.9167485916662846
