t,x,y,z,roll,pitch,yaw,v_x,v_y,v_z,ref_x,ref_y,ref_z,ref_v_x,ref_v_y,ref_v_z,a_com,a_x,a_y,a_z,thrust,wind_x,wind_y,wind_z
0.0,1.2181084695165405,1.4101257534323184,1.7928731459434246,0.0210043382210841,0.0994561904226184,0.0414583538266059,0.0004356046585239,-0.0027962435653286,-0.0002192901379725,1.218127699306089,1.409950827970165,1.7928643516054827,-0.099412731093483,-0.1050338252322852,-0.1002738764931834,0.1419226696107925,0.0217802329261963,-0.1398121782664325,-0.0109645068986295,10.25892921497234,-0.9407764174563392,0.2595163527967016,-0.8781071585474122
0.02,1.2182740003591206,1.4103391702910562,1.7927717822070954,0.0282994155059253,0.093629003282731,0.0418256265167475,0.015728036471843,0.019984982349733,-0.0104888802188228,1.218127699306089,1.409950827970165,1.7928643516054827,-0.099412731093483,-0.1050338252322852,-0.1002738764931834,1.4648440235967022,0.7646215906659567,1.1390612957530828,-0.5134795040425142,10.258119224045004,-0.9530946635119428,0.2579672263128644,-0.8618043522089454
0.04,1.2186980092829591,1.410786225637923,1.792422549359132,0.042656189154849,0.0775361204810288,0.042212875127926,0.0245221203563018,0.02268894314825,-0.0239212890869345,1.218127699306089,1.409950827970165,1.7928643516054827,-0.099412731093483,-0.1050338252322852,-0.1002738764931834,0.8140591553550307,0.4397041942229376,0.1351980399258509,-0.6716204434055824,9.620497065463042,-0.9575599216624308,0.2469211989514197,-0.8582030083226453
0.06,1.2191887418003038,1.4112004297378538,1.7917809219137777,0.0575062016106182,0.05558745765405,0.0420469442998579,0.023062484719345,0.0181945933779762,-0.0396701421790941,1.218127699306089,1.409950827970165,1.7928643516054827,-0.099412731093483,-0.1050338252322852,-0.1002738764931834,0.8221254310758491,-0.0729817818478398,-0.2247174885136867,-0.7874426546079822,9.300704289817986,-0.968948147920818,0.2336467826792792,-0.8494389246936754
0.08,1.2195421896170484,1.4114824678664617,1.7908055315975735,0.0717954875850499,0.0316698517207299,0.0413299586228704,0.0115966667273292,0.0098781884687029,-0.057186097193579,1.2171335719951542,1.408900489717842,1.791861612840551,-0.1194127313915062,-0.1250338255303084,-0.1202738767912066,1.126317287568735,-0.5732908996007874,-0.4158202454636691,-0.8757977507242449,9.300704289817986,-0.9826111573555706,0.2191131347632769,-0.840585918493386
0.1,1.219580226333713,1.4115663124181583,1.789539964009039,0.0847460471894851,0.0099654392580826,0.0403146944196201,-0.0072816098487693,-0.0009209016552392,-0.0752138356927039,1.2151453173732845,1.4067998132131962,1.7898561353106872,-0.1594127319875526,-0.1650338261263549,-0.1602738773872531,1.4124526800759805,-0.9439138288049314,-0.5399545061971095,-0.9013869249562424,9.228318929822308,-0.997722184247768,0.2017367497355283,-0.8333717527771491
0.12,1.219168259586856,1.4114038685427646,1.7878247349696148,0.0977412002070541,-0.0099917487571405,0.0391086901428759,-0.0331742078181303,-0.0150659152812299,-0.0954620784218974,1.2131570627514148,1.4046991367085506,1.7878506577808235,-0.1994127325835991,-0.2050338267224013,-0.2002738779832995,1.7892032959551818,-1.2946298984680478,-0.7072506812995332,-1.0124121364596754,9.202705492480618,-1.0123318487088306,0.1834279608824322,-0.8282398033734717
0.14,1.2181876694828102,1.410930443097027,1.7856902313925225,0.1101095040820511,-0.0259533589216754,0.0379665671142419,-0.0636390378665087,-0.0318561970244089,-0.1170637260981131,1.209168808099743,1.4005984601741026,1.7838451802211577,-0.2394127331796455,-0.2450338273184478,-0.2402738785793459,2.0473462171914583,-1.523241502418922,-0.8395140871589511,-1.080082383810787,9.178587894597513,-1.024985836057518,0.1646454359375426,-0.8262811156393619
0.16,1.2165629511742586,1.4100945235883302,1.783113971252795,0.1218696005661024,-0.0373916909821838,0.0370689213948433,-0.0970773692098067,-0.0511662387799394,-0.1395208503073697,1.2051805534480708,1.3964977836396546,1.7798397026614914,-0.2794127337756921,-0.2850338279144943,-0.2802738791753925,2.233451445282892,-1.6719165671649014,-0.965502087776522,-1.1228562104628304,9.178587894597513,-1.0343223563447554,0.1462024906292463,-0.8286121186896751
0.18,1.214374396476651,1.4089196118121765,1.7802453656131012,0.1324908164529268,-0.0437529874721894,0.0365969134531176,-0.1315369205216602,-0.0717658574896657,-0.1613604463205336,1.2001922987814977,1.3913971070903053,1.7748342250869242,-0.3194127343717385,-0.3250338285105407,-0.3202738797714389,2.2851547658848914,-1.7229775655926731,-1.0299809354863163,-1.091979800658195,9.188240762296118,-1.0402645693935155,0.1285296229785351,-0.8337064989606456
0.2,1.2113516508733015,1.4072149423239806,1.7767692650342837,0.1423866377623521,-0.0451359808177072,0.0366483877598248,-0.1683887839178627,-0.0974616178164902,-0.1850114385421734,1.1942040441000237,1.3852964305260551,1.768828747497456,-0.3594127349677849,-0.3650338291065871,-0.3602738803674853,2.538553410711521,-1.842593169810124,-1.2847880163412233,-1.1825496110819886,9.223927141509192,-1.044658753744743,0.1125980858864194,-0.8397146644571852
0.22,1.2076151793201997,1.4049639305433097,1.772820906219964,0.1501226841430512,-0.0419341235134393,0.0371906901412281,-0.2029592127072206,-0.1259747619534764,-0.2085196533526616,1.2077975504505676,1.405331318937693,1.7721773432970744,-0.2315369220117763,-0.1717658589797818,-0.2613604478106498,2.530192729236588,-1.7285214394678976,-1.4256572068493094,-1.1754107405244116,9.24439298348625,-1.044920024400832,0.0988859246625614,-0.8497765638961919
0.24,1.2034051005869253,1.4020953035148316,1.768836666612912,0.1504050136209626,-0.0343014000274159,0.0379067482608721,-0.2377026456229735,-0.1715577469815858,-0.2090701808749158,1.2077975504505676,1.405331318937693,1.7721773432970744,-0.2315369220117763,-0.1717658589797818,-0.2613604478106498,2.865840947870724,-1.737171645787644,-2.279149251405471,-0.0275263761127075,10.80334836993734,-1.0485224921905962,0.0907338758636476,-0.855938552784898
0.26,1.198318001252236,1.3982718546718529,1.7646562405104802,0.1434340139146097,-0.022060999720751,0.0387323727750678,-0.2685201104991003,-0.2069635675631667,-0.2088791321557881,1.2077975504505676,1.405331318937693,1.7721773432970744,-0.2315369220117763,-0.1717658589797818,-0.2613604478106498,2.346979320349609,-1.540873243806337,-1.7702910290790463,0.0095524359563864,10.80334836993734,-1.0452957832800964,0.0956304894372367,-0.8608067592242831
0.28,1.192675606427951,1.3938350418148815,1.7604469769128266,0.134351891797357,-0.0079360068468954,0.0395648505238485,-0.2936564952882879,-0.2344383457340683,-0.2121778217456316,1.20548218123045,1.4036136603478953,1.769563738818968,-0.2515369223097995,-0.191765859277805,-0.281360448108673,1.869212821497661,-1.2568192394593836,-1.3737389085450802,-0.1649344794921764,10.193469314781396,-1.0380055541467226,0.1010442623981897,-0.8707700144824633
0.3,1.1865863071508618,1.3889061493894663,1.756124145188853,0.1252464677690321,0.0063404912230301,0.040278244719463,-0.3136788231519598,-0.2569418860932795,-0.2199114830849719,1.2008514427902144,1.4001783431682997,1.764336529862755,-0.291536922905846,-0.2317658598738515,-0.3213604487047194,1.5549215892534762,-1.0011163931835931,-1.1251770179605574,-0.3866830669670154,10.193469314781396,-1.0281498654900438,0.1063054411117968,-0.8839153845048343
0.32,1.1804722285189793,1.3838417805794792,1.7518360620776492,0.1173939511073594,0.0189367621137293,0.0407727504675706,-0.3287440687999518,-0.2751031714404937,-0.2311112569816148,1.1962207043499788,1.396743025988704,1.759109320906542,-0.3315369235018924,-0.271765860469898,-0.3613604493007659,1.3059755426817925,-0.7532622823995999,-0.9080642673607088,-0.5599886948321433,9.908394361830688,-1.0182255554998303,0.1112365788144287,-0.8964725135296336
0.34,1.1737608013037446,1.3781636762802243,1.7470562173567346,0.1103027970773768,0.0304420641639671,0.0410713984866789,-0.3414495428289085,-0.2918270362502438,-0.2465019674293977,1.189589965879941,1.391307708779306,1.7518821119205268,-0.3715369240979388,-0.3117658610659444,-0.4013604498968123,1.3019127203491676,-0.635273701447836,-0.8361932404875067,-0.7695355223891476,9.460942864107892,-1.0082647248073948,0.1147565437144894,-0.909262948341234
0.36,1.1668217678828814,1.3721687211596778,1.7419422834656029,0.1044995672013989,0.0397333491296932,0.0411445243038348,-0.3517611922658773,-0.3069645520041364,-0.2642598429235624,1.1829592274099032,1.385872391569908,1.7446549029345115,-0.4115369246939854,-0.3517658616619909,-0.4413604504928589,1.2755554078288216,-0.5155824718484386,-0.756875787694633,-0.8878937747082329,9.350371242514484,-0.9996752490198066,0.1166676515758057,-0.9208125057204416
0.38,1.159690199988931,1.3658748132822047,1.736451466032928,0.0996629911929407,0.0468065992670375,0.0410070658812788,-0.3609265339201206,-0.3217236316747577,-0.2839718150094659,1.1753284889249642,1.3794370743456088,1.736427693933595,-0.4515369252900318,-0.3917658622580373,-0.4813604510889053,1.3137691614950764,-0.458267082712166,-0.7379539835310617,-0.9855986042951737,9.350371242514484,-0.9915263765129148,0.11750897408484,-0.9322866495129064
0.4,1.152751050353955,1.3596275416450796,1.730855519313259,0.0956128279629741,0.0517955197089094,0.0407140359258522,-0.3690979242035357,-0.335156258600849,-0.3041166446826326,1.166697750425124,1.3720017571064085,1.7272004849177771,-0.4915369258860782,-0.4317658628540837,-0.5213604516849517,1.2777140210746916,-0.4085695141707562,-0.6716313463045659,-1.007241483658336,9.20293790154301,-0.9848294617884856,0.1178883528262809,-0.9421256582985428
0.42,1.145281197647681,1.3527833186133678,1.7245371373334646,0.0918041869529369,0.0555760859305466,0.0402776957746933,-0.3774830900316867,-0.3485447720887167,-0.3267425454181359,1.141643873292925,1.3497886316984669,1.7222528752824546,-0.4609265354102367,-0.4217236331648738,-0.383971816499582,1.379759656129697,-0.4192582914075482,-0.6694256743933868,-1.131295036775165,9.134016719789544,-0.9793909188046984,0.1180102102703139,-0.9504770270899744
0.44,1.1376821186864323,1.3456660154913422,1.7180481795013924,0.0888262534484741,0.0574651611457644,0.0397148674906329,-0.3820147611232034,-0.3628529099882552,-0.3195525152393715,1.141643873292925,1.3497886316984669,1.7222528752824546,-0.4609265354102367,-0.4217236331648738,-0.383971816499582,0.832098832779854,-0.2265835545758321,-0.7154068949769221,0.3595015089382175,9.134016719789544,-0.9862736078673758,0.1189132849573458,-0.9452915240366128
0.46,1.1299980724843124,1.3382726623393049,1.7117008208539557,0.0870541204726594,0.0567966167140094,0.0390053837615179,-0.3863453401995651,-0.3760692628260456,-0.3157426663439453,1.141643873292925,1.3497886316984669,1.7222528752824546,-0.4609265354102367,-0.4217236331648738,-0.383971816499582,0.7210077081341997,-0.2165289538180875,-0.660817641889519,0.1904924447713119,10.542447650811482,-0.9872648244663912,0.1203319599443252,-0.9437121532513794
0.48,1.1226093206534182,1.3310054897153991,1.7056814022341311,0.0863251638477664,0.0537988362259746,0.0381916651394117,-0.3913593682447103,-0.3883408811784648,-0.3180600454906519,1.1370346079388227,1.345571395366818,1.7184131571174588,-0.48092653570826,-0.441723633462897,-0.4039718167976052,0.6728732056162704,-0.2507014022572612,-0.6135809176209622,-0.1158689573353299,10.542447650811482,-0.9898095038171152,0.120121450937786,-0.9413913189728398
0.5,1.1147107762117008,1.3231087802224557,1.6992503339581573,0.0865098090956412,0.0484204317759078,0.0372067026419648,-0.398655819493981,-0.4007606089449968,-0.3251421650279445,1.1278160772306178,1.3371369227035206,1.710733720787467,-0.5209265363043064,-0.4817236340589435,-0.4439718173936516,0.8025650375020246,-0.364822562463532,-0.6209863883265998,-0.3541059768646298,10.190311987549649,-0.9930801683776176,0.1181967440560605,-0.939310190050182
0.52,1.1066311111052975,1.3149651103975937,1.6926332596776237,0.0877464594998598,0.0417424534116112,0.0361722917211503,-0.409221809923071,-0.4131168109383396,-0.3362001405110561,1.1185975465224132,1.3287024500402231,1.7030542844574756,-0.5609265369003529,-0.5217236346549899,-0.4839718179896981,0.9831005839091554,-0.5282995214545033,-0.6178100996671404,-0.5528987741555802,9.925094069863915,-0.9976025716116186,0.1152263722203534,-0.9363156518788778
0.54,1.0987312524640012,1.3069966527282106,1.6861152669667692,0.0898602751212388,0.0351337162195662,0.0352134440832555,-0.4219623105563717,-0.425197804078772,-0.349353965334756,1.107379015784406,1.3182679773471233,1.6933748480976818,-0.6009265374963993,-0.5617236352510364,-0.5239718185857446,1.0969205294127873,-0.6370250316650339,-0.6040496570216186,-0.6576912411849933,9.73202734784536,-1.003227670006112,0.1110776161451632,-0.9325701824893966
0.56,1.0901313496507876,1.2983456771336126,1.6789722926830992,0.0927151334757905,0.0285616538488676,0.0342559021213032,-0.437498074960064,-0.439469094487026,-0.3643016213983574,1.096160485046399,1.3078335046540237,1.6836954117378875,-0.6409265380924458,-0.6017236358470829,-0.5639718191817911,1.292731727118465,-0.7767882201846155,-0.7135645204126989,-0.7473828031800717,9.592781711583484,-1.0092543265392615,0.1062427780021514,-0.9286206915429684
0.58,1.0811944657206274,1.289384409117995,1.6715220630906524,0.095311112197202,0.0230396439340199,0.0333509089542731,-0.4555699515759749,-0.455844321752561,-0.3799854936808943,1.0839419542934907,1.2963990319460226,1.6730159753631926,-0.6809265386884922,-0.6417236364431292,-0.6039718197778374,1.4497626031471138,-0.903593830795546,-0.8187613632767515,-0.7841936141268435,9.535649689275488,-1.013754518799411,0.1012013802143749,-0.926725430707822
0.6,1.0728195603955148,1.281028440615403,1.6645415816626643,0.0969212421809256,0.0197962005249674,0.0326349832246159,-0.4741029105229854,-0.4715673819648509,-0.394822062460417,1.0707234235256815,1.2839645592231204,1.6613365389735963,-0.7209265392845386,-0.6817236370391757,-0.6439718203738839,1.4237353712333425,-0.9266479473505228,-0.7861530106144932,-0.7418284389761387,9.535649689275488,-1.0156916552806177,0.0972798032315478,-0.9273109059946476
0.62,1.0631073236722148,1.2714099066937286,1.6564598489426845,0.0977654398324683,0.0189124752704191,0.0320302501918368,-0.4958568033928007,-0.4893197276061202,-0.4125521103140129,1.0584159681418286,1.2665921930303663,1.6525227884066078,-0.5555699530660911,-0.5558443232426771,-0.4799854951710104,1.6603706119789126,-1.0876946434907635,-0.8876172820634659,-0.8865023926797916,9.518064550664349,-1.0170649135889926,0.093826985303724,-0.9285708799637324
0.64,1.053465181722407,1.261854108504172,1.648732816573477,0.0956862226675664,0.0214775923557439,0.0315844552601261,-0.5174560534036224,-0.5147303558403812,-0.3997608775748468,1.0584159681418286,1.2665921930303663,1.6525227884066078,-0.5555699530660911,-0.5558443232426771,-0.4799854951710104,1.785947411933872,-1.0799625005410871,-1.2705314117130495,0.6395616369583024,9.454756044518945,-1.0219323052024087,0.0931903411207086,-0.9260286028984184
0.66,1.042906130156681,1.2513338871939317,1.6408429939134843,0.0903829509779542,0.0273641765492168,0.0311891199019937,-0.5368885193333139,-0.5351787132033736,-0.3902133029808264,1.0584159681418286,1.2665921930303663,1.6525227884066078,-0.5555699530660911,-0.5558443232426771,-0.4799854951710104,1.4890535849841444,-0.971623296484575,-1.022417868149622,0.4773787297010223,10.933282427065024,-1.0187144344275605,0.0976977538166161,-0.92867583316058
0.68,1.0319920403628189,1.240459357284074,1.6330699468750185,0.0844461980015513,0.0349939637149194,0.0308760264155615,-0.5532037926161187,-0.5510302863622147,-0.387856340603507,1.0528602686111677,1.2610337497979398,1.6477229334548975,-0.5755699533641143,-0.5758443235407003,-0.4999854954690336,1.1434769188212714,-0.8157636641402399,-0.7925786579420557,0.1178481188659708,10.467791261253296,-1.0132078465948795,0.102173295557475,-0.9341051868567342
0.7000000000000001,1.0213495918291142,1.229866168166496,1.6256609538682991,0.0791340041269867,0.0428465382200952,0.0306170355125249,-0.5660063977513295,-0.5632769720657367,-0.3921270450561709,1.0417488695498458,1.2499168633330862,1.6381232235514775,-0.6155699539601608,-0.6158443241367467,-0.5399854960650801,0.911217489805506,-0.6401302567605405,-0.6123342851760971,-0.2135352226331988,10.467791261253296,-1.0060409153583296,0.1056362383717392,-0.9424229394765478
0.72,1.0099108983285994,1.218485668619417,1.6177220450463548,0.0743015464471345,0.0509440285199657,0.0303496287972338,-0.5769913405137248,-0.5741784182253038,-0.4017861567327469,1.030637470488524,1.2387999768682327,1.6285235136480574,-0.6555699545562073,-0.6558443247327932,-0.5799854966611265,0.9121525835127676,-0.5492471381197628,-0.5450723079783559,-0.482955583828798,10.087067492606366,-0.9990849360432636,0.108718370351188,-0.95016279930948
0.74,0.9982746084121238,1.2069020672878583,1.6095408765887125,0.0703877535000643,0.0583032171284718,0.0300647529204028,-0.5859637596006197,-0.5837354194807255,-0.4160510738556613,1.0175260713973997,1.225683090373577,1.6169238037148348,-0.6955699551522537,-0.6958443253288397,-0.619985497257173,0.9686697551160364,-0.4486209543447472,-0.4778500627710846,-0.7132458561457194,9.545496783452109,-0.9923130104940084,0.1108096907883965,-0.957930476911702
0.76,0.9864774340032404,1.195137925644445,1.6010441368806696,0.0674180293711467,0.0645479087437455,0.029750671323253,-0.5932762436048125,-0.5924185596412803,-0.4329261948004463,1.0044146723062757,1.2125662038789211,1.6053240937816122,-0.7355699557483002,-0.7358443259248861,-0.6599854978532195,1.01690591042207,-0.3656242002096355,-0.4341570080277412,-0.8437560472392497,9.545496783452109,-0.9865293942086384,0.1118047766550771,-0.964917610429152
0.78,0.9751421388021916,1.1837978333065022,1.5926426680623471,0.0651399877449441,0.0694296296182207,0.0294113656927597,-0.5995259149936694,-0.6008577530037733,-0.4506072014551612,0.9903032732002504,1.198449317369364,1.5927243838334886,-0.7755699563443466,-0.7758443265209325,-0.6999854984492658,1.0282222199047206,-0.3124835694428451,-0.4219596681246496,-0.8840503327357474,9.42914823772844,-0.9810139046123648,0.1121707863446622,-0.9718782062385236
0.8,0.9630874664575704,1.1716901267017676,1.5834200814180397,0.0630313499380884,0.0736397379191424,0.0290101003238987,-0.6055814861713228,-0.6094539433403318,-0.4708008970023931,0.9751918740793238,1.1833324308449058,1.5791246738704638,-0.815569956940393,-0.815844327116979,-0.7399854990453123,1.1383648036155396,-0.3027785588826714,-0.4298095168279225,-1.0096847773615911,9.268470219909432,-0.9762301802872494,0.1122423951007278,-0.9781163673790948
0.8200000000000001,0.9509156369526558,1.159413351223718,1.5737788141183502,0.0611071027825676,0.0770681543471996,0.0285713624476112,-0.6112748085547366,-0.6177612812747759,-0.4923760729315846,0.945165843052508,1.1537549456563136,1.5701123079895891,-0.6995259164837855,-0.7008577544938894,-0.5259506389480086,1.190497794720868,-0.28466611917069,-0.4153668967222079,-1.078758796459575,9.203777253886985,-0.9720521706396736,0.1120903888763464,-0.9838112489808216
0.84,0.939291392882211,1.1475603634299,1.5645605852599558,0.0587784431532724,0.0793055759420831,0.028058737312399,-0.6121697797142684,-0.6290337857172544,-0.4768597123994929,0.945165843052508,1.1537549456563136,1.5701123079895891,-0.6995259164837855,-0.7008577544938894,-0.5259506389480086,0.9599840805241836,-0.0447485579765927,-0.5636252221239257,0.7758180266045855,9.203777253886985,-0.9750371106133991,0.1130945618023849,-0.9816719355273328
0.86,0.9270386517153169,1.134884209704304,1.5551550811636523,0.0561635389940432,0.0802389199071373,0.0274287458197835,-0.6131984302493273,-0.6379952292847164,-0.4649543351761247,0.945165843052508,1.1537549456563136,1.5701123079895891,-0.6995259164837855,-0.7008577544938894,-0.5259506389480086,0.7468326445174577,-0.0514325267529425,-0.448072178373099,0.5952688611684076,11.478161704643751,-0.9741791037570744,0.1154556093208184,-0.9816661067217916
0.88,0.9147584984680874,1.1220438861387203,1.545916009561752,0.0540483692853174,0.0797794092533466,0.0267640035726692,-0.6148627551928277,-0.6456656974876623,-0.459819636747364,0.9381705838876702,1.1467463681113748,1.564852801600109,-0.7195259167818087,-0.7208577547919126,-0.5410193264465781,0.4689647852565271,-0.0832162471750219,-0.3835234101472962,0.2567349214380371,11.024818831723678,-0.9746199493314364,0.1170065851546865,-0.9808041614638752
0.9,0.9024387216787816,1.10906132827199,1.5367170434644308,0.0526276704894632,0.0779076645548676,0.026082311949662,-0.6171457208342792,-0.6523472152775045,-0.4603042905067612,0.9241800655579944,1.132729213021497,1.5543337888211488,-0.7595259173778551,-0.7608577553879591,-0.5711567014437171,0.3538696842148361,-0.1141482820725736,-0.3340758894921081,-0.0242326879698634,10.627375475898589,-0.9763418711317452,0.1177629568584126,-0.9790555453948856
0.92,0.8906851529910637,1.096612133248997,1.52793100263972,0.0521265699252718,0.0747793789895337,0.0254324148263874,-0.6200748473478319,-0.6578948005050488,-0.4645055218478065,0.9101895472283188,1.1187120579316192,1.5438147760421888,-0.7995259179739016,-0.8008577559840055,-0.6012940764408561,0.3775110222571192,-0.1464563256776352,-0.2773792613772141,-0.2100615670522637,10.326273873554785,-0.9793611364916732,0.1174846990178744,-0.9763732008065588
0.94,0.8782419307249615,1.0834000577458924,1.5185670887216491,0.0527912621644102,0.070060721547724,0.0247624420748023,-0.6242769694343885,-0.6631414792607857,-0.4717884476323539,0.8941990288688407,1.102694902811939,1.5317888945133715,-0.8395259185699481,-0.840857756580052,-0.6314314514379951,0.4955463549948011,-0.2101061043278285,-0.2623339377868461,-0.3641462892273711,10.104843149729277,-0.9834857640222954,0.11585694464437,-0.9729991381259108
0.96,0.8656936625265456,1.070083259399871,1.5090475767690563,0.0549251349770615,0.0641979158584868,0.0241295954724376,-0.6306239048803802,-0.6684422365173649,-0.4798100470735325,0.8782085105093627,1.0866777476922589,1.5197630129845543,-0.8795259191659945,-0.8808577571760985,-0.661568826435134,0.5760374871557384,-0.3173467722995871,-0.2650378628289596,-0.4010799720589264,9.937535863946325,-0.9885231003120124,0.1126047600865696,-0.969206755205262
0.98,0.8529885753452359,1.0566358459460716,1.4993652334446876,0.0580254852677664,0.0580815351421696,0.0235332366399033,-0.6397103281256984,-0.6762696233063084,-0.488025600619829,0.8612179921349835,1.0696605925576776,1.506983697080809,-0.9195259197620408,-0.9208577577721448,-0.691706201432273,0.7268534780284998,-0.4543211622659082,-0.3913693394471729,-0.4107776773148275,9.91103288438535,-0.9941706606526154,0.1087343108708806,-0.9647456773640452
1.0,0.8407271720483122,1.0436937600126006,1.4900129749827162,0.0608072039411516,0.0528105946949625,0.0229685932091519,-0.6505997926227864,-0.6855762974320454,-0.4960040653285346,0.8432274737457032,1.051643437408195,1.4934509468021349,-0.9595259203580874,-0.9608577583681912,-0.721843576429412,0.8198330918913701,-0.5444732248544026,-0.4653337062868523,-0.3989232354352806,9.91103288438535,-0.9995587449329364,0.1046455334700495,-0.9607490874098494
1.02,0.8275748937955075,1.0298704102562104,1.479999481614401,0.0631911483781074,0.0485352959266405,0.0224006918231569,-0.6642043242484,-0.6961873459808764,-0.5049462282048304,0.821003058938951,1.0228223647807562,1.4749639534136962,-0.7505997941129026,-0.7855762989221615,-0.5343871506091915,0.9716479673268636,-0.6802265812806796,-0.5305524274415496,-0.4471081438147867,9.91184027239524,-1.0036924218646956,0.1009486440374729,-0.958098048931526
1.04,0.8141140284334619,1.015742267783825,1.4700983830177676,0.0627832534595327,0.0473263630433474,0.0218297051257673,-0.6808720494597426,-0.7150468220922511,-0.4846198533231013,0.821003058938951,1.0228223647807562,1.4749639534136962,-0.7505997941129026,-0.7855762989221615,-0.5343871506091915,1.6176019432704396,-0.8333862605671261,-0.9429738055687364,1.01631874408645,9.89081338205051,-1.009510963238943,0.1000136216748385,-0.953133490564423
1.06,0.8010321891889589,1.0020035295226242,1.461057302717154,0.0591823333377782,0.0495041793649774,0.0212788356908666,-0.6949617974400357,-0.7295025371242052,-0.4680952678457571,0.821003058938951,1.0228223647807562,1.4749639534136962,-0.7505997941129026,-0.7855762989221615,-0.5343871506091915,1.3043682574634503,-0.7044873990146583,-0.7227857515977043,0.8262292738672128,11.42684158850716,-1.0104568251126704,0.1035918650990196,-0.9509690531438874
1.08,0.7869988967043393,0.9873011685148432,1.4518313162701375,0.0542208964488384,0.0538660832544255,0.0207391068915122,-0.7073385963740663,-0.7397341878453084,-0.4555875713723796,0.8134970609978219,1.0149666017915346,1.4696200819076044,-0.7705997944109257,-0.8055762992201847,-0.5420637676653228,1.0177355985252388,-0.6188399467015271,-0.5115825360551607,0.625384823668873,11.42684158850716,-1.0087336070077957,0.1081491007261333,-0.9516342786074172
1.1,0.7727424438854806,0.9724276287093648,1.4428020626016107,0.0495362047326976,0.0592282452330798,0.020264758051874,-0.7174662678905376,-0.7471077328844515,-0.4481726695448204,0.7984850651155639,0.9992550758130914,1.4589323388954205,-0.8105997950069722,-0.8455762998162312,-0.5574170017775856,0.7278730416462721,-0.5063835758235657,-0.3686772519571557,0.3707450913779636,11.067873492042963,-1.005441769808152,0.1122665625152943,-0.9542072747910362
1.12,0.7583051456477569,0.957427063746814,1.433870240379428,0.0456768531362076,0.0647645786608185,0.0198482616125209,-0.7256094936695884,-0.7527667588046192,-0.4453706900491918,0.7834730692333058,0.983543549834648,1.4482445958832366,-0.8505997956030187,-0.8855763004122776,-0.5727702358898483,0.5152372986004837,-0.40716128895254,-0.2829512960083824,0.1400989747814274,10.748602339613171,-1.0015965410670893,0.1153028623543348,-0.9577129673621516
1.14,0.7444553507726671,0.9430821743737096,1.425403383541795,0.0428979347265284,0.0696584040643861,0.0194941021993257,-0.7317911086827479,-0.757157228829556,-0.4460272403542851,0.7664610733212455,0.9658320238264024,1.4367891911654396,-0.8905997961990652,-0.925576301008324,-0.5881234700021111,0.38052480048581,-0.3090807506579751,-0.2195235012468432,-0.0328275152546658,10.492170738353709,-0.9972989370105024,0.1174870617113723,-0.9619783949143972
1.16,0.7297645977393638,0.9278980787944444,1.4164612430289218,0.0409202163948525,0.0740425278300228,0.019156133530715,-0.7369061251507346,-0.7611884750597826,-0.448226544855408,0.749449077409185,0.9481204978181568,1.4253337864476423,-0.9305997967951116,-0.9655763016043706,-0.6034767041143738,0.343697832132931,-0.2557508233993366,-0.2015623115113274,-0.1099652250561439,10.29517370188296,-0.9935494647931168,0.1186909741360743,-0.9659092755224912
1.18,0.7149782770760229,0.912629492013425,1.4074620273721394,0.0396704988045382,0.0775432877418979,0.0188390680263322,-0.7414608387151503,-0.7655094964502587,-0.4515907367261008,0.7314370814822235,0.9294089717950104,1.4134945508770391,-0.970599797391158,-1.005576302200417,-0.6188299382266365,0.3561405216121159,-0.2277356782207862,-0.2160510695238038,-0.1682095935346406,10.161261780785935,-0.9903327854925476,0.1190572460244919,-0.969561047681834
1.2,0.700850455303974,0.8980445629137128,1.3988424433915083,0.0389354776710379,0.0801987790597856,0.0185508855844522,-0.7454439220792641,-0.7695403455762411,-0.4555715666330851,0.7124250855403609,0.9096974457569624,1.401271484453629,-1.0105997979872043,-1.0455763027964633,-0.6341831723388992,0.3462647271606422,-0.1991541682056896,-0.2015424562991197,-0.1990414953492142,10.120471075228124,-0.9875385775449342,0.1189937466808397,-0.972874753812318
1.22,0.6859002349715605,0.8826110553227118,1.3896798531544332,0.0386201159358521,0.0824131338359367,0.0182664853269993,-0.7493566633300289,-0.7736085379026881,-0.4605165642839058,0.6779052351402653,0.8743540171909121,1.3848824905358343,-0.8414608402052665,-0.8655094979403748,-0.4598513416515545,0.3752090572834757,-0.1956370625382397,-0.2034096163223531,-0.2472498825410368,10.120471075228124,-0.9852561840405522,0.1185027332188713,-0.9757237133582384
1.24,0.6708900232835017,0.8670413015825462,1.3806081358268762,0.0372508402546077,0.0841580901969872,0.0179010126529859,-0.7513771536930022,-0.7828214340108461,-0.4453733377752669,0.6779052351402653,0.8743540171909121,1.3848824905358343,-0.8414608402052665,-0.8655094979403748,-0.4598513416515545,0.8920161785227424,-0.1010245181486624,-0.4606448054079004,0.7571613254319487,10.08033770973725,-0.9878782698141612,0.1192836451387087,-0.9731308015816784
1.26,0.6558492476709326,0.8513213578074105,1.3718537731475469,0.0344459431594892,0.0853173469465257,0.017425324734253,-0.7526780322718497,-0.7884738164410222,-0.4309285206396566,0.6779052351402653,0.8743540171909121,1.3848824905358343,-0.8414608402052665,-0.8655094979403748,-0.4598513416515545,0.778290521423537,-0.0650439289423765,-0.2826191215088036,0.722240856780515,11.198330310697202,-0.9871744444928902,0.1219181275921117,-0.9729741294713224
1.28,0.641537608721263,0.8363096134492128,1.363773046514814,0.031972109887618,0.0856582339086735,0.0169732469147257,-0.7538405554287552,-0.7915760191039138,-0.4203948277789893,0.6694906267382127,0.8656989222115083,1.3802839771193187,-0.8614608405032896,-0.885509498238398,-0.4615034626366452,0.552118209115735,-0.0581261578452729,-0.1551101331445814,0.5266846430333649,11.198330310697202,-0.987208881822614,0.124431219571627,-0.9720599586070524
1.3,0.6264472818379758,0.8204570583093306,1.3554576782382186,0.0301433124653897,0.0851293067377655,0.0165381554387778,-0.7552144934539761,-0.7936681879354127,-0.4118081860182728,0.6526614099341074,0.8483887322527008,1.3710869502862877,-0.901460841099336,-0.9255094988344444,-0.4648077046068267,0.4472004384040863,-0.068696901261045,-0.1046084415749437,0.429332088035822,10.833549694501016,-0.9881610286096812,0.1261598789884299,-0.9704077694729578
1.32,0.61132701518647,0.8045730885177707,1.3472901320120605,0.0294680012324726,0.083589991835885,0.0161680088271754,-0.7568459679236506,-0.7948391547735337,-0.4053634917851435,0.635832193130002,0.8310785422938933,1.3618899234532569,-0.9414608416953826,-0.9655094994304908,-0.4681119465770081,0.3375165034472726,-0.0815737234837243,-0.0585483419060506,0.3222347116564661,10.833549694501016,-0.9900339710160332,0.1267977069956567,-0.9680294848415694
1.34,0.5961701147357831,0.7886726990429495,1.3392375328943238,0.0303024089967265,0.0809337669259113,0.0158809924469773,-0.7588804053465773,-0.7953896590730393,-0.400210637236786,0.6170029762960944,0.8117683523052835,1.3525276845217165,-0.9814608422914288,-1.0055095000265373,-0.4714161885471896,0.2783608297161599,-0.1017218711463374,-0.0275252149752769,0.2576427274178755,10.713737785016749,-0.9928203673544296,0.1261213371863458,-0.964947165603594
1.36,0.5817280413978455,0.7735577501099238,1.331684072935856,0.0327723663503602,0.0772904270126337,0.0156926793655603,-0.7613647696773427,-0.795963756208925,-0.3951409425606887,0.5981737594621868,0.7924581623166737,1.3431654455901765,-1.0214608428874754,-1.045509500622584,-0.4747204305173711,0.2837404525189362,-0.1242182165382688,-0.0287048567942871,0.2534847338048623,10.63607618403148,-0.9972918162395186,0.1238412953872079,-0.9603321190691108
1.38,0.5664600960698821,0.7576042414292098,1.3238421787372188,0.0364490808434715,0.0724381315581349,0.0155252931043919,-0.7654847270549376,-0.7996176326700775,-0.3892868944422321,0.578344542613378,0.7721479723131628,1.3337206006093816,-1.0614608434835218,-1.0855095012186302,-0.4780246724875525,0.4018542688580301,-0.2059978688797481,-0.1826938230576225,0.2927024059228317,10.677107312872067,-1.0027677623881563,0.1204354514367753,-0.954934870046392
1.4,0.5510877141825637,0.7415511526998488,1.3161248156981389,0.039997147862691,0.0670984200412319,0.0153143546069389,-0.7717292991034427,-0.8054652534728977,-0.3827345971246321,0.557515325749668,0.7508377822947506,1.3241931495793322,-1.101460844079568,-1.1255095018146766,-0.481328914457734,0.5387994739714735,-0.3122286024252518,-0.2923810401410098,0.3276148658800021,10.677107312872067,-1.0081102353001343,0.1171702919610149,-0.9497608529005414
1.42,0.5355646647458223,0.725367027571352,1.3085436886788997,0.042950252327681,0.0620292913865489,0.0150581731195371,-0.7804208135938518,-0.8125193792441087,-0.3756962924817438,0.5125012492273916,0.701277890026204,1.2969880858419072,-0.8717293005935588,-0.9054652549630138,-0.3504204940279085,0.6611369880349267,-0.4345757245204584,-0.3527062885605503,0.3519152321444119,10.719873006516536,-1.0135194311036824,0.1141870904203534,-0.9444963320098236
1.44,0.5206152840026984,0.7097868642458399,1.3015702886116034,0.04308002406219,0.0590562146227602,0.0147044525172044,-0.792842505146442,-0.8260872451078475,-0.3586552024565635,0.5125012492273916,0.701277890026204,1.2969880858419072,-0.8717293005935588,-0.9054652549630138,-0.3504204940279085,1.2537784437156332,-0.6210845776295049,-0.6783932931869407,0.8520545012590169,10.754530272586637,-1.0182790777760211,0.1131639747137926,-0.9402111406343552
1.46,0.5046206639180103,0.6931499005396567,1.2945900515878228,0.0399426381967364,0.0591014048453806,0.0142541913428103,-0.8055722608463803,-0.8364412992195015,-0.340266861038823,0.5125012492273916,0.701277890026204,1.2969880858419072,-0.8717293005935588,-0.9054652549630138,-0.3504204940279085,1.2322583097940198,-0.6364877849969197,-0.517702705582701,0.919417070887027,11.52108803059764,-1.0216531199439458,0.1165195799840291,-0.9352716394316116
1.48,0.4883929129647624,0.6763548615868972,1.2879645682925207,0.0356510206071634,0.0612752206967146,0.0138214832818914,-0.8163399098815496,-0.8423477354806266,-0.3232609080292566,0.503783956221456,0.6922232374765739,1.293483880901628,-0.891729300891582,-0.925465255261037,-0.3439576734085638,1.0488454280956891,-0.5383824517584623,-0.295321813056254,0.8502976504783155,11.459768579229603,-1.022107666434656,0.1209427025202176,-0.9332195681207212
1.5,0.4719701390756003,0.6594741485708823,1.281658577282063,0.0318154323235432,0.064540186479092,0.0134663800202232,-0.8252237947928884,-0.845602665506581,-0.3081797787073351,0.4863493702095848,0.6741139323773135,1.28647547102107,-0.9317293014876284,-0.9654652558570834,-0.3310320321698744,0.8901663358837724,-0.4441942455669423,-0.1627465012977225,0.7540564660960786,11.332292646276985,-1.0214184796736323,0.1248081315872362,-0.9325004751590504
1.52,0.4562208779473999,0.6433913564449714,1.2759314219984157,0.0290832238699974,0.06792405207611,0.0132066275496772,-0.83206185372631,-0.8474226505664979,-0.2954365066929308,0.4689147841977136,0.6560046272780533,1.2794670611405117,-0.9717293020836748,-1.00546525645313,-0.318106390931185,0.7288044614784663,-0.3419029466710799,-0.0909992529958436,0.6371636007202142,11.201345488528204,-1.020083292667867,0.1279554554396426,-0.9326547041176172
1.54,0.4395176672793636,0.6264320015345042,1.2701529939679126,0.0273060460056059,0.0712210386282098,0.0130094451563829,-0.8378325129531612,-0.8485981737646183,-0.2831331290171434,0.4494801981560402,0.6358953221489907,1.273104933321888,-1.0117293026797214,-1.0454652570491765,-0.3051807496924955,0.6820107494292609,-0.288532961342558,-0.058776159906021,0.6151688837893687,11.091799490339326,-1.0186426209273467,0.1300493267439586,-0.9331589969180406
1.56,0.4227110049689077,0.6094559572307469,1.2646142563105989,0.026825478962493,0.0738605834554246,0.0128950305102765,-0.8425315519952107,-0.8490801304078138,-0.2713791030314077,0.4300456121143666,0.6157860170199281,1.2667428055032643,-1.0517293032757675,-1.0854652576452228,-0.2922551084538061,0.6333845139367874,-0.2349519521024745,-0.0240978321597751,0.5877012992867858,11.019379818252672,-1.0174650737513862,0.1309758850538913,-0.9335978465053018
1.58,0.4058137140165065,0.5924665538962748,1.2593085419990846,0.0276620449877267,0.07578354923743,0.0128652169927611,-0.8469787665285876,-0.8499605356886808,-0.259781758461472,0.409611026057792,0.5946767118759643,1.260703818715608,-1.091729303871814,-1.1254652582412692,-0.2793294672151167,0.6225978470053396,-0.2223607266688465,-0.0440202640433484,0.5798672284967832,10.989054050236518,-1.0167840301275877,0.1306992484463649,-0.933831223607331
1.6,0.3896800330500332,0.57630401760388,1.2544844242291897,0.0294513362817012,0.077109234770452,0.0129032347137103,-0.8510907339547454,-0.8513970845729699,-0.2486008539696388,0.3881764399863162,0.5725674067170994,1.2549879729589186,-1.1317293044678605,-1.1654652588373156,-0.2664038259764273,0.5999678617772619,-0.2055983713078912,-0.0718274442144562,0.5590452245916616,10.984462550478383,-1.0166340486410812,0.1295164413510203,-0.93359816822386
1.62,0.3726139196867544,0.5592498794131446,1.2496392806785048,0.0320912350844144,0.0781055623543627,0.0129941599520514,-0.8553066855704375,-0.8542068652597684,-0.2364900678673513,0.3634647756900771,0.5499685271118407,1.246319454076011,-0.9510907354448616,-0.951397086063086,-0.1698084160586052,0.6563921380339715,-0.2107975807846052,-0.1404890343399245,0.6055393051143761,10.996848684129873,-1.017195698743887,0.1276642888377399,-0.9327288204037304
1.64,0.3554572570140888,0.5420432207751374,1.2450538011112682,0.0323581422006501,0.0790760156586371,0.0129289854460471,-0.860110682650744,-0.8655733971108451,-0.2225402955299115,0.3634647756900771,0.5499685271118407,1.246319454076011,-0.9510907354448616,-0.951397086063086,-0.1698084160586052,0.9312257816119768,-0.2401998540153216,-0.5683265925538361,0.6974886168719898,11.16836844149293,-1.0186003967314832,0.1274254957303349,-0.9313074261320654
1.66,0.3382148646797167,0.5246462019353119,1.240770390415339,0.0291154209352553,0.0801080713502587,0.0126339439383589,-0.8638533808327499,-0.8730587003132528,-0.2063996197225983,0.3634647756900771,0.5499685271118407,1.246319454076011,-0.9510907354448616,-0.951397086063086,-0.1698084160586052,0.9090640368400212,-0.1871349091002949,-0.374265160120385,0.807033790365659,11.16836844149293,-1.0187105617411851,0.130587530552103,-0.9300509169738148
1.68,0.3217735739740915,0.508028288820277,1.2370124875401451,0.0251110380679792,0.0807245006299981,0.0122926871408825,-0.8666775718717625,-0.8757757608488065,-0.1899855987623417,0.3539538683356285,0.5404545562512099,1.244621369915425,-0.9710907357428848,-0.9713970863611092,-0.1540499284763984,0.8437691583935226,-0.1412095519506329,-0.1358530267776825,0.8207010480128298,11.279760007604636,-1.0186601674776354,0.1350930558574725,-0.9283277568473236
1.7,0.3044132278342271,0.490509351027564,1.233401082844599,0.021540622894479,0.0807530885852686,0.0119798390645071,-0.869267556163279,-0.8761437343032842,-0.1719933183874561,0.3349320536267313,0.5214266145299482,1.2412252015942529,-1.0110907363389312,-1.0113970869571558,-0.122532953311985,0.9090731216216816,-0.1294992145758233,-0.0183986727238849,0.8996140187442797,11.326937048623222,-1.019532053686129,0.1391398977344267,-0.9255679801038662
1.72,0.2870016784589946,0.4729960559328406,1.230155413948035,0.0191563234079118,0.0800342346026131,0.0117519403724766,-0.8718414653492512,-0.8754249095801571,-0.1534547979294132,0.315910238917834,0.5023986728086864,1.2378290332730808,-1.0510907369349778,-1.0513970875532022,-0.0910159781475715,0.9365074188887768,-0.1286954592986111,0.035941236156356,0.926926022902147,11.366290723726706,-1.0210669675235415,0.1421081185795549,-0.9222206829262132
1.74,0.2695377771806344,0.4555067925766722,1.2272886180546838,0.018188589344373,0.0785132281942621,0.0116245008955457,-0.8745246327288119,-0.8738250317082502,-0.1341498646481772,0.2948884241791345,0.4813707310576224,1.2360087137101294,-1.091090737531024,-1.0913970881492483,-0.0594990029831581,0.9778029522668764,-0.1341583689780323,0.0799938935953425,0.9652466640617988,11.39486169858992,-1.0233826393949856,0.1441868212579004,-0.9179409116301388
1.76,0.2528949611762354,0.4389282622740122,1.224932474036933,0.0188935032991986,0.0762598342257303,0.0116133753963156,-0.8773176601472719,-0.8716364641868123,-0.11482438774709,0.2738666094404349,0.4603427893065583,1.234188394147178,-1.1310907381270707,-1.131397088745295,-0.0279820278187446,0.9824266988058384,-0.1396513709229996,0.1094283760718961,0.9662738450543572,11.495460624879344,-1.026572473308495,0.1449042881232674,-0.912781964355566
1.78,0.2353082420261994,0.4215126280500829,1.22286216714541,0.0213666861390902,0.0731591024118539,0.0117120329743398,-0.8813419078028063,-0.8702366645726234,-0.0931539923246929,0.2518447946868342,0.4383148475405931,1.233155998963337,-1.171090738723117,-1.1713970893413417,0.0035349473456688,1.1042645130538338,-0.201212382776722,0.069989980709445,1.0835197711198563,11.495460624879344,-1.030566758169639,0.1440498296355486,-0.907069479661125
1.8,0.2176254266355948,0.4040982500100387,1.2212401704249012,0.0248713429203863,0.0697581312917599,0.0118708794213255,-0.8868839387114859,-0.8715422124152176,-0.0700667743937581,0.2288229799183323,0.4152869057597268,1.232911528158606,-1.2110907393191634,-1.2113970899373878,0.0350519225100822,1.188947216608602,-0.2771015454339776,-0.0652773921297089,1.1543608965467376,11.66834421992462,-1.0351627824154224,0.142427667912648,-0.900720167559986
1.82,0.199813004426705,0.3866318478694793,1.220095603890785,0.0282446997709275,0.0666818662590637,0.0120210013301881,-0.8941864981344981,-0.8749849676015019,-0.0455341549210683,0.1912411466360591,0.3780007948214517,1.2182044675291754,-0.9675701592600208,-0.9702366660627396,0.0068460091654231,1.2913455730275227,-0.3651279711506139,-0.172137759314217,1.2266309736344905,11.75909937374945,-1.0395897897100692,0.1414737347435851,-0.893981028955865
1.84,0.182670466920012,0.3698874385300425,1.219288487005519,0.0283535849820645,0.0665474938449695,0.0120277112903704,-0.9092734821015482,-0.886062660816332,-0.0405916548511491,0.1912411466360591,0.3780007948214517,1.2182044675291754,-0.9675701592600208,-0.9702366660627396,0.0068460091654231,0.9679368253210944,-0.7543491983525052,-0.5538846607415049,0.247125003495963,11.75909937374945,-1.0401311500391122,0.14312344086031,-0.8909246240681888
1.86,0.1643539345862339,0.3520958649106644,1.2185684648264163,0.0248692839473513,0.070215400441136,0.0118995590701008,-0.9211212563530428,-0.8919681709459801,-0.0313438821406412,0.1912411466360591,0.3780007948214517,1.2182044675291754,-0.9675701592600208,-0.9702366660627396,0.0068460091654231,0.8074126960714767,-0.5923887125747207,-0.2952755064824064,0.4623886355253924,10.58532043158084,-1.0387970417641297,0.1466915664028358,-0.8913303598017508
1.88,0.1458405952754268,0.3342412656518873,1.2180709107808891,0.0206644030565145,0.0758117338725064,0.0117671286600152,-0.9292982286466298,-0.8931623840298857,-0.0187683695649539,0.1815654450434589,0.3682984281608243,1.2182729276208295,-0.9848158095514636,-0.9902366663607628,0.0268460094634463,0.7523837739497271,-0.4088486146793579,-0.0597106541952774,0.6287756287843669,10.861910370326768,-1.0356954119933424,0.1511842801309204,-0.8932396229640639
1.9,0.127199981784855,0.3163914702886383,1.217847385588595,0.0173012281739916,0.0819897179829402,0.0116990839385475,-0.9341257364191756,-0.891975864083375,-0.0041540052313858,0.1622140418582585,0.3488936948395696,1.218409847804138,-1.0193071101343492,-1.0302366669568093,0.0668460100594928,0.7718359698662058,-0.2413753886272851,0.0593259973255322,0.7307182166784024,11.019916428924262,-1.0322460260342934,0.1550443436278422,-0.895433906572431
1.92,0.1094311299888746,0.2994694345863812,1.2179219260788434,0.0154097946697653,0.0874276315181809,0.0117166230044168,-0.9359917821600108,-0.8897261981798607,0.0112440168164128,0.142862638673058,0.3294889615183148,1.2185467679874469,-1.053798410717235,-1.0702366675528556,0.1068460106555393,0.7836488473302616,-0.0933022870417576,0.1124832951757193,0.7699011023899349,11.125533722393811,-1.0288353136794357,0.1581772209626667,-0.8974192734676649
1.94,0.0907114171267877,0.2817094153280565,1.2183322542158015,0.014987675800351,0.0920326277035081,0.0118335902680397,-0.9358425239849764,-0.886573384379703,0.0290439500178833,0.1217866704587133,0.3080842281672576,1.2206836882005574,-1.0882897113001206,-1.110236668148902,0.1468460112515857,0.9038807095492336,0.0074629087517097,0.1576406900078819,0.8899966600735245,11.213313914758146,-1.0268834087469607,0.1605070138411499,-0.89734642403973
1.96,0.0720101489874121,0.2640188880664214,1.2191088591293502,0.0165897834329568,0.0950979349019604,0.0120807598587973,-0.9343403758067832,-0.8828661240160152,0.0477535290761612,0.1007107022443686,0.2866794948162005,1.2228206084136684,-1.1227810118830064,-1.1502366687449486,0.1868460118476322,0.956619800510336,0.0751074089096581,0.1853630181843923,0.9354789529138992,11.317180983618528,-1.0262372039127563,0.1613905355956936,-0.8958244457256028
1.98,0.0533424816832583,0.2463861564953047,1.2202720055464376,0.0200576709778317,0.0966329948618104,0.0124451432492148,-0.93258500275204,-0.881123906228973,0.0676776321423515,0.0787724515154518,0.2642747614502422,1.2259575286416802,-1.157272312465892,-1.190236669340995,0.2268460124436786,1.0038507612824932,0.0877686527371635,0.0871108893521099,0.9962051533095124,11.367623698296484,-1.0273338069430502,0.1605745934989826,-0.8931014526456561
2.0,0.0356405657549001,0.2296342881585346,1.2217632425071072,0.0237968194992467,0.0969250009302089,0.0128062955719769,-0.9309799475388324,-0.8823755415356727,0.0882980914358367,0.0559719182719628,0.2408700280693828,1.2300944488845933,-1.191763613048778,-1.2302366699370413,0.266846013039725,1.0360334630849333,0.0802527606603875,-0.0625817653349847,1.0310229646742617,11.443169862534887,-1.029145924778505,0.1593018629949921,-0.8895492357139272
2.02,0.0170360066619069,0.2119562734833059,1.2237746993488,0.0273685463358356,0.0963123648154287,0.0131420878045621,-0.9296574282054432,-0.8853385147844048,0.1118564932654648,-0.0109084316220414,0.185515511081751,1.226178147078899,-0.951439713107208,-0.9809322538054556,0.1882980929259529,1.1890401219325135,0.0661259666694613,-0.148148662436609,1.177920091481404,11.552428957355003,-1.0316000520156785,0.1584216924415562,-0.8850834066450355
2.04,-0.0016854397461359,0.1941325464353868,1.2259949446196587,0.027689558693192,0.0986573605709126,0.013338760045103,-0.9415247925602356,-0.8955019901372265,0.1090285484360238,-0.0109084316220414,0.185515511081751,1.226178147078899,-0.951439713107208,-0.9809322538054556,0.1882980929259529,0.7939266967661018,-0.5933682177396205,-0.5081737676410847,-0.1413972414720493,11.67475094580368,-1.0263581932376722,0.1593663409660631,-0.889052374257709
2.06,-0.0205876394198105,0.1761655033852233,1.2281912230254082,0.0247011463124461,0.105610620397134,0.0134332581345307,-0.9475099602619652,-0.900383207886133,0.1108181519403897,-0.0109084316220414,0.185515511081751,1.226178147078899,-0.951439713107208,-0.9809322538054556,0.1882980929259529,0.3963937431169481,-0.2992583850864816,-0.2440608874453242,0.0894801752182955,10.088917246705025,-1.0218423848308773,0.1619248108726312,-0.8940002389990404
2.08,-0.0386068321466028,0.1590496556391122,1.230349379908091,0.0211997312755921,0.1142356948518252,0.0135126909008759,-0.9485738796875646,-0.901068063828396,0.1162333623340996,-0.0204228287531135,0.1757061885436965,1.2280611280081586,-0.955531666220883,-1.0006435962594122,0.2082980932239761,0.2780533034058589,-0.0531959712799734,-0.0342427971131542,0.270760519685493,10.39995633498711,-1.0148059388169697,0.1655418182489679,-0.901043239954041
2.1,-0.0575553111860406,0.1410448712093465,1.2327597661594396,0.018300795735051,0.1241476310812308,0.0136496966889772,-0.9458337251741784,-0.8995978103615887,0.1246070110154745,-0.0394516230152576,0.1560875434675873,1.2318270898666777,-0.9637155724482332,-1.0400662811673256,0.2482980938200225,0.4466208802020462,0.1370077256693025,0.0735126733403701,0.4186824340687435,10.604258036784811,-1.0067572129359683,0.1686988663261703,-0.908970105298257
2.12,-0.0764095587762435,0.1230835796128029,1.2353623945057777,0.0168032848954793,0.1340891707781749,0.0138741138272621,-0.9394490820942468,-0.8969682951836347,0.1351816139200962,-0.0584804172774018,0.1364688983914782,1.2355930517251967,-0.9718994786755836,-1.0794889660752387,0.288298094416069,0.6314670298591287,0.3192321539965792,0.1314757588976978,0.5287301452310891,10.901755820638757,-0.9984166818596272,0.1710208733444188,-0.9168579873090114
2.14,-0.095089371433526,0.1051832747501262,1.2381959734325525,0.0170309223331177,0.1430812981708948,0.0142062270008777,-0.9287679126265196,-0.8935099152756146,0.1476023569857601,-0.0779184068509135,0.1148791190699734,1.2413590136135182,-0.9800833849029336,-1.1189116509831518,0.3282980950121154,0.8371419101468824,0.5340584733863729,0.1729189954010057,0.6210371532831951,10.901755820638757,-0.9907795163285452,0.1719892082788426,-0.9239683675501862
2.16,-0.1126055020157813,0.0882455245934304,1.241126877024708,0.0191986844078267,0.1498741002000954,0.0146438170327365,-0.9156318222657984,-0.8898926571179412,0.1602648704769008,-0.0973563964244252,0.0932893397484686,1.2471249755018396,-0.988267291130284,-1.1583343358910652,0.3682980956081619,0.9300277878343248,0.6568045180360527,0.1808629078836721,0.6331256745570335,11.0299316670189,-0.9840684995144924,0.1714455931601076,-0.9299922264806396
2.18,-0.1307539298680602,0.07046383585812,1.244486114625851,0.0230714557715441,0.1547848162122731,0.0151951237611253,-0.8999405870475309,-0.8889363325694404,0.1750514526028011,-0.1169989836536206,0.070713993304266,1.2538909374050622,-0.9964511973576342,-1.1977570207989785,0.4082980962042083,1.079088075973247,0.784561760913377,0.0478162274250404,0.7393291062950127,11.101844376394183,-0.979569990472395,0.1690633000540477,-0.9344257299036332
2.2,-0.1485749415431547,0.0526670867384206,1.248161515344232,0.0270717643200774,0.1573454448318168,0.0157183415770802,-0.8830643320017679,-0.8908182754912688,0.1918405998972658,-0.1368461685384998,0.0471530797373656,1.2616568993231858,-1.0046351035849843,-1.2371797057068914,0.4482980968002548,1.1939693886422416,0.8438127522881478,-0.0940971460914208,0.8394573647232353,11.214077123700008,-0.9771258699692844,0.1669346730354232,-0.9363595541911348
2.22,-0.1660503102495562,0.0348137500958741,1.2521985963461817,0.0304600729733157,0.1576097149519439,0.0161429117831608,-0.8655144078309278,-0.8942750864645294,0.2110346856776636,-0.1927281581432431,0.0081261729638572,1.2577535453390951,-0.8343691328101976,-0.9367210753062084,0.2918406013873819,1.3118329823689092,0.8774962085420057,-0.172840548663028,0.9597042890198916,11.503358525920705,-0.9767295013435888,0.1654039015457571,-0.9357782317727134
2.24,-0.1824720418179355,0.0175500470005512,1.2560926238476713,0.0252704489818177,0.1589738490645976,0.0159957117426901,-0.8633363546424037,-0.9178574855316608,0.1980389758621299,-0.1927281581432431,0.0081261729638572,1.2577535453390951,-0.8343691328101976,-0.9367210753062084,0.2918406013873819,1.3507053111828655,0.1089026594262076,-1.1791199533565722,-0.6497854907766845,9.529671820875135,-0.972982288640337,0.1714931685698755,-0.9364776376941272
2.26,-0.1996767352074225,-0.0008711991317571,1.2599589774590905,0.0122945580854959,0.1636755184885888,0.0153846510589884,-0.8567562289946744,-0.9220795205079232,0.1896943347880507,-0.1927281581432431,0.0081261729638572,1.2577535453390951,-0.8343691328101976,-0.9367210753062084,0.2918406013873819,0.5717444086650443,0.3290062823864625,-0.2111017488131139,-0.4172320537039614,9.903419225724974,-0.9675986286328996,0.1825453298245916,-0.9401515432011368
2.28,-0.2167063163955008,-0.0192640004979389,1.2637128395026325,-0.0009187539758076,0.1699402433727041,0.0147278861835402,-0.8462054891616926,-0.9169842926034724,0.1862341995737319,-0.2010718494713451,-0.0012410377892048,1.2606719513529692,-0.8246300929718836,-0.9459016352691962,0.3118406016854051,0.6108436668308261,0.5275369916490913,0.2547613952225358,-0.1730067607159408,9.903419225724974,-0.9612694216655354,0.1939598547455159,-0.944558608923608
2.3000000000000003,-0.2326580739988071,-0.0365883692130729,1.2672526908062391,-0.0113891213319005,0.1764472937943656,0.014196390689154,-0.8332440989042621,-0.9074529233271664,0.1864864249812446,-0.217759232127549,-0.019975459295329,1.2665087633807168,-0.8051520132952554,-0.964262755195172,0.3518406022814516,0.8045313159581101,0.6480695128715241,0.4765684638152911,0.0126112703756342,10.164032668805705,-0.9547393758430808,0.2033194264298461,-0.9491409879715969
2.32,-0.2491559038393642,-0.0546058007711342,1.271015219528175,-0.0197084152695331,0.1833830123974463,0.0137803138911023,-0.8169744305823812,-0.8952246533345708,0.1898696925250395,-0.234446614783753,-0.0387098808014531,1.2723455754084645,-0.7856739336186274,-0.9826238751211478,0.391840602877498,1.0315997208083294,0.8134834160940463,0.6114134996297871,0.169163377189746,10.38167265719312,-0.9477543090852818,0.2111027251625213,-0.954123528095401
2.34,-0.2653023782162653,-0.0723640972996822,1.2748783948637994,-0.0253297343881249,0.1901370231176443,0.0135281712364792,-0.798267408977755,-0.8816893102954368,0.1963885709448249,-0.2501600934561255,-0.0583623583038761,1.2801823874660143,-0.7661958539419993,-1.0009849950471237,0.4318406034735444,1.199639471210959,0.935351080231306,0.6767671519566976,0.3259439209892689,10.596871966979052,-0.9408880086848224,0.2168396993208308,-0.9590187547046536
2.36,-0.2810463014051861,-0.0898467741437777,1.2788927647910373,-0.0285842322694929,0.1963579029036077,0.0134443109958124,-0.7769029052345656,-0.8677024225564491,0.2047796295560283,-0.2658735721284981,-0.0780148358062991,1.2880191995235646,-0.7467177742653711,-1.0193461149730991,0.471840604069591,1.3439539737584494,1.0682251871594717,0.6993443869493854,0.41955293056017,10.804886794036976,-0.934950618873725,0.2207235282445442,-0.9630016207821072
2.38,-0.2955773252900562,-0.1061954580182295,1.2828814842077187,-0.0298299371205484,0.201142463570716,0.0135291169334284,-0.7537981878024643,-0.8542553999843814,0.214655511431845,-0.281100098808955,-0.0981263413068714,1.2968560115960155,-0.727239694588743,-1.0377072348990752,0.5118406046656374,1.424941600992853,1.1552358716050648,0.6723511286033879,0.493794093790835,10.931028944226457,-0.9298068994986692,0.223359735673598,-0.966139862832086
2.4,-0.3103778015506681,-0.1231279418868415,1.2873060808692174,-0.0293571384268622,0.2044751210644608,0.0138061374130239,-0.7274973256182836,-0.8398750023141864,0.227405608591833,-0.2958396734974961,-0.1186968748055931,1.306692823683368,-0.7077616149121149,-1.056068354825051,0.5518406052616839,1.6287235541777416,1.315043109209035,0.7190198835097472,0.6375048579994019,11.069359490044008,-0.926160099857875,0.2245706434313739,-0.967918747799176
2.42,-0.3246361638303554,-0.1397720239952618,1.2920139790562766,-0.0269208176691945,0.2057987772919698,0.0142938127300069,-0.6997566873499896,-0.8254705265398199,0.2428852532540223,-0.3332672346801795,-0.1489082280174486,1.293614259779311,-0.6537981863123482,-0.8252935720058896,0.3146555129219611,1.744026471082288,1.3870319134146991,0.7202237887183272,0.7739822331094659,11.41894623720873,-0.9248915485337792,0.224385662490671,-0.9675748490597966
2.44,-0.3378085160150364,-0.155602604304327,1.296413163029252,-0.0313918377055647,0.2073135492282934,0.014285139643105,-0.6878321654082179,-0.8370064753614062,0.2192392617342583,-0.3332672346801795,-0.1489082280174486,1.293614259779311,-0.6537981863123482,-0.8252935720058896,0.3146555129219611,1.444303684917756,0.5962260970885869,-0.5767974410793131,-1.1822995759881991,11.41894623720873,-0.9223602758064682,0.2319290000178476,-0.9644598203785708
2.46,-0.3514039136785349,-0.1722883408933148,1.3005862071398868,-0.043484213289299,0.2107441875106335,0.0137005969962517,-0.6719730828422811,-0.8299646142979924,0.1997844283351123,-0.3332672346801795,-0.1489082280174486,1.293614259779311,-0.6537981863123482,-0.8252935720058896,0.3146555129219611,1.3034462490434269,0.7929541282968411,0.3520930531706878,-0.9727416699573012,8.906366717650144,-0.916297969026154,0.2418074062265057,-0.9689155378304576
2.48,-0.3646428628619464,-0.1887234915897438,1.3044505973295266,-0.0560732651469471,0.2149987622977048,0.0130280918967457,-0.6524700655178721,-0.8138186866194966,0.1878937870793781,-0.339805216543303,-0.1571611637375075,1.2967608149085306,-0.633798186014325,-0.8195012064101912,0.3346555132199844,1.3986118250143411,0.9751508662204478,0.8072963839247882,-0.5945320627867081,9.39213982529236,-0.9108320688516686,0.2518991056437998,-0.9724915603324132
2.5,-0.3774581919825199,-0.2047751455961425,1.308151538079107,-0.0667768647137245,0.2194953137163528,0.0124538681541622,-0.6298985424641904,-0.7926267167058878,0.1827385059677827,-0.3528811802695499,-0.1736670351776253,1.30305392516697,-0.5937981854182786,-0.8079164752187945,0.3746555138160308,1.5693550945545751,1.1285761526840854,1.0595984956804416,-0.2577640555797733,9.832879175956805,-0.905356254018132,0.2615906206027827,-0.9754789733977796
2.52,-0.3891884692391786,-0.2196019174924972,1.3116251680880562,-0.0745995364317638,0.2236744568002119,0.0120673572682819,-0.6058984995984699,-0.7697076414667823,0.183155708360953,-0.3659571439957969,-0.190172906617743,1.309347035425409,-0.5537981848222321,-0.7963317440273978,0.4146555144120772,1.6594126409735093,1.2000021432860275,1.1459537619552762,0.0208601196585153,10.577284300307838,-0.9003244451627193,0.2696319907669315,-0.977787338482027
2.54,-0.4010146904047629,-0.2347247853837884,1.3153405852041502,-0.0804542935553394,0.2276115402082685,0.0118609911374623,-0.5778523520516864,-0.7441450653107923,0.1886105109034761,-0.3770331076922416,-0.206099541498291,1.3176401457136506,-0.5137981842261856,-0.7847470128360011,0.4546555150081237,1.916889774298886,1.4023073773391737,1.2781288077995,0.2727401271261545,10.577284300307838,-0.8963553103833329,0.2762935462906086,-0.9785359087960216
2.56,-0.4122553873788622,-0.2493245681969984,1.319201785148094,-0.084091415952553,0.2306464605447873,0.0118931245788185,-0.5475783081753012,-0.7175096611172358,0.1973915582984126,-0.3881090713886862,-0.222026176378839,1.3259332560018922,-0.4737981836301391,-0.7731622816446044,0.4946555156041702,2.0634129994596,1.5137021938192607,1.331770209677824,0.4390523697468271,10.91724392703145,-0.8939232838962788,0.2816667383941266,-0.9772522755738404
2.58,-0.4228666121696703,-0.263379170995957,1.3232737901287797,-0.0855538541077373,0.2323054903914608,0.0122126482062528,-0.5168158641440666,-0.6911146820724695,0.2088030876118348,-0.3981850350702297,-0.237663192979602,1.335226366305035,-0.4337981830340927,-0.7615775504532076,0.5346555162002166,2.1054963089611367,1.5381222015617313,1.3197489522383143,0.570576465671109,11.127137190108442,-0.8928552052841986,0.2859767233892956,-0.97431172909485
2.6,-0.4323340487080705,-0.2762104502626449,1.327397811441679,-0.084847221986812,0.2323133272626034,0.0128175657492952,-0.483121489810441,-0.66260910911539,0.2241376656739269,-0.407260998736872,-0.2530105913005802,1.3455194766230787,-0.3937981824380463,-0.7499928192618109,0.574655516796263,2.336144171326047,1.6847187166812772,1.425278647853978,0.7667289031046048,11.334680851628946,-0.8933882721549284,0.2883535117806851,-0.9704254094794847
2.62,-0.44162898086133,-0.2891543406850789,1.3320750352940318,-0.0815628207709197,0.2303474862256864,0.0138143467357551,-0.4481027259220193,-0.6337286469594695,0.2430418798180952,-0.4487074053768736,-0.2979349050995804,1.3337139445093713,-0.4168158626539504,-0.6083363549054354,0.287369452555816,2.4585383010140154,1.7509381944210838,1.444023107796022,0.945210707208416,11.788242121143412,-0.8966311570847845,0.2885023232060831,-0.9647157570528307
2.64,-0.4503212045812438,-0.3017564697121641,1.336655276959577,-0.0816617561081591,0.2255059150141009,0.014815989815079,-0.4233069740336094,-0.6257115185722912,0.2138885922458288,-0.4487074053768736,-0.2979349050995804,1.3337139445093713,-0.4168158626539504,-0.6083363549054354,0.287369452555816,1.955132882670221,1.2397875944204966,0.4008564193589137,-1.45766437861332,11.788242121143412,-0.9032147486425456,0.294997322788273,-0.949990700907567
