t,x,y,z,roll,pitch,yaw,v_x,v_y,v_z,ref_x,ref_y,ref_z,ref_v_x,ref_v_y,ref_v_z,a_com,a_x,a_y,a_z,thrust,wind_x,wind_y,wind_z
0.0,-0.0243812957383318,0.1031708999712892,2.5501466468179497,0.0208441042126387,0.0994021935441366,0.0415024597236058,0.0017394128692332,0.0002925670922278,-0.0006823605097002,-0.024322207190153,0.1030815041791447,2.55012366547407,-0.0021590937608228,0.0033333221508661,-0.1007443852101199,0.094561732459639,0.0869706434616636,0.0146283546113946,-0.0341180254850106,10.257742899711957,-0.9406748119427089,0.260270606427941,-0.8774009549246944
0.02,-0.0243952578179688,0.1031401779289759,2.5500176164842463,0.0190365566329301,0.1006411114577185,0.0414143577500362,-0.002765740670728,-0.0025501141119407,-0.0122212185583424,-0.024322207190153,0.1030815041791447,2.55012366547407,-0.0021590937608228,0.0033333221508661,-0.1007443852101199,0.6354574925081035,-0.2252576769980639,-0.1421340602084336,-0.5769429024321103,10.257742899711957,-0.933782680215799,0.2614825448295105,-0.8837869211446481
0.04,-0.0244867588332327,0.1030878110881406,2.5496443409647607,0.0155150852486897,0.1037431989029018,0.0412404123997297,-0.0063579124858383,-0.0023580384050311,-0.0264779648996729,-0.024322207190153,0.1030815041791447,2.55012366547407,-0.0021590937608228,0.0033333221508661,-0.1007443852101199,0.7351792428848551,-0.1796085907555166,0.0096037853454795,-0.7128373170665269,9.607801297897822,-0.9271628866529016,0.2611882547607522,-0.893917119259743
0.06,-0.0246379960445613,0.1030701835224059,2.548934310380826,0.0114182610156706,0.1083415606945231,0.0410419958178912,-0.0083403901604711,0.0006726921758941,-0.0439088604593183,-0.0243437981277612,0.1031148374006534,2.549116221621969,-0.0029728694566832,0.0044254920503596,-0.1207443855081431,0.8901568198860221,-0.0991238837316421,0.1515365290462675,-0.8715447779822685,9.447779902595355,-0.9183334697853108,0.2608638202897284,-0.906668307425146
0.08,-0.0248087445732427,0.1031320204772119,2.547852603529439,0.0077111490284376,0.113550956549771,0.0408646409858314,-0.0084393965823659,0.0052733069124213,-0.0634265795497506,-0.0243869800029776,0.1031815038436707,2.547101333917767,-0.0046004208484039,0.0066098318493465,-0.1607443861041896,1.002642529417333,-0.0049503210947363,0.2300307368263605,-0.9758859545216172,9.23525198038351,-0.9077147421386264,0.2599850262208488,-0.921509726629973
0.1,-0.0249623628963218,0.1032954059266538,2.5463638734172864,0.0046379832979261,0.1187769460219937,0.0407189736157413,-0.0067821964561989,0.0107031099576,-0.0845153936243584,-0.0244301618781941,0.103248170286688,2.5450864462135643,-0.0062279722401247,0.0087941716483334,-0.200744386700236,1.091978883084482,0.0828600063083474,0.2714901522589356,-1.054440703730387,9.23525198038351,-0.8970016850038696,0.2586791008367073,-0.9362258978564434
0.12,-0.0250629074537989,0.1035557778867942,2.5445468588144142,0.0023218447349394,0.1233767022949737,0.0406118225704599,-0.0038121958804337,0.016305792541046,-0.1057324699113754,-0.0245547213229966,0.1034240537196547,2.54107155847956,-0.0078555236318455,0.0109785114473203,-0.2407443872962824,1.107220937437506,0.1485000287882607,0.2801341291722959,-1.0608538143508532,9.17334246176597,-0.8856361538982096,0.2571018113940861,-0.951375189776864
0.14,-0.0250966414014632,0.1039461437642792,2.542183028964237,0.0004253721593884,0.1276094277839183,0.040528914057443,0.0003509898202534,0.0223633668606107,-0.1296349642543545,-0.0246792807677991,0.1035999371526213,2.537056670745555,-0.0094830750235663,0.0131628512463072,-0.280744387892329,1.250355507077491,0.2081592850343602,0.3028787159782371,-1.1951247171489543,9.128522376646288,-0.8739838482024839,0.2551141607167476,-0.9666978201653398
0.16,-0.0250361407823024,0.1044635318934459,2.539327848123349,-0.000871360914823,0.1310570486706608,0.0404834964113539,0.0054992534130011,0.0289616568663216,-0.1547251013587285,-0.0248445289973946,0.1038304290805627,2.532041782996649,-0.011110626415287,0.0153471910452941,-0.3207443884883754,1.3224570209804178,0.2574131796373834,0.3299145002855467,-1.2545068552186998,9.062301230118464,-0.8631497185857825,0.2526361681357855,-0.9812108198167452
0.18,-0.0248766435568267,0.1050816221833261,2.5361418031797767,-0.0013779146824762,0.1335322181662988,0.0404897792495045,0.0110167130263302,0.0356654843300249,-0.1794269382688717,-0.0250504660117831,0.1041155295034787,2.526026895232841,-0.0127381778070078,0.017531530844281,-0.3607443890844218,1.309164246745928,0.275872980666456,0.3351913731851624,-1.235091845507161,9.02570301900505,-0.8520595626655199,0.2493424754318171,-0.9963066295776564
0.2,-0.0245920608144236,0.1058710201366358,2.5322710838000444,-0.0009942235435034,0.1353286647379341,0.0405603327464021,0.017143130297064,0.0428399422124544,-0.2064130228311493,-0.0243258079055102,0.1068648963998274,2.527170456266333,0.0106498265889253,0.0447924735009338,-0.2794269397589879,1.4293832537884092,0.3063208635366891,0.3587228941214746,-1.349304228113879,8.962857011275446,-0.8413260308392719,0.2451529181700861,-1.0112725455285203
0.22,-0.0241184624847869,0.1068675602505491,2.528105161320899,0.0024432970813135,0.1353184256798442,0.040840291433914,0.0301287601279999,0.0553927290050767,-0.2075007380238829,-0.0243258079055102,0.1068648963998274,2.527170456266333,0.0106498265889253,0.0447924735009338,-0.2794269397589879,0.904685252874764,0.6492814915467978,0.6276393396311155,-0.0543857596366784,8.962857011275446,-0.8428140501686581,0.2367354389622129,-1.0177825146650985
0.24,-0.0233781968841983,0.1080538608962022,2.523923991865073,0.0087654826550088,0.1322765091725946,0.041290202961062,0.0430421647953085,0.0619679579822281,-0.2106949074990965,-0.0243258079055102,0.1068648963998274,2.527170456266333,0.0106498265889253,0.0447924735009338,-0.2794269397589879,0.7419440255841843,0.6456702333654301,0.3287614488575705,-0.1597084737606835,10.244533588689592,-0.8422265010311789,0.2328542656881673,-1.0173944733262652
0.26,-0.0224552252738956,0.1092586645458431,2.519844346913682,0.0150687171274573,0.1268448522031878,0.0416720325624504,0.0530272605162404,0.0644415782909649,-0.2185488521766258,-0.0242193096396209,0.1073128211348367,2.5243761868687438,0.0105764493014443,0.0466178713351156,-0.2994269400570111,0.6471193494743782,0.4992547860465927,0.1236810154368408,-0.3926972338764628,10.244533588689592,-0.8425276264350516,0.2280050273748952,-1.0169756562456356
0.28,-0.0213175234651155,0.110552559739164,2.5153475217961274,0.0210894008814168,0.1195613004863041,0.0419475085026791,0.0598689358028148,0.064823386248928,-0.2308928008817786,-0.0240063131078424,0.1082086706048554,2.518787648073564,0.0104296947264824,0.0502686670034792,-0.3394269406530575,0.7059167225656462,0.34208376432872,0.0190903978981533,-0.6171974352576381,9.954585739704273,-0.8445820246143196,0.2225487671212838,-1.0165201250371994
0.3,-0.0200794754313725,0.1118376728585194,2.5105658562287827,0.0261701034203244,0.1117748344940279,0.0420855387014456,0.0633379152643076,0.0637453666517136,-0.2467926356208878,-0.0237933165760639,0.1091045200748741,2.513199109278384,0.0102829401515204,0.0539194626718427,-0.379426941249104,0.8154763783936688,0.1734489730746417,-0.0539009798607173,-0.794991736955461,9.530239863087443,-0.8469518976606922,0.2163566002467045,-1.0177409709209675
0.32,-0.0188039113841713,0.1130898056174082,2.505431967486728,0.0302380529782732,0.1043438363099726,0.0421097754059741,0.0639292006107968,0.0616977778546558,-0.2657905142872072,-0.0235876577730335,0.1101829093283109,2.5056105704534017,0.0101361855765584,0.0575702583402063,-0.4194269418451504,0.9558525410111668,0.0295642673244597,-0.1023794398528912,-0.9498939333159678,9.530239863087443,-0.8487095066395048,0.2100603156442982,-1.020845964332217
0.34,-0.0176020815723837,0.11423479387015,2.500189636412379,0.0332474951384437,0.0981293398201226,0.0420606662033388,0.0625085077603748,0.0590940720950329,-0.2850813853890094,-0.0233819989700031,0.1112612985817478,2.49802203162842,0.0099894310015965,0.0612210540085699,-0.459426942441197,0.9758782707442072,-0.0710346425210999,-0.1301852879811455,-0.964543555090111,9.380874948109522,-0.850888936025222,0.2035997246964022,-1.0244590493841146
0.36,-0.0163837340753395,0.1153834520953763,2.494264424688428,0.0356560608735833,0.092844084831615,0.0419683695306712,0.0592689490417197,0.055998739387402,-0.3064789866028184,-0.0231800090313467,0.1124309577268937,2.489433492788536,0.0098426764266345,0.0648718496769334,-0.4994269430372434,1.0930841264145086,-0.1619779359327579,-0.1547666353815466,-1.0698800606904535,9.323262980396976,-0.8517846412109684,0.197695511391754,-1.0292487872521134
0.38,-0.0152489742937009,0.1164660047050339,2.48790097550804,0.0373926949666262,0.0893399924346541,0.0418713733076737,0.0542714920075954,0.0524871876252683,-0.3288392331586951,-0.0229816879570644,0.1136918867637487,2.479844953933752,0.0096959218516726,0.068522645345297,-0.5394269436332898,1.1589717410550358,-0.2498728517062148,-0.1755775881066852,-1.1180123277938323,9.272327000474434,-0.8519133376706917,0.1925194803446055,-1.034341007987735
0.4,-0.0142771198709556,0.1174239344650754,2.4814321343186427,0.0383815226588646,0.0881832121653174,0.0418011174554636,0.0484342578011868,0.0486120231298046,-0.3509819201482217,-0.0125353996933212,0.1190903640862973,2.4714590138501054,0.0313359692873777,0.0530699668008702,-0.4288392346488112,1.1612372606012933,-0.2918617103204269,-0.1937582247731831,-1.1071343494763295,9.234111374047645,-0.8500714225491043,0.187501351716943,-1.041622912855669
0.42,-0.0133164771751135,0.1183626996999098,2.474426679872961,0.0393180039656538,0.0882254585229231,0.0417577996982288,0.0481566909625706,0.0452947579615311,-0.3470276279150403,-0.0125353996933212,0.1190903640862973,2.4714590138501054,0.0313359692873777,0.0530699668008702,-0.4288392346488112,0.2584459257365983,-0.0138783419308122,-0.1658632584136767,0.1977146116590694,9.195234510561477,-0.8567103659009581,0.1813884880183959,-1.0422888414611078
0.44,-0.0123522191380856,0.1192235891770969,2.46750645846649,0.0403729778205437,0.0881895407951809,0.0417091100952208,0.0482210865831982,0.0409559197656051,-0.3456242965407773,-0.0125353996933212,0.1190903640862973,2.4714590138501054,0.0313359692873777,0.0530699668008702,-0.4288392346488112,0.2280296177713173,0.0032197810313806,-0.2169419097962994,0.0701665687131508,10.862461985144364,-0.855249862961008,0.1808899313500918,-1.0430699682688471
0.46,-0.0113905433579144,0.1199895715804271,2.460546467986946,0.040989965182534,0.0879595965500887,0.0416120700719193,0.0479044010015622,0.0359423149059493,-0.3504161860882335,-0.0122220400004474,0.119621063754306,2.4671706215036173,0.0267488647433341,0.0531865226359905,-0.4488392349468345,0.3471265218958362,-0.0158342790817993,-0.2506802429827898,-0.2395944773728092,10.50289839776815,-0.8532345997786028,0.1799044185733044,-1.0454113824792537
0.48,-0.0104868202874084,0.1206206736565758,2.453800175066095,0.0408582544889379,0.0875318619969699,0.0414533147889406,0.0471993795792962,0.0308444229396916,-0.3594668965666425,-0.0115953206146998,0.1206824630903235,2.458593836810641,0.017574655655247,0.0534196343062313,-0.4888392355428809,0.5205788073612673,-0.035251071113301,-0.2548945983128827,-0.4525355239204526,10.174737284697583,-0.8518136089374746,0.1789572426882979,-1.0480186982273556
0.5,-0.009554876027158,0.1211806439207365,2.446475319949172,0.0397779846871182,0.0868808324802886,0.0412062688036648,0.0459785848419351,0.0255156210687537,-0.372702383576832,-0.0109686012289523,0.1217438624263409,2.4500170521176647,0.00840044656716,0.0536527459764721,-0.5288392361389274,0.716003815575335,-0.0610397368680536,-0.266440093546897,-0.6617743505094753,9.919574426246072,-0.8514636840196192,0.1787740887174489,-1.0497331596326729
0.52,-0.0086526673157143,0.121636844975815,2.4388527660837744,0.0376381831312256,0.0860723719078235,0.0408760019543205,0.0442534337916815,0.0205032671113888,-0.3890049585100189,-0.0108005922976091,0.1228169173458703,2.439440267394886,-0.000773762520927,0.0538858576467128,-0.5688392367349738,0.857137369084261,-0.0862575525126797,-0.2506176978682438,-0.8151287466593438,9.712970797801972,-0.8512269611807323,0.1793137275914171,-1.0516184958840158
0.54,-0.0078316559183309,0.1219904919274435,2.4312940283472124,0.0348781681257584,0.0852092406926599,0.0405082358830222,0.0422165618075529,0.0171956020896894,-0.4058179596867075,-0.0106325833662659,0.1238899722653997,2.428863482672108,-0.0099479716090141,0.0541189693169536,-0.6088392373310203,0.8627956072309826,-0.1018435992064303,-0.1653832510849684,-0.8406500588344273,9.554561673931858,-0.851242375687124,0.1803472663037128,-1.053354522459594
0.56,-0.0070140263578763,0.122310493289881,2.4229820561109245,0.0318770132908969,0.0842725618631414,0.0401154616116476,0.0396211578797918,0.0150466144569354,-0.4245441933053953,-0.0106939296621249,0.1249688549766852,2.417286697934428,-0.0191221806971012,0.0543520809871943,-0.6488392379270667,0.9513491668883208,-0.1297701963880553,-0.107449381637702,-0.9363116809343902,9.491525011539125,-0.8511093609270093,0.1814135593487736,-1.0554938123935749
0.58,-0.006252845767307,0.1225969952970347,2.4142845157543054,0.0290603704550722,0.0833959596949917,0.0397397845204067,0.0366166295635162,0.0137220175763139,-0.4442752289872206,-0.010984631185186,0.1260535654797267,2.404709913181847,-0.0282963897851883,0.0545851926574351,-0.6888392385231131,1.0001193883443626,-0.1502264158137821,-0.0662298440310765,-0.9865517840912692,9.434821950296282,-0.8508852690326297,0.1822195502111021,-1.0578774142626952
0.6,-0.0055553842199667,0.1228633851262368,2.4051824551804417,0.0265187835990552,0.0826467712718975,0.0393888282803307,0.0332807150959276,0.0129729892019651,-0.4649498340484175,-0.0044220142891312,0.1232830961758504,2.392070754304944,0.0246385937708078,0.0174199181435176,-0.5442752304773368,1.0477698498204555,-0.166795723379429,-0.0374514187174388,-1.0337302530598418,9.386781321442868,-0.8505774492702538,0.1827011577435671,-1.0603274509329277
0.62,-0.0049652142066192,0.1231139634937302,2.39642913698782,0.0248723615977216,0.0830880163761447,0.0391384632580895,0.0293347595022731,0.0131588553738266,-0.45540964882532,-0.0044220142891312,0.1232830961758504,2.392070754304944,0.0246385937708078,0.0174199181435176,-0.5442752304773368,0.5162854004132369,-0.1972977796827226,0.0092933085930746,0.4770092611548732,9.339531233571506,-0.8529474098790272,0.179764807689278,-1.063878894019679
0.64,-0.0044129479894308,0.1233755119738839,2.3873847218289144,0.0239888689412557,0.0853295832767465,0.0389738787030584,0.0262963251923476,0.0129784357387419,-0.4499337278424522,-0.0044220142891312,0.1232830961758504,2.392070754304944,0.0246385937708078,0.0174199181435176,-0.5442752304773368,0.3132504784955194,-0.1519217154962771,-0.0090209817542336,0.2737960491433905,10.762312734909756,-0.8505027086912939,0.181727292832887,-1.0640656690364871
0.66,-0.0039082916340568,0.1236339708897815,2.3783765930611303,0.0236756512958442,0.0885951270099614,0.0388683710514359,0.0245004081200988,0.0128696145552952,-0.4511243612913118,-0.0041756283514231,0.1234572953572856,2.3866280020001707,0.0222429866122661,0.0181594982569584,-0.56427523077536,0.1078745589782926,-0.0897958536124371,-0.0054410591723374,-0.0595316724429778,10.39466543450635,-0.8471664051534625,0.1826858792438482,-1.0656419831427788
0.68,-0.0034503184295994,0.1238780219298407,2.369748001926424,0.0237950149855149,0.0920378463621888,0.0388011665946771,0.0238992186760963,0.0128208381828167,-0.4570832489701647,-0.0036828564760069,0.1238056937201559,2.375742497390624,0.0174517722951827,0.0196386584838399,-0.6042752313714065,0.2994668189101992,-0.0300594722001258,-0.0024388186239236,-0.2979443839426471,10.111797746793854,-0.843036952368903,0.1826136289178958,-1.0687484695727154
0.7000000000000001,-0.0029702018975939,0.1241334497391578,2.3605021899392926,0.0242864644601802,0.0955786063506226,0.0387506015660463,0.0242202101301545,0.012715622093775,-0.4673682666804232,-0.0031900846005908,0.1241540920830263,2.3648569927810774,0.0126605579780994,0.0211178187107214,-0.644275231967453,0.5145281703641259,0.0160495727029088,-0.0052608044520844,-0.5142508855129235,9.886015753517311,-0.8386152130774112,0.1816269349137872,-1.072897185823651
0.72,-0.0024750649210955,0.1243849324433918,2.3510140890535087,0.0250675322269732,0.0987389150790898,0.038708110719849,0.0253190720266693,0.0124241662100262,-0.4810662329999134,-0.0029368734410288,0.1245764484572407,2.351971488141728,0.007869343661016,0.0225969789376029,-0.6842752325634994,0.6872530925533797,0.0549430948257377,-0.0145727941874418,-0.6848983159745137,9.886015753517311,-0.8342271023085667,0.1800573793928799,-1.077472760598417
0.74,-0.0019500837627069,0.1246270746311913,2.3412323096497434,0.0260192237120952,0.1013193674968782,0.038660026583135,0.027120505520285,0.0118002309769779,-0.4964242206285812,-0.0026836622814668,0.1249988048314551,2.339085983502379,0.0030781293439327,0.0240761391644844,-0.7242752331595459,0.7737929984971289,0.0900716746807854,-0.031196761652413,-0.7678993814333873,9.640857420273278,-0.8305234984383819,0.1782142870330347,-1.081714334153581
0.76,-0.001413331671051,0.1248418472867226,2.331644840971232,0.0269623831578137,0.1031582705442166,0.0385978446305654,0.0292650941906825,0.0108415410138377,-0.512022377696406,-0.0025502314798319,0.1254581402113416,2.325200478848129,-0.0017130849731506,0.0255552993913659,-0.7642752337555923,0.7887028130467713,0.1072294335198774,-0.0479344981570082,-0.7799078533912401,9.590495761294733,-0.8270213494619931,0.1760505409839458,-1.0861243571170116
0.78,-0.0008024211564206,0.125044346905955,2.3212202704925837,0.0278662405017247,0.1044557389143022,0.03850471958599,0.0316891841532847,0.0094536294292294,-0.5296758146711905,-0.0025365810361241,0.1259544545969001,2.310314974178977,-0.006504299290234,0.0270344596182474,-0.8042752343516387,0.8936531034693592,0.1212044981301082,-0.069395579230415,-0.8826718487392249,9.590495761294733,-0.8241858459433684,0.1739555565261778,-1.0900127439066765
0.8,-0.0001422080218289,0.1252145550178894,2.310430063004443,0.0285232530004913,0.1051367254722781,0.0383722481994322,0.0341573814948801,0.0076643324766325,-0.5484630330637393,0.0007820380512435,0.1255170283774165,2.294736479759024,0.0280977540126255,0.0018529345344388,-0.6296758161613066,0.95164746181419,0.1234098670797698,-0.0894648476298484,-0.9393609196274412,9.526099145035005,-0.822353188441508,0.1721252250459161,-1.0930515368235068
0.8200000000000001,0.0005813098640428,0.1253882182800868,2.2995881316071114,0.0304946760785223,0.1058684234692635,0.0383266533056865,0.0382326564242543,0.0090103952918529,-0.534807982271907,0.0007820380512435,0.1255170283774165,2.294736479759024,0.0280977540126255,0.0018529345344388,-0.6296758161613066,0.7156817780620579,0.2037637464687127,0.0673031407610194,0.682752539591619,9.474028830873976,-0.8213098256198907,0.1645207846625349,-1.1014541500177204
0.84,0.0013487013903163,0.125545909491319,2.289508101245522,0.0337544330984365,0.106945581180092,0.0383843218843729,0.0423985670996269,0.0072490993320364,-0.527027978876685,0.0007820380512435,0.1255170283774165,2.294736479759024,0.0280977540126255,0.0018529345344388,-0.6296758161613066,0.4499595205207756,0.2082955337686268,-0.0880647979908227,0.3890001697611001,11.442587443636512,-0.8191380436544052,0.162346695471823,-1.1017484730556597
0.86,0.0022448837577174,0.1256519370089195,2.2789929735659555,0.0372796702074888,0.1081214657700885,0.0384456220477536,0.0470077497179667,0.0034148584877897,-0.5251739630132031,0.0010630155913698,0.1255355577227608,2.288439721597411,0.0273794679844936,0.0003327955554807,-0.6496758164593298,0.3137807438440821,0.2304591309169913,-0.1917120422123354,0.0927007931740941,10.981758136425924,-0.8170807662455126,0.1596962673525843,-1.102394578018616
0.88,0.0032340963265989,0.1256688952192345,2.268451172785608,0.0403442473346043,0.1090431422280293,0.0384575116440117,0.0516608105524335,-0.0014350180430912,-0.5290692830065755,0.0016249706716223,0.1255726164134496,2.275846205274185,0.0259428959282299,-0.0027074824024355,-0.6896758170553763,0.3884127808942619,0.232653041723338,-0.242493826544048,-0.1947659996686224,10.596741402686348,-0.8154646160742063,0.1573635938402949,-1.1029954709685053
0.9,0.0042592210135497,0.1255897496549263,2.258323011931925,0.0426872933932768,0.1095410851397638,0.0384060694328836,0.0559724380876783,-0.0065366451526374,-0.5368454784806871,0.0021869257518748,0.1256096751041384,2.2632526889509585,0.0245063238719663,-0.0057477603603518,-0.7296758176514228,0.5125571851489626,0.2155813767622402,-0.2550813554773101,-0.3888097737055784,10.05828346483122,-0.8139540490509848,0.1548665259374135,-1.104259321787468
0.92,0.005423797303034,0.1253999176487196,2.247467400926652,0.0445787047705891,0.1096310412143486,0.0382844827476024,0.0602031708946912,-0.012096826397583,-0.5484546160813255,0.0026770522293141,0.1254947198969314,2.24865917259793,0.0230697518157026,-0.008788038318268,-0.7696758182474692,0.6774710167076106,0.2115366403506489,-0.2780090622472797,-0.580456880031921,10.05828346483122,-0.8129044937330439,0.1524693245220751,-1.105738588310609
0.94,0.0066706942018573,0.125095039218496,2.236360062676396,0.0458819926853473,0.10929374583232,0.0380938185792036,0.0642221617443961,-0.0180790897376785,-0.5617481200062379,0.0031671787067535,0.1253797646897243,2.2340656562449017,0.0216331797594389,-0.0118283162761843,-0.8096758188435157,0.7560704476467819,0.2009495424852403,-0.2991131670047764,-0.6646751962456177,9.865047915737703,-0.8120975685788872,0.1500695138147026,-1.1078218162793652
0.96,0.0079957287653546,0.1246633939100512,2.224973122376092,0.0463726171741963,0.1085500482015287,0.0378197923818552,0.068012720239112,-0.0246766515121442,-0.5762728815517083,0.0036213908827862,0.1251888025335694,2.218472139876972,0.0201966077031752,-0.0148685942341005,-0.849675819439562,0.8198549460461447,0.1895279247357967,-0.3298780887232836,-0.7262380772735222,9.788087114334305,-0.8116585086635879,0.1480891394728768,-1.109936147664922
0.98,0.00932187302432,0.1241273023223931,2.213875340654631,0.045862246098205,0.1074889367849607,0.037469725628569,0.0713406983577535,-0.0312991622854299,-0.5911821127817534,0.0040396887574123,0.1249218334284665,2.201878623494141,0.0187600356469115,-0.0179088721920168,-0.8896758200356085,0.8324936383711781,0.1663989059320747,-0.3311255386642848,-0.7454615615022531,9.72983954225765,-0.8117567758254485,0.1470059638951354,-1.1117377464316276
1.0,0.010782112108596,0.1234276378989638,2.2018746334765567,0.0441382395445518,0.1060024435757396,0.0370000312941904,0.0744506340519948,-0.0382028356132108,-0.6081569504899275,0.0128889079422077,0.1225623442081216,2.1843162350155434,0.0469101086073444,-0.0241725878808922,-0.6911821142718695,0.9293512800037986,0.1554967847120641,-0.3451836663890484,-0.8487418854087048,9.668933328054663,-0.8123179370692959,0.1471339321928876,-1.113118684470019
1.02,0.0123629297755097,0.1225498137028155,2.1898350738150776,0.040104457719331,0.1032159493329383,0.0363198128032235,0.0836014750954838,-0.0482619886090464,-0.5932727736995156,0.0128889079422077,0.1225623442081216,2.1843162350155434,0.0469101086073444,-0.0241725878808922,-0.6911821142718695,1.0080465881161775,0.4575420521744519,-0.502957649791778,0.7442088395205937,9.59676392676829,-0.8182285156457223,0.1453899383010987,-1.114767559432178
1.04,0.0141270118157368,0.1215153074240821,2.178093159766041,0.0343123117849462,0.0978050216745384,0.0354415642625603,0.0918912865857839,-0.0541706839347365,-0.5817986392024541,0.0128889079422077,0.1225623442081216,2.1843162350155434,0.0469101086073444,-0.0241725878808922,-0.6911821142718695,0.7669573284303343,0.4144905745150022,-0.2954347662845028,0.5737067248530736,11.18343982240276,-0.8228525921626665,0.1529556926242496,-1.1084657743177084
1.06,0.0159216011491687,0.1204543321136676,2.16708458513386,0.0284462639514697,0.0906501025915354,0.0345607868664748,0.0961975208973509,-0.0570236534327966,-0.5775310126732687,0.0133580090282811,0.1223206183293127,2.177404413872825,0.0420239906572625,-0.0227472729999847,-0.7111821145698927,0.3350213616158909,0.2153117155783514,-0.1426484749030083,0.2133813264592721,11.18343982240276,-0.8294254277610237,0.160442404783542,-1.1012761020965505
1.08,0.0178581350867712,0.119300911373069,2.155527787900439,0.0224633518710877,0.082032756109983,0.0336794438867074,0.0968572033824379,-0.0580470544502861,-0.5786054885612659,0.014296211200428,0.1218371665716949,2.163580771587388,0.0322517547570989,-0.0198966432381696,-0.7511821151659391,0.0811946589625288,0.0329841242543489,-0.0511700508744748,-0.0537237943998625,10.750669950935844,-0.8377805710137834,0.1674943487001661,-1.0927849212633929
1.1,0.019768332353722,0.1181442348276484,2.143892518578352,0.0169426097478053,0.0731899815392416,0.0328919965232435,0.0938855445159934,-0.0575431285957794,-0.584826634464491,0.0152344133725749,0.121353714814077,2.1497571293019497,0.0224795188569352,-0.0170460134763545,-0.7911821157619856,0.3456419897617066,-0.1485829433222237,0.0251962927253355,-0.3110572951612544,10.406382305463922,-0.8468297551537582,0.1734458995037633,-1.084366518600914
1.12,0.0215854587758939,0.1170104968641287,2.1320911062161065,0.0119857757515887,0.06481672168725,0.0322131707124732,0.0878221744565124,-0.0558696614352731,-0.5949836106383944,0.0156840037497136,0.12101279454455,2.13393348698671,0.0127072829567716,-0.0141953837145394,-0.8311821163580321,0.5973464526820788,-0.303168502974048,0.083673358025315,-0.5078488086951716,10.13037654879281,-0.8553784893529315,0.1781619529567572,-1.076763627844728
1.14,0.0231754257718853,0.1159736796979477,2.1206728914302504,0.0078342225019609,0.0577450486889405,0.0316661960475127,0.0797829618373564,-0.0533971905290022,-0.6064101319649697,0.0161335941268523,0.1206718742750229,2.11810984467147,0.0029350470566079,-0.0113447539527244,-0.8711821169540785,0.7094142681554847,-0.401960630957799,0.1236235453135455,-0.5713260663287645,9.912882573523348,-0.8638100589198707,0.1817346335323772,-1.0701763017979526
1.16,0.0246631646144665,0.1149404262115134,2.1084041340569946,0.0040466599944572,0.0515668004757906,0.0311815145471269,0.0692817952644372,-0.0500836538590043,-0.6199287211141369,0.0163388786064869,0.1204022197495412,2.101286202341329,-0.0068371888435556,-0.0084941241909093,-0.9111821175501248,0.8717887892712292,-0.5250583286459644,0.1656768334998976,-0.6759294574583574,9.734511265908624,-0.8708839605826102,0.1844165131970181,-1.0650774533122778
1.18,0.0259170619297524,0.1139805406822324,2.0958481588550915,0.0008608969213771,0.0472062412884975,0.0307768958420243,0.056578108479978,-0.0461575843774023,-0.6349862966783894,0.0162998571886174,0.1202038309681048,2.0834625599962875,-0.0166094247437193,-0.0056434944290942,-0.9511821181461714,1.0044006438732265,-0.6351843392229564,0.1963034740800968,-0.7528787782126234,9.734511265908624,-0.8756992340045865,0.186163410527645,-1.06221332243807
1.2,0.0268546227699117,0.113145654273125,2.083627759335875,-0.0016467937246806,0.0453617834817381,0.0304492864950728,0.0428166375636829,-0.0420046798115931,-0.6506111542713466,0.0287459673537513,0.1116726614633623,2.064098844021172,0.0304438261294379,-0.0431218220301213,-0.6726887751468075,1.0615564903868162,-0.6880735458147557,0.2076452282904584,-0.7812428796478643,9.59634540974912,-0.8789338284208013,0.1872915698219124,-1.0608527697566903
1.22,0.027573818306088,0.1124044123170985,2.0708237644132264,-0.0022398730952354,0.0460617905998442,0.0302523023438187,0.0302243288865364,-0.0328177313410008,-0.6269270169929547,0.0287459673537513,0.1116726614633623,2.064098844021172,0.0304438261294379,-0.0431218220301213,-0.6726887751468075,1.417660589354493,-0.6296154338573257,0.4593474235296154,1.1842068639195955,9.59634540974912,-0.8851226534069647,0.1830414187107157,-1.060787399654292
1.24,0.0280598234256697,0.1118314516966891,2.058529845398105,2.4222955755280084e-05,0.0488255574796109,0.0302547332364856,0.0192531181122585,-0.0251794816899398,-0.6041252903406293,0.0287459673537513,0.1116726614633623,2.064098844021172,0.0304438261294379,-0.0431218220301213,-0.6726887751468075,1.3215796059194949,-0.5485605387138934,0.3819124825530532,1.1400863326162691,12.256735914647834,-0.8843490710533365,0.1829528970344426,-1.0581628381642254
1.26,0.0283337900717925,0.1114056274957606,2.047211457162516,0.0038897563559364,0.0526812458648013,0.0303861217830212,0.0103720520210245,-0.0205317876498354,-0.5883848945693709,0.0290504056150457,0.1112414432430611,2.057371956269704,0.0252169696593298,-0.0425146695606651,-0.6802292708404911,0.9330520535360536,-0.4440533045617025,0.2323847020052191,0.7870197885629204,11.448188456149182,-0.8814025457991426,0.1804937876761733,-1.0585336894057713
1.28,0.0284586030045939,0.1110210819250367,2.035574134118745,0.0083320179157699,0.0573989865827544,0.0305691673322532,0.0027697057088709,-0.0182943165042,-0.5763738258300612,0.0296592821376345,0.1103790068024587,2.043918180766768,0.0147632567191138,-0.0413003646217527,-0.6953102622278583,0.7194923884897753,-0.3801173156076803,0.1118735572817681,0.6005534369654841,11.448188456149182,-0.8776684199045647,0.1772322342415281,-1.0602299419928347
1.3,0.0284485797161609,0.1106637473037164,2.0241335785511096,0.0125137318917317,0.062288138179544,0.0307535539133089,-0.0032428809802155,-0.0175813861702601,-0.5684430920676314,0.0302681586602232,0.1095165703618562,2.030464405263832,0.0043095437788977,-0.0400860596828404,-0.7103912536152256,0.4988887811060082,-0.3006293344543231,0.0356465166969941,0.3965366881214904,11.150579099228707,-0.8734362718112924,0.1738815080689199,-1.062850429933921
1.32,0.0283335260837617,0.1103089883504343,2.012812738395132,0.0161810721936565,0.0669649374733186,0.0309155038936376,-0.0078633759193886,-0.017874900218924,-0.564025032569232,0.0303543495358012,0.1087148491681994,2.016256580191527,-0.0061441691613183,-0.038871754743928,-0.7254722450025929,0.3199780215541583,-0.2310247469586569,-0.0146757024331943,0.2209029749199731,10.90840000065873,-0.8694910384272878,0.1709895299199962,-1.065462373869962
1.34,0.0281515849022232,0.1099590793425262,2.0021289766524752,0.0191263808121985,0.0709542239700793,0.0310359736161053,-0.0110152385437985,-0.0188615568619461,-0.5608009646892265,0.0304405404113791,0.1079131279745426,2.0020487551192225,-0.0165978821015343,-0.0376574498050156,-0.7405532363899601,0.2307723067725768,-0.1575931312204914,-0.0493328321511058,0.1612033940002755,10.716660649091864,-0.8659382129108861,0.1680771858326999,-1.068181911034792
1.36,0.0279049856328291,0.1095657317093389,1.9909416231926176,0.0216786209425275,0.0745284764491404,0.0311208101990614,-0.0134327075494679,-0.0203725492276556,-0.5581402245534649,0.0302653884634517,0.1071417644043586,1.987463905262234,-0.0270515950417504,-0.0364431448661032,-0.7556342277773274,0.1949794373303045,-0.1208734502834704,-0.0755496182854711,0.1330370067880781,10.666072587084273,-0.8627523302937686,0.165594870569632,-1.070737811230508
1.38,0.0276179328482701,0.1091372058785173,1.9797975432990904,0.0236860959124165,0.0774067721280122,0.0311575823181387,-0.0151536991883972,-0.0223019515826078,-0.5564030474211019,0.0298288936920188,0.1064007584576474,1.9725020306205607,-0.0375053079819664,-0.0352288399271908,-0.7707152191646945,0.1557416936610483,-0.0860495819464682,-0.0964701177476094,0.0868588566181494,10.625647836902315,-0.8602126498083846,0.1636848612381494,-1.072796487646952
1.4,0.0273178987484816,0.1086908282778441,1.9692339128639984,0.025107902605403,0.0795041781307216,0.0311458665028241,-0.0163598180062743,-0.0245189825274822,-0.5556472141989965,0.0268602478888502,0.1080221082993869,1.951977390928036,-0.0130903221265385,-0.0215301120035061,-0.5580817504246649,0.1317310961106564,-0.0603059408938529,-0.1108515472437197,0.0377916611052686,10.577482504381804,-0.858052928427782,0.1620788571061521,-1.074637620619738
1.42,0.0269617188035036,0.1081613312779657,1.9583296347268373,0.0258919130080752,0.0822019716935989,0.0310974583441128,-0.0189528005468357,-0.0282724579130023,-0.5337379576781212,0.0268602478888502,0.1080221082993869,1.951977390928036,-0.0130903221265385,-0.0215301120035061,-0.5580817504246649,1.1189589550368713,-0.1296491270280713,-0.1876737692760076,1.095462826043769,10.526486890503293,-0.8605872551254402,0.159929942080534,-1.073398074052327
1.44,0.0265713415661827,0.1075526993225846,1.9478810773438584,0.0256684364407875,0.0861495431502483,0.0310114963863563,-0.0197376630943621,-0.0323002448164579,-0.51247937223688,0.0268602478888502,0.1080221082993869,1.951977390928036,-0.0130903221265385,-0.0215301120035061,-0.5580817504246649,1.08255084351811,-0.0392431273763182,-0.2013893451727817,1.0629292720620576,11.760877807106226,-0.8581361404881828,0.1615608265998456,-1.0729484195077148
1.46,0.0261845968633318,0.1068642302135818,1.9378196511653505,0.0242663006980272,0.0905316194082841,0.0308527374709138,-0.0187525824751292,-0.0361811905897587,-0.4947080383205112,0.0267293446675848,0.1078068071793519,1.946396573423789,-0.0126776467141667,-0.0213757440876858,-0.5584174910253775,0.9108408657509414,0.0492540309616418,-0.194047288665038,0.8885666958184407,11.760877807106226,-0.8544925576634141,0.1639023421729013,-1.0739740137601717
1.48,0.0258504863961181,0.1061445788367385,1.9285645491627652,0.0218315177766424,0.094564600830819,0.0306175184750339,-0.0164019269936743,-0.0391031245590695,-0.4803918674394096,0.026467538225054,0.1073762049392817,1.935234938415296,-0.0118522958894232,-0.0210670082560451,-0.5590889722268026,0.7399595056663701,0.1175327740727469,-0.1460966984655379,0.7158085440550799,11.546017503133951,-0.8506196273806382,0.1675302272913783,-1.07492866908953
1.5,0.0255589210379971,0.1053499121580717,1.919095909463565,0.0186952013953372,0.098302180742809,0.0303131575375019,-0.0128243881109902,-0.0400367002598508,-0.4673159726823808,0.0262057317825233,0.1069456026992116,1.9240733034068025,-0.0110269450646797,-0.0207582724244045,-0.5597604534282279,0.6794287522306875,0.1788769441342064,-0.0466787850390674,0.6537947378514403,11.376715651079394,-0.8469300381722757,0.1717280169578787,-1.0757378032000384
1.52,0.0253487417430916,0.1045539571611758,1.9098672892269248,0.0156383879446028,0.1012658139009364,0.0299961992805734,-0.0083887600173079,-0.0394852788097942,-0.4561966450744961,0.0259851928812297,0.1065304372507235,1.9128780943382375,-0.0102015942399362,-0.0204495365927638,-0.5604319346296531,0.599204282053524,0.2217814046841141,0.0275710725028299,0.5559663803942322,11.248594794387827,-0.8438065662347909,0.1757058948646079,-1.0761804112663718
1.54,0.0252374830766366,0.1038180750724012,1.901299451164044,0.0130522894426754,0.1032526099911487,0.0297042706408018,-0.0035904886698771,-0.0380402311667899,-0.4462376736841743,0.0257646539799361,0.1061152718022354,1.9016828852696728,-0.0093762434151927,-0.0201408007611231,-0.5611034158310783,0.5574331389668542,0.2399135673715403,0.0722523821502143,0.4979485695160907,11.104589471437976,-0.8415943538814865,0.1794674593796038,-1.0759420898544712
1.56,0.0252216964114028,0.1030798714872451,1.892481006390339,0.0107443071938946,0.1044572078848925,0.0294177280909843,0.0017151378248969,-0.0358831752109603,-0.4361492082928201,0.0255647488492611,0.1057078247495384,1.890470889171073,-0.0085508925904492,-0.0198320649294825,-0.5617748970325035,0.5800424485569551,0.265281324738703,0.1078527977914804,0.5044232695677081,11.104589471437976,-0.8402494165426077,0.1828038686033136,-1.0750986199789985
1.58,0.0253124646917882,0.1023905096701577,1.8838590030879605,0.0088836039046433,0.1048016454791765,0.0291592041632961,0.0070291986005583,-0.0332101265819917,-0.4265773972983513,0.0253854774892047,0.1053080960926323,1.879242106042437,-0.0077255417657057,-0.0195233290978418,-0.5624463782339286,0.5634802494633008,0.2657030387830718,0.1336524314484326,0.4785905497234427,11.081396668063462,-0.8397590407030644,0.1856043577184447,-1.0737838914987536
1.6,0.0255074486437324,0.101760291869112,1.875421884432848,0.0075182475473601,0.1043652932296303,0.0289358726338374,0.0120976402231574,-0.0300071463806861,-0.4176071753347359,0.0256639246218161,0.1007300033410582,1.8625301332230428,-0.0035710171548446,-0.0296308839613745,-0.4334056653569493,0.5394744311090629,0.2534220811299546,0.1601490100652795,0.4485110981807705,11.049501617933856,-0.8401404894659594,0.1878679012130975,-1.071845393724902
1.62,0.0258089847226528,0.1012295387155211,1.8676288830074028,0.0069057279283077,0.1026808884078623,0.0287692880693317,0.0194409184324172,-0.0260746802791947,-0.4028162413696176,0.0256639246218161,0.1007300033410582,1.8625301332230428,-0.0035710171548446,-0.0296308839613745,-0.4334056653569493,0.8487634418058708,0.3671639104629892,0.1966233050745679,0.7395466982559162,11.01385037979071,-0.8459533239917189,0.1895699388985943,-1.064903238624974
1.64,0.0262768946970915,0.1007533460320973,1.859726120648192,0.0072180536897835,0.0986018186710706,0.0286500417821635,0.026777121071159,-0.021824573948085,-0.3883537931083103,0.0256639246218161,0.1007300033410582,1.8625301332230428,-0.0035710171548446,-0.0296308839613745,-0.4334056653569493,0.8382208579685477,0.3668101319370913,0.2125053165554868,0.7231224130653635,11.454439393381108,-0.8505128965551807,0.1910655913327065,-1.058667852913743
1.66,0.0268711642912629,0.1003609096444742,1.8520916214662853,0.0085251806363339,0.0923215285665466,0.028582941239706,0.0318112469088609,-0.0177311527014101,-0.375882631750305,0.0256282144502677,0.1004336945014444,1.8581960765694732,-0.0056910603059252,-0.0289150354372511,-0.4347713189686689,0.7029018175925255,0.251706291885094,0.2046710623337447,0.6235580679002622,11.315527641742849,-0.856307441367497,0.1914386029986376,-1.0519335418467155
1.68,0.0275282416971121,0.1000447097986169,1.844686703832992,0.0108019831925688,0.0848415504292116,0.0285612960034182,0.0333309084242292,-0.014268285423657,-0.3651966628435603,0.0255567941071708,0.0998410768222169,1.8495279632623345,-0.0099311466080865,-0.0274833383890042,-0.4375026261921081,0.5667688073203676,0.0759830757684154,0.173143363887654,0.534298445337239,11.183366579664836,-0.8636715269064449,0.1910200537896473,-1.0438294877172365
1.7,0.0281492577067893,0.0997916145588923,1.8378364371774705,0.0134413798230004,0.0775335687981496,0.0285521535200449,0.0317791739178804,-0.0126788911397043,-0.3563958842879218,0.0254853737640739,0.0992484591429894,1.8408598499551956,-0.0141712329102477,-0.0260516413407574,-0.4402339334155474,0.4538385102474263,-0.0775867253174397,0.0794697141976348,0.4400389277819244,11.073410468017755,-0.8722857776242443,0.1896516590578084,-1.0350480738160863
1.72,0.0287430190137401,0.09954280708986,1.8307950355725016,0.0160990382062463,0.0703248195767742,0.0285187058186556,0.0274982402070812,-0.0123045490409248,-0.3482426249989429,0.025201949105869,0.0987274263161743,1.8320551712868844,-0.0184113192124089,-0.0246199442925105,-0.4429652406389866,0.4608203621708153,-0.214046685539959,0.018717104938976,0.407662964448946,10.982841844232098,-0.8805726964029599,0.1881920717069752,-1.026758897210733
1.74,0.0292239040614719,0.0992916621840885,1.8239067607737864,0.0183779977444604,0.0641909040849222,0.0284583351702077,0.0206906865893008,-0.0127657775969312,-0.3409684901582978,0.024918524447664,0.0982063934893591,1.8232504926185733,-0.0226514055145701,-0.0231882472442636,-0.4456965478624258,0.4986696193867194,-0.3403776808890221,-0.0230614278003217,0.3637067420322548,10.909830808017432,-0.8885973210116542,0.1868455481290486,-1.0186311071385186
1.76,0.0295311807537969,0.0990392934315329,1.817491111533432,0.0201404000249715,0.0599583482080986,0.0283919181617283,0.0119149478181715,-0.0137019368463924,-0.3347123345248265,0.024529097631905,0.0977211530887501,1.8143775312696768,-0.0268914918167313,-0.0217565501960168,-0.448427855085865,0.5409007959637042,-0.4387869385564637,-0.0468079624730601,0.312807781673563,10.86277577207784,-0.8951013967551351,0.1858422344030801,-1.0117432485838118
1.78,0.0296543795864086,0.098750260042019,1.81086009897888,0.0215621706252843,0.057901074828857,0.0283360711908611,0.0008976046307934,-0.0151348667162495,-0.3287321718480984,0.024033668658592,0.0972717051143473,1.8054362872401937,-0.0311315781188925,-0.0203248531477699,-0.4511591623093042,0.6308674277542952,-0.550867159368907,-0.0716464934928552,0.2990081338364064,10.828576284027804,-0.8999933659289139,0.1848960420157583,-1.006550729102895
1.8,0.0295578620806411,0.0984267046389528,1.804341946902291,0.0223977911411309,0.0584293869500116,0.0282965126569772,-0.0096836431714486,-0.0170769549909487,-0.323353340737312,0.0296992598179483,0.0979935167062065,1.794423490386475,0.0030747797652138,-0.0340210361349421,-0.3362523678761521,0.6013865978668391,-0.5290623901121038,-0.0971044137349585,0.2689415555393204,10.745987711612544,-0.902808883646545,0.1842082970222529,-1.0034986770981136
1.82,0.0292578469595302,0.0981469422603071,1.7983253169716895,0.0247179312213775,0.0615668057467847,0.0284299756642386,-0.0208256455406642,-0.0134805839175658,-0.3102344059449388,0.0296992598179483,0.0979935167062065,1.794423490386475,0.0030747797652138,-0.0340210361349421,-0.3362523678761521,0.8791822219818979,-0.5571001184607818,0.179818553669147,0.6559467396186569,11.280323436797516,-0.9059362417341064,0.1827331290265515,-0.9991698314898964
1.84,0.0287442514888277,0.0978753564317647,1.7922514931398348,0.0289316936220688,0.0674924179266134,0.0287750989840241,-0.0295351352563627,-0.0141785028547587,-0.2979562532417371,0.0296992598179483,0.0979935167062065,1.794423490386475,0.0030747797652138,-0.0340210361349421,-0.3362523678761521,0.7534841334658103,-0.4354744857849233,-0.0348959468596458,0.6139076351600853,11.280323436797516,-0.9038499540043488,0.1798002060214462,-0.99987809719768
1.86,0.0280906071175603,0.0975600060781823,1.7863996131862112,0.0333107162080821,0.0748724237305283,0.0292016837873607,-0.0350529875831815,-0.0173634933285547,-0.2878345069545127,0.0297300076156004,0.0976533063448571,1.7910609667077135,0.0035102147920978,-0.0377982700186806,-0.3377564070817629,0.5979979233276902,-0.2758926163409388,-0.1592495236898038,0.5060873143612199,11.123221402845047,-0.8995394709539624,0.1766006041064879,-1.0031627357500934
1.88,0.027397104243203,0.0971867832359996,1.78101162515981,0.0370467576114387,0.08229184093942,0.0296192482876355,-0.0374657501080247,-0.0216906346012007,-0.2798313115502197,0.0297915032109047,0.0969728856221582,1.7843359193501906,0.004381084845866,-0.0453527377861577,-0.3407644854929844,0.4706291301917569,-0.120638126242158,-0.2163570636322952,0.4001597702146503,10.991512396870348,-0.893665133129931,0.1733856308693909,-1.00812943828254
1.9,0.0266449074272525,0.0966973055120441,1.7754909651976054,0.040372307013817,0.0897988899045424,0.0300311335388179,-0.0374380738643915,-0.0269745943370474,-0.2727232387977951,0.029852998806209,0.0962924648994594,1.7776108719926675,0.0052519548996342,-0.0529072055536347,-0.3437725639042059,0.4428478709395367,0.0013838121816597,-0.2641979867923378,0.3554036376212294,10.890360692701506,-0.8872059615234051,0.1705875989864614,-1.013729176725211
1.92,0.0259173266828411,0.0960959309673099,1.7700993661497988,0.0430471260561608,0.0964675340141171,0.0303836470652961,-0.0352084373016167,-0.0328181069142235,-0.2668487572860677,0.0299580379042016,0.0952343207883867,1.7707354207145831,0.0061228249534023,-0.0604616733211117,-0.3467806423154274,0.4290322000541005,0.1114818281387382,-0.292175628858805,0.2937240755863712,10.815413193859058,-0.881440539030609,0.1685192947439066,-1.0185558608569076
1.94,0.0252539990953266,0.0953732303504006,1.7648169271125582,0.0450772700391362,0.1019264181286968,0.0306517407897844,-0.0312388230861038,-0.0390255304467529,-0.2616947549545776,0.0300630770021943,0.094176176677314,1.7638599694364994,0.0069936950071705,-0.0680161410885888,-0.3497887207266489,0.4495933828616876,0.1984807107756468,-0.3103711766264675,0.2577001165745024,10.752677431817574,-0.8763445871167754,0.1669375441115413,-1.0226473757709929
1.96,0.0247092423791694,0.0945668106610814,1.7598889748035182,0.0463858557806783,0.1058457267714367,0.0308122541501144,-0.026351226088011,-0.0454461150330507,-0.2573004759302836,0.0301898878515312,0.0929291708720544,1.7569093161981346,0.0078645650609386,-0.0755706088560658,-0.3527967991378704,0.4594077681888979,0.2443798499046388,-0.3210292293148936,0.2197139512147006,10.724181096463326,-0.8721892032964584,0.1658775621929304,-1.0259501733872194
1.98,0.0242426013885383,0.0935820734641525,1.7547871351165236,0.0469504294638197,0.1086411220495335,0.0308650156058597,-0.0206091977392137,-0.0526298506835492,-0.2531358874505777,0.0303384704522123,0.0914933033726078,1.7498834609994895,0.0087354351147068,-0.0831250766235428,-0.3558048775490919,0.5047790225928903,0.2871014174398651,-0.3591867825249225,0.2082294239852955,10.702570959279,-0.8691502579289123,0.1655649805822007,-1.0282256082383263
2.0,0.0238946691114619,0.0924490960255011,1.7497632603150577,0.0464455926174567,0.110146300669342,0.0307828823085703,-0.0145845197556023,-0.0601654236310437,-0.2494546308158114,0.0232121415015776,0.090950580929975,1.7421303407439948,-0.0204451404219074,-0.0570826762074621,-0.2620745790293832,0.516316896063438,0.3012338991805693,-0.3767786473747245,0.184062831738313,10.660166721364476,-0.8673476736999546,0.1661895921345451,-1.0293930225555776
2.02,0.0237011696714094,0.0911815772852998,1.7451110283511513,0.0432373562889207,0.1099352194639836,0.0304415844724958,-0.006094224927474,-0.0719925674411148,-0.2400523537583266,0.0232121415015776,0.090950580929975,1.7421303407439948,-0.0204451404219074,-0.0570826762074621,-0.2620745790293832,0.8665582075636228,0.4245147414064147,-0.5913571905035563,0.4701138528742418,10.660166721364476,-0.8711514908576645,0.1685816616058685,-1.0262194035594847
2.04,0.023668731367191,0.0896651132767025,1.740410992601381,0.0372125340831246,0.1072823919635091,0.0298121353976727,0.0022086055760603,-0.0784880413234554,-0.230516606524427,0.0232121415015776,0.090950580929975,1.7421303407439948,-0.0204451404219074,-0.0570826762074621,-0.2620745790293832,0.7107366787978082,0.4151415251767202,-0.3247736941170309,0.476787361694983,11.088012719455037,-0.8751583268380919,0.1759664606555764,-1.0195572479518726
2.06,0.0237865368141194,0.088064075223662,1.7358846999803148,0.0308682591411286,0.1023346229323771,0.0291154299393879,0.008818412004387,-0.0811820098661457,-0.2225525227242297,0.0230076900973585,0.0903797541679004,1.739509594953701,-0.0204123289584461,-0.0579732413122447,-0.2638623173451442,0.534728057767494,0.3304903214163362,-0.1346984271345115,0.398204190009864,10.981045377450757,-0.8802442312916019,0.1833710700609855,-1.0118437185156042
2.08,0.0239905525578937,0.086516606962505,1.7317196841486338,0.025377338022476,0.0962181732250482,0.0284958037132524,0.0120453674421218,-0.0816441097939277,-0.216247305765358,0.0225987872889204,0.0892381006437512,1.734268103373113,-0.0203467060315236,-0.0597543715218098,-0.2674377939766664,0.3549032918938102,0.1613477718867386,-0.0231049963891026,0.3152608479435839,10.872078304700151,-0.8869593415818735,0.1905768639028576,-1.0025219261904923
2.1,0.024238217872739,0.0848923743013119,1.727454109749067,0.0204330842390128,0.0893430638405046,0.027943169459015,0.0123071879427952,-0.0808122682563446,-0.2106806601995333,0.0221898844804822,0.0880964471196019,1.7290266117925257,-0.0202810831046011,-0.061535501731375,-0.2710132706081886,0.2817270539624167,0.0130910250336709,0.0415920768791544,0.2783322782912337,10.706757491267126,-0.8945681657680615,0.196614896070899,-0.9927850293502724
2.12,0.0244607913324356,0.0832955493536531,1.7232886664560918,0.0164015005637564,0.0828475552729007,0.0275088096841605,0.0097798943124994,-0.0790046036304052,-0.2061771782326946,0.0217842628183902,0.0868657370849744,1.723606346380362,-0.0202154601776786,-0.0633166319409402,-0.2745887472397108,0.2735699833646254,-0.126364681514793,0.0903832312969712,0.2251740983419375,10.706757491267126,-0.9020630244405108,0.2014948978983151,-0.9835064101255936
2.14,0.0246048433881623,0.0817427666085475,1.7192049770233349,0.01326769096631,0.0774464000290513,0.0271913876365304,0.0046403063246762,-0.0765383280170058,-0.2024034663696243,0.0213786411562982,0.0856350270503469,1.718186080968198,-0.0201498372507561,-0.0650977621505053,-0.278164223871233,0.3418288362298513,-0.2569793993911578,0.1233137806699709,0.1886855931535119,10.639485743359728,-0.908087407550787,0.2051299737771502,-0.9760279322365736
2.16,0.0246229795967134,0.0803166906465842,1.7153899227717344,0.0110078979164973,0.0740591845513645,0.0269867695373975,-0.0025285636697777,-0.0738412470159476,-0.1993644431451878,0.0209746600673792,0.0843597887604803,1.7126764286402465,-0.0200842143238336,-0.0668788923600705,-0.2817397005027551,0.4120151850427261,-0.3584434997227003,0.1348540500529092,0.1519511612218277,10.57564746535445,-0.912751327042894,0.208026867745185,-0.9700966525007868
2.18,0.024479337496676,0.0788726789373198,1.711431333890009,0.009259234351467,0.0730153553954597,0.0268588513961565,-0.0112262156295016,-0.070771573276028,-0.1966653589897951,0.0205723195516333,0.0830400222153745,1.7070773893965066,-0.020018591396911,-0.0686600225696356,-0.2853151771342773,0.4805130116862926,-0.4348825979861951,0.1534836869959789,0.1349542077696316,10.57564746535445,-0.9160270421046032,0.2099058711284859,-0.966066086653266
2.2,0.0241713443838091,0.0774946628100598,1.7075219162593542,0.0081454331006883,0.074279703954446,0.026806532599911,-0.018901600673549,-0.0672140110052678,-0.1944235638749831,0.0239180267152009,0.0753341002735184,1.7015980659405192,0.0163955658239886,-0.0752772923342436,-0.1833159106590947,0.437588363138002,-0.38376925220237,0.177878113538011,0.1120897557406033,10.53939581200575,-0.9170133537753196,0.2111500905886902,-0.964421765545738
2.22,0.0236875803959905,0.0762077207759762,1.7037424813380877,0.0083481028141582,0.0785382837807797,0.0268774761175159,-0.0286265216948705,-0.0618408933557716,-0.1831468721918583,0.0239180267152009,0.0753341002735184,1.7015980659405192,0.0163955658239886,-0.0752772923342436,-0.1833159106590947,0.7915305702601168,-0.4862460510660743,0.2686558824748084,0.5638345841562364,10.50237567874956,-0.917109787176073,0.2109217092041958,-0.9642513077435588
2.24,0.0230777584935763,0.0750825023824908,1.7003701641966988,0.0102141531536196,0.0856818607711701,0.0270994159768979,-0.0345832577335716,-0.0570471950715645,-0.1724361499836215,0.0239180267152009,0.0753341002735184,1.7015980659405192,0.0163955658239886,-0.0752772923342436,-0.1833159106590947,0.6579928147343047,-0.2978368019350577,0.2396849142103578,0.5355361104118411,11.02778171900627,-0.9143549508256288,0.2107212381501549,-0.9649154866038784
2.26,0.0223564819928073,0.0739824906719335,1.697031394188419,0.0135463149036182,0.094891788663059,0.0274720832232427,-0.0368025282100525,-0.0536466915365179,-0.162056968779449,0.0240819823734408,0.074581327350176,1.6997649068339282,0.0219199221146866,-0.0761784361458867,-0.1806460209929547,0.5572611331518925,-0.1109635238240439,0.170025176752327,0.5189590602086277,11.02778171900627,-0.9084313624261748,0.2089418606353211,-0.9693980944410822
2.28,0.0216335420647559,0.0729233363214947,1.6938893610659165,0.0171961720822738,0.1045383453133262,0.0279095264539902,-0.035096699649644,-0.0525084460440016,-0.1526823219164981,0.0244098936899205,0.0730757815034911,1.6960985886207465,0.0329686346960827,-0.077980723769173,-0.1753062416606745,0.4798162608847606,0.0852914280204258,0.0569122746258157,0.4687323431475418,10.90057104992411,-0.9011647757121756,0.2069027509704655,-0.9751556872404368
2.3000000000000003,0.0209818740601432,0.0718723635955379,1.6909262430130638,0.0205503949173199,0.1136272159698579,0.0283523920858125,-0.0299953026382519,-0.0526067739238027,-0.1441221230630801,0.0247378050064003,0.0715702356568062,1.6924322704075645,0.0440173472774788,-0.0797830113924592,-0.1699664623283943,0.4982743326969713,0.2550698505696034,-0.0049163939900554,0.4280099426708997,10.90057104992411,-0.8939915000242471,0.205195319829038,-0.9807904788881489
2.32,0.0204843604950982,0.0708645011483672,1.6882634539131145,0.0232803387218307,0.1211195568987992,0.0287443469165561,-0.0225860956042943,-0.0534034708709546,-0.1366186654504786,0.0256181519519499,0.069974575428957,1.6890329411609966,0.0550660598588749,-0.0815852990157455,-0.1646266829961142,0.5287554988880898,0.3704603516978837,-0.0398348473575945,0.3751728806300772,10.862229418212335,-0.886900931634186,0.2038384430612233,-0.9861300421855924
2.34,0.0201332468039008,0.0697828592473145,1.685613186161886,0.025655876005635,0.1274462945486927,0.0291054311454319,-0.0128658211292197,-0.0546718419296952,-0.1288136217980267,0.0264984988974995,0.0683789152011078,1.6856336119144286,0.066114772440271,-0.0833875866390317,-0.159286903663834,0.6265205651654953,0.4860137237537282,-0.0634185529370293,0.3902521826225955,10.836472015324034,-0.880851190132467,0.2029863914646783,-0.9903282081098564
2.36,0.0199945436166574,0.0686711845029724,1.6831181400689494,0.0275173813713609,0.1319394850914508,0.0293961468280546,-0.0015965499334639,-0.0563300421653591,-0.1210897054013084,0.0276550636575839,0.0667381977826765,1.6823677771511678,0.0771634850216671,-0.085189874262318,-0.1539471243315539,0.6881224197200311,0.5634635597877898,-0.0829100117831962,0.3861958198359126,10.846210214780513,-0.8765532316359858,0.2027007552991731,-0.9927914673529886
2.38,0.0200795480277234,0.0675809382212329,1.6808901342582667,0.0288093043607073,0.1344681775326486,0.0295974735089001,0.0098438607990636,-0.0582985927959573,-0.1138233258243401,0.0290878462322033,0.065052423173663,1.679235436871214,0.0882121976030632,-0.0869921618856042,-0.1486073449992737,0.6847599241171006,0.5720205366263796,-0.0984275315299092,0.3633189788484148,10.851632114749007,-0.873551774275797,0.2029075963153933,-0.9938654888138446
2.4,0.0204044267902551,0.0663891081881768,1.6786938866206262,0.0295597015369948,0.135448282208028,0.0297215101735914,0.021920062849693,-0.0607520837097584,-0.1061748737072064,0.0205717410676766,0.064666008581435,1.6751989679670498,0.0074417277235432,-0.0492394812082541,-0.1337117864604791,0.7251777254918569,0.6038101025314694,-0.1226745456900539,0.3824226058566859,10.8543413704474,-0.8723943364594869,0.2039800237531205,-0.9928293815707548
2.42,0.0210401354415203,0.0650897903557989,1.6766020747323496,0.0276642310206853,0.1324657442405077,0.0295505229457207,0.0410031006056092,-0.0685129945516873,-0.1035819707880987,0.0205717410676766,0.064666008581435,1.6751989679670498,0.0074417277235432,-0.0492394812082541,-0.1337117864604791,1.038168113358826,0.9541518877958088,-0.3880455420964466,0.1296451459553871,10.857344488491435,-0.8775558683757628,0.2061068361804694,-0.9874630607213388
2.44,0.0219737313340517,0.0637456635992591,1.6746483276634108,0.0227391142451952,0.1239831330763418,0.0290504963755647,0.0554338600277601,-0.071775911051094,-0.1020841940215887,0.0205717410676766,0.064666008581435,1.6751989679670498,0.0074417277235432,-0.0492394812082541,-0.1337117864604791,0.7435334169094118,0.7215379711075446,-0.1631458249703343,0.0748888383254965,10.569371611823044,-0.8821384283855402,0.2133139553971069,-0.978949417551397
2.46,0.0231831141447949,0.0623158444921093,1.6726205017430988,0.0168923538837798,0.1116558054227613,0.0284809896820253,0.0640900526784348,-0.0709002376083327,-0.1007545382345203,0.020646158344912,0.0641736137693525,1.673861850102445,0.0069613011084391,-0.0474276588907134,-0.1376894785877069,0.4400694822867106,0.4328096325337371,0.0437836721380639,0.0664827893534218,10.486082283894577,-0.8920536916875142,0.2216050880994841,-0.9648318086904292
2.48,0.0244974437232062,0.0609311365510709,1.6706134695153023,0.0115844036055366,0.0981490234065404,0.0280254483568681,0.0664923780810247,-0.0677234260268908,-0.0999764986698407,0.0207949928993829,0.0631888241451874,1.6711876143732354,0.006000447878231,-0.0438040142556321,-0.1456448628421624,0.2029078899902539,0.1201162701294944,0.1588405790720941,0.0389019782339808,10.376382096765155,-0.9035645974854184,0.2285291425104032,-0.9498105829535284
2.5,0.0257374312860262,0.0596876309721891,1.6687152553919469,0.0073975475099379,0.0858455930528441,0.0277391621515897,0.0637314382578171,-0.0635039756244125,-0.099857258215356,0.0209438274538537,0.0622040345210223,1.6685133786440258,0.0050395946480228,-0.0401803696205508,-0.153600247096618,0.2521942143088033,-0.1380469911603787,0.2109725201239171,0.0059620227242346,10.376382096765155,-0.916057112677946,0.2341848193342381,-0.9344696096125884
2.52,0.0269430196462863,0.0584714179053535,1.6667130725893378,0.0039049824901673,0.0745816310944672,0.0275798427133864,0.0568018466816107,-0.058453219064124,-0.1003916809938023,0.0210446193468142,0.0614004271286113,1.6654413737020934,0.0040787414178146,-0.0365567249854696,-0.1615556313510736,0.4295782494216008,-0.3464795788103204,0.252537828014427,-0.026721138922317,10.330054639675836,-0.9273911030591598,0.2382394893401626,-0.9211089129808818
2.54,0.0279747864933283,0.0573611938656339,1.6646913459048824,0.0012744357467527,0.0657687396236605,0.0275376762289747,0.0466438637908158,-0.0529475015768139,-0.1017861405647854,0.0211454112397746,0.0605968197362003,1.662369368760161,0.0031178881876065,-0.0329330803503883,-0.1695110156055291,0.5818978839857998,-0.507899144539747,0.275285874365502,-0.0697229785491512,10.288122856459267,-0.9364579150675012,0.2410111968919046,-0.9106902296211904
2.56,0.0287719366897534,0.0563651437274759,1.6626326262050315,-0.000545987716465,0.0600976168431909,0.0275858566142006,0.0335802445308139,-0.0471228497825505,-0.1040107718574636,0.0212221818019799,0.0598838034596663,1.6590984792118677,0.0021570349573983,-0.029309435715307,-0.1774663998599847,0.723763948195598,-0.6531809630000946,0.2912325897131723,-0.1112315646339123,10.210449724985663,-0.941960242179184,0.2426692909089366,-0.9045079048614568
2.58,0.0292668203523725,0.055529703090708,1.660629318860954,-0.0015495282969315,0.0583199790732578,0.0276957705174764,0.0195234367586414,-0.0412104428379665,-0.1067364731037606,0.0212749310334299,0.0592613782990093,1.6556287050572125,0.0011961817271902,-0.0256857910802257,-0.1854217841144402,0.7745641482573249,-0.7028403886086242,0.2956203472291977,-0.1362850623148476,10.174813937906038,-0.9452838307032788,0.2428636715736811,-0.9020082215583402
2.6,0.0295134497777877,0.0547750179430707,1.6584604754363206,-0.0017089945812939,0.0598969900553733,0.0278771852111795,0.0062383544000915,-0.0346334727092163,-0.1100121471623424,0.0302429921903046,0.0534691809488097,1.655292495205766,0.0190337981641965,-0.0390800887818317,-0.1150783564129461,0.7590783719188569,-0.6642541179274947,0.3288485064375124,-0.163783702929094,10.174813937906038,-0.945700205238928,0.2418315388083689,-0.9034276715061648
2.62,0.0295138175232276,0.0541917629319483,1.6563171374983574,0.0004198659346229,0.0641977602131774,0.0282218184075906,-0.0051357688549197,-0.0244258654333674,-0.1036466252811456,0.0302429921903046,0.0534691809488097,1.655292495205766,0.0190337981641965,-0.0390800887818317,-0.1150783564129461,0.827776834264749,-0.5687061627505664,0.5103803637924426,0.3182760940598432,10.751674848459515,-0.9462769383104308,0.2382941126609383,-0.906020102544069
2.64,0.0293162957591971,0.0537794200783876,1.654308159630061,0.0050886419938416,0.0704322125732648,0.0287645049206248,-0.0136638961472941,-0.0179980402121043,-0.0976160016737553,0.0302429921903046,0.0534691809488097,1.655292495205766,0.0190337981641965,-0.0390800887818317,-0.1150783564129461,0.61321756596672,-0.4264063646187185,0.3213912610631531,0.3015311803695151,10.751674848459515,-0.943263671417274,0.2355280451810459,-0.9090065050129362
