t,x,y,z,roll,pitch,yaw,v_x,v_y,v_z,ref_x,ref_y,ref_z,ref_v_x,ref_v_y,ref_v_z,a_com,a_x,a_y,a_z,thrust,wind_x,wind_y,wind_z
0.0,1.5370396822641506,2.0510247332282825,2.117880781776197,0.0325476249935687,0.0997586530829275,0.0422612700180784,0.0005718474672915,-0.0048630182071597,-0.0006273221170586,1.5370500115632535,2.050978157513755,2.117864336132063,-0.0996072676554544,-0.1023405064391115,-0.1005546397543141,0.2468273113310514,0.0285923733645773,-0.2431509103579893,-0.0313661058529341,10.258798016828225,-0.9396582420703726,0.2495498072490182,-0.8827657156268766
0.02,1.5372118701782476,2.051172458380395,2.1177780548543805,0.0392591462275192,0.0938977806637818,0.0425007170978652,0.0161997913187087,0.0157776966018875,-0.0102180905130075,1.5370500115632535,2.050978157513755,2.117864336132063,-0.0996072676554544,-0.1023405064391115,-0.1005546397543141,1.380447912161311,0.7813971925708618,1.032035740452368,-0.4795384197974445,10.259986513063268,-0.9524870455224136,0.2486642714223227,-0.8657087122497211
0.04,1.5376510989153935,2.0515147472303794,2.1173949841438007,0.0530574654434098,0.0774894696429776,0.0426410709158339,0.0255052100469606,0.016571763777307,-0.0278582793339119,1.5370500115632535,2.050978157513755,2.117864336132063,-0.0996072676554544,-0.1023405064391115,-0.1005546397543141,0.997995017553119,0.4652709364125951,0.039703358770974,-0.8820094410452195,9.653865692915131,-0.9560128089522192,0.2378800503388968,-0.8627661921600482
0.06,1.5381611676185052,2.051788134203263,2.1166287311497367,0.0673664267403097,0.0549408150684979,0.0421574598787942,0.0239722857713866,0.0103333082718504,-0.047852047109445,1.536053938886699,2.049954752449364,2.11685878973452,-0.1196072679534776,-0.1223405067371347,-0.1205546400523373,1.0500225399844418,-0.0766462137786994,-0.3119227752728326,-0.999688388776654,9.2048625025991,-0.9658243167029588,0.2241214902117098,-0.8569802163735241
0.08,1.5385218662149716,2.051894951637804,2.115523575513921,0.0804731072520267,0.0315198425443402,0.0411616887769323,0.013453643800514,0.0009234638113569,-0.0675219468030433,1.5340617935335898,2.047907942320582,2.1148476969394334,-0.1596072685495241,-0.1623405073331812,-0.1605546406483838,1.2104668062758923,-0.5259320985436345,-0.4704922230246751,-0.9834949846799154,9.097519743127124,-0.9803982829766182,0.2075093027858534,-0.849217002509945
0.1,1.5385965563217072,2.0517827793351784,2.113948205769314,0.0936457641185216,0.0075763703988588,0.0397424010058007,-0.0059714887552695,-0.0119702292947269,-0.0890763279502698,1.5320696481804807,2.0458611321918,2.112836604144347,-0.1996072691455705,-0.2023405079292276,-0.2005546412444303,1.5875881419338205,-0.9712566277891784,-0.6446846553041937,-1.077719057361327,9.07904453860192,-0.9961413697661932,0.1894447530583817,-0.8422133845636597
0.12,1.5382065363237682,2.0513827532611697,2.111934023294101,0.1061976568459717,-0.0135504959698755,0.0381897895218529,-0.032335151284717,-0.0276868008125108,-0.1113419564409843,1.5280775027975693,2.0418143220332152,2.1088255113194587,-0.239607269741617,-0.242340508525274,-0.2405546418404767,1.895924269536316,-1.318183126472375,-0.7858285758891959,-1.113281424535722,9.080065202955666,-1.0117957083617055,0.1709307657165278,-0.8361730306111649
0.14,1.5372313734583545,2.0506404089193624,2.109467061858657,0.1181514544975531,-0.0305044372098714,0.0367488934588424,-0.0637430509201094,-0.0460364092400741,-0.1343018795178945,1.5240853574146578,2.0377675118746303,2.10481441849457,-0.2796072703376635,-0.2823405091213206,-0.2805546424365232,2.1507686745960246,-1.5703949817696194,-0.9174804213781608,-1.1479961538455123,9.108245570800136,-1.0248360649660764,0.1526678336266533,-0.83365040893473
0.16,1.5356875973703938,2.0495715000232675,2.1066929637318026,0.1289649805966179,-0.0421722942389319,0.0356648517689884,-0.0969437394121581,-0.0657880211828473,-0.1565920145517708,1.5190932120168452,2.0327207017011446,2.09980332565478,-0.3196072709337099,-0.322340509717367,-0.3205546430325696,2.2300571800474067,-1.6600344246024328,-0.9875805971386646,-1.1145067516938154,9.134281652085974,-1.0356122316259255,0.1333363377722261,-0.834855650225306
0.18,1.533358950749129,2.04800514773681,2.1033077861160026,0.1393941563023641,-0.0494404824270271,0.0349662949596771,-0.1342395760384974,-0.0898461072001874,-0.1807818920938013,1.5131010666041316,2.026673891512758,2.093792232800089,-0.3596072715297563,-0.3623405103134134,-0.360554643628616,2.527311371781661,-1.864791831316968,-1.2029043008670026,-1.2094938771015251,9.16844287002732,-1.0427452449028571,0.1168785485166702,-0.837433112010683
0.2,1.5302665733306124,2.04591564787383,2.09943389705398,0.1479665838330346,-0.0510152667304731,0.0348654888871477,-0.1725908886242866,-0.1175753522395677,-0.2052578148513081,1.526646971947204,2.043512842376801,2.0942686915113127,-0.2342395775286135,-0.1898461086903035,-0.2807818935839175,2.664021866623068,-1.9175656292894585,-1.386462251969015,-1.2237961378753353,9.196645991107744,-1.0474571777273778,0.1014312809428324,-0.8433296601103476
0.22,1.5265894632401635,2.043235664906407,2.0954888495528032,0.1497973187314878,-0.0464779656225546,0.0352098905703017,-0.2116965903263639,-0.1603932483405086,-0.2081895774093025,1.526646971947204,2.043512842376801,2.0942686915113127,-0.2342395775286135,-0.1898461086903035,-0.2807818935839175,2.903111849300366,-1.9552850851038648,-2.140894805047043,-0.146588127899723,9.227131804028886,-1.0529961464074191,0.0906019813181723,-0.849112569889109
0.24,1.5219729012559415,2.0396350941961097,2.0912977344371653,0.1449826388902219,-0.0362051290531351,0.0359001346417402,-0.2471898362940008,-0.1959984559959855,-0.2106508561798799,1.526646971947204,2.043512842376801,2.0942686915113127,-0.2342395775286135,-0.1898461086903035,-0.2807818935839175,2.5167236711125565,-1.7746622983818474,-1.7802603827738477,-0.1230639385288667,10.682132605327752,-1.052355796972566,0.0934163817109939,-0.8515209546516019
0.26,1.51670763711435,2.0354069682742995,2.087032140777468,0.1377151853361587,-0.0229083152178218,0.0367801150159497,-0.2769683424925186,-0.2244924112196432,-0.2158365223051716,1.5243045761719178,2.041614381289898,2.0914608725754733,-0.2542395778266368,-0.2098461089883267,-0.3007818938819407,2.0769906408467347,-1.4889253099258897,-1.424697761182886,-0.2592833062645877,10.4175267470182,-1.0463064367606618,0.0973086492126726,-0.8608685525587201
0.28,1.5109055810964305,2.03066106284649,2.0826235460817024,0.1300481861431295,-0.0085185045180721,0.0376731332863814,-0.3013102520185948,-0.248463992868859,-0.2246980357058109,1.5196197846213455,2.037817459116092,2.085845234703795,-0.2942395784226832,-0.2498461095843732,-0.3407818944779871,1.764717899474591,-1.2170954763038089,-1.1985790824607865,-0.4430756700319671,10.133841659128848,-1.0379588529485388,0.1009734462796131,-0.8728694675851046
0.3,1.504989241265749,2.0257405275170672,2.078238356197684,0.1232357320644189,0.0048374902449968,0.038409556397208,-0.3200013209645201,-0.2682909241796218,-0.2364661927007795,1.5149349930707734,2.0340205369422857,2.0802295968321167,-0.3342395790187297,-0.2898461101804196,-0.3807818950740336,1.4840424375681345,-0.9345534472962658,-0.9913465655381398,-0.5884078497484291,9.876807671802451,-1.0280863427352835,0.1046372434422135,-0.8862117852799171
0.32,1.4984178839881632,2.020178838746652,2.073348420006702,0.1169392559584789,0.0176067269348309,0.038993073319186,-0.3359207408065858,-0.2868588300635473,-0.252100447792582,1.508250201490399,2.0282236147386774,2.0726139589306363,-0.3742395796147761,-0.3298461107764661,-0.42078189567008,1.4514001768101568,-0.7959709921032815,-0.928395294196277,-0.7817127545901248,9.653659010803494,-1.0181608295226956,0.1075852224027861,-0.8993062721191983
0.34,1.4915609605386186,2.014262721731361,2.0681213309119757,0.1116594167799851,0.0284386043151803,0.039347761873576,-0.3488552197236363,-0.303901539256463,-0.2699557676639899,1.5015654099100242,2.022426692535069,2.064998321029156,-0.4142395802108226,-0.3698461113725126,-0.4607818962661265,1.3933477035544712,-0.6467239458525259,-0.8521354596457836,-0.8927659935703908,9.4592079561462,-1.008951614986932,0.1090404515127323,-0.9118908437469398
0.36,1.4844651804288709,2.0080096899939384,2.062515736898725,0.1071075041435076,0.0371624343997099,0.0394661946218556,-0.3600742429328677,-0.3205355902707681,-0.2897432313861803,1.4938806183147484,2.0156297703165595,2.0563826831127736,-0.454239580806869,-0.409846111968559,-0.5007818968621729,1.4089906453493444,-0.560951160461573,-0.8317025507152576,-0.989373186109524,9.3507783447385,-0.9998934536229565,0.109604143086114,-0.92461621898724
0.38,1.4775268469152023,2.0017671447896928,2.056809203578846,0.1031509433860395,0.0437023106633438,0.0393828434564231,-0.3697315764772234,-0.3356982508725088,-0.3099791780385446,1.4851958267045715,2.0078328480831487,2.0467670451814906,-0.4942395814029154,-0.4498461125646054,-0.5407818974582194,1.3533882523391487,-0.4828666772177831,-0.7581330300870326,-1.011797332618211,9.268920579805126,-0.99212143291836,0.1098398558239532,-0.9358047717276008
0.4,1.4700316928315549,1.9948935650194195,2.050372343337572,0.0992951277258046,0.0490131992404364,0.0391285701156021,-0.379270826315275,-0.3508088968555831,-0.3327233796932945,1.4590402680913412,1.9849822322460675,2.041310244676919,-0.4697315779673395,-0.4356982523626249,-0.4099791795286607,1.4462257935835043,-0.4769624919025772,-0.7555322991537133,-1.137210082737497,9.20069640848942,-0.9855479174109982,0.1099206533339527,-0.9455114059566416
0.42,1.4623869050321128,1.9877104272714807,2.043752680970465,0.0960975307039421,0.0522403117673165,0.0386965141023302,-0.3847617054491745,-0.3670287751427146,-0.3266917978446458,1.4590402680913412,1.9849822322460675,2.041310244676919,-0.4697315779673395,-0.4356982523626249,-0.4099791795286607,0.9077639904036228,-0.2745439566949753,-0.8109939143565781,0.3015790924324357,9.130328464412742,-0.9909151401507724,0.1109985502967398,-0.9419619731760176
0.44,1.4546388337651708,1.9802141524278936,2.03725073311476,0.0939215315592791,0.0527522822269547,0.0380675663668915,-0.3899680500324877,-0.3820832732144824,-0.3240082830133401,1.4590402680913412,1.9849822322460675,2.041310244676919,-0.4697315779673395,-0.4356982523626249,-0.4099791795286607,0.807689897118461,-0.2603172291656602,-0.7527249035883893,0.1341757415652816,10.887176568317043,-0.9906903214691224,0.1124357410418111,-0.9418973576543728
0.46,1.4471739392562737,1.972814526561895,2.031064741664744,0.0925578914701693,0.0508537523607254,0.0372941530074864,-0.3956983950627628,-0.3961381132987833,-0.3272744843054095,1.4543429523116678,1.980625249722441,2.037210452881632,-0.4897315782653628,-0.4556982526606482,-0.4299791798266839,0.7762787109691749,-0.2865172515137543,-0.7027420042150456,-0.1633100646034668,10.483952034167489,-0.9920732567468382,0.1125882514527468,-0.9409697717078436
0.48,1.439186025165062,1.9647435932497264,2.0244401367535683,0.0917563407348053,0.046554696530935,0.0363122822748758,-0.4030483392736876,-0.4102422665881069,-0.3352154788356398,1.444948320752321,1.9719112846751885,2.029010869291059,-0.5297315788614092,-0.4956982532566946,-0.4699791804227303,0.8888309935550073,-0.3674972105462415,-0.7052076644661787,-0.3970497265115169,10.14335851049418,-0.9949238726883944,0.1115362752261673,-0.9392459481620912
0.5,1.431022389435604,1.9563951180804244,2.0176167175771456,0.0916971618923817,0.0405469623358732,0.0352241711829797,-0.4132807784545318,-0.4239461420125734,-0.3468790288434412,1.4355536891929743,1.963197319627936,2.020811285700486,-0.5697315794574557,-0.5356982538527411,-0.5099791810187768,1.0350572593140135,-0.5116219590422105,-0.6851937712233247,-0.5831775003900669,9.694865373641733,-0.9988699826545568,0.1093060395672399,-0.937030323466846
0.52,1.4226216385772852,1.94777446565875,2.0105271883409315,0.0924435066405088,0.0339247273768276,0.0341291777684587,-0.4264819478189845,-0.4375252114725662,-0.3614830182442072,1.4241590576038252,1.9524833545508813,2.0106117020801104,-0.6097315800535021,-0.5756982544487875,-0.5499791816148233,1.1957617931740825,-0.6600584682226351,-0.6789534729996383,-0.7301994700383008,9.694865373641733,-1.003664227418906,0.1064067990768165,-0.9340843783212036
0.54,1.414372472854078,1.939330686448658,2.0035124453778628,0.0938993585544376,0.0278172156624393,0.0331457028331249,-0.4412873052132132,-0.4506987278926875,-0.3761799360897463,1.412764426014676,1.9417693894738264,2.0004121184597348,-0.6497315806495486,-0.615698255044834,-0.5899791822108698,1.233632376967076,-0.7402678697114334,-0.6586758210060689,-0.7348458922769557,9.556966856694087,-1.009271757356878,0.1026016858720615,-0.9305830730513344
0.56,1.4053607590472537,1.9301577904593592,1.9958185116345493,0.0958859317224082,0.0222643908949715,0.0322071901292588,-0.4592544803348296,-0.4659224472636827,-0.3924754127399385,1.400369794410626,1.9300554243818704,1.9892125348244585,-0.689731581245595,-0.6556982556408804,-0.6299791828069161,1.431889985818222,-0.8983587560808193,-0.7611859685497574,-0.8147738325096104,9.524034279120317,-1.0137151880918478,0.0981284301781338,-0.9286392694998148
0.58,1.395963619750436,1.9206633181488133,1.9877901595402512,0.0976732069212413,0.0184965893827178,0.0314104536647794,-0.4796942073070677,-0.4826966002575366,-0.40956971087515,1.3869751627916744,1.917341459275013,1.9770129511742804,-0.7297315818416414,-0.6956982562369268,-0.6699791834029626,1.5743011752015184,-1.0219863486119056,-0.8387076496926965,-0.8547149067605758,9.49666376267578,-1.0162898193921932,0.0935817210477568,-0.928977065476978
0.6,1.3861349573830657,1.9108194980461588,1.979409621783076,0.0986232848782343,0.0175363740638177,0.0308216656171637,-0.5018627257291052,-0.5006620677037084,-0.4275866086805321,1.3719789093850825,1.8965284881359368,1.9673116739964935,-0.5796942087971838,-0.5826966017476527,-0.5095697123652662,1.687312831188435,-1.1084259211018743,-0.8982733723085862,-0.9008448902691036,9.480907089743596,-1.0174435083668127,0.089998691044067,-0.9306396642933488
0.62,1.376380926972672,1.9010594797867544,1.971392277996411,0.0970639215988467,0.0198737942581954,0.0304083993868206,-0.5232634523389514,-0.5250641225391296,-0.4153022891400455,1.3719789093850825,1.8965284881359368,1.9673116739964935,-0.5796942087971838,-0.5826966017476527,-0.5095697123652662,1.7351915500839292,-1.0700363304923133,-1.220102741771062,0.6142159770243294,9.45016405752358,-1.0227444934503052,0.089211996883416,-0.927313683334724
0.64,1.3657058425121165,1.8903276837799896,1.9631843612079365,0.092591550670884,0.0252165435080502,0.0300459290568322,-0.5427388849930477,-0.546024636627106,-0.4064488360834994,1.3719789093850825,1.8965284881359368,1.9673116739964935,-0.5796942087971838,-0.5826966017476527,-0.5095697123652662,1.497513989017265,-0.9737716327048118,-1.0480257043988197,0.4426726528273056,11.365044677151673,-1.0198906595889097,0.0929941811772454,-0.9296739128266786
0.66,1.3546707724237033,1.879228194428252,1.9550738183121208,0.0873420964477787,0.0321578545891015,0.0297536176967201,-0.5594600956547322,-0.5626512206910175,-0.4049801085501893,1.3661819672971107,1.89070152211846,1.962215976872841,-0.599694209095207,-0.6026966020456759,-0.5295697126632893,1.1813121350788822,-0.8360605330842263,-0.8313292031955744,0.073436376665506,10.4480264732465,-1.0148459347643095,0.0967022840228955,-0.9349442147120722
0.68,1.343903110211906,1.8684044980569685,1.9473372470452528,0.0825277804780407,0.0393423205145415,0.0295114642713074,-0.5729263653582967,-0.5758391559065673,-0.4094506614364279,1.354588083121167,1.8790475900835075,1.952024582625536,-0.6396942096912535,-0.6426966026417223,-0.5695697132593358,0.9685658187332112,-0.673313485178223,-0.659396760777492,-0.2235276443119327,10.4480264732465,-1.0090768073933098,0.1001583216840038,-0.9413567302025596
0.7000000000000001,1.3323164802396992,1.8567615804384745,1.9390512120485768,0.0780619112354597,0.0468123819542081,0.0292628426572055,-0.5848397384336305,-0.5877813050160232,-0.41915523457809,1.3429941989452232,1.8673936580485544,1.9418331883782305,-0.6796942102872999,-0.6826966032377688,-0.6095697138553823,0.973039212013621,-0.59566865376669,-0.5971074554727951,-0.4852286570831032,10.084326147631144,-1.0029424608616913,0.1029705310763063,-0.9482736192778782
0.72,1.320512090003577,1.844895253590451,1.930519435051884,0.074388484672668,0.0536630270202737,0.0289988740635748,-0.5949029993688827,-0.5983992634309286,-0.4335407411550899,1.3294003147394773,1.8537397259837989,1.9296417941011228,-0.7196942108833464,-0.7226966038338153,-0.6495697144514287,1.025857033202657,-0.5031630467626114,-0.5308979207452713,-0.719275328849997,9.555835057069087,-0.9967487758344592,0.1048028247350807,-0.955586089616128
0.74,1.3085233517039234,1.832825866489057,1.921675163015224,0.0715035060583503,0.0595800369073781,0.0287060488610334,-0.6034242325036806,-0.6081798617233566,-0.4501894002045704,1.3158064305337314,1.8400857939190436,1.917450399824015,-0.7596942114793929,-0.7626966044298618,-0.6895697150474752,1.0552835699958456,-0.4260616567398956,-0.4890299146213972,-0.8324329524740243,9.555835057069087,-0.9914399996592064,0.1057454959657807,-0.9621295389397114
0.76,1.2969832761732665,1.8211759014231408,1.9129479921947443,0.0692019456414396,0.0643192913298898,0.0283879869030868,-0.6108576072029523,-0.6176254200442775,-0.4676354236209817,1.301212546313084,1.8254318618393868,1.9042590055320063,-0.7996942120754392,-0.8026966050259081,-0.7295697156435216,1.0592891064998038,-0.3716687349635872,-0.4722779160460433,-0.8723011708205636,9.363734592957371,-0.9862637439653652,0.106138899606899,-0.968795784585812
0.78,1.2846890045738726,1.808722133901581,1.9033873737458429,0.0669848545873722,0.068542768169421,0.0280104344772076,-0.6181326025459539,-0.6272148071223567,-0.4875865286739901,1.2856186620775358,1.809777929744829,1.8900676112250965,-0.8396942126714857,-0.8426966056219546,-0.769569716239568,1.165041302497584,-0.3637497671500789,-0.4794693539039607,-0.9975552526504228,9.28216453877485,-0.9815879545686332,0.1062585251528397,-0.9750309060687384
0.8,1.2722537311035365,1.796080047096076,1.893412645797122,0.0648835011774826,0.0721300092576205,0.0275964220859404,-0.6249901549809393,-0.6364579860827447,-0.5089483714492948,1.2537823744465748,1.7773613935454633,1.8790080473121435,-0.71813260403607,-0.7272148086124728,-0.5875865301641063,1.2132504991232969,-0.3428776217492713,-0.4621589480194032,-1.0680921387652336,9.28216453877485,-0.977293041767308,0.1061755254012535,-0.9809843097373964
0.8200000000000001,1.2597184471546037,1.7832226783522902,1.8833467498482843,0.0624251407375327,0.0749818403729881,0.0271098372436005,-0.6282273947714245,-0.6484477013613031,-0.49655147060914,1.2537823744465748,1.7773613935454633,1.8790080473121435,-0.71813260403607,-0.7272148086124728,-0.5875865301641063,0.8773769776479049,-0.161861989524259,-0.5994857639279205,0.6198450420077412,9.215404461579055,-0.9792220019610453,0.1072129183400792,-0.9798320252163032
0.84,1.2477559397743767,1.7708140741812677,1.873979532636642,0.0601749071975417,0.0767482142480177,0.0265966689739934,-0.6309107951394223,-0.657265007236416,-0.4901979755927023,1.2537823744465748,1.7773613935454633,1.8790080473121435,-0.71813260403607,-0.7272148086124728,-0.5875865301641063,0.5597151493263546,-0.1341700183998873,-0.4408652937556434,0.3176747508218863,11.215994713946202,-0.9775434966330544,0.1091480440677822,-0.9809795803723655
0.86,1.235105338939741,1.7575821142703616,1.8641817272982013,0.058382443564522,0.0775420350748476,0.0260376561222858,-0.6341044119016933,-0.6655406838222424,-0.4902214331655054,1.2466010484062142,1.7700892454593389,1.8731321820105025,-0.7381326043340932,-0.747214808910496,-0.6075865304621295,0.4435272292519805,-0.1596808381135517,-0.4137838292913198,-0.0011728786401571,10.735678283344896,-0.9764336745828246,0.1101251470214902,-0.982128744927684
0.88,1.2223846054846554,1.7441932924922332,1.8543221062143684,0.057283530014137,0.0773513806759417,0.0254764758407855,-0.6378994410829807,-0.6729677223235648,-0.4959621221644872,1.2322383963254928,1.7555449492870892,1.86138045140722,-0.7781326049301397,-0.7872148095065424,-0.647586531058176,0.5062574877717337,-0.1897514590643689,-0.3713519250661212,-0.287034449949089,10.024380811317316,-0.9760266492221412,0.1101419745312837,-0.9830619010851082
0.9,1.209581538914633,1.7306651692285318,1.8442963777521304,0.0571201710196801,0.0762736469252783,0.024936336333387,-0.6422939488106176,-0.6796092246651978,-0.506304468088441,1.2178757442447714,1.7410006531148396,1.849628720803938,-0.8181326055261862,-0.8272148101025889,-0.6875865316542225,0.6526587368849441,-0.2197253863818471,-0.3320751170816483,-0.5171172961976889,10.024380811317316,-0.9764315860452576,0.1091970341142628,-0.9834759142335038
0.92,1.1973316396459814,1.717695014703866,1.834549103129809,0.0580427219065807,0.074470717142282,0.0244572719387664,-0.6470183049686905,-0.6854889541201789,-0.5192036810339868,1.2015130921342476,1.7244563569127878,1.8358769901708536,-0.8581326061222326,-0.8672148106986354,-0.7275865322502689,0.7471285936614772,-0.2362178079036436,-0.2939864727490526,-0.6449606472772929,9.791336502616105,-0.9776489155833336,0.1070166445953087,-0.9834450102762742
0.94,1.1843347647135545,1.703921779113515,1.8240111313861425,0.0603461524825326,0.0717559815432239,0.0239961946648033,-0.6525054344860474,-0.6917203624898698,-0.5339643245769476,1.185150440023724,1.707912060710736,1.822125259537769,-0.8981326067182791,-0.9072148112946818,-0.7675865328463154,0.8467816105886654,-0.2743564758678429,-0.3115704184845469,-0.7380321771480403,9.61890801583013,-0.9799656241820852,0.1035194304600068,-0.9825469219440346
0.96,1.17121556841479,1.689997492498649,1.813170759680275,0.0634245711689689,0.0684032424303715,0.0235409229335365,-0.6592688230773861,-0.7005571627064405,-0.5493574057000615,1.1677877878982992,1.6903677644937831,1.8073735288897836,-0.9381326073143256,-0.9472148118907282,-0.8075865334423618,0.9497097053413224,-0.3381694295669368,-0.4418400108285369,-0.7696540561556942,9.557457712989162,-0.9826221315663732,0.098995637035433,-0.9817534579569096
0.98,1.1579441677918196,1.6758753762844465,1.8020169125400225,0.0661950642982091,0.0649597039976996,0.0230465945363398,-0.6676334037982631,-0.7110977072163588,-0.5652497068196929,1.149425135757973,1.6718234682619288,1.7916217982268967,-0.978132607910372,-0.9872148124867748,-0.8475865340384082,1.0411946552862616,-0.418229036043849,-0.527027225495913,-0.7946150559815679,9.536378311375302,-0.985152219984715,0.0947818369498928,-0.9811548327074444
1.0,1.1451653161358109,1.662255441726178,1.7911209388738227,0.0682246864968347,0.0621647946832964,0.0225584396582103,-0.6771598364313456,-0.7218867378275048,-0.5808903777223978,1.1245624976019064,1.6403204909236286,1.7737544271990375,-0.7676334052883792,-0.8110977087064749,-0.6181968294233477,1.062763716128408,-0.4763216316541252,-0.5394515305573,-0.7820335451352467,9.520176416908726,-0.9877092860010448,0.0909266042247908,-0.9805525576789734
1.02,1.1315080797108237,1.6476115202287374,1.7796749987399108,0.067819977474402,0.0609081712166828,0.0219812189961283,-0.6879557309095636,-0.7415114733926388,-0.5609905586453927,1.1245624976019064,1.6403204909236286,1.7737544271990375,-0.7676334052883792,-0.8110977087064749,-0.6181968294233477,1.4980690762476463,-0.5397947239109024,-0.9812367782567,0.9949909538502556,9.497438987154965,-0.994221154353197,0.0901306995527407,-0.9750072250067412
1.04,1.1176423331976053,1.6325968730998273,1.7686521146488314,0.063829006002117,0.061912095575113,0.0213154588115946,-0.6978384726592791,-0.7580824633688795,-0.5424207248393002,1.1245624976019064,1.6403204909236286,1.7737544271990375,-0.7676334052883792,-0.8110977087064749,-0.6181968294233477,1.3389408322160268,-0.4941370874857742,-0.8285494988120368,0.928491690304628,11.507165268752942,-0.9952351800266942,0.0936166413989629,-0.9730633519214592
1.06,1.1042988379626597,1.6180787668644157,1.7584643385379135,0.0587792623589134,0.0640679777589311,0.0206781276797264,-0.7061024100471254,-0.7690647212313458,-0.5308701765650061,1.1168861635490226,1.632209513836564,1.767572458904804,-0.7876334055864024,-0.8310977090044981,-0.6287862539440787,0.8976605905696527,-0.4131968693923127,-0.5491128931233158,0.5775274137147013,11.507165268752942,-0.9946406469499688,0.0984696477554686,-0.9726205250439776
1.08,1.0900958929965243,1.6026065682225628,1.747922749914003,0.053626820898335,0.0668695179253563,0.0200522630439624,-0.7136511712508661,-0.7775369189295425,-0.5241422180258878,1.1015334954432552,1.6159875596624345,1.755208522316337,-0.8276334061824488,-0.8710977096005446,-0.6499651029855407,0.6595971415427079,-0.3774380601870353,-0.4236098849098313,0.3363979269559169,11.076604830007454,-0.9931132657748306,0.1029618306528957,-0.973410343526807
1.1,1.0757517908625855,1.586986853102291,1.7374577867246834,0.0492234271206824,0.0696879061460954,0.01948170709152,-0.7203204515374586,-0.7841503510489677,-0.5226737918670715,1.0861808273374876,1.599765605488305,1.74284458572787,-0.8676334067784953,-0.911097710196591,-0.6711439520270026,0.475323730007436,-0.3334640143296263,-0.3306716059712611,0.073421307940813,10.435768483954234,-0.9910183338405588,0.1065590078442937,-0.9751123761728488
1.12,1.0612819377709306,1.5712480875052717,1.7269803614633294,0.0457141299363929,0.0722010249899193,0.0189628571801038,-0.7263093918283907,-0.7895876748668578,-0.5251457763480303,1.0688281592019178,1.581543651284373,1.72942170668733,-0.9076334073745418,-0.9510977107926376,-0.6923228010684646,0.422914303917016,-0.2994470145466055,-0.2718661908945041,-0.1235992240479377,10.435768483954234,-0.9889096044625176,0.1090570447794918,-0.9771432521484146
1.14,1.0474309139722653,1.5562028633038931,1.7169651501779186,0.0432319715454043,0.0741142259764589,0.0185142506653492,-0.7314074118058395,-0.7940564357429989,-0.5289689041917358,1.0514754910663475,1.563321697080441,1.71599882764679,-0.9476334079705884,-0.991097711388684,-0.7135016501099265,0.3891527269848964,-0.2549009988724371,-0.223438043807056,-0.1911563921852765,10.135522910560212,-0.9872201239045326,0.1107377948051945,-0.979034970399825
1.16,1.0327463394622782,1.540269847152867,1.7063337007946802,0.0412228394126454,0.0756512653057187,0.0180725382762786,-0.7367808961297837,-0.7990369537780991,-0.5340218755511482,1.0331228229158766,1.5440997428616083,1.7020464773802133,-0.9876334085666348,-1.0310977119847304,-0.7346804991513884,0.445006778703076,-0.2686742161972122,-0.2490259017550122,-0.2526485679706203,10.135522910560212,-0.985694801736142,0.1116838626763605,-0.9810442199067336
1.18,1.017953520198382,1.5242372558921968,1.6955912140628822,0.0395146283395478,0.0768896499065177,0.0176498789714501,-0.7422224474911133,-0.803960362054827,-0.5400125229106376,1.0137701547505045,1.523877788627874,1.6875646558876,-1.027633409162681,-1.0710977125807768,-0.7558593481928504,0.473651470131515,-0.2720775680664811,-0.246170413836394,-0.2995323679744699,10.081382105673583,-0.984383867434265,0.1123285090902323,-0.9829202753090086
1.2,1.0030512581847717,1.5081087408513565,1.684718481628194,0.0379819400487214,0.0779867209545546,0.0172447995508069,-0.7477042207238748,-0.808620593012938,-0.5469590891975786,0.9808423978238264,1.4840392377894556,1.6685905879173504,-0.8357215342883507,-0.9039603635449432,-0.5354405588776896,0.5000559307148081,-0.2740886616380722,-0.2330115479055483,-0.3473283143470507,9.985126243544071,-0.983212976700623,0.1127840301994701,-0.9846705275717008
1.22,0.9888024895511024,1.4926653792965725,1.6745164080236417,0.0357672948492316,0.0793437537415933,0.0168291719667707,-0.7517575077550653,-0.8161071594070309,-0.5265615735331576,0.9808423978238264,1.4840392377894556,1.6685905879173504,-0.8357215342883507,-0.9039603635449432,-0.5354405588776896,1.105143042111158,-0.2026643515595283,-0.3743283197046476,1.0198757832210523,11.773580938211126,-0.9863065141857336,0.1141960512116123,-0.9818558753377148
1.24,0.9737324873054084,1.4762914493805244,1.6641975112872398,0.0329627189373698,0.0811744038627525,0.0163835256559011,-0.75496122243871,-0.8208434602807766,-0.5066425591717624,0.9808423978238264,1.4840392377894556,1.6685905879173504,-0.8357215342883507,-0.9039603635449432,-0.5354405588776896,1.0361750176373592,-0.1601857341822332,-0.2368150436872829,0.9959507180697602,11.536264236086026,-0.9861631291950858,0.1174563043604819,-0.9803973153442284
1.26,0.9586076051014448,1.4598428364814933,1.6542374346757918,0.0306352667310036,0.0828722982812403,0.0159774853194036,-0.7573491918166442,-0.8238910747363568,-0.4905224625127307,0.9724851824809428,1.474999634154006,1.6632361823285735,-0.8544213516477982,-0.9239603638429664,-0.5345261660711,0.8289268181153532,-0.1193984688967086,-0.1523807227790108,0.8060048329515845,11.536264236086026,-0.9857321593821357,0.1201400953878303,-0.9794664649518946
1.28,0.9434408127506968,1.4433445932323723,1.6445658094371138,0.029156144479847,0.0840610059291161,0.0156266707591524,-0.7592371694929871,-0.8258959913914731,-0.4775720231578513,0.9557707517951758,1.4569204268831073,1.6525273711510196,-0.8918209863666932,-0.9639603644390128,-0.5326973804579208,0.6620008119042213,-0.0943988838171483,-0.1002458327558131,0.6475219677439664,11.29187735063715,-0.9853973046554686,0.1217958023898158,-0.9788378991625848
1.3,0.9282390337342324,1.4268168792294371,1.6351250869787215,0.0288922726274131,0.0845189404992839,0.0153513378210793,-0.760936483921238,-0.8269893063604761,-0.4671387141776744,0.9390563211094088,1.4388412196122085,1.6418185599734658,-0.929220621085588,-1.0039603650350593,-0.5308685948447416,0.531358973348877,-0.0849657214125443,-0.05466574845015,0.5216654490088485,11.10054890612264,-0.9854215912911348,0.1223124717930698,-0.9781578508637128
1.32,0.913765169553794,1.4111005589920804,1.6263340704072495,0.0300875802300311,0.084221960481432,0.0151789309185337,-0.7626433900754025,-0.8275325454448444,-0.45875133343331,0.9204719086876968,1.4187620123115072,1.6312011880765709,-0.9666202558044832,-1.0439603656311056,-0.5290398092315624,0.4288262849710961,-0.0853453077082233,-0.0271619542184187,0.4193690372182201,10.959718720790988,-0.9861184435307156,0.1213453224100101,-0.9771000207359928
1.34,0.8984935427104074,1.3945431866049791,1.617253291250616,0.0330869633653162,0.083117305781741,0.0150999008339474,-0.7644858680675735,-0.8286441480691211,-0.449757488325078,0.9018874962659852,1.398682805010806,1.6205838161796762,-1.004019890523378,-1.0839603662271522,-0.5272110236183831,0.4623841351538795,-0.0921238996085482,-0.0555801312138337,0.4496922554115962,10.87726698840197,-0.9884293827411637,0.1188426986260129,-0.9745363623805792
1.36,0.8831788630438179,1.3779272470606403,1.608357575371056,0.0368821177672438,0.0812685179546519,0.0150500789709662,-0.7669864657962674,-0.8330311716720974,-0.4402642765891815,0.882368092976301,1.3776035976952037,1.6100121639231109,-1.041419525242273,-1.1239603668231986,-0.525382238005204,0.5376337837143036,-0.1250298864346966,-0.2193511801488135,0.4746605867948256,10.87726698840197,-0.9910260214023134,0.1156144524050983,-0.9719927563022638
1.38,0.868575175471236,1.3620400814899951,1.6000875076501595,0.0402052278495748,0.0790946486410277,0.0149632096669632,-0.7702011816693474,-0.8390032413129282,-0.4307381770937672,0.8619136988186445,1.3555243903647003,1.599486231306875,-1.078819159961168,-1.163960367419245,-0.5235534523920248,0.5846934785340502,-0.1607357936539988,-0.2986034820415428,0.4763049747707165,10.910053184994467,-0.994098819503728,0.1124610960047262,-0.968939691602465
1.4,0.8531268255421108,1.3451840997289335,1.5915812541208605,0.0430972666190208,0.0766643698463783,0.0148195874013019,-0.7745654408958882,-0.8462111393981444,-0.4203668618810495,0.8300651163877686,1.3200899194243487,1.578550598795471,-0.8095487259818245,-0.9390032428030444,-0.4011267292677393,0.6681405777320735,-0.2182129613270411,-0.3603949042608079,0.5185657606358862,10.966811534532098,-0.9973126750337624,0.1098527045598394,-0.965683856988826
1.42,0.8374804432464706,1.3281015759811765,1.5833424019747409,0.0430337652189584,0.0778091825743964,0.0146267269941962,-0.7893833488606572,-0.8609560236493937,-0.4036338261688098,0.8300651163877686,1.3200899194243487,1.578550598795471,-0.8095487259818245,-0.9390032428030444,-0.4011267292677393,1.3388208358311005,-0.7408953982384503,-0.7372442125624656,0.8366517856119859,10.966811534532098,-0.9947318010255664,0.1082380164216012,-0.9701274201213296
1.44,0.8215834068429824,1.3107633592542578,1.5754507787228824,0.0392064872753518,0.0845859809192902,0.0144128164335278,-0.7988644421419405,-0.8713530847918423,-0.3863465839256322,0.8300651163877686,1.3200899194243487,1.578550598795471,-0.8095487259818245,-0.9390032428030444,-0.4011267292677393,1.1144940046748908,-0.4740546640641663,-0.5198530571224269,0.8643621121588757,11.429600589653091,-0.992675060976372,0.1124208843917247,-0.970549734503156
1.46,0.8063546553201594,1.2941530802114996,1.5682557206075851,0.034616693351473,0.0936104607923922,0.0142237673250099,-0.8032481315271381,-0.8764858582382465,-0.3718928007892849,0.8219696291279504,1.3106998869963182,1.5745393315027938,-0.8174182348443199,-0.9590032431010675,-0.3952044397025337,0.797611971497681,-0.219184469259881,-0.2566386723202141,0.7226891568173688,11.429600589653091,-0.9859574588042632,0.1175993322554898,-0.9756558257326464
1.48,0.7902755080732523,1.276594711216594,1.5609577082651744,0.0303197434484094,0.10429091353164,0.0140709770200455,-0.8040173403982203,-0.8791774246479852,-0.3587869128398054,0.8057786546083139,1.2919198221402577,1.566516796917439,-0.8331572525693107,-0.999003243697114,-0.3833598605721226,0.6700755759048682,-0.0384604435541058,-0.1345783204869333,0.6552943974739739,11.112944515642994,-0.9769872536529084,0.1221053006612628,-0.983220656764062
1.5,0.7742158260968787,1.2589999741764968,1.5538965756614542,0.0271338116051214,0.1153163527601585,0.0139787441940739,-0.8015468064233098,-0.8804611045219428,-0.3480095812718977,0.7895876800886774,1.2731397572841965,1.558494262332084,-0.8488962702943016,-1.0390032442931605,-0.3715152814417115,0.5565569329920569,0.1235266987455241,-0.0641839936978805,0.5388665783953833,11.112944515642994,-0.9668075693682784,0.1254675737021741,-0.992121752067818
1.52,0.7582367033747925,1.2413874152982949,1.547032975962812,0.0251258648931546,0.1261846113712293,0.0139487015864115,-0.7961739337394247,-0.8810415567402021,-0.3389277714218489,0.7726097546827914,1.2523596923983331,1.5510639567032498,-0.8646352880192925,-1.0790032448892068,-0.3596707023113003,0.5284031505568576,0.2686436341942544,-0.0290226109129654,0.454090492502443,10.987704750597004,-0.9566403015891908,0.1275810270957346,-1.0011135325027745
1.54,0.7431949588696696,1.2246513030285404,1.540671470386883,0.0243883832601413,0.1356570835057412,0.0139778145674453,-0.7873338788323363,-0.8808348985523805,-0.3311962210228606,0.7556318292769053,1.23157962751247,1.5436336510744155,-0.8803743057442833,-1.1190032454852534,-0.3478261231808892,0.5872949640917797,0.4420027453544195,0.0103329093910808,0.3865775199494103,10.903174102998491,-0.9468329479722364,0.1288390020881378,-1.0095114562370753
1.56,0.7275727618977325,1.207035294351024,1.5341294325404278,0.0248664162789765,0.1439648324070364,0.0140648248636249,-0.7752526973287375,-0.8808661544693457,-0.3234521491316297,0.7382604284278945,1.2097995626117055,1.5364994599238415,-0.8961133234692741,-1.1590032460812998,-0.335981544050478,0.7175070956300656,0.6040590751799413,-0.0015627958482589,0.387203594561547,10.866261739503898,-0.9380187377011558,0.1287617678468348,-1.0171305398028396
1.58,0.7122174524468755,1.189414627733511,1.5277415176238387,0.0264909734994945,0.1501321794095445,0.0141955323917113,-0.7609782482285041,-0.8813118603474484,-0.3157526198538795,0.720495552135759,1.18701949769604,1.529661383251528,-0.911852341194265,-1.199003246677346,-0.3241369649200669,0.8112356346091132,0.7137224550116672,-0.0222852939051332,0.3849764638875097,10.865586712796356,-0.9312955424201428,0.1276541779620049,-1.0228988810622417
1.6,0.6979080499172409,1.1726584458678284,1.521819312618294,0.0288989415788191,0.1538731245225296,0.0143405498950763,-0.746138469113457,-0.8826764622711956,-0.3080369220956565,0.6741685400354503,1.1453490347161386,1.5119538866311448,-0.7306136510122556,-0.9813118618375644,-0.2646406348558918,0.8390667054679408,0.741988955752354,-0.0682300961873605,0.3857848879111503,10.924349957015693,-0.9264223301305896,0.1255804654635914,-1.0270502441130347
1.62,0.6830803736039016,1.154918579578745,1.515719677660058,0.0299848142551902,0.1579478753033143,0.0144116209083783,-0.7372287450496153,-0.8906979045829196,-0.3024663555310892,0.6741685400354503,1.1453490347161386,1.5119538866311448,-0.7306136510122556,-0.9813118618375644,-0.2646406348558918,0.6609802030023159,0.4454862031920859,-0.401072115586204,0.2785283282283668,10.924349957015693,-0.9178459318867984,0.1235273216339025,-1.0358133325475902
1.64,0.6684544906197171,1.1370466025343495,1.5097436761280445,0.0288519139106418,0.1639590050816968,0.0143933942899606,-0.7254136614470403,-0.8959830706947403,-0.2953275168951468,0.6741685400354503,1.1453490347161386,1.5119538866311448,-0.7306136510122556,-0.9813118618375644,-0.2646406348558918,0.7390740802439844,0.5907541801287497,-0.2642583055910308,0.3569419317971167,10.782092270802424,-0.9122983886118184,0.1248824712746568,-1.0400660282792564
1.66,0.6540979506676314,1.119088436214244,1.5039284239362107,0.0268155404448347,0.1707909370155484,0.0143360510905062,-0.7105634634873828,-0.8995821612648801,-0.2866009913840225,0.6668624035253278,1.135535916097763,1.509307480282586,-0.7245407315690059,-1.0013118621355876,-0.2544182378562942,0.8798211179969938,0.7425098979828793,-0.1799545285069925,0.4363262755562175,10.902095991707029,-0.904878424656802,0.1272081181835102,-1.0457283709347138
1.68,0.640758203066109,1.101978417877859,1.4985750411091392,0.0247395599230652,0.177483384960898,0.0142737914021143,-0.6941623274229456,-0.9013142659903702,-0.2773877932600742,0.6522501305050827,1.1159096788610117,1.5040146675854682,-0.7123948926825066,-1.0413118627316342,-0.2339734438570991,0.9445640140500954,0.820056803221858,-0.0866052362745062,0.4606599061974165,10.99812989882048,-0.8962626944594329,0.1296628910385618,-1.0523650306234054
1.7,0.6270750343259329,1.0839497031623844,1.493137036176143,0.0231973403824614,0.1844276171967178,0.0142486208577464,-0.6747989311033787,-0.901594707453165,-0.2668922403569031,0.6376378574848376,1.0962834416242604,1.4987218548883503,-0.7002490537960071,-1.0813118633276806,-0.213528649857904,1.1013360013932303,0.9681698159783424,-0.0140220731397355,0.5247776451585529,11.138654133073032,-0.8873590884404313,0.1314908980188577,-1.0592166443257176
1.72,0.6138101933302701,1.0659279573728175,1.4879170011904204,0.0229090834386762,0.1907704097451347,0.0143010866609085,-0.6525721490864201,-0.9008028759374505,-0.2556794321567076,0.6236328764089174,1.0746572043577067,1.494451281891192,-0.6881032149095077,-1.121311863923727,-0.1930838558587089,1.2453753487533832,1.11133910084793,0.0395915757857245,0.5606404100097745,11.200575937396934,-0.8795800688120454,0.1322816180735702,-1.0649795608098904
1.74,0.6016469883072759,1.048827964549877,1.4831722781638534,0.0241974619323803,0.1955676674274393,0.0144421832066182,-0.6289308194694003,-0.8994893386860736,-0.2443489714013682,0.6096278953329973,1.053030967091153,1.4901807088940342,-0.6759573760230083,-1.1613118645197735,-0.1726390618595138,1.3124568441472848,1.1820664808509906,0.0656768625688419,0.5665230377669722,11.2676701852306,-0.872389728672873,0.1315780677445569,-1.0702452103359126
1.76,0.5893481544953899,1.0308425882610772,1.478421473850143,0.0271477968358004,0.1988183723600128,0.0146724477564999,-0.6022459803914691,-0.8994770651806959,-0.2312759124618874,0.5959265602292396,1.0304047298096983,1.486421255746856,-0.6638115371365089,-1.20131186511582,-0.1521942678603187,1.485753728995115,1.3342419538965589,0.0006136752688845,0.6536529469740399,11.2676701852306,-0.8677918907564109,0.1296226333274645,-1.0730873780930654
1.78,0.5775978923805198,1.0128265442505926,1.4739480332778077,0.03068397675502,0.199926266636756,0.0148951412723924,-0.5742194247924675,-0.9022527850026832,-0.2166426586831629,0.5825288710976445,1.0067784925133425,1.4831729224496577,-0.6516656982500095,-1.2413118657118662,-0.1317494738611236,1.5869188349019772,1.4013277799500845,-0.1387859910993605,0.7316626889362229,11.362515023282867,-0.8663195365589803,0.1274885646981577,-1.072979085959362
1.8,0.5664208530107271,0.9947345323153796,1.4697872383078376,0.0338692899265498,0.1985288932114554,0.0150167306362015,-0.545082181155224,-0.9067284344617452,-0.2001482036075048,0.5488869211408964,0.9677139050004584,1.4631159003436496,-0.5597439236500252,-1.0022527864927993,-0.1659484612668574,1.6889918983667378,1.456862181862173,-0.2237824729531046,0.8247227537829055,11.593801590241128,-0.8679362729495761,0.1259728032113533,-1.0701831180074026
1.82,0.556335664671863,0.9773866304255008,1.4659824079969568,0.0338970592079907,0.1937619466558389,0.0148042445276604,-0.5185113697705319,-0.9179212227091776,-0.2010891795891572,0.5488869211408964,0.9677139050004584,1.4631159003436496,-0.5597439236500252,-1.0022527864927993,-0.1659484612668574,1.442369545392919,1.3285405692346042,-0.5596394123716208,-0.0470487990826218,11.593801590241128,-0.8738541238123513,0.1282498013753975,-1.0624045399802038
1.84,0.5462327921393481,0.9589531288614552,1.461986762178603,0.0305174131325914,0.1850292372411531,0.0142441326489351,-0.4937362382344307,-0.9244121840001802,-0.1980620090264346,0.5488869211408964,0.9677139050004584,1.4631159003436496,-0.5597439236500252,-1.0022527864927993,-0.1659484612668574,1.2894800141221874,1.2387565768050584,-0.3245480645501286,0.1513585281361307,10.4887895828615,-0.8790886066662855,0.1311726625268131,-1.057951750724516
1.86,0.5365845820958784,0.9404378459195184,1.458104027319231,0.026398901787131,0.1741299129491771,0.0136249055944022,-0.4728463745579226,-0.9267765944142496,-0.1903089033484103,0.5432894819043962,0.9576913771355304,1.461456415730981,-0.5568488234215367,-1.0222527867908224,-0.1558096217835962,1.120365441143944,1.0444931838254068,-0.1182205207034658,0.3876552839012143,10.757762324451503,-0.8881632392341481,0.1354055203370519,-1.0492685091223304
1.88,0.5277667102928856,0.922828223652555,1.454592532722595,0.0231538939712153,0.1630518965172931,0.0131237338650296,-0.4567388496282513,-0.9270023604226468,-0.1796694576346975,0.5320946034313957,0.9376463214056744,1.4581374465056438,-0.5510586229645599,-1.062252787386869,-0.135531942817074,0.9652734518590714,0.8053762464835634,-0.0112883004198593,0.5319722856856404,11.1490512884302,-0.9005208470791382,0.1399433697120579,-1.036713138178961
1.9,0.5187768017487597,0.9042966190719672,1.4511421134709326,0.0208615450463257,0.1516429945123034,0.0127311572554227,-0.4434151654663602,-0.9263906059236434,-0.1657931185539955,0.5208997249583952,0.9176012656758183,1.4548184772803068,-0.545268422507583,-1.1022527879829154,-0.1152542638505518,0.9623507540074692,0.6661842080945557,0.0305877249501651,0.6938169540351021,11.1490512884302,-0.9135414427665148,0.1435059088706866,-1.023235784456319
1.92,0.5100178461597935,0.885783931018739,1.4479933210107854,0.0198798707127965,0.1412360845301926,0.0124845551989651,-0.4333694339929794,-0.9250499444935836,-0.1496739101176099,0.5099943565082435,0.8955562099161601,1.4525133920032958,-0.5394782220506061,-1.1422527885789615,-0.0949765848840296,0.9520280648712106,0.5022865736690391,0.0670330715029976,0.8059604218192808,11.290419523388664,-0.9260535482192844,0.1461044020406165,-1.0097116430208852
1.94,0.5014287379775455,0.8673071027116145,1.4451802321837457,0.0206288392139814,0.132351606667658,0.0124016032562172,-0.4261244131073026,-0.922989325992448,-0.1324210450056713,0.4990889880580919,0.8735111541565018,1.4502083067262848,-0.5336880215936293,-1.1822527891750083,-0.0746989059175074,0.941272849406404,0.36225104428384,0.103030925056774,0.862643255596926,11.40350174082414,-0.9368376307395524,0.1473139590057824,-0.9975410822933928
1.96,0.4933813539776214,0.849783245448087,1.442835769432156,0.022911501104409,0.1255875451703395,0.0124609245273706,-0.4214090701531865,-0.9218884643308928,-0.1152057698150293,0.4883283746193646,0.8504660983819423,1.4484101634234368,-0.5278978211366523,-1.222252789771055,-0.0544212269509851,0.8941644919453402,0.2357671477058037,0.0550430830777604,0.8607637595320988,11.445400378062004,-0.9465191932603771,0.1470526263527009,-0.9863574829867956
1.98,0.4849866089103428,0.8313364203749103,1.4407308923260191,0.0263075046833916,0.1205975966090777,0.0126265919003585,-0.4184518639357626,-0.9231443639484692,-0.0961367368826289,0.4777125161920618,0.8264210425924817,1.447118962094752,-0.5221076206796754,-1.262252790367101,-0.0341435479844629,0.96688981978141,0.1478603108711951,-0.0627949808788219,0.953451646620021,11.486590504304331,-0.9541276636563476,0.1457902270280464,-0.9772921566584994
2.0,0.4766320254986628,0.812838658254404,1.4390161040718346,0.0296103847253764,0.118326970603304,0.0128466842457016,-0.4170057628400134,-0.9265203782542908,-0.076283571081565,0.4640640157135547,0.7851792021774868,1.4359240554818875,-0.4005443804325402,-1.020518624374037,-0.0285906374582667,1.0095009575240292,0.0723050547874609,-0.1688007152910786,0.9926582900531956,11.582359169645317,-0.9595010507907163,0.1448291378068811,-0.9702870084450208
2.02,0.4686963306190627,0.7951143159136135,1.4376484455532912,0.0296471865038484,0.1191515127785389,0.0129289685888054,-0.4179664467953645,-0.9376905184635128,-0.0686429218641491,0.4640640157135547,0.7851792021774868,1.4359240554818875,-0.4005443804325402,-1.020518624374037,-0.0285906374582667,0.6783702278611367,-0.0480341977675546,-0.5585070104611067,0.3820324608707945,11.582359169645317,-0.9610767884456094,0.1469475049375909,-0.9660644097371348
2.04,0.4603519062084492,0.7762885617596285,1.4363798853558634,0.0260168646333081,0.1226074782763511,0.0128425262241326,-0.4160827622870885,-0.9436915021272456,-0.058433893480103,0.4640640157135547,0.7851792021774868,1.4359240554818875,-0.4005443804325402,-1.020518624374037,-0.0285906374582667,0.5995505249880262,0.0941842254137986,-0.3000491831866403,0.5104514192023082,10.830525645817032,-0.959732991437373,0.150842058197463,-0.9662961147909368
2.06,0.4520757576818966,0.7573995999527801,1.43533574685084,0.0216387905218523,0.1274384652480787,0.0127377910461869,-0.4113677262575252,-0.9448601787070234,-0.0464454064434368,0.4600585719092293,0.7749740159337465,1.4356381491073051,-0.3969628837318957,-1.0399934764591503,-0.0150814175733943,0.6467634635949083,0.2357518014781651,-0.0584338289888852,0.5994243518333067,10.985566596747049,-0.957045302008822,0.1557340138395392,-0.967097531920003
2.08,0.4439227603374165,0.7385176993149621,1.4345438623058706,0.018119873648006,0.1326546096462033,0.0126965017384176,-0.4040149697021174,-0.9435900138877592,-0.0333696081821443,0.4520476843005785,0.7545636434462657,1.4350663363581395,-0.3897998903306067,-1.0789431806293774,0.0119370221963505,0.7527497057475494,0.3676378277703923,0.0635082409632059,0.6537899130646243,11.13092084897471,-0.953847290281946,0.1604599845279382,-0.9680296315935302
2.1,0.436336059627528,0.7206145776847668,1.4340420748086096,0.0159834603221447,0.1372805760241729,0.0127348328895308,-0.3948994255883811,-0.941381111654088,-0.0201207719999463,0.4440367966919277,0.734153270958785,1.4344945236089743,-0.3826368969293177,-1.1178928847996046,0.0389554619660953,0.8116403972051126,0.4557772056868137,0.1104451116835603,0.6624418091099011,11.13092084897471,-0.9509695084354072,0.1642015459668297,-0.9686204058325092
2.12,0.4285553708369218,0.7018208616425518,1.4337964254547082,0.0151504672198761,0.1413252479083362,0.0128660516620118,-0.3835971933679808,-0.9382649549259974,-0.005095765041593,0.4363840587533413,0.7117954132627929,1.4352736328482962,-0.3754739035280287,-1.1568425889698315,0.0659739017358402,0.9528925962778354,0.5651116110200166,0.1558078364045367,0.7512503479176648,11.188130508116046,-0.9486242315898588,0.1667589648711208,-0.9687461762713556
2.14,0.421014693432564,0.6830973749280547,1.4338589600416218,0.0161818762232085,0.1442275705563282,0.0131201425154439,-0.3710504983544034,-0.9344451776451695,0.0106227120917275,0.4287313208147549,0.6894375555668008,1.436052742087618,-0.3683109101267398,-1.1957922931400586,0.0929923415055851,1.0235731259045189,0.6273347506788707,0.1909888640413914,0.7859238566660296,11.264340065294164,-0.9474274332348052,0.1677528274866014,-0.9679297952974196
2.16,0.4137348447539085,0.6644410729756273,1.434246197258677,0.0191066189238709,0.1458075986892519,0.0134958626904312,-0.3576885089231327,-0.931747942206944,0.0273193496123155,0.4212576577112008,0.666105955266553,1.4375073123211837,-0.3611479167254507,-1.2347419973102858,0.12001078127533,1.0777239269225194,0.6680994715635352,0.1348617719112765,0.8348318760294026,11.307453877380794,-0.9480201930026628,0.1672714811899386,-0.9656252325286582
2.18,0.4070699408317184,0.6467383876726266,1.4349353300280905,0.0226770705493927,0.1460885379912735,0.0138911297722649,-0.3446893313093533,-0.9319829663305378,0.0443948225125091,0.4139630694426789,0.6418006123620497,1.4396373435489929,-0.3539849233241618,-1.2736917014805127,0.1470292210450748,1.0730862380751374,0.6499588806889695,-0.0117512061796887,0.8537736450096799,11.36573576415958,-0.9499112804358328,0.1660293080256644,-0.9620986729107972
2.2,0.4003202253771772,0.6280778392365888,1.4360253221722576,0.0262454437194924,0.145200975949196,0.0142682285412885,-0.3310453244827397,-0.9340658828090102,0.06378301855397,0.3898354742662507,0.6001392393560997,1.437155071153716,-0.3148761403872122,-0.9582633936821318,0.0800820418640392,1.189957571809905,0.6822003413306799,-0.1041458239236181,0.9694098020730446,11.445080372553091,-0.9530617162199376,0.1650297881767632,-0.9572461947712768
2.22,0.3937887694886446,0.6090837524099835,1.4373073784609531,0.0200840796505678,0.1439561794064806,0.0139667965628626,-0.3230739168214457,-0.9607341438360067,0.0625758644583789,0.3898354742662507,0.6001392393560997,1.437155071153716,-0.3148761403872122,-0.9582633936821318,0.0800820418640392,1.3930153510613854,0.3985703830646975,-1.3334130513498357,-0.0603577047795574,11.534212630200273,-0.9542579379809176,0.173122485595604,-0.951901619058598
2.24,0.3874048403930306,0.5897927208035464,1.438548180997802,0.0043635617849622,0.1433240918661863,0.0130552179956315,-0.3156400089262116,-0.9656384786740968,0.0618050352889033,0.3898354742662507,0.6001392393560997,1.437155071153716,-0.3148761403872122,-0.9582633936821318,0.0800820418640392,0.4469610285232936,0.3716953947617063,-0.2452167419044915,-0.0385414584737765,10.214258746510495,-0.9522810384504332,0.1857184911585486,-0.9519290974639526
2.26,0.3814772180152715,0.5715020173447001,1.4397198047308004,-0.0113552984414016,0.1432242656080422,0.0121822901653959,-0.3086389918031712,-0.959445552197514,0.0615309241867006,0.3866867128623786,0.5905566054192783,1.4379558915723565,-0.308913502202784,-0.9635194791524504,0.0872194857343452,0.467551376850219,0.3500508561520205,0.3096463238291325,-0.0137055551101376,10.30641168521288,-0.9516452384132572,0.2005793017786261,-0.9493587143247793
2.28,0.375382599158128,0.552443868174341,1.4409477968822035,-0.0258361620454748,0.1435813621921092,0.0114413332442417,-0.3011387082959758,-0.9469409621623884,0.0612750871113913,0.3803891900546343,0.5713913375456358,1.4395575324096372,-0.2969882258339276,-0.974031650093088,0.1014943734749573,0.7291852940850774,0.3750141753597724,0.6252295017562859,-0.0127918537654665,10.315240690626524,-0.9511985573671872,0.213965251307602,-0.946344760038517
2.3000000000000003,0.3694413152933088,0.533676322142027,1.4421721663084308,-0.0372513966090718,0.1443104542071035,0.0109359477871727,-0.2933068693031268,-0.9308915131991364,0.0611911922257047,0.3740916672468901,0.5522260696719931,1.441159173246918,-0.2850629494650711,-0.9845438210337256,0.1157692612155693,0.8929299418008352,0.3915919496424475,0.8024724481625889,-0.0041947442843276,10.331095683343849,-0.9506859747676326,0.224814952044223,-0.9436601160642316
2.32,0.3636621274254394,0.5152540518418999,1.4434026722472806,-0.0454327000664275,0.145273105589828,0.0106728179228813,-0.284949338923221,-0.9129025374704436,0.0618847251481087,0.3683904082575887,0.5325351932513186,1.4434745584712294,-0.2731376730962147,-0.9950559919743632,0.1300441489561813,0.9923867060438278,0.4178765189952915,0.8994487864346423,0.0346766461202015,10.35808978946352,-0.9501808280222754,0.2325626075721319,-0.9415813853703264
2.34,0.3583315860270408,0.4980933570579531,1.4445883819088168,-0.0506058444123167,0.1462674099073724,0.0106211481862368,-0.2765446579890904,-0.8950172602844498,0.0629181833998696,0.3626891492682872,0.512844316830644,1.4457899436955408,-0.2612123967273583,-1.005568162915001,0.1443190366967933,0.989431449852014,0.4202340467065302,0.8942638592996932,0.0516729125880403,10.41484001641038,-0.9496320810478756,0.2385105491531111,-0.9397360255314208
2.36,0.3528992512113956,0.4803927537937417,1.4458654959363648,-0.0539152493164445,0.1472432053383106,0.0107396019047477,-0.2671022946895817,-0.8763500369365199,0.0647975450250492,0.3572860221882072,0.4928906361364535,1.4484622011133674,-0.2492871203585018,-1.0160803338556386,0.1585939244374054,1.0501850459795234,0.4721181649754324,0.933361167396496,0.0939680812589806,10.44295073689682,-0.949288577326694,0.2425428878964807,-0.9381624635868429
2.38,0.3476623598292384,0.4630694600697916,1.4471915202293173,-0.0553802596254719,0.1479736776137298,0.0110196472418755,-0.2570779427183111,-0.8573125049146089,0.067733412642907,0.3521810270173486,0.4726741511687471,1.4514913307247097,-0.2373618439896454,-1.0265925047962765,0.1728688121780174,1.0857423458155158,0.5012175985635303,0.9518766010955526,0.14679338089289,10.554591767407146,-0.9490465917712062,0.2450144826505934,-0.9367914362587224
2.4,0.3428773136108047,0.446969156002397,1.4485165286514432,-0.0550695211981808,0.1483306196868759,0.0114397167066907,-0.2471498301758682,-0.8386914763263389,0.0716153679518049,0.3348084626933228,0.4202038348240612,1.4505781908614626,-0.2233095570695837,-0.8274516526283893,0.1097916681663502,1.0728230298619403,0.496405627122147,0.9310514294134986,0.1940977654448984,10.554591767407146,-0.9490952936933558,0.2462276163050894,-0.9352551009026516
2.42,0.3380339692831849,0.4302235297839639,1.449890713742357,-0.0583518503615011,0.1481910172472674,0.0116763538043339,-0.2378780643244817,-0.8348510683450183,0.0649003316279721,0.3348084626933228,0.4202038348240612,1.4505781908614626,-0.2233095570695837,-0.8274516526283893,0.1097916681663502,0.6037509592048729,0.4635882925693238,0.1920203990660285,-0.3357518161916421,10.623559351282893,-0.9502894682721914,0.2511388103250992,-0.9308269401092762
2.44,0.3333700455845512,0.4136683560493454,1.451126635894025,-0.0661079733575908,0.1475592509640871,0.01166057875818,-0.2290138210256635,-0.8202300282127685,0.0592015735704512,0.3348084626933228,0.4202038348240612,1.4505781908614626,-0.2233095570695837,-0.8274516526283893,0.1097916681663502,0.9011457529274374,0.4432121649409079,0.7310520066124926,-0.2849379028760468,10.056252445318025,-0.948229998738004,0.2579458615971208,-0.931437499490655
2.46,0.3288812148423396,0.3974763693545764,1.4522752522624378,-0.0739273010611305,0.1467214411838167,0.0116921915131037,-0.2203469877045076,-0.7998060558339894,0.0559343837373478,0.332575367122627,0.4119293182977773,1.451676107543126,-0.2165558799398382,-0.8214794821711453,0.1182033192710388,1.1213018961806869,0.4333416660577974,1.021198618938951,-0.1633594916551694,10.056252445318025,-0.9475647012768632,0.2649598950478535,-0.9299954443373932
2.48,0.3247759233025393,0.3825049960274597,1.4533255427890808,-0.0800808843290154,0.1459163143326184,0.0118466181765048,-0.2122317220351362,-0.7775015331042692,0.0548064637842349,0.3281091759812353,0.3953802852452095,1.453871940906453,-0.2030485256803472,-0.8095351412566575,0.1350266214804161,1.1880882485170412,0.4057632834685687,1.115226136486014,-0.0563959976556439,10.203408891338768,-0.9475226097498756,0.2715656226263778,-0.9275804352127166
2.5,0.3206207029598169,0.3672179277506466,1.454428032075963,-0.0849070237286294,0.1451734777650888,0.012148340457537,-0.2037119996820779,-0.752641782349719,0.0556201689242975,0.3236429848398436,0.3788312521926417,1.45606777426978,-0.1895411714208563,-0.7975908003421697,0.1518499236897934,1.3145864298387937,0.4259861176529128,1.242987537727508,0.0406852570031292,10.335047252925506,-0.9478815348649744,0.2769691588320692,-0.9247633494109204
2.52,0.3166369488946507,0.3524392095689673,1.4555682477963146,-0.088049369211079,0.1445841212758905,0.012582510358328,-0.195076810367211,-0.7267866405565065,0.058477233721614,0.3198521614114264,0.3628794361857984,1.459104772743576,-0.1760338171613653,-0.7856464594276819,0.1686732258991707,1.370417519322833,0.4317594657433463,1.2927570896606233,0.1428532398658248,10.461918019907898,-0.9485105241049376,0.2811670502275792,-0.9217174152926187
2.54,0.3128272275173437,0.3381861425778782,1.4567830153355883,-0.0895142819521206,0.1441393792823497,0.0131438567511842,-0.1863218177244901,-0.7002008420771765,0.0628899221649067,0.3160613379830093,0.3469276201789549,1.462141771217372,-0.1625264629018743,-0.773702118513194,0.185496528108548,1.4167977945486925,0.4377496321360447,1.3292899239665037,0.2206344221646384,10.582984994264734,-0.949224523872184,0.2841067686295393,-0.9186621422453668
2.56,0.3093727845811778,0.3251466884889295,1.4580317008846255,-0.0891876170488886,0.1437774893808799,0.0138083420911257,-0.1777515980252043,-0.6740159238653977,0.0683645295681711,0.3126081984110795,0.3312744126949737,1.465599352246402,-0.1490191086423834,-0.7617577775987061,0.2023198303179253,1.404519431755439,0.4285109849642893,1.309245910588941,0.2737303701632158,10.666813786974672,-0.9500079164621996,0.2859035947126618,-0.9155519746830552
2.58,0.3059146813604381,0.3119611277439082,1.4594733152644082,-0.0866838109905927,0.1433610849528648,0.0146738819927753,-0.1685163441187802,-0.6461726394768388,0.0756110908720691,0.3094927426956369,0.3159198137338548,1.469477515830667,-0.1355117543828924,-0.7498134366842183,0.2191431325273025,1.5108367309122466,0.4617626953212064,1.3921642194279438,0.3623280651949043,10.83579744544386,-0.9512632270090656,0.2861320512416516,-0.9120904973369424
2.6,0.3026440843500984,0.2993139511494762,1.461078486079863,-0.0822370761283464,0.1428231295759203,0.0156913891311717,-0.159014647536846,-0.6205148819387085,0.0846681912801853,0.2974888641544991,0.2796524957700663,1.4632538698080115,-0.1670444762175071,-0.6084773619945676,0.1052372908476789,1.4410359360745637,0.4750848290967085,1.2828878769065133,0.4528550204058068,10.83579744544386,-0.9526410662762788,0.2849009304462873,-0.9090091095492966
2.62,0.2996099480129288,0.2870995067700831,1.4626720125731865,-0.0782272898572102,0.1397158959578809,0.0168845888582932,-0.1451253467672661,-0.6016700604711435,0.0741899085749319,0.2974888641544991,0.2796524957700663,1.4632538698080115,-0.1670444762175071,-0.6084773619945676,0.1052372908476789,1.2824141106361324,0.6944650384789947,0.9422410733782528,-0.5239141352626681,10.922722479239384,-0.9574716702532888,0.2858475225309561,-0.8991442175536417
2.64,0.2969674637829734,0.2758535953116476,1.464010952895905,-0.0753249050468433,0.1326081443911737,0.0182680453375572,-0.1343755018312101,-0.5829939097685252,0.0673628454550472,0.2974888641544991,0.2796524957700663,1.4632538698080115,-0.1670444762175071,-0.6084773619945676,0.1052372908476789,1.1302284747552709,0.5374922468028023,0.933807535130915,-0.3413531559942381,9.719408143252622,-0.9583603059709724,0.2838830968606411,-0.8989034151187203
