t,x,y,z,roll,pitch,yaw,v_x,v_y,v_z,ref_x,ref_y,ref_z,ref_v_x,ref_v_y,ref_v_z,a_com,a_x,a_y,a_z,thrust,wind_x,wind_y,wind_z
0.0,0.5422461745093525,-1.5926951887482017,2.442638743016329,0.0325809217475762,0.0997890332061235,0.0423029744976895,-4.648446439747005e-05,-0.0034336388642217,-0.0002789607788177,0.5422371242743987,-1.592690885390896,2.442633648269835,-0.0678315901921715,0.0992002994802396,-0.1001986834951584,0.1722632852020637,-0.0023242232198735,-0.1716819432110881,-0.0139480389408853,10.257921440629616,-0.9398625563215836,0.2498075715004825,-0.8822554243199301
0.02,0.5423490054664097,-1.5930552273384042,2.4425037448616638,0.0221966289969492,0.0964673449766028,0.0414886540557656,0.0095743702151149,-0.0260051062375585,-0.0129146981994394,0.5422371242743987,-1.592690885390896,2.442633648269835,-0.0678315901921715,0.0992002994802396,-0.1001986834951584,1.3799400750692066,0.4810427339756188,-1.12857336866684,-0.6317868710310863,10.259145498680482,-0.941229255641723,0.2522074004818342,-0.8855900577738766
0.04,0.542590659831073,-1.5935660488109311,2.442090825983696,0.0060461998965822,0.0876818343485865,0.0402801246635753,0.0145023139083956,-0.0261161569620739,-0.0298702532401838,0.5422371242743987,-1.592690885390896,2.442633648269835,-0.0678315901921715,0.0992002994802396,-0.1001986834951584,0.882875710458829,0.2463971846640379,-0.0055525362257675,-0.8477777520372185,9.586359373035066,-0.94281795836186,0.2664424804659112,-0.8784765609786718
0.06,0.542873400060628,-1.5940259133171395,2.441289126247593,-0.0112958945098051,0.0748395164083599,0.0392028037712442,0.0128571042073027,-0.0194722581182109,-0.0494793543394804,0.541558808372477,-1.5916988823960936,2.4416316614348834,-0.0813510143922294,0.1192002997782628,-0.1201986837931816,1.038466360469238,-0.0822604850546477,0.3321949421931459,-0.9804550549648322,9.246140143793127,-0.9474598204054646,0.2789398975373372,-0.8708139119121967
0.08,0.5430555161217483,-1.5943131130167925,2.440084315941072,-0.0279408837164655,0.0607849089924845,0.0384751951322532,0.0049789271030175,-0.0092422981847068,-0.0700720618750142,0.5402021765686336,-1.5897148764064888,2.4396276877649803,-0.1083898627923454,0.1592003003743093,-0.1601986843892281,1.2152956002261472,-0.3939088552142558,0.5114979966752093,-1.0296353767766886,9.147750976158932,-0.9543302502453688,0.2900214983365723,-0.8622345726756921
0.1,0.5430216869307547,-1.5943650536039948,2.438457797622524,-0.0437587650370547,0.0474397640902332,0.0380665392011969,-0.0081482774640951,0.0038607193452707,-0.0915803649173417,0.5388455447647902,-1.587730870416884,2.437623714095077,-0.1354287111924614,0.1992003009703557,-0.2001986849852745,1.420052523586998,-0.6563602283556372,0.6551508764988789,-1.0754151521163755,9.086417685853576,-0.9613185383981432,0.2994571626870651,-0.8545304793079016
0.12,0.5427071011599914,-1.5941463162833014,2.436508599358023,-0.0580441185581356,0.0365373599292713,0.0378816854848274,-0.0243220283249503,0.0187801385326349,-0.1125531658446617,0.5361369705409409,-1.5837468643974768,2.4336197403953714,-0.1624675595925773,0.2392003015664022,-0.240198685581321,1.519899391846627,-0.8086875430427581,0.7459709593682078,-1.0486400463660013,9.086417685853576,-0.9683646886868597,0.3084398554088887,-0.8474951540694549
0.14,0.5420172091389776,-1.5935841868868552,2.4340160975381586,-0.0723442827334021,0.0275141560918068,0.0377911062126138,-0.0438511353306214,0.0369423297629132,-0.1356662649600042,0.5334283963170917,-1.5797628583780698,2.429615766695666,-0.1895064079926933,0.2792003021624487,-0.2801986861773675,1.7645584160348713,-0.9764553502835585,0.9081095615139152,-1.1556549557671234,9.083263856411122,-0.973732910956877,0.316593727702503,-0.843031565992735
0.16,0.5409087851772422,-1.5926112512374149,2.4310505289837177,-0.0852158531421202,0.021481129876662,0.0377304904054178,-0.0661192861646591,0.0593251987465945,-0.1597837772594639,0.5300438508832396,-1.5747788523437616,2.42461179298106,-0.2165452563928093,0.3192003027584951,-0.3201986867734139,1.9865282309991752,-1.1134075417018832,1.1191434491840662,-1.2058756149729843,9.051234756124812,-0.9761094343639872,0.3240618946672901,-0.8419167876031187
0.18,0.5393267952643406,-1.5911529288666184,2.4275933921945385,-0.095699695321522,0.0194078679627702,0.0375811735970507,-0.0906123493984776,0.0848198140822394,-0.1846904550539189,0.5259833342393845,-1.568794846294552,2.418607819251552,-0.2435841047929252,0.3592003033545415,-0.3601986873694603,2.162306729192884,-1.224653161690927,1.2747307667822438,-1.2453338897227508,9.045654775535697,-0.9759047388160372,0.3289604885311932,-0.8454188201630486
0.2,0.5373787316357568,-1.5892792957340829,2.42384466247624,-0.1033049670694113,0.0210563675089877,0.0372830819177642,-0.1127586803494479,0.1105908202589463,-0.2086116073341699,0.5347961777944167,-1.5869119381625063,2.4183588694418425,-0.12722136575733,0.1848198155723555,-0.284690456544035,2.0777549544909784,-1.1073165475485118,1.288550308835345,-1.196057614012548,9.045654775535697,-0.9729813019394016,0.3318917235750948,-0.8537491027212739
0.22,0.5348434701179438,-1.5866328435026251,2.419591040433533,-0.1052231985703503,0.0272904373446753,0.0369256108418806,-0.1392717393287563,0.1520791686894022,-0.2131476876590267,0.5347961777944167,-1.5869119381625063,2.4183588694418425,-0.12722136575733,0.1848198155723555,-0.284690456544035,2.4722466385055286,-1.3256529489654187,2.074417421522797,-0.226804016242843,9.04406680014472,-0.9703666217514426,0.3306730451244674,-0.8614299326735542
0.24,0.5318326593639306,-1.5832250236115404,2.415297945930794,-0.0998003236121503,0.0383676232617563,0.0366027218045561,-0.1596632007592197,0.1850969486532802,-0.2161059902895893,0.5347961777944167,-1.5869119381625063,2.4183588694418425,-0.12722136575733,0.1848198155723555,-0.284690456544035,1.9459811455067644,-1.0195730715231692,1.650888998193896,-0.1479151315281313,10.537019663234789,-0.9641852451858436,0.3264348718590258,-0.8701875750723197
0.26,0.5284763098843012,-1.5792437594605628,2.4109020163270616,-0.0922081467029748,0.0517010538646136,0.0362906200716492,-0.1743823003777374,0.2109467170104181,-0.2232646518318351,0.5335239641368433,-1.585063740006783,2.4155119648764023,-0.1345431690291005,0.2048198158703787,-0.3046904568420582,1.529794800597427,-0.7359549809258847,1.292488417856899,-0.3579330771122879,10.23886365240196,-0.954192385712418,0.3208783066374928,-0.8826190997207994
0.28,0.5250584215625008,-1.575025991063919,2.406555943059748,-0.0849821114693242,0.0651392934919663,0.0360230620810287,-0.1842574241104128,0.2317131057903775,-0.2338597168658921,0.5309795368216967,-1.581367343695336,2.4098181557455214,-0.1491867755726414,0.2448198164664252,-0.3446904574381046,1.2659150591291348,-0.4937561866337744,1.038319438997967,-0.5297532517028483,9.944678703709542,-0.9414924858257396,0.3150636849813409,-0.8981014642079911
0.3,0.5212958746035263,-1.570187017068802,2.4017280778118963,-0.0781774560545793,0.0793405615090503,0.0357821626554757,-0.1910858537329313,0.2511343010176647,-0.248563847182261,0.5284351095065501,-1.5776709473838888,2.404124346614641,-0.1638303821161824,0.2848198170624716,-0.3846904580341511,1.2649325313300808,-0.3414214811259253,0.9710597613643596,-0.7352065158184456,9.704244777112764,-0.9268647512645174,0.3095321230729728,-0.9155619409988532
0.32,0.5174386840271362,-1.5649759742123686,2.3965712202877363,-0.0724337962252693,0.0929145925939193,0.0356040891784968,-0.1939912714582228,0.2690865020320058,-0.2665603673486354,0.5251585018642265,-1.5719745510426393,2.396430537453958,-0.1784739886597234,0.3248198176585181,-0.4246904586301975,1.2792553610562565,-0.1452708862645715,0.897610050717057,-0.8998260083187201,9.505006951739231,-0.9116556792012404,0.3044208153738627,-0.9334521421613394
0.34,0.5135652876093422,-1.5594174840109136,2.3910318719279102,-0.0677677820580004,0.1049889210067356,0.035526025513879,-0.1931013922564671,0.2860573213099773,-0.286531049697669,0.5218818942219028,-1.56627815470139,2.3887367282932748,-0.1931175952032643,0.3648198182545646,-0.4646904592262441,1.31113380843193,0.0444939600877838,0.8485409638985725,-0.99853411745168,9.344263310407769,-0.8975177550852401,0.3000933937636787,-0.9498451941615372
0.36,0.5099287486014485,-1.5538201415500892,2.3853857602634454,-0.0639573371869536,0.1145547405627427,0.0355807279002929,-0.1897269150625996,0.3022629777975193,-0.3068397418299496,0.5182391964159906,-1.5595817583452394,2.3800429191176904,-0.2077612017468053,0.404819818850611,-0.5046904598222904,1.3100127620064452,0.1687238596933732,0.810282824377101,-1.0154346066140325,9.270560492313962,-0.8831830719615044,0.2961364080990024,-0.9659185890310192
0.38,0.5061883277187605,-1.5476000281201987,2.379011745110972,-0.0602814835479736,0.1224563249939778,0.0357847085174881,-0.1844688143563665,0.3188353607829373,-0.3295751023892105,0.5142304084464899,-1.5518853619741877,2.370349109927205,-0.2224048082903462,0.4448198194466574,-0.5446904604183369,1.4310731293437238,0.2629050353116557,0.8286191492709011,-1.136768027963042,9.221623590983654,-0.8707827694392647,0.2926720340905152,-0.9793776987713796
0.4,0.5025671883545885,-1.5410533982725512,2.3721706973352554,-0.0568092332558218,0.128134368651921,0.0361291980036191,-0.1780074360016609,0.3349083192339637,-0.3534140111700854,0.4969648870009422,-1.5316582600810518,2.362532989991512,-0.196378620525936,0.4188353622730534,-0.4295751038793266,1.4734169262923786,0.3230689177352794,0.8036479225513177,-1.1919454390437456,9.16815544406927,-0.8605329386336686,0.2894548425372015,-0.9906441547685394
0.42,0.4992615264422631,-1.5345321336610052,2.3654871629211143,-0.0537856890002114,0.1324111629694481,0.0365125755091472,-0.1701440472045833,0.3507643871633315,-0.3489278940922505,0.4969648870009422,-1.5316582600810518,2.362532989991512,-0.196378620525936,0.4188353622730534,-0.4295751038793266,0.9129252707516304,0.3931694398538812,0.7928033964683917,0.2243058538917458,9.13110629962921,-0.8588147257075301,0.2853123947868385,-0.9949404329153012
0.44,0.4959537135132483,-1.5273601742196543,2.358521251095256,-0.0513363367814856,0.1364525501625878,0.0368966588164359,-0.1610206726867286,0.3657759571827145,-0.3482855995515969,0.4969648870009422,-1.5316582600810518,2.362532989991512,-0.196378620525936,0.4188353622730534,-0.4295751038793266,0.8789137319965389,0.456168725892736,0.7505785009691512,0.0321147270326782,10.806650013067156,-0.8519819043193684,0.2855312730932335,-0.9984610308032762
0.46,0.4928357716773509,-1.5198892593181494,2.351501787222467,-0.0496719266496119,0.1396551785404839,0.0372721728758947,-0.1512633759575353,0.3806645258063491,-0.3536773220059414,0.4950011007956828,-1.5274699064583213,2.3582372389527184,-0.1987605817598499,0.4388353625710766,-0.4495751041773498,0.929979819870954,0.4878648364596644,0.744428431181729,-0.2695861227172247,10.441693392922389,-0.8458122418149209,0.2862325225678934,-1.001625231575736
0.48,0.4900574492942754,-1.5125192097620423,2.344690477563488,-0.0486336119945468,0.1416984701742628,0.0376408698967887,-0.1417523235156952,0.3944292084394804,-0.3630257081349306,0.4910735283851641,-1.51909319921286,2.349645736875132,-0.2035245042276777,0.4788353631671231,-0.4895751047733963,0.9582783125988728,0.475552622092007,0.6882341316565649,-0.4674193064494597,10.12770655161512,-0.8404231817111003,0.2872229279662076,-1.0042473182922955
0.5,0.4873265897846481,-1.5044841535155582,2.3372939371362778,-0.0481989204152363,0.1427684657602661,0.0380341950675039,-0.1319186363661751,0.40838358377836,-0.3762883375393331,0.4871459559746454,-1.510716491967399,2.3410542347975456,-0.2082884266955055,0.5188353637631695,-0.5295751053694427,1.0808831259339384,0.4916843574760035,0.6977187669439777,-0.6631314702201269,9.889821341663264,-0.8358508968851965,0.2886269023404857,-1.0063489358405722
0.52,0.4847891720307343,-1.49617239346798,2.329602049197624,-0.04854632446045,0.1427963911628602,0.0384217212830973,-0.1223948897490096,0.4221398808442798,-0.3923446858965894,0.4829801874407353,-1.5003397846921356,2.330462732690157,-0.2130523491633333,0.558835364359216,-0.5695751059654892,1.159465158126117,0.4761873308582728,0.6878148532959899,-0.8028174178628111,9.556087419048708,-0.832350713591339,0.2902864457139525,-1.0080605141662466
0.54,0.4824405140994561,-1.48758510605161,2.3215751443757564,-0.0497078291992751,0.1417952572890759,0.0388027498709024,-0.1130324261763643,0.4359839524553541,-0.4095306455461616,0.4788144189068252,-1.4899630774168722,2.319871230582768,-0.2178162716311611,0.5988353649552625,-0.6095751065615357,1.198615088339861,0.4681231786322681,0.6922035805537158,-0.8592979824786101,9.556087419048708,-0.8308098199658944,0.2920573705536939,-1.0086873325520271
0.56,0.4803800249488437,-1.4791571425674026,2.3136254038642803,-0.0512073438805398,0.1398501646963341,0.039189697863247,-0.1044093259479773,0.4504185430283964,-0.4264110612809983,0.4745295523112193,-1.4785863701267077,2.308279728460478,-0.2225801940989889,0.6388353655513088,-0.649575107157582,1.191284703525035,0.4311550114193464,0.7217295286521153,-0.8440207867418364,9.509107631249208,-0.8317917746992913,0.2946287347334844,-1.0064350525796009
0.58,0.4783819392695396,-1.4699794746753077,2.304903702314241,-0.0526768900069131,0.1367172394151454,0.039665778392805,-0.09595559932439,0.4665552419923964,-0.4448910269391307,0.4701255876539179,-1.466209662821642,2.2956882263232865,-0.2273441165668167,0.6788353661473553,-0.6895751077536285,1.2974664523667474,0.4226863311793664,0.8068349482000026,-0.9239982829066185,9.480034545240414,-0.834016181475169,0.2972428647229641,-1.0029394788228183
0.6,0.4765436144327654,-1.4604673652860345,2.295806234964665,-0.0535361992570035,0.1324924053325387,0.0402472447990639,-0.088428525032729,0.4837646522267005,-0.4639350099112612,0.4735841593033201,-1.446651712575688,2.282659150967284,-0.1381478758916107,0.5665552434825125,-0.5407193514954813,1.3374359194439465,0.3763537145830498,0.8604705117152028,-0.9521991486065252,9.43701646491536,-0.8372077859448638,0.2992163498845179,-0.9988212855704508
0.62,0.4749130982183213,-1.4505429786827069,2.2866330647375026,-0.051952746908797,0.126275648254608,0.0411007042710182,-0.075591161027916,0.507056501637773,-0.4523170899291092,0.4735841593033201,-1.446651712575688,2.282659150967284,-0.1381478758916107,0.5665552434825125,-0.5407193514954813,1.4511066710375191,0.6418682002406514,1.164592470553627,0.5808959991076001,9.404321107876967,-0.8429512823887624,0.2952237026864597,-0.999077575322246
0.64,0.4735712897652653,-1.4407168792531655,2.2781104116276163,-0.0479630166077958,0.1183357791164353,0.0421578280401424,-0.0667022250743423,0.5254648967491039,-0.4453834494222084,0.4735841593033201,-1.446651712575688,2.282659150967284,-0.1381478758916107,0.5665552434825125,-0.5407193514954813,1.0793025104674543,0.4444467976786839,0.9204197555665428,0.3466820253450381,11.262328692094345,-0.8513288676409391,0.2980338754981864,-0.9833429187599744
0.66,0.4722994960063709,-1.4300408566518492,2.269225642091876,-0.0431402056694056,0.1087847919563184,0.0433138878797417,-0.0613570467591918,0.540996859310718,-0.4436815653123914,0.472202680544404,-1.440986160140863,2.2772519574523296,-0.1465863312050548,0.5865552437805357,-0.5598850164067515,0.8256954671054317,0.2672589157575247,0.7765981280807022,0.0850942054908487,10.834655979106174,-0.8610778722812121,0.2989990599497327,-0.9683397356838735
0.68,0.471091843087568,-1.4190794779516855,2.260314814774853,-0.0386066137070397,0.0988798333697985,0.0444011588087725,-0.0599706147059729,0.5543647094759746,-0.4474202340965548,0.4694397230265718,-1.4296550552712126,2.26643757042242,-0.1634632418319431,0.6265552443765822,-0.5982163462292918,0.6974941866363883,0.0693216026609471,0.6683925082628328,-0.1869334392081673,10.456155962147932,-0.8722581193930495,0.2995301759228969,-0.9529024146306796
0.7000000000000001,0.4699363655409311,-1.4084332310358447,2.251740062102076,-0.0348549000208632,0.0897996127558062,0.0453283863845365,-0.0619049237935111,0.5657000775469105,-0.4549689471742398,0.4666767655087396,-1.4183239504015623,2.25562318339251,-0.1803401524588314,0.6665552449726286,-0.636547676051832,0.687777562295652,-0.0967154543769142,0.5667684035467968,-0.3774356538842505,10.143073032591928,-0.8832106288306689,0.2992803809929278,-0.9391045469823124
0.72,0.4686510019887026,-1.397005303180936,2.2425245424665423,-0.0316110965706506,0.0810804863781632,0.0461789118178402,-0.066717679675581,0.5765695522637954,-0.4663316696428554,0.463069962459563,-1.4049928455021097,2.2428922298714733,-0.1972170630857196,0.7065552455686751,-0.6748790058743723,0.8222219312633563,-0.2406377941034911,0.543473735844241,-0.5681361234307791,9.894494263740851,-0.8929602951858654,0.2985142937376639,-0.9278431411894936
0.74,0.4672447744013539,-1.385367267335318,2.2330610985020893,-0.0291039306879312,0.0735562392330392,0.0469034313844685,-0.0737758329294508,0.5867816310234344,-0.4794970529281179,0.4594631594103863,-1.3916617406026572,2.2301612763504366,-0.214093973712608,0.7465552461647216,-0.7132103356969126,0.9047532771369988,-0.352907662693494,0.5106039379819516,-0.6582691642631283,9.688981995198446,-0.9010468721173428,0.2971392806710362,-0.9197877633754894
0.76,0.4656739205637391,-1.3735218723437166,2.223319103455172,-0.0270076684617943,0.0675655856585902,0.0475273656790904,-0.0830174774646559,0.5972009660740881,-0.4940283688638452,0.4554344335955375,-1.3773306356883035,2.216472039583836,-0.2309708843394962,0.7865552467607679,-0.7515416655194529,1.0063916725569484,-0.4620822267602506,0.5209667525326866,-0.7265657967863659,9.59608243258026,-0.907288765527649,0.2959270249227107,-0.9137121202019328
0.78,0.463990712366508,-1.362077715017027,2.213783012140069,-0.0251065716230999,0.0637561171634358,0.0480427923279172,-0.0937353206826395,0.6068494183548092,-0.5090382694300467,0.4509837850150164,-1.3619995307590484,2.2018245195716726,-0.2478477949663844,0.8265552473568144,-0.7898729953419932,1.040747219148199,-0.5358921608991811,0.4824226140360543,-0.750495028310072,9.528390126450176,-0.9119379749704832,0.2943543371320425,-0.9097295655180804
0.8,0.4619834420010328,-1.3498388347580752,2.2034228686801107,-0.0231549333261377,0.0622855236391459,0.0485018305637452,-0.1063017513488293,0.6164749025442527,-0.5262462184273462,0.459303946332376,-1.3317352440992862,2.1883310986685665,-0.1471776461256689,0.7068494198449253,-0.5740870608981902,1.169057990716289,-0.6283215333094887,0.4812742094721767,-0.8603974498649747,9.46373081024285,-0.9144429937669384,0.2918733053152942,-0.9093074145520824
0.8200000000000001,0.459749167898716,-1.3373878874166325,2.1930415765941342,-0.0206998117585608,0.0633714289454414,0.0489239605633095,-0.1161027352950955,0.6278217538178203,-0.5092578113170786,0.459303946332376,-1.3317352440992862,2.1883310986685665,-0.1471776461256689,0.7068494198449253,-0.5740870608981902,1.132934570356584,-0.4900491973133136,0.5673425636783802,0.8494203555133806,11.59632003391198,-0.9137829394957204,0.2797323064691779,-0.9264493516172908
0.84,0.4573407719947582,-1.3247373617314664,2.183020011260323,-0.0180893458443833,0.066245402318567,0.0493108899638568,-0.1240459174164048,0.6367036622470521,-0.4942272880432099,0.459303946332376,-1.3317352440992862,2.1883310986685665,-0.1471776461256689,0.7068494198449253,-0.5740870608981902,0.95903476141881,-0.3971591060654651,0.4440954214615877,0.7515261636934334,11.59632003391198,-0.9137642125305888,0.2819586341964451,-0.9205526500522976
0.86,0.4549209232654705,-1.3125658431062863,2.1737112730518566,-0.0161407738837899,0.0698327148039318,0.0496209773668556,-0.1301315708941515,0.64423028269124,-0.4863582987613121,0.4578321698711193,-1.3246667499008369,2.1825902280595844,-0.1578661112142748,0.7268494201429485,-0.5870968191918189,0.6237110426325264,-0.3042826738873342,0.3763310222093974,0.3934494640948915,11.16908401472756,-0.9123774037880282,0.2838615395994991,-0.9170729137407612
0.88,0.4522641022356479,-1.2996055450218866,2.1640238401779857,-0.0148223708816259,0.0738421577328494,0.0498876942332286,-0.1351175740325294,0.6514810487338797,-0.4830182452142956,0.4548886169486059,-1.3105297615039384,2.1711084868416206,-0.1792430413914865,0.766849420738995,-0.6131163357790762,0.4706107552902582,-0.2493001569188926,0.3625383021319817,0.167002677350822,10.76939747844608,-0.910424889572235,0.285295603894178,-0.9157074551672676
0.9,0.4495204999455929,-1.2865069324794571,2.1543532182427527,-0.0145359981034383,0.0775961395285207,0.0500795107012486,-0.1389463542579712,0.6581714250943992,-0.4841942769628647,0.4519450640260926,-1.29639277310704,2.159626745623657,-0.2006199715686983,0.8068494213350415,-0.6391358523663336,0.3898837792656133,-0.1914390112720917,0.334518818025975,-0.058801587428453,10.465087062779276,-0.9079845996893402,0.2867925845922784,-0.9158181611285529
0.92,0.4467099929485953,-1.2732775485445595,2.144623598402076,-0.015499145685829,0.0807882472290961,0.0501834240320304,-0.1419124674414526,0.6646055844542074,-0.4887083132823435,0.4479326645947186,-1.280255784680339,2.14684402857633,-0.22199690174591,0.8468494219310879,-0.6651553689535911,0.4200379684570272,-0.148305659174068,0.3217079679904089,-0.2257018159739388,10.22404242056109,-0.9056820827435365,0.2886260583776751,-0.916461101258212
0.94,0.4439923234300741,-1.2605890787545462,2.1352849475177247,-0.0177170097281631,0.0831292816606536,0.0501927531245959,-0.1440494278872877,0.6709076208256401,-0.4940807045548907,0.4439202651633446,-1.2641187962536382,2.1340613115290035,-0.2433738319231218,0.8868494225271344,-0.6911748855408484,0.4276238135302671,-0.1068480222917583,0.3151018185716392,-0.2686195636273619,9.985371996658614,-0.9038322123261332,0.2909658885786046,-0.9173159520573516
0.96,0.4410889725978045,-1.2470776454180317,2.125336968190461,-0.0208229084344144,0.084845265997987,0.0501532907408472,-0.1462042274670665,0.6800812984318334,-0.5004671154215874,0.4393734424775404,-1.2469818078120365,2.120628106566995,-0.2647507621003336,0.9268494231231807,-0.7171944021281058,0.5691787193176842,-0.1077399789889382,0.4586838803096627,-0.3193205433348334,9.985371996658614,-0.903037202603213,0.2942707207636359,-0.916470387706247
0.98,0.4381422510924304,-1.2333604301573402,2.1152538611639264,-0.0236289412169512,0.0858843841315645,0.0501422444639082,-0.1484014151299921,0.6910550814824079,-0.5075171410958984,0.4342921965373058,-1.228844819355533,2.106544413690306,-0.2861276922775453,0.9668494237192272,-0.7432139187153631,0.6613516652954635,-0.1098593831462796,0.5486891525287252,-0.3525012837155505,9.947292495087822,-0.9029669758014875,0.2974322524835537,-0.914658515492614
1.0,0.4351498084718246,-1.2194138377701027,2.105022497410515,-0.0257476110131918,0.0863754919668483,0.0501875161497631,-0.1507691546490482,0.70285724177772,-0.5152573794655653,0.4307221803359308,-1.1988076760832198,2.0898780041091314,-0.1769542807395187,0.791055082972524,-0.5510451912801483,0.7155565457837777,-0.1183869759528027,0.5901080147656057,-0.3870119184833431,9.915136951661225,-0.9034412567523572,0.3003078531314284,-0.9122041174574718
1.02,0.4322263482491445,-1.2058787491637484,2.0954023463932416,-0.0251339423171184,0.0881630094627359,0.0503741766337357,-0.1562997197967101,0.7203983369614302,-0.4969419008418136,0.4307221803359308,-1.1988076760832198,2.0898780041091314,-0.1769542807395187,0.791055082972524,-0.5510451912801483,1.297819255822643,-0.276528257383099,0.8770547591855082,0.91577393118758,9.8773211815178,-0.9031776117266008,0.2951299766528888,-0.9199964395320608
1.04,0.4290613172843631,-1.191309372503888,2.0856400417630137,-0.0211548110079897,0.0924435545897521,0.0507411976172231,-0.1595562840435343,0.7349355350973195,-0.4805264620141372,0.4307221803359308,-1.1988076760832198,2.0898780041091314,-0.1769542807395187,0.791055082972524,-0.5510451912801483,1.108379416356359,-0.1628282123412094,0.7268599067944637,0.8207719413838244,11.611774154084742,-0.9030706798617508,0.2972118480272476,-0.9130873947105552
1.06,0.4258590857822628,-1.1764994608092223,2.076145528346211,-0.0161268721456709,0.0979009587286415,0.0511663164912708,-0.1602538832180644,0.7451645350316102,-0.4697172621073686,0.4289526375285357,-1.1908971252534946,2.08436755219633,-0.1826648538614241,0.8110550832705472,-0.5597508013169983,0.7449125567617162,-0.0348799587265052,0.5114499967145358,0.5404599953384298,11.259001587852254,-0.9004317933862643,0.2973937401808331,-0.9106923006673242
1.08,0.4226672039318436,-1.1615125996783149,2.0668179028840976,-0.0114361081428651,0.1035610116210815,0.0515791992794184,-0.1587597949233865,0.7530956709825338,-0.463583773909816,0.4254135519137453,-1.175076023594044,2.0733466483707272,-0.1940860001052347,0.8510550838665937,-0.5771620213906982,0.50684044524348,0.0747044147338962,0.3965567975461825,0.3066744098776275,10.630770989310804,-0.8970275851205546,0.2968381118703135,-0.9107726980696385
1.1,0.41968008827715,-1.1471411434940513,2.058033488541541,-0.0077113668749198,0.1084989904351177,0.0519361421877278,-0.1557065009161674,0.7594545924786522,-0.4613999850245074,0.4218744662989549,-1.1592549219345936,2.062325744545124,-0.2055071463490454,0.8910550844626401,-0.5945732414643982,0.3692134233201508,0.1526647003609563,0.3179460748059193,0.1091894442654284,10.630770989310804,-0.892945058051243,0.2961074645882953,-0.9122964729570696
1.12,0.4166115541615979,-1.1318901778319652,2.0488019321163,-0.0046713202525641,0.1128269541122422,0.0522623706053677,-0.1512836226719098,0.7654471853338607,-0.4620046436859926,0.417764323371974,-1.141433820245341,2.0504342797158364,-0.216928292592856,0.9310550850586866,-0.6119844615380982,0.3736262610842953,0.2211439122128802,0.2996296427604239,-0.030232933074259,10.41259169633031,-0.8889770974980016,0.2955632883705678,-0.9142620292064564
1.14,0.4136423388109883,-1.1165231666559,2.0395417559157827,-0.0025069256241587,0.1160207022863305,0.0525322066145442,-0.145882789257493,0.7710991732184692,-0.4640285938545182,0.4136541804449931,-1.1236127185560878,2.0385428148865485,-0.2283494388366667,0.9710550856547332,-0.629395681611798,0.4037646062457576,0.2700416707208372,0.2825993942304261,-0.1011975084262789,10.246526614971115,-0.8856519678728384,0.2950877584212941,-0.9162812446834258
1.16,0.4107868598225666,-1.1010367742970364,2.0302309075073817,-0.000857615773384,0.1179761431843895,0.0527641711444295,-0.1400324665911192,0.7772521919634896,-0.4669503588883439,0.4092585088619169,-1.1047916168519338,2.026216069555418,-0.2397705850804773,1.0110550862507794,-0.646806901685498,0.4489505147846089,0.2925161333186904,0.3076509372510194,-0.146088251691287,10.181490041226423,-0.8834477863681867,0.2950382831474147,-0.9171334165719656
1.18,0.4080492271026774,-1.0854267602200336,2.0208538426648133,0.0006106294172386,0.1187694872678006,0.0529769079141571,-0.1341366929277116,0.7833894397681551,-0.4706042032542114,0.4045773086227455,-1.0849705151328788,2.013454043722445,-0.251191731324288,1.0510550868468258,-0.6642181217591979,0.4630781153217655,0.29478868317038,0.3068623902332756,-0.1826922182933704,10.138954290666334,-0.8823389460957834,0.2951737096230284,-0.9167659358873432
1.2,0.4055559365437572,-1.0704852842610066,2.0118711081033807,0.0019219338975538,0.1185570877208452,0.0531640372500535,-0.1287026417115314,0.7890382283602012,-0.4747565894283049,0.4013423924562918,-1.046257288231626,1.9973236325021029,-0.1841442150338823,0.8833894412582712,-0.4867486186178807,0.4435088390226933,0.271702560809009,0.2824394296023047,-0.207619308704679,10.09916895306378,-0.8825089457101577,0.2953290602803631,-0.9152356516189284
1.22,0.4030990677056805,-1.0546204140854245,2.002526800697411,0.0039615133283329,0.1162362391742504,0.0533894804626459,-0.117102768852021,0.7967467690124782,-0.4583753784206341,0.4013423924562918,-1.046257288231626,1.9973236325021029,-0.1841442150338823,0.8833894412582712,-0.4867486186178807,1.0750845587934574,0.5799936429755216,0.3854270326138498,0.8190605503835408,10.057546852740415,-0.8866171261844364,0.2890769006863559,-0.9183293509929328
1.24,0.4008778718020461,-1.0386321003098116,1.9935254937059967,0.0063304117014848,0.1102608337826633,0.0536000311279601,-0.1062339418883572,0.8017063620967699,-0.4428044481541432,0.4013423924562918,-1.046257288231626,1.9973236325021029,-0.1841442150338823,0.8833894412582712,-0.4867486186178807,0.9813037660323914,0.543441348183192,0.2479796542145862,0.7785465133245434,11.180883334117423,-0.8940158590830652,0.2935705648820438,-0.9028917313402705
1.26,0.3988316660445955,-1.0225605337479728,1.984797620628859,0.0080912827602681,0.1014702681379426,0.0537229360557984,-0.0994977424070995,0.8053703013455773,-0.4306872209562095,0.3995009503059529,-1.0374233938190431,1.992456146315924,-0.1941457194551164,0.9033894415562944,-0.4899775016906146,0.7169868011975394,0.3368099740628828,0.1831969624403684,0.6058613598966867,11.180883334117423,-0.9031288512843804,0.29753009451794,-0.886912688422661
1.28,0.39697073334123,-1.0072341593137275,1.9767058229330523,0.0088914282665772,0.0917008924384376,0.0537467849476102,-0.0971227798473328,0.8078921418719586,-0.4216390053662503,0.3958180660052753,-1.019755604993878,1.9827211739435664,-0.2141487282975847,0.9433894421523408,-0.4964352678360824,0.4844335149511579,0.1187481279883335,0.1260920263190634,0.4524107794979609,10.781184613554617,-0.913991041929216,0.3012582030336528,-0.869905631565055
1.3,0.3950188461659614,-0.9910576928198682,1.9683548178190424,0.008427203640289,0.0809464065994034,0.0536688390920764,-0.0985724027520597,0.8097470969711873,-0.413998171828298,0.3921351817045976,-1.0020878161687123,1.9729862015712083,-0.2341517371400529,0.9833894427483874,-0.5028930339815502,0.3997643122539835,-0.072481145236343,0.0927477549614363,0.3820416768976153,10.650213410197466,-0.9252110943025492,0.3049219797570949,-0.8533707271183553
1.32,0.3929974685963025,-0.9748490038240316,1.960137949681945,0.00624344652478,0.0705524452451364,0.0534873274604873,-0.1037425035372867,0.8112837906102638,-0.4080309091480796,0.3874521469617966,-0.9824200273137446,1.9629283408915776,-0.2541547459825212,1.0233894433444335,-0.5093508001270179,0.4021802871987572,-0.2585050392613509,0.0768346819538245,0.2983631340109177,10.650213410197466,-0.935554163533271,0.3087619314056429,-0.8384390233244385
1.34,0.3909504194962648,-0.9594088016265736,1.9524400762271972,0.0027677655056581,0.0615868357649128,0.0532548711609713,-0.1116250591114679,0.814399172137823,-0.4025434639090368,0.3827691122189955,-0.9627522384587768,1.9528704802119463,-0.2741577548249895,1.0633894439404803,-0.5158085662724857,0.504857256295791,-0.3941277787090573,0.1557690763779595,0.2743722619521438,10.549292167881504,-0.9460396251382148,0.3129761086161798,-0.8237850922500579
1.36,0.3886054140129371,-0.9430606717430088,1.944450476092445,-0.0011363927423592,0.0535346595085694,0.0530374619897148,-0.1225834270770132,0.8203067493209142,-0.3966884800776349,0.3775860022551328,-0.942084449588908,1.9426511753786788,-0.2941607636674578,1.1033894445365269,-0.5222663324179534,0.6878701409213219,-0.5479183982772674,0.2953788591545603,0.2927491915700936,10.532329588760147,-0.9557383584468604,0.3173631945830819,-0.8096539763351369
1.38,0.3860129640464594,-0.9265767150755724,1.93657718476246,-0.0045393912451622,0.0473724509896437,0.0528865063591069,-0.1361895899082972,0.8276696056638296,-0.3909187472401341,0.3719028170702083,-0.920416660704138,1.9322704263917745,-0.314163772509926,1.143389445132573,-0.5287240985634212,0.825574250951963,-0.6803081415641967,0.3681428171457723,0.2884866418750409,10.531507379330831,-0.9635432573756868,0.3213475089928044,-0.7974694768777644
1.4,0.3832738050522727,-0.9107727101811032,1.929201319187016,-0.0070903215852041,0.0439177020329671,0.0527991051203434,-0.1514858383448861,0.8353795532667486,-0.3857661051019553,0.3792034845510446,-0.885193234792381,1.9170312474004527,-0.191631464919026,0.9276696071539458,-0.3866308016678472,0.8943827889636272,-0.7648124218294485,0.3854973801459493,0.2576321069089393,10.528637670130593,-0.9697528772567586,0.3248749620037162,-0.7872752665746354
1.42,0.3800444909977289,-0.893911170884113,1.9216615996696689,-0.0069872806935772,0.0440736991383968,0.0528809887709674,-0.1701235369195436,0.8497423050419232,-0.3677866259564107,0.3792034845510446,-0.885193234792381,1.9170312474004527,-0.191631464919026,0.9276696071539458,-0.3866308016678472,1.4806367862005696,-0.9318849287328748,0.7181375887587271,0.8989739572772271,10.516981704237878,-0.976607888012851,0.3235438663909149,-0.7819761494265385
1.44,0.376471001222826,-0.8767973559342807,1.9144911976480452,-0.0033898604593885,0.0478916906051227,0.0531824292454928,-0.1858406992771346,0.860344772167261,-0.3502912344304968,0.3792034845510446,-0.885193234792381,1.9170312474004527,-0.191631464919026,0.9276696071539458,-0.3866308016678472,1.2898936258116054,-0.7858581178795482,0.5301233562668928,0.8747695762956947,11.37494629205321,-0.9783842798574148,0.3240821315741962,-0.7770930589480808
1.46,0.372617418019589,-0.8595219800702341,1.9076378880670328,0.0011891321892546,0.0538849248744024,0.0535586785827312,-0.1983551518170765,0.8665811350671633,-0.335884713621525,0.3772871699018543,-0.8759165387208415,1.9131649393837744,-0.2027198399211718,0.9476696074519688,-0.3857732125533898,1.0038072354952874,-0.625722626997098,0.3118181449951129,0.7203260404485934,10.97878227349247,-0.977166541984648,0.3234235311601251,-0.7770329896882442
1.48,0.3687548322955356,-0.8430195450800434,1.9013678127940503,0.0050484631956238,0.0605005266581785,0.0539026961773104,-0.20738472429324,0.8703980621626173,-0.3248349150237211,0.3734545406034738,-0.8573631465777627,1.9054323233504176,-0.2248965899254633,0.9876696080480154,-0.3840580343244751,0.7385799899237866,-0.4514786238081741,0.1908463547727001,0.5524899298901931,10.800024386568111,-0.9744865736716652,0.3223349818929326,-0.7796255368842085
1.5,0.3645321146890912,-0.8255809666107206,1.8949731099312224,0.0081352206702545,0.0675412273961551,0.05421590586495,-0.2142192331063668,0.8734569247555285,-0.3153145304907111,0.3696219113050932,-0.8388097544346838,1.8976997073170607,-0.2470733399297548,1.0276696086440618,-0.3823428560955604,0.6056089347412972,-0.3417254406563388,0.1529431296455607,0.4760192266505009,10.800024386568111,-0.9710815865149618,0.3215095007365643,-0.7833453731258085
1.52,0.3601973468208609,-0.8080854865493365,1.88874851846212,0.0101408349054095,0.073993359085126,0.0544612238244384,-0.2188023301091575,0.8761318363807492,-0.3077014339130191,0.3646804445064981,-0.8182563622618025,1.8900528501951492,-0.2692500899340464,1.067669609240108,-0.3806276778666456,0.4640020739204636,-0.229154850139536,0.1337455812610355,0.3806548288846023,10.66750660319849,-0.9677283962754892,0.3212989926410233,-0.7867916875777354
1.54,0.3557917273619037,-0.7905418760180162,1.8826646488674057,0.0109704074417166,0.0793782352836812,0.054618428460362,-0.2215369501572264,0.8783009767742237,-0.3010667768707612,0.359738977707903,-0.7977029700889212,1.8824059930732384,-0.2914268399383379,1.1076696098361547,-0.3789124996377309,0.3748399355801239,-0.1367310024034437,0.1084570196737244,0.3317328521128926,10.559721586600972,-0.9646351985238766,0.3216153265339602,-0.7898296662956623
1.56,0.3515658125562279,-0.7738291130529102,1.8770031454601903,0.0107726406250264,0.0833489131278121,0.0546854455572187,-0.2231898464044714,0.8808893821771631,-0.2952157675027216,0.3542430921592006,-0.7761495779011389,1.87480201540705,-0.3136035899426295,1.147669610432201,-0.3771973214088162,0.3304021003225071,-0.0826448123622494,0.1294202701469682,0.2925504684019808,10.515402307384647,-0.9623980711683991,0.322867672799852,-0.7912303437196428
1.58,0.3470897344876188,-0.7561787100925521,1.8711612721649709,0.0097524575323215,0.0863596934487112,0.054683427033184,-0.2243520507992137,0.884067120930256,-0.2892887233323044,0.348192787860391,-0.7535961856984553,1.8672409171965845,-0.335780339946921,1.1876696110282474,-0.3754821431799015,0.3412425648865618,-0.0581102197371175,0.1588869376546453,0.2963522085208614,10.48058394596228,-0.9611468998559668,0.3248410478154904,-0.7910190334116154
1.6,0.3425936124788054,-0.7384568385780629,1.8654360258914564,0.0081102761231203,0.0882688157282693,0.054624169579565,-0.2252481595050466,0.888003302038976,-0.2835363232241332,0.3358721319476581,-0.7119753540460393,1.856696835998356,-0.2312691511989463,0.970043714126648,-0.2948480234047955,0.3513781422406689,-0.0448054352916449,0.1968090554360035,0.2876200054085565,10.48058394596228,-0.960890608145024,0.3274415089838798,-0.7891844139288122
1.62,0.3379888820836821,-0.720546926875813,1.85986440710628,0.0094900325008175,0.0920620079238058,0.0547890854711503,-0.2347473002338575,0.9019807482618722,-0.2736884256373245,0.3358721319476581,-0.7119753540460393,1.856696835998356,-0.2312691511989463,0.970043714126648,-0.2948480234047955,0.977987428830224,-0.4749570364405417,0.6988723111448103,0.4923948793404353,10.47031409371266,-0.9597792717898632,0.3296800636005038,-0.7870120784680915
1.64,0.3334698766878057,-0.7033289938700836,1.8547479536307443,0.0147690087161461,0.0993099273294939,0.0552738963701704,-0.2398759576153965,0.908947414214087,-0.2654051262296253,0.3358721319476581,-0.7119753540460393,1.856696835998356,-0.2312691511989463,0.970043714126648,-0.2948480234047955,0.5988543439446536,-0.2564328690769529,0.3483332976107367,0.4141649703849587,10.789810598021177,-0.9564847958062922,0.3272896978170999,-0.791294449723122
1.66,0.3286549689679855,-0.6851209895552112,1.8495086230885085,0.0208749055000883,0.1088701866213179,0.0558943935170868,-0.2409084069907072,0.9114451930391309,-0.2590949772368162,0.3335594404356686,-0.7022749169047728,1.8537483557643075,-0.2326525712788928,0.9872390327659264,-0.2959598834192938,0.3432303566224427,-0.0516224687655331,0.1248889412521936,0.3155074496404592,10.645782153083928,-0.949916098336282,0.3238553639719663,-0.7999947178465975
1.68,0.3238652658904539,-0.6668904561343738,1.8443670030511048,0.0261533716882347,0.1189454249713165,0.0565172640993989,-0.2377409470883549,0.9117220585183105,-0.2554033710198193,0.3289340574116897,-0.6828740426222398,1.847851395296212,-0.2354194114387859,1.0216296700444834,-0.2981836034482902,0.2436052810795609,0.158372995117613,0.0138432739589799,0.1845803108498439,10.490993125073146,-0.9420750358909104,0.3206880693123429,-0.8100149818992453
1.7,0.3194090402603947,-0.6495771569604073,1.839532154938556,0.0300490410067868,0.1279182644849066,0.0570517489568656,-0.2313919211773331,0.9109996036565776,-0.2537346856638251,0.3243086743877108,-0.6634731683397069,1.841954434828116,-0.2381862515986789,1.05602030732304,-0.3004073234772867,0.3302142556862804,0.3174512955510924,-0.0361227430866417,0.083434267799709,10.358744932362242,-0.9333419798792996,0.3179367400029182,-0.820613302013031
1.72,0.3148768528984871,-0.6313712555809979,1.8344639660952,0.0329614822663771,0.1359992921940034,0.0575137784996095,-0.2220678301262055,0.9098468815154414,-0.2532393065827155,0.3195449493557372,-0.6423527621932461,1.83594628835857,-0.240953091758572,1.0904109446015968,-0.3026310435062831,0.4704063209034948,0.4662045525563804,-0.0576361070568132,0.024768954055479,10.268802330353536,-0.925064065076764,0.3160299473460927,-0.8300041492483616
1.74,0.310554180590334,-0.6131907345196098,1.829397662942584,0.0347279918900569,0.1422312660888408,0.05784491967637,-0.2106629409125209,0.908426619577577,-0.253447042493954,0.3147812243237636,-0.6212323560467853,1.8299381418890244,-0.243719931918465,1.1248015818801538,-0.3048547635352796,0.5747429776808566,0.5702444606842285,-0.0710130968932187,-0.0103867955619257,10.217298393640704,-0.9179603891414408,0.3149976825200709,-0.8374730334890099
1.76,0.3064755619452187,-0.5950344291776309,1.8243247047143485,0.0355452073820434,0.1463581172386613,0.0580367538013216,-0.1979215870090078,0.9073462567048922,-0.2538437842549737,0.3099483282877928,-0.5992521839683606,1.8238744024187536,-0.246486772078358,1.1591922191587103,-0.3070784835642761,0.6396614089816984,0.637067695175654,-0.0540181436342379,-0.0198370880509834,10.2002733766858,-0.9128210642348434,0.3148999528071701,-0.8421776493445046
1.78,0.302842948244082,-0.5778044755886237,1.819498800607643,0.0356305066336305,0.1483545618535089,0.0580981833424884,-0.1852689141739664,0.9064228407130877,-0.2541223948766363,0.3050462612478245,-0.5764122459579719,1.8177550699477585,-0.2492536122382511,1.1935828564372677,-0.3093022035932726,0.6344691695484892,0.6326336417520728,-0.0461707995902338,-0.0139305310831283,10.205286089792937,-0.9091894710969152,0.3155994765310458,-0.8446512163229628
1.8,0.2992790579625768,-0.5596852418019742,1.8144151712967944,0.0350506752547094,0.1485809284331471,0.0580443175139245,-0.1718740109984624,0.9055868099790528,-0.2542081224759528,0.2935795025353837,-0.5324833335529693,1.806792680863811,-0.2066863941360769,0.9336969184712806,-0.2597812412251604,0.6710620829898357,0.6697451587752007,-0.041801536701741,-0.0042863799658288,10.219567140668005,-0.9074844403492688,0.3169168006201213,-0.8447943045357315
1.82,0.2960096278360966,-0.5413593045297894,1.8093766584437243,0.0409169451086734,0.1458080411097439,0.0583184067672941,-0.1555055225493714,0.9236722147430876,-0.2495075701359289,0.2935795025353837,-0.5324833335529693,1.806792680863811,-0.2066863941360769,0.9336969184712806,-0.2597812412251604,1.242079377383252,0.8184244224545473,0.9042702382017488,0.2350276170011947,10.23428720859738,-0.9130938151766672,0.3150968151888919,-0.8382855821544973
1.84,0.2930653955778589,-0.5228381532567652,1.8044258844861216,0.0536046769981337,0.1388674781835994,0.0588120189865861,-0.1404248672814111,0.9262826023587238,-0.2457937461212653,0.2935795025353837,-0.5324833335529693,1.806792680863811,-0.2066863941360769,0.9336969184712806,-0.2597812412251604,0.787452817041784,0.7540327633980132,0.1305193807818072,0.1856912007331818,10.507805985348568,-0.9174021094458396,0.3101232473527948,-0.831010652313733
1.86,0.2905073974150504,-0.5052902737853207,1.7997697960030348,0.0662476129644291,0.1298139219157889,0.0590503177750556,-0.130032420020751,0.9206216110536052,-0.2444771843575613,0.2915126385940229,-0.5231463643682565,1.8041948684515596,-0.210969890128499,0.9391517340229192,-0.2609130104948652,0.59536358114156,0.5196223630330093,-0.2830495652559384,0.0658280881852005,10.402273602752755,-0.9230178849381316,0.3022908584356641,-0.8250125426621796
1.88,0.2879846226044921,-0.4869876154286457,1.7948771693229983,0.0781471742271305,0.1191186919696148,0.0589575424295248,-0.1232125187516096,0.9100179810744128,-0.2449068259087336,0.2873789107113013,-0.5044724259988309,1.7989992436270563,-0.2195368821133432,0.9500613651261964,-0.2631765490342748,0.6307388800425965,0.3409950634570696,-0.5301814989596143,-0.0214820775586169,10.261034386953725,-0.9298462691827128,0.2941265381307525,-0.8188965215850372
1.9,0.2855560690157793,-0.4689332994355396,1.7899585103723603,0.0878390041656243,0.1083766326306615,0.0585512294662771,-0.1202710568459758,0.8963724029772868,-0.24688644061458,0.2832451828285798,-0.4857984876294052,1.793803618802553,-0.2281038740981874,0.9609709962294736,-0.2654400875736845,0.7049341709171528,0.147073095281687,-0.6822789048562983,-0.0989807352923172,10.157205750120738,-0.9363808292193352,0.2867129088223434,-0.8137511422428968
1.92,0.2831508599115271,-0.4511723366421697,1.7849912791909923,0.0952734861431711,0.0984212215903926,0.057934594349927,-0.1205797008352675,0.8808839445054246,-0.2496912336943161,0.278683105346616,-0.4665790677048158,1.7884948170510793,-0.2366708660830316,0.9718806273327508,-0.2677036261130941,0.7871697262453333,-0.0154321994645843,-0.7744229235931099,-0.1402396539868039,10.08335185559099,-0.94285688484577,0.279494482578517,-0.8093689458067548
1.94,0.2808349118711346,-0.4345982144617998,1.7802183791707982,0.1003845075872842,0.0901844854245056,0.0572492607074112,-0.1232689033139934,0.864988383437571,-0.252536629854559,0.2741210278646523,-0.4473596477802263,1.7831860152996055,-0.2452378580678758,0.982790258436028,-0.2699671646525037,0.8185306209027469,-0.134460123936296,-0.7947780533926807,-0.1422698080121479,10.04657654485618,-0.9485234385772412,0.2730025221311226,-0.8063177279981568
1.96,0.2783209157452949,-0.4174800336807662,1.7751375292456997,0.1040724301631256,0.0831065361980984,0.0565162926086308,-0.1281137273397328,0.8479240293817758,-0.2553673767125497,0.2693447755830674,-0.4278674870780549,1.7778206250846469,-0.2538048500527201,0.9936998895393052,-0.2722307031919134,0.8981614929342325,-0.2422412012869683,-0.8532177027897603,-0.1415373428995336,10.045376095254142,-0.95297332322544,0.2670013953338452,-0.8051434009697368
1.98,0.2756878315344473,-0.4007095614908227,1.7700025394831616,0.1062802967928768,0.0780774566087413,0.0558615137333523,-0.1350268193992754,0.8303572580558114,-0.2579634524885904,0.2643543485018614,-0.4081025855983016,1.7723986464062025,-0.2623718420375642,1.0046095206425825,-0.274494241731323,0.9527878909775532,-0.3456546029771315,-0.8783385662982202,-0.1298037888020325,10.061637518294448,-0.9555985600488917,0.2612996178101134,-0.8065900220768059
2.0,0.2728980517063693,-0.3842968083364337,1.764818010023667,0.1071151777067323,0.0756621515266976,0.0553731861903631,-0.1435641041988173,0.8120450551576228,-0.2603493226872104,0.2689364905644835,-0.3591916985880322,1.757104366858732,-0.1745927290531775,0.8096746642482333,-0.2462623463947664,1.0172442962946238,-0.4268642399770928,-0.9156101449094288,-0.119293509931001,10.08727161938259,-0.9561180532503556,0.2561360395827305,-0.8107849304859828
2.02,0.2700962854474154,-0.3689210529357498,1.7598853516332038,0.1105881239740805,0.0755501934393841,0.0553222500938297,-0.1506284853116034,0.8056935165372858,-0.2587974026273693,0.2689364905644835,-0.3591916985880322,1.757104366858732,-0.1745927290531775,0.8096746642482333,-0.2462623463947664,0.4812898794501576,-0.3532190556393061,-0.3175769310168497,0.0775960029920558,10.114143461386448,-0.9574290977064276,0.2497600998376852,-0.8145781743321994
2.04,0.2670233679980761,-0.3529622484840005,1.7547214892064384,0.1176929284042111,0.0766533746508422,0.055632627511201,-0.1561325366759059,0.7900077442594857,-0.2577505941792883,0.2689364905644835,-0.3591916985880322,1.757104366858732,-0.1745927290531775,0.8096746642482333,-0.2462623463947664,0.8328172688214022,-0.2752025682151243,-0.7842886138900051,0.0523404224040457,10.274897881105971,-0.9557109720137296,0.2409199125684942,-0.821755045856154
2.06,0.2638565876491728,-0.3373760125736013,1.7495697566082349,0.1247455026201579,0.0783570974151429,0.0560010105681252,-0.160175574686062,0.7694379610044548,-0.2575015383242104,0.2671905632739517,-0.3510949519455498,1.7546417433947843,-0.1825059109839579,0.8055381454867176,-0.2439221251760016,1.0482415851432645,-0.2021519005078076,-1.028489162751545,0.0124527927538947,10.26427906567551,-0.9531039588592886,0.2318651725795638,-0.8301093690012584
2.08,0.2607858782098334,-0.3229784327678875,1.744676062974355,0.1301938807535212,0.080076715729909,0.0562688974120128,-0.1628400117338581,0.7474695604825171,-0.2576173159739499,0.2636987086928882,-0.3349014586605852,1.749716496466889,-0.1983322748455187,0.7972651079636864,-0.2392416827384721,1.1064845804823948,-0.1332218523898032,-1.0984200260968855,-0.0057888824869706,10.271331398745131,-0.9497110645344072,0.2225512539804982,-0.839820141660215
2.1,0.2575090623500682,-0.308285257841404,1.7395231160801057,0.1343807774421773,0.0816426919900676,0.0564013727651867,-0.1646901824226695,0.7232629414140777,-0.2576407171997,0.2602068541118246,-0.3187079653756205,1.7447912495389937,-0.2141586387070795,0.7889920704406552,-0.2345612403009425,1.2138616950868415,-0.0925085344405704,-1.210330953421973,-0.0011700612875059,10.271331398745131,-0.9465835501288532,0.2143924356716995,-0.8487875138268653
2.12,0.2542032364076922,-0.2940852119493054,1.734373515585676,0.1369860897988838,0.0827158837394023,0.056344721758568,-0.165829797856682,0.6982610904337956,-0.2572636211110897,0.255923681337683,-0.3029281239668074,1.7401000247329748,-0.2299850025686404,0.780719032917624,-0.2298807978634129,1.2515325377689108,-0.0569807717006251,-1.2500925490141035,0.0188548044305125,10.2976203561293,-0.9442632255366128,0.2076712928590116,-0.8562789228315497
2.14,0.2508803886986074,-0.280395359053259,1.729239054650015,0.1379155011449131,0.0831449408603797,0.0560689711776137,-0.1664958809840326,0.6723037552933773,-0.2561745547754955,0.2516405085635415,-0.2871482825579943,1.735408799926956,-0.2458113664302012,0.7724459953945928,-0.2252003554258834,1.2994354349176618,-0.0333041563675265,-1.2978667570209157,0.0544533167797123,10.33732562870955,-0.942513805760073,0.2019021263279195,-0.8631627391158491
2.16,0.2477115413232717,-0.2678814239813133,1.7243889466765157,0.1368797964854004,0.0829817320561534,0.0555827946437584,-0.1671206911044778,0.6465794609447364,-0.2543836600073973,0.2469616766928608,-0.271575267087257,1.7308345861818757,-0.261637730291762,0.7641729578715615,-0.2205199129883538,1.289706373067654,-0.031240506022262,-1.2862147174320435,0.0895447384049091,10.456852885558874,-0.941188111913091,0.1973893848918675,-0.8694661690927876
2.18,0.2443610780860791,-0.2552365382687504,1.71933036617613,0.1334398327193648,0.0823253811941364,0.0548337946730567,-0.167985040579413,0.6198780352023344,-0.2514385338146923,0.2418871857256412,-0.2562090775545954,1.726377383497733,-0.2774640941533228,0.7558999203485303,-0.2158394705508243,1.343862906868465,-0.0432174737467594,-1.3350712871200987,0.1472563096352491,10.52179077481196,-0.9413247406539612,0.1955604664264062,-0.873202076270187
2.2,0.2409891477918614,-0.2430968183575386,1.7143469178568849,0.1284441521566647,0.0812685463816922,0.0539236359029481,-0.1692429576118627,0.5958451251498987,-0.2469506319365241,0.2359618260571085,-0.2242426365086336,1.7067584394853952,-0.1885282116722808,0.5892709998187523,-0.2341623752583502,1.224034705509873,-0.0628958516224839,-1.2016455026217845,0.2243950939084082,10.52179077481196,-0.9426564118794062,0.1958665862022909,-0.8746386110117973
2.22,0.2375306276075549,-0.2313550706246024,1.7094114495361454,0.1246280795125034,0.0814455331049415,0.0532559530534449,-0.1763736336289376,0.57889460630745,-0.2472156861119342,0.2359618260571085,-0.2242426365086336,1.7067584394853952,-0.1885282116722808,0.5892709998187523,-0.2341623752583502,0.9195608778169596,-0.3565338008537491,-0.8475259421224346,-0.0132527087705044,10.255706670008294,-0.9397927861466108,0.1975078912246792,-0.8774697656010809
2.24,0.2341278459262961,-0.2205372325775986,1.7047199327374682,0.1225190232290964,0.0837805776833185,0.0529925867892321,-0.1811846856891233,0.5605811348998443,-0.2466061267298029,0.2359618260571085,-0.2242426365086336,1.7067584394853952,-0.1885282116722808,0.5892709998187523,-0.2341623752583502,0.9472341573805212,-0.2405526030092822,-0.9156735703802876,0.0304779691065681,10.255706670008294,-0.938188909541053,0.1940738931495962,-0.8843921313229233
2.26,0.230472646474551,-0.209537162833254,1.6998079667239534,0.1206643999265419,0.0873914069339889,0.0528709558737151,-0.1838779504755416,0.5404474006611074,-0.2445621487276536,0.2340765439403857,-0.2183499265104461,1.7044168157328117,-0.1926368458908544,0.5831495927420359,-0.2307071435470817,1.0207825131720227,-0.1346632393209132,-1.006686711936844,0.1021989001074613,10.361102087214933,-0.935289754698766,0.1908563415854522,-0.8921165714551806
2.28,0.2267869504051507,-0.1989429282765552,1.6949506117110067,0.1187446927050946,0.0913447899793054,0.0527726799102872,-0.1844217551423126,0.5201083840954568,-0.2412224733445067,0.2303059797069401,-0.2065645065140711,1.6997335682276449,-0.2008541143280015,0.5709067785886031,-0.2237966801245449,1.0309276769470908,-0.0271902333385504,-1.0169508282825312,0.1669837691573458,10.451722085023905,-0.932071445666411,0.1884081491257652,-0.8992491504871984
2.3000000000000003,0.223110668686587,-0.1887544114846904,1.6901729648636556,0.1165781049720622,0.0949913064773447,0.0526064977801032,-0.1831547817958364,0.4999524713628288,-0.2367115168733725,0.2265354154734944,-0.194779086517696,1.6950503207224776,-0.2090713827651487,0.5586639644351702,-0.216886216702008,1.0346675406023718,0.0633486673238092,-1.0077956366314005,0.2255478235567085,10.53122099792654,-0.9287817247369128,0.1867040789958962,-0.9057995946210562
2.32,0.219655072027158,-0.1794448976879699,1.6857269026106312,0.114277520134095,0.0977854941226188,0.0523409503175281,-0.1806898363930666,0.4811745436123264,-0.2315165003874477,0.2223539878181915,-0.1836058072289926,1.6907125963884375,-0.2172886512022958,0.5464211502817373,-0.2099757532794712,0.981930143557515,0.1232472701384865,-0.9388963875251176,0.2597508242962412,10.599740046031911,-0.926079961120697,0.1858181883183429,-0.9109970733270588
2.34,0.2160765392849055,-0.1700239332655884,1.6811596227208656,0.1116667738814627,0.0998038286731543,0.0519315122053812,-0.1773237962337194,0.4620406587385058,-0.225454704098855,0.2181725601628885,-0.1724325279402892,1.6863748720543974,-0.225505919639443,0.5341783361283045,-0.2030652898569343,1.0175720502295609,0.1683020079673636,-0.9566942436910308,0.303089814429637,10.659432603623827,-0.9241832208030948,0.1856697283281368,-0.9146766296119138
2.36,0.2125692734452033,-0.1609819608589574,1.6767192816528038,0.1088469733416317,0.1008263002773173,0.0513878333977935,-0.1736380754324444,0.443280140913716,-0.2188465659847123,0.2137857007966568,-0.1615653190054216,1.6822099093059206,-0.2337231880765901,0.5219355219748717,-0.1961548264343975,1.0114458169061635,0.1842860400637469,-0.9380258912394884,0.330406905707134,10.730953663124636,-0.9231865416620308,0.1860479438055878,-0.9170081864866098
2.38,0.2091363655209516,-0.1523096720991415,1.672417562249015,0.1057786307979985,0.100914905721039,0.0507206223904036,-0.169959511540514,0.4250935113741527,-0.2116376255696518,0.2091934097194965,-0.1510041804243899,1.6782177081430072,-0.2419404565137372,0.5096927078214388,-0.1892443630118606,0.995306671614612,0.1839281945965235,-0.9093314769781646,0.3604470207530227,10.763709105831367,-0.9231412344653588,0.1869470468890116,-0.9179029080660314
2.4,0.2059407908571977,-0.1444012242878548,1.6684697979761165,0.1026874511952285,0.1002530032935353,0.0499951611588831,-0.1666961477106652,0.4084535888398856,-0.2042586801409884,0.2006383899439259,-0.1310549965304339,1.6618356809705324,-0.1670523976699081,0.3983582465662132,-0.1754237433021767,0.9246423647437536,0.1631681914924396,-0.8319961267133552,0.3689472714331704,10.763709105831367,-0.9240970839510196,0.1883005605998828,-0.9175606274105604
2.42,0.2025874695862234,-0.1363998895228624,1.664428643698592,0.0995744816481256,0.1004075080524101,0.0493289827908752,-0.1687074801132362,0.3925937935128964,-0.2004600946383993,0.2006383899439259,-0.1310549965304339,1.6618356809705324,-0.1670523976699081,0.3983582465662132,-0.1754237433021767,0.8215957303748929,-0.1005666201285518,-0.7929897663494612,0.1899292751294551,10.793150661391335,-0.92101136276801,0.1903146056187672,-0.9198761898262106
2.44,0.1992068713068,-0.1287125988521689,1.6604720540874969,0.0967060822117417,0.1025424333511636,0.0488741949518247,-0.1689932350786941,0.3769962535631874,-0.1952739809135107,0.2006383899439259,-0.1310549965304339,1.6618356809705324,-0.1670523976699081,0.3983582465662132,-0.1754237433021767,0.8219803585708887,-0.0142877482728925,-0.7798769974854514,0.2593056862444293,10.544102435051173,-0.9203189748961204,0.1897082043262424,-0.923344612738321
2.46,0.195843599219609,-0.1213339299318432,1.6566404100912888,0.09394800009084,0.1056423228693842,0.0485129637759761,-0.1671685475381619,0.3617520896271605,-0.18816167386596,0.1989678659672268,-0.1270714140647717,1.6600814435375106,-0.166470974895787,0.3930111936046253,-0.1681809668486817,0.8460185137863061,0.0912343770266069,-0.762208196801345,0.3556153523775363,10.657890818896703,-0.9187059705670788,0.1898140790820573,-0.92671467995965
2.48,0.1927007572370462,-0.1146020730074425,1.6531459746482622,0.0913904225071133,0.1087995507010883,0.0481858575583441,-0.1636803909456201,0.3477149806518092,-0.1800350358197953,0.1956268180138287,-0.1191042491334475,1.656572968671467,-0.1653081293475446,0.3823170876814495,-0.1536954139416916,0.8295328666384343,0.1744078296270892,-0.7018554487675632,0.4063319023082351,10.7617397914737,-0.9166625636217725,0.1906337305518089,-0.9297085342223036
2.5,0.1894796305797882,-0.1077979016930427,1.6496462095274025,0.0887763908585377,0.1118348656350404,0.0478125206737035,-0.1585537664549214,0.3335143238476564,-0.1703191501651993,0.1922857700604305,-0.1111370842021232,1.6530644938054235,-0.1641452837993023,0.3716229817582737,-0.1392098610347016,0.8976906014757362,0.256331224534935,-0.7100328402076389,0.4857942827298026,10.845691169529346,-0.9148623856906672,0.1920768560582808,-0.9316603469160908
2.52,0.1863737650652091,-0.101272382832877,1.6463511021026649,0.0862458459571861,0.1142226719425125,0.047381113257164,-0.1522811735625928,0.3198228091348863,-0.1596379299694071,0.1890028643844445,-0.1037046245669577,1.6502802965847294,-0.16298243825106,0.3609288758350978,-0.1247243081277115,0.9231623118307648,0.3136296446164324,-0.684575735638504,0.5340610097896061,10.917804680617335,-0.9137419772955464,0.1940976519365132,-0.9322011387385064
2.54,0.1834020223509683,-0.0950149449032479,1.6432771433886588,0.0837936918380243,0.1157331797089683,0.0468759489659316,-0.1452895606863995,0.3066799891837355,-0.1482881185931254,0.1857199587084584,-0.0962721649317922,1.6474960993640355,-0.1618195927028176,0.350234769911922,-0.1102387552207215,0.9359949053762188,0.3495806438096632,-0.6571409975575426,0.5674905688140871,10.974170281232546,-0.9135897963229104,0.1965667455481601,-0.9311257738018592
2.56,0.1807112901692938,-0.0893102899556272,1.6405720961774026,0.0814947032000041,0.1163035297447319,0.0463253706867542,-0.138392804285384,0.2945611372143321,-0.1370081382904482,0.1824661241711784,-0.0891070579447062,1.6450740409660165,-0.1606567471545753,0.3395406639887462,-0.0957532023137314,0.8967577397770892,0.3448378200507765,-0.6059425984701688,0.5639990151338578,11.037405625628708,-0.9143541008244988,0.1994861296132089,-0.92867231659439
2.58,0.1780192524711363,-0.0835484470318773,1.6379621822657824,0.0790933634717007,0.1160531034616241,0.0456806607686762,-0.1312641466747466,0.2823433865892177,-0.1245366375593435,0.1792413607726045,-0.0822093036056995,1.6430141213906715,-0.159493901606333,0.3288465580655704,-0.0812676494067414,0.9429071006110932,0.356432880531872,-0.6108875312557188,0.6235750365552357,11.037405625628708,-0.916201202320134,0.2027168725071564,-0.9247804168336824
2.6,0.1754674003123282,-0.078025678001175,1.6356074472876263,0.0767176803415619,0.1150125354913132,0.0449813270396137,-0.1243838531006611,0.2706370587083647,-0.1115404815030078,0.1714560451373989,-0.0694312777024164,1.6317353503878151,-0.1381814254227522,0.2566352420585638,-0.1169633784962785,0.9397827200479272,0.3440146787042748,-0.5853163940426537,0.6498078028167869,11.069388637033626,-0.91910229263059,0.2061650665425845,-0.9195715227804496
2.62,0.1730403821583528,-0.0727085281943226,1.6333898664166857,0.0747944055192051,0.1130182583354822,0.0442493592761537,-0.1187627822926057,0.2615713557520412,-0.1115443349396134,0.1714560451373989,-0.0694312777024164,1.6317353503878151,-0.1381814254227522,0.2566352420585638,-0.1169633784962785,0.5333465617458261,0.2810535404027668,-0.4532851478161737,-0.0001926718302791,11.09068382517762,-0.9187095458108538,0.2099683250773996,-0.9161551021518666
2.64,0.170834675587363,-0.0678237432033441,1.631267491430192,0.0735676555536943,0.1099396752331398,0.0435160538985595,-0.1138031685218389,0.2530109149405825,-0.1117860672977577,0.1714560451373989,-0.0694312777024164,1.6317353503878151,-0.1381814254227522,0.2566352420585638,-0.1169633784962785,0.4948165068352143,0.247980688538342,-0.428022040572934,-0.0120866179072177,10.228867748840456,-0.9209036323468724,0.2095773876194918,-0.9148999755721896
