t,x,y,z,roll,pitch,yaw,v_x,v_y,v_z,ref_x,ref_y,ref_z,ref_v_x,ref_v_y,ref_v_z,a_com,a_x,a_y,a_z,thrust,wind_x,wind_y,wind_z
0.0,-1.4353362043587583,0.7813355397540239,2.72795048514815,0.0313857034174665,0.0996937180834088,0.0421979841169545,0.0021118011961716,-0.0056201178132992,-0.0013305304580942,-1.4352799698362042,0.78126558557144,2.7279131566449237,0.0569081813150491,-0.1032095492378308,-0.1012674575191411,0.3074725183956764,0.1055900598085819,-0.2810058906649623,-0.06652652290471,10.260745036763185,-0.93930853115018,0.2503204545287052,-0.8829848441514538
0.02,-1.4354021149509235,0.7814762997915847,2.727840961075497,0.037852428153431,0.102426740850411,0.0427301592857638,-0.0079512128835314,0.0152635450036579,-0.0103712698932739,-1.4352799698362042,0.78126558557144,2.7279131566449237,0.0569081813150491,-0.1032095492378308,-0.1012674575191411,1.2441127305789847,-0.5031507039851554,1.0441831408478606,-0.4520369717589893,10.260745036763185,-0.932809345492142,0.2517974337729773,-0.882047212442563
0.04,-1.4356265392213643,0.7818080350928949,2.727456373333303,0.0517801346170908,0.1095180636818321,0.0439927103339944,-0.0133808883502699,0.0160420110190071,-0.02799660837026,-1.4352799698362042,0.78126558557144,2.7279131566449237,0.0569081813150491,-0.1032095492378308,-0.1012674575191411,0.9229571244639166,-0.2714837733369231,0.0389233007674611,-0.8812669238493033,9.69244191683947,-0.9207955931009058,0.2345176004839457,-0.9043208714601833
0.06,-1.4359103261772137,0.7820724426297709,2.7266896302139254,0.0663767305472979,0.1187132687458621,0.0455116897689855,-0.0142906533642285,0.0100152089495647,-0.0478887626869888,-1.4347108880230537,0.7802334900790617,2.726900482069732,0.0679022364371861,-0.123209549535854,-0.1212674578171643,1.0402497523736929,-0.0454882506979318,-0.301340103472121,-0.9946077158364408,9.257438955081852,-0.9057094179417282,0.2148312100060035,-0.930586404393853
0.08,-1.4361731332644432,0.7821787507554677,2.7255155538227025,0.0804937057204461,0.1287323095296494,0.0471731222393955,-0.0115842805838442,0.0006083486882912,-0.0686191715010417,-1.4335727243967529,0.7781692990943051,2.724875132919349,0.0898903466814603,-0.1632095501319005,-0.1612674584132108,1.1462583949521292,0.1353186390192178,-0.4703430130636772,-1.0365204407026425,9.204831788339106,-0.889444956249106,0.1960401901641971,-0.9562205482454444
0.1,-1.4363430483889197,0.7820793095699208,2.724012660327759,0.0933077649542298,0.1383742098445717,0.048831458983201,-0.0061682196265998,-0.0108568170144955,-0.0886322980787606,-1.4324345607704518,0.7761051081095485,2.7228497837689662,0.1118784569257344,-0.2032095507279469,-0.2012674590092572,1.1845980080820075,0.2708030478622178,-0.5732582851393406,-1.0006563288859447,9.231542720935067,-0.871818385625907,0.1769939528095923,-0.9817519027767884
0.12,-1.436383381656777,0.7817137662632346,2.7220152437389,0.1061634309015196,0.1482959199707283,0.0506194384641378,0.0021328514443194,-0.0253746591463264,-0.1101463003853502,-1.4301969916319373,0.7720409170949896,2.718824434588781,0.1338665671700086,-0.2432095513239934,-0.2412674596053036,1.362468179754265,0.4150535535459673,-0.7258921065915421,-1.075700115329481,9.231542720935067,-0.8533082787704347,0.1579105491729097,-1.0070600261716618
0.14,-1.436232284992146,0.7810327097545403,2.71958143107531,0.1183913523381801,0.1577998350771668,0.0524158256888905,0.0128151923404482,-0.0422686414905709,-0.132258171865559,-1.4279594224934224,0.7679767260804305,2.714799085408596,0.1558546774142827,-0.2832095519200399,-0.2812674602013502,1.4903471968185988,0.5341170448064392,-0.8446991172122242,-1.105593574010441,9.254439572568115,-0.8342060069786581,0.1387371781675123,-1.031992328770032
0.16,-1.4358438361415806,0.7799894687278935,2.7167018486204184,0.130016532519006,0.1668000239776675,0.0541913752049928,0.0257252837608656,-0.0614579487340181,-0.1547041149430704,-1.4251721505988009,0.7629125350509705,2.70977373621351,0.1778427876585569,-0.3232095525160863,-0.3212674607973966,1.6114592250549118,0.6455045710208699,-0.9594653621723594,-1.122297153875569,9.271576042959168,-0.8163753218788521,0.1212290660419282,-1.0539270190814585
0.18,-1.4352147008237002,0.7786220482274973,2.713549171422259,0.1405239847411591,0.1748235413260377,0.055832794085964,0.0400293600636181,-0.081726510591041,-0.1761291117856809,-1.4218351759480723,0.7568483440066093,2.703748387003522,0.199830897902831,-0.3632095531121327,-0.361267461393443,1.6389414940235043,0.7152038151376258,-1.013428092851145,-1.071249842130524,9.304580044782597,-0.7980893979772142,0.1035065229026996,-1.0752664631593256
0.2,-1.434226760379683,0.7767459858229235,2.709786532307741,0.1510304805783729,0.1822822394864611,0.0574282876870157,0.0581506574179108,-0.1050456823693193,-0.1990895772699146,-1.4332132328205192,0.7745357226979452,2.704742715832975,0.0788355414646325,-0.1817265120811571,-0.276129113275797,1.870393117422268,0.9060648677146316,-1.1659585889139172,-1.1480232742116874,9.348234795609642,-0.7807557253224611,0.0858352824828506,-1.095300619410949
0.22,-1.432718004316179,0.7742011961028746,2.70572591470514,0.1558054363915757,0.1852943067085736,0.0579440080458906,0.0920230790200449,-0.1462802644148222,-0.2045074280768322,-1.4332132328205192,0.7745357226979452,2.704742715832975,0.0788355414646325,-0.1817265120811571,-0.276129113275797,2.6818765860056124,1.6936210801067066,-2.061729102275144,-0.2708925403458781,10.772869472143611,-0.7792946519316601,0.0712352579821257,-1.106026141573477
0.24,-1.4305291984890347,0.7709008706869992,2.701590226635449,0.1536302917482831,0.1808040732759644,0.0567589826055303,0.1241288859697763,-0.1810535030285631,-0.2088158717918375,-1.4332132328205192,0.7745357226979452,2.704742715832975,0.0788355414646325,-0.1817265120811571,-0.276129113275797,2.3761963570099534,1.6052903474865703,-1.7386619306870437,-0.2154221857502664,10.772869472143611,-0.7757322504212133,0.0705003435764477,-1.1104416312035306
0.26,-1.427912760445571,0.7671728750879444,2.6975600948206906,0.1483334890642688,0.1715848887150513,0.0546439412494495,0.1489537381240894,-0.2089343890537663,-0.2149826014324663,-1.4324248774058728,0.7727184575771336,2.701981424700217,0.0865967777448353,-0.2017265123791803,-0.2961291135738202,1.8918546749780256,1.2412426077156522,-1.3940443012601624,-0.3083364820314405,10.588898395352771,-0.7792949623226773,0.0740237084470637,-1.1090626162844606
0.28,-1.4247174567293652,0.7627265170865396,2.693171651513516,0.141951371267256,0.1588866611402831,0.0519696480892559,0.1686209502242476,-0.2340438500693106,-0.2235934850053724,-1.4308481665765802,0.7690839273355106,2.696458842434701,0.1021192503052411,-0.2417265129752268,-0.3361291141698667,1.6518410790613998,0.983360605007913,-1.255473050777213,-0.4305441786453035,10.36818427424987,-0.7872076417570109,0.0784096810861219,-1.104612429384896
0.3,-1.421195060624718,0.7578049273367891,2.6885845700720385,0.1358387509565969,0.145027026517938,0.0492271161755263,0.1821392468490159,-0.256795806889873,-0.2347682802295432,-1.4292714557472874,0.7654493970938874,2.690936260169185,0.1176417228656468,-0.2817265135712732,-0.3761291147659131,1.4363773277782097,0.6759148312384139,-1.137597841028121,-0.558739761208539,10.161956297606594,-0.7977133326058166,0.0826330721522869,-1.0981643056343064
0.32,-1.4174609217274925,0.7524463353145526,2.68374713611548,0.1303783594813133,0.1315083615599234,0.0466536767671484,0.1902503915828678,-0.2779243030592283,-0.2485191328171563,-1.4269186212899745,0.7598148668224619,2.683413677873866,0.1331641954260525,-0.3217265141673197,-0.4161291153619595,1.3240939979455972,0.4055572366925955,-1.0564248084677652,-0.6875426293806566,9.97396068002672,-0.80835772807397,0.085647480688039,-1.0919018425442
0.34,-1.413807530428376,0.7469760249464005,2.6788791045397384,0.125923293609185,0.1200143485249146,0.0444945298431336,0.1938301790261004,-0.2969315237989266,-0.2632115503703399,-1.4245657868326616,0.7541803365510364,2.6758910955785487,0.1486866679864583,-0.3617265147633662,-0.4561291159580061,1.214450958194113,0.1789893721616267,-0.9503610369849148,-0.7346208776591797,9.806429924294209,-0.8189751899149383,0.0871413809331801,-1.0866661185058784
0.36,-1.4099188984572604,0.7408279908313918,2.673438524951932,0.1217369825288477,0.1098868779417339,0.0425493575171159,0.1947325091132828,-0.3167880701341067,-0.2801281353515332,-1.4218248905613384,0.7475458062647098,2.6673685132683294,0.164209140546864,-0.4017265153594126,-0.4961291165540525,1.3050550557096483,0.0451165043591203,-0.9928273167590068,-0.8458292490596653,9.625899718894289,-0.8280990392862536,0.0878542081513908,-1.0828118070787645
0.38,-1.406036517702599,0.7342867762721558,2.6676459301822604,0.1177385682456463,0.1020026326351953,0.0409230113404066,0.1933953782150945,-0.3362063022917634,-0.2983230063493258,-1.4186959324760051,0.7399112759634819,2.6578459309432088,0.1797316131072697,-0.441726515955459,-0.5361291171500989,1.3322058679065494,-0.0668565449094132,-0.970911607882835,-0.90974354988963,9.625899718894289,-0.8349242188444472,0.0883353888918291,-1.0807842911148071
0.4,-1.4022031306229412,0.7273641087205744,2.6614760395948456,0.1137825223925047,0.0966238434872797,0.0396170053627397,0.189989219906662,-0.354929798584761,-0.3177390828523735,-1.3963667487918443,0.7174764611575676,2.652729779864794,0.2471236681173047,-0.4362063037818796,-0.3983230078394419,1.3593704927540886,-0.1703079154216261,-0.936174814649876,-0.970803825152386,9.556812021702171,-0.8384538689602431,0.0884797270016185,-1.0815333741256643
0.42,-1.398670711191442,0.7204311253462775,2.65552231881295,0.1105977571913243,0.0960526884212455,0.0389387232342216,0.1827603969053134,-0.3741112438990199,-0.3079884982988145,-1.3963667487918443,0.7174764611575676,2.652729779864794,0.2471236681173047,-0.4362063037818796,-0.3983230078394419,1.1349643446655446,-0.3614411500674291,-0.9590722657129458,0.4875292276779519,9.497568052158384,-0.8404355950426188,0.083294502031184,-1.088929791455244
0.44,-1.3950668826910455,0.7127504237676698,2.649427674312814,0.1081832609142804,0.100949333572876,0.0388863553035507,0.1786147397583725,-0.3930311200438303,-0.3024020025652211,-1.3963667487918443,0.7174764611575676,2.652729779864794,0.2471236681173047,-0.4362063037818796,-0.3983230078394419,1.0079150771473817,-0.2072828573470436,-0.9459938072405194,0.2793247866796716,11.366128528524314,-0.8394813010074104,0.0876328722853244,-1.086695726111218
0.46,-1.3914992839330749,0.7046948023426911,2.6433809821875656,0.1063728490120849,0.1091070954290693,0.039207158444606,0.1788274118189503,-0.4115514884748066,-0.3027853043563657,-1.3938955121106713,0.7131143981197487,2.6487465497864,0.2578693260977468,-0.4562063040799027,-0.4183230081374652,0.9262777613755382,0.0106336030288908,-0.9260184215488187,-0.0191650895572298,10.877737553340012,-0.8333676736562784,0.0901112302502983,-1.0899895105266733
0.48,-1.3880725322408698,0.696705712837826,2.637580882507516,0.1048919649113451,0.118273406779707,0.0396566835061497,0.1822238715147078,-0.4284609152429834,-0.307728092561324,-1.388953038748325,0.7043902720441112,2.6407800896296107,0.2793606420586309,-0.4962063046759492,-0.4583230087335116,0.897072749742621,0.1698229847878749,-0.8454713384088403,-0.2471394102479179,10.256828400880297,-0.8232727174037068,0.0913015739673768,-1.097637938281783
0.5,-1.3843660766795385,0.6879586369984,2.631339294982668,0.1035714421110154,0.1284663143690244,0.0401797563120323,0.1885671272662035,-0.4453186482935475,-0.3163466777716323,-1.384010565385979,0.6956661459684736,2.632813629472822,0.300851958019515,-0.5362063052719956,-0.4983230093295581,0.9983737628767948,0.3171627875747818,-0.8428866525282047,-0.4309292605154141,10.0663009908194,-0.8118072699852474,0.0919258218154944,-1.1065815112217805
0.52,-1.3805025926944423,0.6788825080909225,2.6248942002205653,0.1025946900001649,0.1385481033060468,0.040693119157506,0.1977248293241206,-0.4614276308191819,-0.3278754767973535,-1.377993526225589,0.6849420198630337,2.6228471692862305,0.3223432739803991,-0.5762063058680421,-0.5383230099256046,1.0911874632347116,0.4578851028958552,-0.8054491262817182,-0.5764399512860591,9.923979173021507,-0.7993497837183554,0.0915188572232315,-1.1169025357260811
0.54,-1.376422034341456,0.6694906849019308,2.618203003996668,0.1020613962274716,0.1477771055427074,0.041131208994982,0.2099954231035027,-0.476978012161729,-0.3407074458931322,-1.3719764870651985,0.6742178937575938,2.6128807090996395,0.3438345899412832,-0.6162063064640886,-0.578323010521651,1.1800860799876711,0.6135296889691069,-0.7775190671273552,-0.6415984547889331,9.923979173021507,-0.7876585617875828,0.0900528677618154,-1.127189024594756
0.56,-1.3722909827231868,0.6602734500458735,2.611599254642426,0.1017116964573405,0.1551229998328472,0.0413985693131565,0.224226192771688,-0.4923837951861871,-0.3538081288362853,-1.365422165005786,0.6624937676372528,2.6019142488981477,0.3653259059021673,-0.6562063070601349,-0.6183230111176974,1.2364069410216934,0.7115384834092658,-0.7702891512229054,-0.6550341471576571,9.860532484732175,-0.7760805507424691,0.0880524740095342,-1.137658604046056
0.58,-1.367632987307347,0.6502527295777638,2.604368323145858,0.1011241619569047,0.1609809207479742,0.0414583019894747,0.2408155998556042,-0.5088016419576435,-0.3686530801961301,-1.3583305600473514,0.6497696415020104,2.5899477886817537,0.3868172218630514,-0.6962063076561814,-0.6583230117137439,1.3830461858548575,0.8294703541958076,-0.8208923385728206,-0.7422475679922408,9.823280343091028,-0.7659312134344991,0.0862295905651242,-1.1470648958002667
0.6,-1.3626311130224784,0.6399002186667014,2.596830078621761,0.0999991186590669,0.1647880701487926,0.0412562621268018,0.2584617910432363,-0.5255207262752922,-0.3844650668323277,-1.3555922073145668,0.6248126474798816,2.585935669136052,0.3024719966916466,-0.5801216690706044,-0.4686530816862462,1.449943762042516,0.8823095593816068,-0.835954215882434,-0.790599331809877,9.790872041797227,-0.7576563445760113,0.0848722222137855,-1.1552045962032105
0.62,-1.3571892335812703,0.6290681715200442,2.5892807738974226,0.0943503602148181,0.1658399840971582,0.0404481663464432,0.2844931338903723,-0.5538980796881867,-0.3693394820766102,-1.3555922073145668,0.6248126474798816,2.585935669136052,0.3024719966916466,-0.5801216690706044,-0.4686530816862462,2.0686277524894625,1.3015671423567965,-1.4188676706447243,0.7562792377858729,9.790872041797227,-0.7560779434545332,0.0840821889830462,-1.1625367621515597
0.64,-1.3515478698714694,0.6183568838449782,2.5823715120806527,0.0856501654057923,0.1637836740754901,0.0391663236582767,0.3078001449777194,-0.5715529327882961,-0.3587036274077804,-1.3555922073145668,0.6248126474798816,2.585935669136052,0.3024719966916466,-0.5801216690706044,-0.4686530816862462,1.555660638080037,1.1653505543673586,-0.8827426550054696,0.5317927334414912,11.820315159531674,-0.7601773387392604,0.0971191651118393,-1.154983604287964
0.66,-1.345157625543706,0.6067842383175523,2.575255990770833,0.0760352022754176,0.1586198717453889,0.0375753138899697,0.3294630336131082,-0.5845272582082784,-0.3536504240012795,-1.3525674873476503,0.6190114307891756,2.581249138319189,0.314803276058855,-0.5943856744931966,-0.4886530819842694,1.2875837145602695,1.0831444317694394,-0.6487162709991168,0.2526601703250447,11.35966782567266,-0.7656845304760003,0.1099002952250291,-1.1472678249691268
0.68,-1.338382719260708,0.5949933650827456,2.5681717417423733,0.0671256107235713,0.1513405122972067,0.0359484879107446,0.3465467624909034,-0.5939349340634984,-0.3549573681025443,-1.3465180474138174,0.6074089974077636,2.5718760766854643,0.339465834793272,-0.6229136853383809,-0.5286530825803158,0.9773257648434488,0.8541864438897595,-0.4703837927609977,-0.0653472050632431,10.913549463764866,-0.7720619359081948,0.1203051839303132,-1.1402853122843934
0.7000000000000001,-1.3316723377820252,0.5836422651106772,2.5613683828721947,0.0597125951872821,0.1435781406021093,0.0344980337423506,0.3587178421220909,-0.600580259986198,-0.3610938852736318,-1.3404686074799843,0.5958065640263515,2.5625030150517394,0.364128393527689,-0.6514416961835652,-0.5686530831763623,0.7582090394453611,0.608553981559376,-0.3322662961349809,-0.3068258585543743,10.21028039902285,-0.7791868824581398,0.1290051027132802,-1.1339200672220464
0.72,-1.3243981441581898,0.5715747806917194,2.55403841136271,0.0531369738431071,0.1354688179466656,0.0331368375529788,0.3678224352718953,-0.6059137691251241,-0.3717703063030086,-1.3331860396094308,0.5827777301026802,2.551129953388212,0.3887909522621059,-0.6799697070287495,-0.6086530837724088,0.7505429737113511,0.4552296574902192,-0.2666754569463025,-0.5338210514688385,10.21028039902285,-0.7858236381392869,0.1354958158299664,-1.1290136207515484
0.74,-1.3169740365782612,0.5594134924790901,2.546465990849036,0.0478147088084379,0.128146872491767,0.0319684718621238,0.3740026661811464,-0.610080782485791,-0.3850320075687394,-1.325903471738877,0.5697488961790088,2.539756891724685,0.4134535109965229,-0.7084977178739339,-0.6486530843684553,0.7606444223504261,0.3090115454625564,-0.2083506680333469,-0.6630850632865393,9.95083705027264,-0.7913814446576486,0.1397884552689038,-1.1260641528020794
0.76,-1.3094489842101484,0.5471717492704119,2.5386055196854302,0.0434642383857299,0.1220333024639462,0.0309732119184734,0.3781304694219221,-0.6139649812141791,-0.4003424076310468,-1.3180043398999628,0.5560068619842079,2.527383830046257,0.4381160697309399,-0.7370257287191182,-0.6886530849645016,0.8162936196983152,0.2063901620387803,-0.1942099364194038,-0.7655200031153692,9.812924126147664,-0.7957513518909165,0.1426592460571579,-1.1242796239645314
0.78,-1.3022415084487555,0.535474047889528,2.5308383065403777,0.0399251980588167,0.1176151219139896,0.0301622263141185,0.3802866412340431,-0.6172174881501072,-0.4164941914256536,-1.309488644092688,0.5415516275182775,2.514010768352927,0.4627786284653568,-0.7655537395643025,-0.7286530855605481,0.8308248882877951,0.1078085906060538,-0.1626253467964078,-0.8075891897303428,9.707596870903217,-0.7985467261626613,0.1446818038484092,-1.1242583688772263
0.8,-1.2946272002711572,0.5230990306572951,2.522314437509846,0.0366957410061395,0.1148400701457975,0.029442291339974,0.3809510181391392,-0.6201228586793762,-0.4351236972848281,-1.2832271763870535,0.5046131734820226,2.510013596969095,0.4477782620130806,-0.6455598599566096,-0.5164941929157698,0.9433200187918556,0.033218845254801,-0.145268526463449,-0.931475292958725,9.617257377223725,-0.7990392411836221,0.1459093232784708,-1.1263599377496618
0.8200000000000001,-1.2869853695615558,0.5105495704923136,2.513732669399912,0.0304025985683433,0.1149346655128751,0.0286298934728616,0.3836860191817366,-0.6327966250734879,-0.4203063285748278,-1.2832271763870535,0.5046131734820226,2.510013596969095,0.4477782620130806,-0.6455598599566096,-0.5164941929157698,0.9844528947639144,0.136750052129872,-0.6336883197055831,0.7408684355000167,9.52923141221254,-0.796965269394355,0.1452177157960208,-1.1364938536858504
0.84,-1.2792766369770543,0.4978373199041217,2.5054556637884065,0.0209400044096068,0.1179745494819046,0.0276908030321362,0.3873209565965763,-0.6371097221474779,-0.4086723434794249,-1.2832271763870535,0.5046131734820226,2.510013596969095,0.4477782620130806,-0.6455598599566096,-0.5164941929157698,0.6464618812805566,0.1817468707419861,-0.2156548536994984,0.5816992547701433,11.76225529751082,-0.797548318872822,0.157527540360772,-1.1301288756839376
0.86,-1.2718734986684337,0.4857390591077023,2.497727604968292,0.0117212050588885,0.1226888082455526,0.0268054053612615,0.3920680964770531,-0.6360601732985612,-0.4053632022728837,-1.2787493937669228,0.4981575748824565,2.5048486550399374,0.4612765861688881,-0.65122833431791,-0.536494193213793,0.2940548645912208,0.2373569940238407,0.0524774424458307,0.1654570603270594,11.224520365784883,-0.7942941037730894,0.1700250087613296,-1.127258693529587
0.88,-1.2639657392168833,0.473061917550528,2.489599571435244,0.0029151762446338,0.128641739132102,0.0259189615790203,0.3986871513452428,-0.6317091502708685,-0.4078970375708847,-1.269793828526661,0.4852463776833243,2.494518771181622,0.4882732344805031,-0.662565283040511,-0.5764941938098395,0.4158233099917962,0.3309527434094822,0.2175511513846373,-0.1266917649000498,10.739498038786223,-0.7882295487598016,0.1808552767118504,-1.127645383469272
0.9,-1.2559079668985835,0.4604964114944961,2.4813657647125096,-0.0045546120835693,0.1349007850452245,0.0250978486286581,0.4069414386305154,-0.6251705186100542,-0.415575414575275,-1.2608382632863997,0.4723351804841921,2.4841888873233064,0.515269882792118,-0.6739022317631119,-0.6164941944058859,0.6516218919073506,0.4127143642636333,0.3269315830407127,-0.383918850219514,10.379036263673695,-0.7805699345759955,0.189638270849424,-1.1303835665198856
0.92,-1.2476692132719107,0.4480790871833939,2.472931932755596,-0.0105494589659499,0.1409169834127339,0.0243600645552483,0.4166581698823176,-0.6171682415188413,-0.4274327705147498,-1.2505328656305572,0.4588571358489299,2.471859003435189,0.542266531103733,-0.6852391804857129,-0.6564941950019324,0.864650499825939,0.4858365625901056,0.4001138545606464,-0.5928677969737423,10.10509516433649,-0.7725439404192428,0.1960286095060184,-1.13456663113654
0.94,-1.23964789973599,0.436440343651147,2.464684014643859,-0.0149522366755516,0.1460755302702584,0.0237457669961393,0.4272759060528985,-0.608637068493278,-0.4401917378275422,-1.2402274679747147,0.4453790912136677,2.4595291195470708,0.5692631794153481,-0.6965761292083138,-0.6964941955979789,0.9331512222960768,0.5308868085290464,0.4265586512781638,-0.6379483656396179,9.838899648173538,-0.7637906781362738,0.2007253740275994,-1.1403988270324794
0.96,-1.230971425395183,0.4243660054578735,2.4557281424678075,-0.0184595180263787,0.1506227179484696,0.0231909169583635,0.4398632136980554,-0.5993861027607195,-0.4547879234721564,-1.229247154111082,0.4316176228603404,2.446199235644052,0.5962598277269631,-0.7079130779309147,-0.7364941961940252,1.0689589750206054,0.629365382257846,0.4625482866279284,-0.7298092822307117,9.838899648173538,-0.7556408540683138,0.2041432382979351,-1.1461414457909498
0.98,-1.2220303971786357,0.4124813274824511,2.446468229915093,-0.0209923586946007,0.1539654595574845,0.0227341054989972,0.4535524227296788,-0.5897608800132292,-0.4704847459023453,-1.2175919240396589,0.4175727307889482,2.431869351726132,0.623256476038578,-0.7192500266535157,-0.7764941967900717,1.1472026752661928,0.6844604515811703,0.4812611373745112,-0.7848411215094442,9.787858865535782,-0.7484524315652967,0.2064251493010703,-1.1516344333531918
1.0,-1.2128092256373344,0.4007920259535856,2.436883621058227,-0.0226828025885362,0.1559888488335774,0.0223772612399682,0.4677788204935007,-0.5798258959987137,-0.487195475668051,-1.1993527760421516,0.3829932834817897,2.422943992619976,0.5200291999256093,-0.5972973061997908,-0.5704847473924615,1.2045152448242369,0.7113198881910948,0.4967492007257768,-0.8355364882852823,9.699389312294445,-0.7436159218673791,0.2078060359862217,-1.1554660471264098
1.02,-1.2037062582524276,0.389827914253368,2.4277732598204707,-0.0252479775276167,0.1558417081100408,0.0220353843929339,0.489475192761381,-0.5737854171750817,-0.4709439153373158,-1.1993527760421516,0.3829932834817897,2.422943992619976,0.5200291999256093,-0.5972973061997908,-0.5704847473924615,1.3886442733730606,1.0848186133940143,0.3020239411816006,0.8125780165367608,9.699389312294445,-0.7417269650681826,0.2063341129411691,-1.1625513669073049
1.04,-1.1936905353938352,0.378454530317094,2.418489435900881,-0.028965518720105,0.1527210814091009,0.0217082663269368,0.5106947781995189,-0.5637064799981213,-0.4587033449980058,-1.1993527760421516,0.3829932834817897,2.422943992619976,0.5200291999256093,-0.5972973061997908,-0.5704847473924615,1.3244690851574674,1.060979271906895,0.50394685884802,0.6120285169654988,11.340033707038856,-0.7469168434050607,0.2144939838102451,-1.1521964674836147
1.06,-1.1832796890443196,0.3673091597556549,2.409366841046797,-0.0323414872662074,0.1468621489245204,0.0215260386697069,0.5288097045784328,-0.5514932833233557,-0.4540778329039756,-1.1941524840428954,0.3770203104197918,2.417239145146051,0.5333245553647954,-0.5988045914371032,-0.5904847476904846,1.1165886584391709,0.9057463189456938,0.6106598337382807,0.2312756047015085,11.340033707038856,-0.7530301097819888,0.2208995720135629,-1.1434099744505657
1.08,-1.173095956028123,0.3569570613164707,2.400728544612918,-0.0347396735137284,0.1397027168076045,0.0215024553298529,0.5419477021913771,-0.5390528274617881,-0.4553872942455241,-1.1837519000443832,0.3650743642957959,2.4058294501982016,0.5599152662431676,-0.6018191619117278,-0.6304847482865311,0.907037226808184,0.6568998806472159,0.6220227930783806,-0.0654730670774234,10.514403954537556,-0.7610377335291786,0.2263565928372787,-1.1337783394577958
1.1,-1.162148272248337,0.3463177185296299,2.3915602426987608,-0.0363178894661151,0.1315663569131128,0.0216029959365818,0.5518227267060855,-0.5256831272857095,-0.4615634006591257,-1.173351316045871,0.3531284181718001,2.394419755250353,0.5865059771215397,-0.6048337323863524,-0.6704847488825776,0.8865794978405148,0.4937512257354171,0.6684850088039263,-0.3088053206800806,10.514403954537556,-0.7691056342588891,0.2298936432970317,-1.1255997405750096
1.12,-1.1510406161473077,0.3359502580093229,2.3822225554512317,-0.0367556095389593,0.1236759307483061,0.0218030970535134,0.5582410137786239,-0.5118568786526068,-0.4720488623969809,-1.1616211965034402,0.341031743524073,2.381010060272701,0.6130966879999119,-0.607848302860977,-0.7104847494786241,0.92507360256619,0.3209143536269221,0.6913124316551389,-0.5242730868927598,10.21382993192583,-0.7765105107547279,0.2315159693188715,-1.1191374156366587
1.14,-1.1398346170352966,0.3258642180562881,2.3726475035909016,-0.035694940833126,0.116669417058437,0.0220898538699002,0.5619895253320616,-0.4976756687881752,-0.4848925183524539,-1.1498910769610091,0.328935068876346,2.3676003652950497,0.6396873988782842,-0.6108628733356016,-0.7504847500746705,0.9748301780154623,0.1874255776718847,0.7090604932215749,-0.6421827977736522,9.96791012623271,-0.7822012850459771,0.2308437027253156,-1.115393484270626
1.16,-1.1291362260699631,0.316542812255592,2.363299256198542,-0.0331244747775758,0.1111060629293929,0.0224321749772837,0.5639045217659361,-0.4845550323708143,-0.4984697322582951,-1.1374961896466194,0.3167630299667534,2.3531906703024967,0.6662781097566564,-0.6138774438102264,-0.7904847506707169,0.9488928400816616,0.0957498216937247,0.6560318208680471,-0.6788606952920578,9.850834292125,-0.7865179412200053,0.2280084596745841,-1.1136650301045876
1.18,-1.1178520081858216,0.3069755767530753,2.353167412908048,-0.02932024938472,0.1066555059971137,0.0228131970076541,0.564305570809232,-0.4731757340116948,-0.5140536267997404,-1.1244365345602698,0.3045156267952951,2.337780975295043,0.6928688206350285,-0.616892014284851,-0.8304847512667634,0.9650220730116456,0.0200524521647982,0.5689649179559747,-0.779194727072266,9.690039147887546,-0.7888890549063173,0.2236033980151209,-1.114174322826844
1.2,-1.1065752142920915,0.2976151404832613,2.342711830963077,-0.0252679185770368,0.1040354642089863,0.0231492461430898,0.5632875834673504,-0.4635826426030576,-0.5307715960994837,-1.08963672964536,0.2833167900524906,2.327464731568061,0.623389636067735,-0.4712031297015548,-0.6140536282898565,0.9650831551087408,-0.0508993670940816,0.4796545704318589,-0.8358984649871615,9.690039147887546,-0.7892282161953542,0.2185558048255348,-1.1166964347438897
1.22,-1.095282425669427,0.2883874499114724,2.3322421959726376,-0.023025373907598,0.1032850292381847,0.0233108973237573,0.566396368537504,-0.4589560660932946,-0.5136590884325315,-1.08963672964536,0.2833167900524906,2.327464731568061,0.623389636067735,-0.4712031297015548,-0.6140536282898565,0.8998717595643794,0.1554392535076776,0.2313288254881501,0.855625383347608,9.63137795908824,-0.7887500233371972,0.2105956773362597,-1.1260694961153646
1.24,-1.0844927699784943,0.2797233587613253,2.3226146660078264,-0.0232153728383075,0.1038380021529475,0.0232821523018462,0.569326849584169,-0.4530372200194249,-0.5008070094068182,-1.08963672964536,0.2833167900524906,2.327464731568061,0.623389636067735,-0.4712031297015548,-0.6140536282898565,0.7224894346878113,0.1465240523332522,0.295942303693486,0.642603951285664,11.350724530208026,-0.7904775263760451,0.2140309316686152,-1.1193268422946567
1.26,-1.073073405748678,0.2707402054750281,2.3126746058573557,-0.0248744180595358,0.1054057735933292,0.0231392241913434,0.5725548090802284,-0.4454976449873113,-0.4941810896982219,-1.0834028332846826,0.2786047587554751,2.321324195285163,0.6352064491194356,-0.4708086088395268,-0.6340536285878797,0.5271805339678145,0.1613979748029681,0.3769787516056805,0.3312959854298164,11.350724530208026,-0.7902618395700011,0.2183572374621504,-1.114936932335412
1.28,-1.0615871216266943,0.2619216320622,2.3027955779735856,-0.0274195367809917,0.107594472165643,0.022930667588961,0.5760352353840082,-0.4365533345015003,-0.4940250180988291,-1.070935040563328,0.2691806961614439,2.3090431227193657,0.6588400752228368,-0.4700195671154708,-0.6740536291839262,0.4799437875073722,0.1740213151889935,0.4472155242905506,0.0078035799696368,10.904237612279758,-0.788749293814875,0.2227563225318231,-1.112570839240722
1.3,-1.050027404686212,0.2533035633171712,2.2928674222874523,-0.029986745612054,0.1100923835924748,0.0227226120897256,0.5798669468055916,-0.4257542654826259,-0.4987909342198859,-1.0584672478419732,0.2597566335674128,2.2967620501535686,0.682473701326238,-0.4692305253914148,-0.7140536297799727,0.6205156334969606,0.1915855710791669,0.5399534509437198,-0.2382958060528378,10.546527861838513,-0.7859107634079625,0.2268385008448945,-1.112094218363613
1.32,-1.038970969136171,0.2453263595312538,2.283309538066077,-0.0319330184597375,0.1125545696087582,0.0225663455837477,0.5838546115077972,-0.414642600062119,-0.5070577061391774,-1.0448177738154485,0.2503720230595845,2.2824809775579693,0.7061073274296391,-0.4684414836673587,-0.7540536303760191,0.7206075495026592,0.1993832351102786,0.5555832710253422,-0.4133385959645769,10.271333938908356,-0.7822264456161021,0.2299174419029808,-1.113217129533872
1.34,-1.027245512952143,0.2371620125496451,2.2730599238754854,-0.0333110295674247,0.115110186322044,0.0224606654767202,0.5885490517811506,-0.4024446482757699,-0.5175420784116247,-1.0311682997889238,0.2409874125517562,2.2681999049623696,0.7297409535330404,-0.4676524419433028,-0.7940536309720656,0.8377795939407949,0.2347220136676708,0.6098975893174569,-0.5242186136223626,10.05692994619858,-0.7781430010333573,0.2317358155051173,-1.115685200570553
1.36,-1.0154167914275871,0.229249557532132,2.2625854457226966,-0.0337354579035303,0.117412103721855,0.0224419805734641,0.5941100000891415,-0.3895622273992822,-0.5293795851541669,-1.016927985109814,0.2316225280870293,2.252918832351869,0.7533745796364415,-0.4668634002192467,-0.834053631568112,0.9178881734760034,0.278047415399546,0.6441210438243833,-0.5918753371271124,9.96541287733453,-0.7744492040021634,0.2324222022718751,-1.1182749465060096
1.38,-1.0040703683264147,0.2219756120593993,2.2524038806503603,-0.0329878554037318,0.1191383825338088,0.0225316510462472,0.5999582202783839,-0.3769277177157369,-0.5417718238873273,-1.0020968297781192,0.2222773696654038,2.2366377597264675,0.7770082057398426,-0.4660743584951908,-0.8740536321641584,0.9319336016384164,0.2924110094621179,0.6317254841772646,-0.6196119366580155,9.84139759140453,-0.7707927999996562,0.2318321020966403,-1.121254974028612
1.4,-0.9920039745270696,0.2145769845324378,2.241419225457867,-0.0307922897903033,0.1203741648874633,0.022754870123342,0.6063558619437603,-0.3637540213808261,-0.5560982540520191,-0.9740724573124956,0.2031292261736124,2.225315289455994,0.6483930291286722,-0.3590237676503626,-0.6417718253774434,1.0243567436039995,0.3198820832688243,0.6586848167455417,-0.7163215082345908,9.84139759140453,-0.7674853812985094,0.2296468775342498,-1.1244845086165751
1.42,-0.979726716972228,0.2073834513827241,2.230473095459693,-0.029109531547154,0.1197439182586541,0.0230074749287638,0.6212420949119666,-0.3558331804642143,-0.5360608162176352,-0.9740724573124956,0.2031292261736124,2.225315289455994,0.6483930291286722,-0.3590237676503626,-0.6417718253774434,1.309425988531596,0.7443116484103118,0.3960420458305913,1.0018718917191916,12.059190477876657,-0.7679273528571777,0.2233552216503629,-1.1312704506947429
1.44,-0.967151424983339,0.2003566295593242,2.219934616035021,-0.0293467737353054,0.1158076674314144,0.0232318231732015,0.6352151391532866,-0.3471020145012418,-0.5193124355814892,-0.9740724573124956,0.2031292261736124,2.225315289455994,0.6483930291286722,-0.3590237676503626,-0.6417718253774434,1.1747206884788497,0.6986522120660033,0.436558298148626,0.8374190318073016,12.059190477876657,-0.7743977523881782,0.2280417006365293,-1.1197129503493626
1.46,-0.9549798923737826,0.1938520700157892,2.2101506043823296,-0.0307264266972857,0.1094899185360372,0.0234572283374578,0.6448465495527932,-0.3379735478905474,-0.5113484343408692,-0.9675885270212088,0.1995389884971088,2.2188975712022194,0.6580799908987299,-0.3554429776372877,-0.6617718256754666,0.7738189140665944,0.4815705199753273,0.4564233305347165,0.3982000620310011,11.019238521298576,-0.7824506988143948,0.2334132788841586,-1.108083001395059
1.48,-0.942017227293909,0.1872007854103905,2.1999492636454083,-0.0329355353317114,0.1014144863560514,0.023714823175991,0.6505201054857529,-0.3275533428687844,-0.5094743454146333,-0.9546206664386352,0.1923585131441016,2.2060621346946707,0.6774539144388453,-0.3482813976111379,-0.701771826271513,0.6005874601659572,0.2836777966479853,0.5210102510881526,0.093704446311793,11.019238521298576,-0.7914194765494249,0.2384898308705177,-1.0972767444805147
1.5,-0.9289851406599564,0.1807739084598316,2.1897210904071582,-0.035304014244249,0.0930161869302185,0.0240090224282698,0.6521228919238491,-0.3156383004447308,-0.5136622194557002,-0.9416528058560618,0.1851780377910943,2.193226698187122,0.6968278379789606,-0.3411198175849882,-0.7417718268675595,0.6365442822714363,0.0801393219048096,0.5957521212026778,-0.2093937020533454,10.604088151071664,-0.8000337566706007,0.2428114591620048,-1.0880604044085538
1.52,-0.9159593179509706,0.1745953255869042,2.1793499066636013,-0.0372274602746965,0.0851861217152064,0.0243489144243105,0.6502788320793054,-0.3029600894204829,-0.5232038575071918,-0.9277162490964824,0.1783556414393945,2.1783912616497707,0.716201761519076,-0.3339582375588384,-0.781771827463606,0.7987184237753792,-0.092202992227186,0.6339105512123938,-0.4770819025745776,10.255347957689082,-0.8069705494743589,0.2457114082376734,-1.0815611580715492
1.54,-0.9036443217747636,0.1689650554240508,2.1692946682531984,-0.0384629306081391,0.0788375474279077,0.0246976700639875,0.6460936608990283,-0.2904478972302019,-0.5347468447301934,-0.9137796923369034,0.1715332450876948,2.1635558251124194,0.7355756850591914,-0.3267966575326887,-0.8217718280596524,0.8765146394172922,-0.2092585590138529,0.6256096095140523,-0.5771493611500811,9.8394992312642,-0.8125864936684822,0.2472272607856886,-1.0775806286867349
1.56,-0.8907864193281365,0.1632996729700894,2.1584537318952064,-0.0389229690556742,0.073715686603286,0.0250810188756606,0.6397921406728333,-0.2768310566436106,-0.5488226443510292,-0.8993587874888213,0.1648898882366488,2.1477203885601672,0.7549496085993067,-0.3196350775065389,-0.8617718286556988,1.028658883799322,-0.3150760113097506,0.6808420293295647,-0.7037899810417914,9.8394992312642,-0.816128908261277,0.2474629122280623,-1.076085041938993
1.58,-0.8780740852515302,0.157910808169578,2.147312989925707,-0.0382215663723836,0.0706699591963225,0.0254740837530415,0.6316784985258819,-0.2628605142502621,-0.5646142840693393,-0.8844535345522362,0.1584255708862565,2.1308849519930138,0.7743235321394221,-0.3124734974803892,-0.9017718292517451,1.129583029978369,-0.4056821073475714,0.6985271196674275,-0.7895819859155051,9.73634804406629,-0.8170750730640701,0.2461800795794643,-1.0774844151905238
1.6,-0.8655349983632936,0.1528023925064091,2.1358404578017405,-0.0360687985776536,0.0701420569545188,0.0258761719013623,0.6229777909803861,-0.2488900398184357,-0.5818294079654054,-0.846490160325236,0.1447677824570649,2.1190822757222403,0.6613763172074796,-0.2509633610291913,-0.6646142855594555,1.1908368469268429,-0.4350353772747894,0.6985237215913181,-0.8607561948033027,9.654426390929077,-0.816056194844106,0.2432885180899697,-1.0808337869855968
1.62,-0.8537159343379896,0.1482237005288187,2.1249591654499587,-0.0323293637230672,0.0704900332365601,0.0263461964789403,0.6214834627128524,-0.2345659231155204,-0.5626664899152726,-0.846490160325236,0.1447677824570649,2.1190822757222403,0.6613763172074796,-0.2509633610291913,-0.6646142855594555,1.198572864374536,-0.0747164133766853,0.7162058351457625,0.9581459025066408,9.58277782373898,-0.8153823561753142,0.2339464217629888,-1.0908358036485757
1.64,-0.8413079163970479,0.1436597680061288,2.1138720415335355,-0.0275493329044624,0.0705277667904784,0.0269086405744376,0.6193349119322457,-0.2228349643350356,-0.5475087652511194,-0.846490160325236,0.1447677824570649,2.1190822757222403,0.6613763172074796,-0.2509633610291913,-0.6646142855594555,0.9643498864008831,-0.1074275390303358,0.5865479390242414,0.7578862332076608,11.885959005068798,-0.8167788010185739,0.2326482889304589,-1.085063780546473
1.66,-0.82895240099446,0.1393086654799573,2.1030016016143853,-0.022665597438142,0.0704855763097372,0.0274765514343846,0.6163366234175304,-0.2130338172402359,-0.5402459435480785,-0.8398763971531612,0.1422581488467729,2.112436132866646,0.6673158809437991,-0.2485839303849771,-0.6846142858574786,0.6280939370061098,-0.1499144257357643,0.4900573547399825,0.3631410851520411,11.371841788389249,-0.8175978017975728,0.2305093080866205,-1.081477036780207
1.68,-0.8172764841479314,0.1353416349973916,2.0927503377525105,-0.0181869665210687,0.0705204623304714,0.027998859505295,0.6128836617635607,-0.2051243561566133,-0.5391776512917793,-0.8266488708090116,0.1372388816261891,2.0991438471554567,0.6791950084164382,-0.2438250690965488,-0.7246142864535251,0.4348096340986349,-0.1726480826984844,0.3954730541811335,0.0534146128149615,10.911613371059502,-0.8177007290426532,0.227433239427284,-1.079993207986612
1.7,-0.8050614394949546,0.1313150598055932,2.081932392441911,-0.0137831156567116,0.0707498358262975,0.0285193045129731,0.6088176687458234,-0.198019023444507,-0.5428856613416884,-0.813421344464862,0.1322196144056053,2.0858515614442674,0.6910741358890773,-0.2390662078081205,-0.7646142870495716,0.4493533985079078,-0.2032996508868623,0.3552666356053155,-0.185400502495453,10.26551553644913,-0.8170448420793511,0.2238950360936153,-1.0803604485434446
1.72,-0.7929313031124112,0.1274192246130071,2.070991498220356,-0.009776680622731,0.0712597154268977,0.0290046309527463,0.6044620160981727,-0.1919371349115693,-0.5509992528056891,-0.7995998617470804,0.1274382902494429,2.070559275703276,0.7029532633617164,-0.2343073465196922,-0.804614287645618,0.5517958058892121,-0.2177826323825349,0.3040944266468823,-0.4056795732000351,10.26551553644913,-0.8157169311477753,0.2203043996257466,-1.082166975999962
1.74,-0.7808879289759034,0.123635657504569,2.059867466060929,-0.0061958669791628,0.0720697267845521,0.0294546376961973,0.6001608350408854,-0.1867145917166695,-0.5609949581892877,-0.7857783790292989,0.1226569660932805,2.0552669899622846,0.7148323908343555,-0.2295484852312639,-0.8446142882416645,0.6035089933585592,-0.2150590528643692,0.2611271597449907,-0.4997852691799309,9.94270832876009,-0.8136412863901942,0.2161802935514226,-1.0856806899919798
1.76,-0.7695229519866309,0.120131744517068,2.049101019271594,-0.0031771579194611,0.073042491899363,0.0298520790876869,0.5964121652442648,-0.1823678684712449,-0.5718184270844461,-0.7716599181247014,0.1179946134693288,2.038974704206392,0.7267115183069945,-0.2247896239428356,-0.8846142888377109,0.612564296912722,-0.1874334898310292,0.2173361622712283,-0.5411734447579197,9.869446370154035,-0.81129639697916,0.2122454265664378,-1.0896027017745735
1.78,-0.7576334813634021,0.1165267945569745,2.03753051349151,-0.0003740477306978,0.074160402710428,0.0302418395423053,0.5927700205967945,-0.1783606534178398,-0.5847379717139871,-0.7572444790332878,0.1134512323775878,2.0216824184355984,0.7385906457796336,-0.2200307626544073,-0.9246142894337572,0.7004241992393525,-0.1821072323735129,0.2003607526702547,-0.6459772314770518,9.869446370154035,-0.8086847117845881,0.2085691300702845,-1.0938347017648715
1.8,-0.7458137613707955,0.1129965509898367,2.025686176162228,0.0020660583437786,0.0752902255740608,0.030603640217239,0.5894152322042364,-0.1748609348929564,-0.599113487207478,-0.7279949803335624,0.1076087618860825,2.008293614905811,0.6132815546618027,-0.161400807398095,-0.6361996571628721,0.7585480878228031,-0.1677394196279047,0.1749859262441727,-0.718775774674546,9.71115751229081,-0.8058929205378121,0.2050586125754882,-1.0984201735142225
1.82,-0.7339880267108023,0.1094993954668274,2.013938421180855,0.003149291296072,0.075120524090701,0.0308636211636528,0.5934448471726312,-0.1747133614312069,-0.5728808664287515,-0.7279949803335624,0.1076087618860825,2.008293614905811,0.6132815546618027,-0.161400807398095,-0.6361996571628721,1.3270361408422542,0.2014807484197411,0.0073786730874769,1.3116310389363284,9.71115751229081,-0.8063513286472936,0.1971024408487162,-1.1081025473917452
1.84,-0.7226774652100074,0.1061828521956314,2.0032858346447924,0.0022601935374698,0.0724954878226989,0.030967781073483,0.5967089189416864,-0.1741629234414969,-0.5499616605873408,-0.7279949803335624,0.1076087618860825,2.008293614905811,0.6132815546618027,-0.161400807398095,-0.6361996571628721,1.1578505332025957,0.1632035884527594,0.0275218994854969,1.1459602920705358,12.441307828996289,-0.8123351081525573,0.2023860924042103,-1.0966292203875794
1.86,-0.710725676894473,0.1027126096995076,1.992476800716704,-0.0003897171151333,0.0674628475098685,0.0309629051095425,0.5979514920625986,-0.1726175307709932,-0.5324266574028229,-0.7218621647869443,0.1059947538121015,2.001931618334182,0.6173838614748043,-0.158008838194146,-0.646491994252649,0.8823386015979222,0.0621286560456069,0.0772696335251871,0.876750159225892,11.502004895792195,-0.8198231314862853,0.208750552690498,-1.084908118564779
1.88,-0.6987875876357531,0.0992996799059868,1.981945328982613,-0.0040294644190071,0.0609299792829204,0.030915467791281,0.5954613286952967,-0.1684930147780413,-0.5215476589621385,-0.7095965336937083,0.1027667376641396,1.9892076251909248,0.6255884751008076,-0.1512248997862481,-0.667076668432203,0.5949057758258486,-0.124508168365095,0.2062257996475941,0.5439499220342203,11.502004895792195,-0.8279264210102064,0.215354910481556,-1.073682648234254
1.9,-0.6869381091936189,0.0959906365939907,1.9715752760107037,-0.0076527800625455,0.0540374483651561,0.0309041644876185,0.5894186777756388,-0.1625887198728464,-0.5159757379869555,-0.6973309026004723,0.0995387215161777,1.9764836320476675,0.6337930887268108,-0.1444409613783501,-0.687661342611757,0.5060153945732176,-0.3021325459828916,0.295214745259742,0.2785960487591499,10.79325747542316,-0.8356136029858738,0.2209588636098543,-1.0638591197227028
1.92,-0.6758221224327642,0.0929671845363671,1.9617848186925957,-0.0107362950624749,0.0479507978776391,0.0309445156364255,0.5809086976234287,-0.1560110258021741,-0.5148589344503501,-0.6846550408259361,0.0966499022886107,1.962730405195432,0.6419977023528141,-0.1376570229704521,-0.708246016791311,0.5406779809131841,-0.4254990076105081,0.3288847035336162,0.0558401768302685,10.79325747542316,-0.8425712371571292,0.2255322906780819,-1.0558868532220045
1.94,-0.6643206195577924,0.0899259423940114,1.9514826940914816,-0.0135102375977591,0.0426880454112486,0.0310325247076885,0.5695169046769656,-0.1484948653823172,-0.5154812820640627,-0.6719791790513998,0.0937610830610437,1.948977178343197,0.6502023159788174,-0.1308730845625542,-0.7288306909708651,0.6831049160714686,-0.5695896473231543,0.3758080209928446,-0.0311173806856301,10.541453275959611,-0.8476432246006708,0.228669185420943,-1.051038502074158
1.96,-0.6530728492442295,0.087042080421082,1.9411516896113343,-0.0157212653792761,0.0394033705720506,0.0311504019952604,0.555785703028683,-0.140394940116842,-0.5175825881075329,-0.6590982019362135,0.0910418622936742,1.934709334636473,0.6584069296048206,-0.1240891461546562,-0.749415365150419,0.8040058692267216,-0.6865600824141282,0.404996263273763,-0.105065302173507,10.386166094937836,-0.8505356224728636,0.2307760067654172,-1.0487765037149153
1.98,-0.642114037833359,0.0843242281758005,1.9307664600329368,-0.0173466826886225,0.0387394545490393,0.0312767324366926,0.5411339445185875,-0.1319043621890695,-0.5208132377551941,-0.6460121094803771,0.0884922399865021,1.91992687407526,0.6666115432308239,-0.1173052077467583,-0.770000039329973,0.8619759830350049,-0.732587925504774,0.424528896388622,-0.1615324823830588,10.386166094937836,-0.8512371743237487,0.2317940250538097,-1.0489234711330278
2.0,-0.6319641815927484,0.0819042864857078,1.9208329913294315,-0.0182765069305421,0.0402067539284805,0.0314057779549441,0.5282612982981628,-0.1233294331732084,-0.5246404169440592,-0.6150573406074296,0.077729010066347,1.904725798145177,0.5446895080299144,-0.1217653643809707,-0.5374478957342056,0.7966833261826093,-0.6436323110212361,0.428746450793057,-0.1913589594432552,10.322481773397158,-0.8496891513079786,0.2321489446448292,-1.0511931602506976
2.02,-0.6214789492429691,0.0795884328316388,1.9105491793060096,-0.0169664710422439,0.041982177837468,0.0316965047019459,0.5210393811247046,-0.1091246671499139,-0.502204178392723,-0.6150573406074296,0.077729010066347,1.904725798145177,0.5446895080299144,-0.1217653643809707,-0.5374478957342056,1.37596899108346,-0.3610958586729107,0.7102383011647242,1.121811927566807,10.271422703817734,-0.8495968615302594,0.2271993364818205,-1.0568641785205248
2.04,-0.6111354393982396,0.0775333250843696,1.900736623091364,-0.012575113342312,0.0425942985212431,0.0322180650169284,0.513584944202693,-0.097953746080986,-0.4804850310456084,-0.6150573406074296,0.077729010066347,1.904725798145177,0.5446895080299144,-0.1217653643809707,-0.5374478957342056,1.2767923371070795,-0.3727218461005821,0.5585460534463953,1.0859573673557303,11.760416354915831,-0.8508125698083396,0.2267152610934135,-1.0505298940293943
2.06,-0.600949395809384,0.0756540881365108,1.891310952755779,-0.0071455591766727,0.0425844713273185,0.0328109657250361,0.5053557898080566,-0.0908062976705944,-0.463134955415598,-0.6096104455271304,0.0765113564225373,1.899351319187835,0.5454006207321799,-0.119737564819351,-0.5407748273300079,1.0244878295971245,-0.411457719731817,0.3573724205195798,0.8675037815005171,11.760416354915831,-0.8529045478197618,0.2246124426455521,-1.044983495821101
2.08,-0.5914318709450508,0.0739759680059316,1.8826443324644568,-0.0020671395323023,0.0423618137712197,0.0333588949598952,0.4968922120926966,-0.0862500192786403,-0.4499894398928196,-0.5987166553665322,0.0740760491349179,1.8886023612731508,0.5468228461367106,-0.1156819656961115,-0.5474286905216125,0.8142425911369021,-0.4231788857679996,0.2278139195977038,0.6572757761389214,11.268735628268589,-0.8551393823423371,0.2219100797371339,-1.0400899798498433
2.1,-0.5815924004830029,0.0722862883691003,1.8737639737293177,0.0027902352644294,0.0421662306320215,0.0338891404954342,0.4874935800349999,-0.0829783923018881,-0.4388502642155587,-0.5878228652059339,0.0716407418472984,1.8778534033584668,0.5482450715412414,-0.1116263665728719,-0.5540825537132171,0.746858524755288,-0.4699316028848349,0.1635813488376103,0.5569587838630458,11.268735628268589,-0.8570596802753467,0.2191169639562146,-1.0363476517845205
2.12,-0.5719449965316139,0.0706493472314391,1.8650801595668227,0.0069957303489894,0.0421921022279341,0.0343630546782056,0.4777333056290738,-0.0808522795683885,-0.4301789533708033,-0.576857963775109,0.069408214515841,1.8667717522842024,0.5496672969457721,-0.1075707674496324,-0.5607364169048218,0.6613904739276525,-0.4880137202963069,0.106305636674979,0.4335655422377682,11.095822816815598,-0.8583782862563429,0.2165572760497558,-1.0339287896174731
2.14,-0.562494531023291,0.0690446810129442,1.8565567969917696,0.0104861770327012,0.0425569574407125,0.0347798384312001,0.4678580684290042,-0.0796102764028576,-0.4225708984567729,-0.5658930623442842,0.0671756871843836,1.855690101209938,0.5510895223503028,-0.1035151683263929,-0.5673902800964263,0.6263892184491386,-0.4937618600034776,0.0621001582765463,0.3804027457015219,10.94852550719952,-0.8592186889592974,0.2139339333470911,-1.0326498359322431
2.16,-0.553698597446643,0.0675377266572582,1.84859407712566,0.0131873302573231,0.0432334783178718,0.0351290328324552,0.4585788763751132,-0.0789788587671266,-0.4159821052342837,-0.554892605278346,0.0650445498310071,1.844442103555884,0.5525117477548337,-0.0994595692031534,-0.574044143288031,0.569899748930518,-0.4639596026945525,0.0315708817865502,0.3294396611244615,10.855796355312124,-0.8596247228173752,0.2117402855486813,-1.0319322553059302
2.18,-0.5446276456575566,0.0659605173351336,1.84034094193896,0.0154594921109861,0.044253227355569,0.0354543573872392,0.4490586204695648,-0.0787123418474469,-0.4097036654598207,-0.5438565925772947,0.0630148024557116,1.8330277593220392,0.5539339731593644,-0.0954039700799139,-0.5806980064796355,0.5703619679141552,-0.4760127952774196,0.013325845983985,0.3139219887231481,10.855796355312124,-0.8596275551951802,0.209978108063245,-1.0316558265839375
2.2,-0.5357442829844011,0.0643841949159397,1.8322046306573103,0.0171764976697772,0.0455435383331769,0.0357392585629339,0.4398230959445264,-0.0788311184373129,-0.4042328414154367,-0.5221747146340784,0.0620249002427612,1.8198557586659685,0.4633278075846976,-0.0705586555475268,-0.4189592488578648,0.5367470001208572,-0.4617762262519198,-0.0059388294932995,0.2735412022191991,10.813583641013793,-0.8592552231086571,0.2086784807564807,-1.031811105994244
2.22,-0.5274743836532684,0.0628753611872826,1.824699036569476,0.0181996999365778,0.0472254149679183,0.0359703256879471,0.4312933445417385,-0.0798864833741323,-0.3860810913583327,-0.5221747146340784,0.0620249002427612,1.8198557586659685,0.4633278075846976,-0.0705586555475268,-0.4189592488578648,1.0041868405316878,-0.4264875701393944,-0.0527682468409729,0.9075875028552004,10.767276620271332,-0.8586936769259287,0.2065532580900503,-1.0338717009630256
2.24,-0.5189372954661103,0.0612615866896514,1.8171607004069408,0.0184098154703982,0.04958534416664,0.0361588304284109,0.4229783777600854,-0.0813564229757665,-0.3688704708077832,-0.5221747146340784,0.0620249002427612,1.8198557586659685,0.4633278075846976,-0.0705586555475268,-0.4189592488578648,0.9585208066957204,-0.4157483390826555,-0.0734969800817067,0.860531027527478,11.656943009144015,-0.8589772185526848,0.2085956223737947,-1.0300299951112362
2.26,-0.5105588624490275,0.0596176957134953,1.8099372652667367,0.0175566480858458,0.0523417604452454,0.0362751253580933,0.4153875749064128,-0.0828541305981832,-0.3544356308066001,-0.5175414365582314,0.0613193136872859,1.8156661661773896,0.4661816450077242,-0.0689279182875428,-0.4208103655374736,0.8188834195801662,-0.3795401426836264,-0.0748853811208358,0.7217420000591529,11.462195858831365,-0.8585311463576284,0.2111489706280731,-1.0273591792136485
2.28,-0.5023245137026663,0.0579471795969788,1.802975568627289,0.015553734133445,0.0553151089079995,0.036308578659367,0.4085344970212126,-0.0839676512242221,-0.3424319990177865,-0.5082748804065375,0.0599081405763354,1.8072869812002328,0.4718893198537773,-0.0656664437675748,-0.4245125988966913,0.6933465598217304,-0.3426538942600143,-0.055676031301946,0.6001815894406792,11.141071960045338,-0.8576230154678396,0.2146707492151807,-1.0250912574320412
2.3000000000000003,-0.4946218652511167,0.0563530559175614,1.79656686739675,0.012825446605137,0.0581941917359391,0.0362765070262585,0.4026848756684901,-0.0834863651424155,-0.3327531921719296,-0.4990083242548435,0.0584969674653849,1.7989077962230753,0.4775969946998304,-0.0624049692476067,-0.4282148322559089,0.5659704237461812,-0.2924810676361217,0.02406430409033,0.4839403422928434,11.141071960045338,-0.8569324401172258,0.2192450453606566,-1.022137552625202
2.32,-0.4866271183171745,0.0547054283598016,1.7900054707306294,0.0098488632191728,0.0611583135334802,0.0362269100136754,0.3971735435136298,-0.0812316268267903,-0.3239549293801567,-0.4894563843608469,0.0572488680804327,1.790343499577957,0.4833046695458835,-0.0591434947276387,-0.4319170656151266,0.5311968918071781,-0.2755666077430163,0.1127369157812613,0.4399131395886491,11.025352037277116,-0.8560132873667402,0.2238585349822704,-1.0194991709427064
2.34,-0.4787355257058868,0.0531155237960381,1.78361102974782,0.0071481450810388,0.0639573379488245,0.0361881786263208,0.3923271000059679,-0.0778692919058895,-0.3159537308589084,-0.4799044444668502,0.0560007686954806,1.7817792029328388,0.4890123443919366,-0.0558820202076707,-0.4356192989743442,0.4970223550548128,-0.2423221753830945,0.1681167460450383,0.4000599260624154,10.9337891311161,-0.8550792631234445,0.2278487018384937,-1.017333779449375
2.36,-0.4709336254986654,0.0516022820810239,1.77736911477617,0.004902736610375,0.0664882924593009,0.0361742468939347,0.3881470155185874,-0.0737047519180083,-0.3086330392811351,-0.4702098127017023,0.0548342061735277,1.77312235045374,0.4947200192379898,-0.0526205456877026,-0.4393215323335618,0.4701303670504093,-0.2090042243690276,0.2082269993940622,0.3660345788886604,10.887365257704005,-0.85423716260167,0.2316263750189699,-1.0150420026035372
2.38,-0.4635940829605758,0.050247119622108,1.7715686880874664,0.0032298330282249,0.0685716278970728,0.0361884689076431,0.3846666284767192,-0.0692454456634555,-0.3023015534700256,-0.460372489065403,0.0537491805145739,1.764372942140661,0.5004276940840429,-0.0493590711677346,-0.4430237656927795,0.424518017313101,-0.1740193520934074,0.2229653127276382,0.3165742905554769,10.846559109725604,-0.8536060025828099,0.2349557390563795,-1.012664089298038
2.4,-0.4559358316465366,0.0489164870011332,1.7655868723022925,0.0019720299599779,0.0703992568826797,0.0362355530200672,0.3813604962777414,-0.0640681424988686,-0.2962380111329386,-0.4443607515367399,0.0467848473389352,1.7564536104139652,0.3928096194681924,-0.0587530668176446,-0.3186631830604177,0.4315713262277935,-0.1653066099488925,0.258865158229344,0.3031771168543529,10.805219260460944,-0.8534040225650134,0.2378393259002015,-1.0099576803520411
2.42,-0.4483085995294308,0.0477072101992718,1.7598105321566897,0.0017483195158704,0.0710079659614211,0.0363513409878392,0.3815018106837946,-0.057246645784268,-0.2812332156593914,-0.4443607515367399,0.0467848473389352,1.7564536104139652,0.3928096194681924,-0.0587530668176446,-0.3186631830604177,0.8241612014521879,0.0070657203026625,0.341074835730033,0.7502397736773553,11.356168636828444,-0.8562437364417751,0.2384878058943066,-1.0064053342971964
2.44,-0.441064526080808,0.0466840650496641,1.754595104835409,0.0028351051691679,0.0698055355145122,0.0365463835446419,0.3808740934033463,-0.0509278830669724,-0.2685371409494819,-0.4443607515367399,0.0467848473389352,1.7564536104139652,0.3928096194681924,-0.0587530668176446,-0.3186631830604177,0.7097730346759841,-0.0313858640224151,0.3159381358647795,0.6348037354954761,11.17357411095145,-0.8614787403119601,0.2426381338045466,-0.9941479874988032
2.46,-0.4334665875594516,0.0457308844521017,1.7493413309561443,0.0051961079272971,0.0671507326840229,0.0368248612952349,0.3787993141383307,-0.0448655622647273,-0.257600175633899,-0.4404326553420579,0.0461973166707588,1.753266978583361,0.394438217666487,-0.0566545910484824,-0.3219355089784961,0.6337855568371207,-0.1037389632507795,0.3031160401122535,0.5468482657791457,11.17357411095145,-0.8673401735662286,0.2448337120034825,-0.9828961823331216
2.48,-0.4259277480738275,0.0448795525634871,1.7442811847275668,0.0083107479381784,0.0635620357734254,0.0371359168656118,0.3750265526834804,-0.0407911079757321,-0.249045290142988,-0.4325764629526941,0.0450222553344059,1.7468937149221526,0.3976954140630763,-0.0524576395101581,-0.328480160814653,0.5099533618648752,-0.1886380727425168,0.2037227144497607,0.4277442745455495,11.00658250683955,-0.8730376549582899,0.2452945275332279,-0.9736086859011368
2.5,-0.4184857280797979,0.044090617509512,1.739367708994742,0.0113503419210861,0.0596508455896695,0.0374205077626463,0.369229374966266,-0.0383094003999871,-0.2427044008932045,-0.4247202705633302,0.043847193998053,1.7405204512609442,0.4009526104596656,-0.0482606879718337,-0.3350248126508098,0.4471381734276778,-0.2898588858607165,0.1240853787872475,0.3170444624891744,10.856469271288915,-0.8781504637717649,0.2449629007703752,-0.9662902283946038
2.52,-0.4115435136257008,0.0433771925543573,1.7348003909209702,0.0138723042438746,0.0562849746627571,0.0376535054994129,0.3617245148844558,-0.0368527794939545,-0.2383708621285224,-0.4167012183541369,0.0428819802386163,1.733819955007928,0.4042098068562549,-0.0440637364335094,-0.3415694644869667,0.4393865824545715,-0.3752430040905141,0.0728310453016318,0.2166769382341046,10.73096222256754,-0.8825795422506504,0.2440708284025933,-0.960683843934451
2.54,-0.4044093778041465,0.0426498924892091,1.7300708852138276,0.0160619751359506,0.0538350816320047,0.0378690691175602,0.3519692238176926,-0.0359089980254628,-0.2348490057112436,-0.4086821661449435,0.0419167664791796,1.727119458754912,0.4074670032528442,-0.039866784895185,-0.3481141163231235,0.5207204141414723,-0.4877645533381602,0.0471890734245871,0.176092820863942,10.630012738011828,-0.885464674419101,0.2427209369290936,-0.9576923557487228
2.56,-0.3974834371093416,0.0419369354467618,1.7254013313349053,0.0177775958174085,0.0531114901303229,0.0380715251820219,0.3413504376766715,-0.0353521237727136,-0.2322648017336468,-0.4005816840258355,0.041056476508201,1.7202553462059915,0.4107241996494334,-0.0356698333568607,-0.3546587681592804,0.5471444924330826,-0.530939307051051,0.027843712637459,0.1292101988798408,10.523345974420408,-0.8869693617029883,0.2408494378997883,-0.957176931707192
2.58,-0.3907635106998329,0.0412310565426981,1.7207762036127576,0.019019931416824,0.0539152535054837,0.0382642884108812,0.3313616379330715,-0.0352164502219548,-0.23036965452451,-0.3923997719968127,0.0403011103256806,1.7132276173611676,0.4139813960460227,-0.0314728818185363,-0.3612034199954372,0.5083948037067693,-0.4994399871800004,0.0067836775379408,0.094757360456836,10.523345974420408,-0.8867039638364492,0.2391280341192405,-0.9586647637727608
2.6,-0.3845560146882843,0.0405589921507711,1.7164118819854173,0.0196478859757381,0.0557167155502822,0.0384269658794209,0.3227093730789247,-0.0354785910439442,-0.229124379479732,-0.3741954288031793,0.0394702340316004,1.709257720886532,0.3424079432318768,-0.0297838817314495,-0.2299279036346332,0.437267409184599,-0.4326132427073414,-0.0131070410994707,0.0622637522389002,10.480752705618215,-0.8851573722432854,0.2376138543213072,-0.9615928186083718
2.62,-0.3781763287107898,0.0398576180667464,1.7119651689175146,0.0201271701045484,0.0581510714654062,0.0385944633414972,0.3158631121413963,-0.0347387248651028,-0.2149509797219567,-0.3741954288031793,0.0394702340316004,1.709257720886532,0.3424079432318768,-0.0297838817314495,-0.2299279036346332,0.7878831631038731,-0.342313046876419,0.0369933089420675,0.7086699878887659,10.445915904667345,-0.8863953347704276,0.2350380198797912,-0.963298127179498
2.64,-0.3719243952894298,0.0391641854329364,1.7078121564195667,0.02060096464873,0.0607159957280554,0.0387625397853585,0.309743297290513,-0.0346386311738633,-0.2012160049456945,-0.3741954288031793,0.0394702340316004,1.709257720886532,0.3424079432318768,-0.0297838817314495,-0.2299279036346332,0.7518505248064207,-0.3059907425441655,0.0050046845619759,0.6867487388131088,11.289389095639308,-0.8874174111842346,0.2375864453288124,-0.9580643710589684
