t,x,y,z,roll,pitch,yaw,v_x,v_y,v_z,ref_x,ref_y,ref_z,ref_v_x,ref_v_y,ref_v_z,a_com,a_x,a_y,a_z,thrust,wind_x,wind_y,wind_z
0.0,1.5274481013448198,1.9808107927352407,2.478767452425668,0.033399398827031,0.0997620141279417,0.0423372582955118,0.0002575919370953,-0.0008684302882155,-0.0005544358130212,1.5274488918467752,1.980887018748073,2.4787540555719363,-0.0999128977646828,-0.0983561322780602,-0.1004746447834555,0.0531018794937434,0.0128795968547655,-0.0434215144107788,-0.0277217906510617,10.257005014934292,-0.9399053237546128,0.2495658777226218,-0.8818268417515411
0.02,1.527614323258988,1.9810224807252077,2.478666821592123,0.0408763365564902,0.0939363778948635,0.0426220038783956,0.0159541071975773,0.0179788373609665,-0.0101422223654297,1.5274609809416746,1.9807673712208305,2.478739730635017,-0.0997424095530208,-0.1008684317783317,-0.1005544373031373,1.316743843859728,0.7848257630241002,0.942363382459105,-0.4793893276204271,9.65319918790874,-0.9524177727901528,0.2475860406397146,-0.8658909579457094
0.04,1.5280469991972014,1.981397006260248,2.4783335391998667,0.0547356237968492,0.077774874128058,0.0427492943039437,0.0251276283934563,0.0177419334659592,-0.0226974298458843,1.5274609809416746,1.9807673712208305,2.478739730635017,-0.0997424095530208,-0.1008684317783317,-0.1005544373031373,0.7775648678148556,0.4586760597939531,-0.0118451947503652,-0.6277603740227267,9.65319918790874,-0.957258045491909,0.2364727208884544,-0.8620915783411289
0.06,1.528552829587469,1.9816866218566345,2.4777234070505947,0.0689834393871507,0.0557041290053574,0.0422521248670377,0.0239349370325466,0.0108456999620392,-0.0378031012561069,1.5274609809416746,1.9807673712208305,2.478739730635017,-0.0997424095530208,-0.1008684317783317,-0.1005544373031373,0.8324089409307688,-0.0596345680454862,-0.3448116751959971,-0.755283570511131,9.502470752455338,-0.968211201877816,0.2241324465851303,-0.853428202817913
0.08,1.5289112538363143,1.981797992388484,2.476843997594396,0.0820167018632956,0.0328921174406635,0.0412600118033169,0.0132814807381022,0.0009230753993201,-0.0540408819133372,1.5264635568461444,1.9797586869030472,2.4777341862619857,-0.119742409851044,-0.1208684320763549,-0.1205544376011605,1.0904358416507547,-0.5326728147222187,-0.4961312281359553,-0.8118890328615156,9.342079877433209,-0.9828322929854424,0.2089204642022404,-0.843859285624195
0.1,1.5289830657808734,1.9816809084435,2.47556844752888,0.0951120563307026,0.009808554332981,0.0398769418520772,-0.0060458198969473,-0.0124307556440451,-0.072787709338091,1.524468708655084,1.9777413182674808,2.475723097515923,-0.1597424104470904,-0.1608684326724013,-0.160554438197207,1.5027582073189951,-0.9663650317524836,-0.6676915521682666,-0.9373413712376892,9.26341411496196,-0.9982370706645256,0.1916004774134399,-0.8362972854042061
0.12,1.5285922134928611,1.981267440835305,2.47390264510526,0.1075877126681133,-0.0102686220045208,0.0383990474694015,-0.0321371920934031,-0.0285416202491609,-0.0929237290092784,1.5224738604640236,1.975723949631914,2.4737120087698603,-0.1997424110431369,-0.2008684332684478,-0.2005544387932534,1.8342429975447685,-1.3045686098227889,-0.8055432302557909,-1.006800983559372,9.21231078993378,-1.0130502121160103,0.1733616947112156,-0.8308728361936665
0.14,1.527628610824317,1.9805045792711544,2.471821190571227,0.1194662242831698,-0.0262187695900729,0.0370501007016836,-0.0627939116567804,-0.047213224924887,-0.1142695215925774,1.5184790122431608,1.9717065809665448,2.469700919993995,-0.2397424116391834,-0.2408684338644942,-0.2405544393892999,2.088124838559331,-1.5328359781688643,-0.9335802337863012,-1.0672896291649463,9.21231078993378,-1.025351479073265,0.1556888419300365,-0.8285003516988698
0.16,1.5261170990261037,1.9794077589335517,2.4694395261077755,0.1301091479905823,-0.0371856239543374,0.0360343888326445,-0.0945807124755771,-0.0674625230574476,-0.1353918625993469,1.514484164022298,1.967689212301176,2.46568983121813,-0.2797424122352299,-0.2808684344605408,-0.2805544399853464,2.160201420447542,-1.5893400409398322,-1.012464906628032,-1.0561170503384751,9.208282547701856,-1.0355333748858766,0.1365319283171123,-0.8303162516097738
0.18,1.5238516951091805,1.977791066747844,2.4664874942806136,0.139826750143989,-0.0440956332091361,0.0353368429459154,-0.1303748404522859,-0.0929234094700807,-0.1587127684977786,1.509489315786534,1.9626718436209056,2.460678742427364,-0.3197424128312763,-0.3208684350565872,-0.3205544405813928,2.4866347673379368,-1.7897063988354396,-1.2730443206316548,-1.1660452949215847,9.214979491222492,-1.041884007623755,0.1199137338670144,-0.8345588869809754
0.2,1.5208512079288383,1.9756361692209623,2.463063838369325,0.1472585025177259,-0.0456175159689269,0.0351740822873654,-0.1673796537268607,-0.120897172300066,-0.1823483130059322,1.503494467535869,1.9566544749257344,2.4546676536216965,-0.3597424134273227,-0.3608684356526336,-0.3605544411774392,2.603135886076316,-1.8502406637287416,-1.3986881414992665,-1.181777225407682,9.231775769278556,-1.0463164355904395,0.1056325415685482,-0.8403309460546485
0.22,1.5173327293408827,1.9730560027826023,2.459376561165691,0.152035690122109,-0.0426616163627383,0.0354993160380435,-0.2006338273681538,-0.1487065593830084,-0.2044524758908416,1.5124822252424952,1.9695913106059597,2.4539464227190284,-0.2673796552169768,-0.2208971737901822,-0.2823483144960483,2.433000252433609,-1.662708682064655,-1.3904693541471205,-1.1052081442454689,9.25497581860236,-1.0467998141468249,0.0944580373548371,-0.8491903154922137
0.24,1.512946157225354,1.9696257836340076,2.4552362244206933,0.1515031541377855,-0.0353008065075624,0.0361003014645738,-0.2357790891568495,-0.1916733216474213,-0.2069739014986379,1.5124822252424952,1.9695913106059597,2.4539464227190284,-0.2673796552169768,-0.2208971737901822,-0.2823483144960483,2.7783491828683875,-1.7572630894347838,-2.148338113220642,-0.1260712803898139,9.268357145380378,-1.0503486761165712,0.0875231593146034,-0.8548102056766588
0.26,1.5079044600814453,1.9654153931096048,2.4510827588008226,0.1449056845961714,-0.0244199991431291,0.0367646403181022,-0.2660741867022005,-0.2258946672374712,-0.2082628282338282,1.5124822252424952,1.9695913106059597,2.4539464227190284,-0.2673796552169768,-0.2208971737901822,-0.2823483144960483,2.2861292403343296,-1.5147548772675503,-1.7110672795024942,-0.064446336759516,10.418200265386076,-1.0476363962874526,0.0914165899254479,-0.8594103904943478
0.28,1.5026001256423367,1.9608548343079693,2.447078877869937,0.1369767432215791,-0.0126663701628898,0.0373988863936932,-0.2903918081061051,-0.2520335433709802,-0.2130284603326952,1.5098084286903255,1.9673823388680571,2.451122939574068,-0.287379655515,-0.2408971740882054,-0.3023483147940716,1.8009017224492845,-1.215881070195232,-1.3069438066754506,-0.2382816049433495,10.418200265386076,-1.0412990612098527,0.0962209556361167,-0.8687180560078409
0.3,1.4965628054715392,1.9555679528544967,2.4427306467053804,0.1286580600595405,-0.0001628836836952,0.0379801287417866,-0.311710760556083,-0.2751079086100464,-0.221728335728667,1.504460835585986,1.9629643953922535,2.445475973284147,-0.3273796561110464,-0.2808971746842518,-0.342348315390118,1.6298864198585132,-1.0659476224988915,-1.1537182619533126,-0.4349937697985917,10.12067193049279,-1.0330571546275775,0.10073415762638,-0.880229317983625
0.32,1.4901385384498154,1.949852816446224,2.438167901591464,0.1211045230816079,0.0114824083707343,0.0384040355452096,-0.3294178186440207,-0.2952133248171733,-0.2342966940836544,1.4991132424816465,1.9585464519164504,2.439829006994226,-0.3673796567070929,-0.3208971752802983,-0.3823483159861645,1.4796378769235896,-0.8853529043968855,-1.00527081035634,-0.6284179177493701,9.857033396096996,-1.0249239050743533,0.1050709232253694,-0.8909313492908546
0.34,1.483391815346745,1.9437605780642528,2.433313913460013,0.1145864600850243,0.0216163058237618,0.0386370823518665,-0.3442898037450999,-0.3131383372451766,-0.2505120038572422,1.4917656493475049,1.952128508410844,2.432182040674503,-0.4073796573031393,-0.3608971758763447,-0.4223483165822109,1.4189946110223666,-0.7435992550539616,-0.8962506214001659,-0.810765488679388,9.440356102291844,-1.0166792272426397,0.1077302283616716,-0.9021931536384198
0.36,1.4767277068384448,1.937655891847014,2.428382500163794,0.1093962359111565,0.029548198214062,0.0386802410030211,-0.3564505795927516,-0.3287342374565568,-0.2678228527939889,1.4844180562133629,1.9457105649052384,2.4245350743547798,-0.4473796578991859,-0.4008971764723912,-0.4623483171782574,1.314136659114095,-0.6080387923825842,-0.7797950105690121,-0.8655424468373335,9.440356102291844,-1.0089564519742018,0.1094386989404672,-0.9131480212753929
0.38,1.4694735044158171,1.930912593946976,2.422818050376529,0.1047154985114661,0.03615981556509,0.0385518461181952,-0.3683023456877503,-0.3447588101036988,-0.2878097364505447,1.4760704630643198,1.9382926213847311,2.415888108020155,-0.4873796584952323,-0.4408971770684377,-0.5023483177743038,1.411317475264504,-0.5925883047499358,-0.8012286323570983,-0.999344182827791,9.33987665740642,-1.0019093548362412,0.1101333201578723,-0.9236290030220784
0.4,1.4619886902457206,1.9238544783777785,2.4168381181598133,0.1005108854407157,0.0412907850411898,0.0382745268744889,-0.3795751861147317,-0.3601972094672967,-0.3092524883084545,1.4667228699003756,1.9298746778493228,2.406241141670629,-0.5273796590912787,-0.480897177664484,-0.5423483183703502,1.4363257929888529,-0.56364202134907,-0.771919968179896,-1.0721375928954917,9.255653831507516,-0.9963154525137108,0.1105769497486376,-0.9321807110382172
0.42,1.4542822466917378,1.9164951214936088,2.4104151003912224,0.0966301706579759,0.0452536772128332,0.0378835631809874,-0.3905122780153096,-0.3749174714451212,-0.3319888638031251,1.443009930939984,1.9058446179044133,2.4013754937443905,-0.4795751876048478,-0.4601972109574128,-0.4092524897985706,1.4605211934204585,-0.546854595028895,-0.736013098891225,-1.136818774733528,9.190790987834587,-0.9912644485136204,0.1107289265911183,-0.9403270177598092
0.44,1.44678823720663,1.9092229000001664,2.404168715524716,0.0935583422965047,0.0477156653813581,0.0374180289485414,-0.3979217547882924,-0.3900493289654203,-0.3244193834501823,1.443009930939984,1.9058446179044133,2.4013754937443905,-0.4795751876048478,-0.4601972109574128,-0.4092524897985706,0.923540051754106,-0.3704738386491407,-0.7565928760149554,0.3784740176471374,9.134149495300337,-0.996101191456466,0.1115325912376994,-0.9375476550413034
0.46,1.4387500630308647,1.901269712866429,2.3977212417854807,0.0913062541610348,0.0485981187954451,0.0368312776023509,-0.4056274071780318,-0.4046537272976038,-0.3211657593303778,1.443009930939984,1.9058446179044133,2.4013754937443905,-0.4795751876048478,-0.4601972109574128,-0.4092524897985706,0.8415040096600175,-0.3852826194869679,-0.7302199166091761,0.1626812059902282,10.913598817462116,-0.9956771995467436,0.1131067382569072,-0.937673338107828
0.48,1.4305499924998042,1.893026120686983,2.3912708090888164,0.0898621206164883,0.0478837268920423,0.0361536740142831,-0.4140977678181313,-0.4189959851520369,-0.324292281879936,1.4382141790639356,1.9012426457948397,2.397282968846405,-0.4995751879028711,-0.4801972112554361,-0.4292524900965939,0.847382016845548,-0.4235180320049769,-0.7171128927216552,-0.1563261274779098,10.494280140238516,-0.9960163559477212,0.1133304902945378,-0.9377627952512926
0.5,1.4225948618464077,1.884935451486052,2.385032669449118,0.0890860872356374,0.0459467894727164,0.0354383723609343,-0.4229582583356477,-0.4319952726527817,-0.3321746964384884,1.4286226753118385,1.8920387015756912,2.3890979190504336,-0.5395751884989175,-0.5201972118514825,-0.4692524906926403,0.8798042779659815,-0.4430245258758181,-0.6499643750372402,-0.3941207279276215,10.144180485524885,-0.9974124976543308,0.1125188183223677,-0.93741567665307
0.52,1.414028934493885,1.876158465762008,2.378267372485055,0.088988720484496,0.0427749591025553,0.0346335187695364,-0.4332914093031531,-0.4450633130377869,-0.3441040732369824,1.4190311715597417,1.882834757356543,2.380912869254462,-0.579575189094964,-0.560197212447529,-0.5092524912886868,1.0245214971168632,-0.5166575483752711,-0.6534020192502599,-0.5964688399246992,9.88045984825385,-0.9995169473232172,0.1106454750786196,-0.9368711672617024
0.54,1.4052423637444316,1.8671226772042957,2.371231679311428,0.0897434183259672,0.0386907997764714,0.033801917496687,-0.4449948392424656,-0.4579277992771925,-0.3589864598542487,1.4074396677778425,1.8716308131075925,2.3707278194286885,-0.6195751896910104,-0.6001972130435754,-0.5492524918847332,1.144498481840451,-0.5851714969656224,-0.643224311970278,-0.7441193308633187,9.52777760535082,-1.00230142640054,0.1076996346846661,-0.9360790407049684
0.56,1.3962048076454423,1.8578276619277736,2.363884279221283,0.0913742961038452,0.0340941169435609,0.0329747947031893,-0.458312102580996,-0.4710386123181639,-0.3750080274851629,1.3958481639959432,1.8604268688586416,2.3605427696029144,-0.6595751902870569,-0.6401972136396219,-0.5892524924807797,1.2307858777779217,-0.6658631669265225,-0.6555406520485696,-0.8010783815457057,9.52777760535082,-1.005439751297298,0.1039779434072481,-0.9351429160374476
0.58,1.3873504413526772,1.8487386931561285,2.356600413349548,0.0933518083109495,0.0298896817878291,0.0322194905455869,-0.4731671042463035,-0.4850250087592052,-0.3909164379160992,1.3832566601991427,1.84822292459479,2.3493577197622395,-0.6995751908831033,-0.6801972142356683,-0.6292524930768261,1.29360724557474,-0.7427500832653755,-0.6993198220520636,-0.7954205215468191,9.485921625174342,-1.0083693526241992,0.099343368861128,-0.9349491821761056
0.6,1.3777027291073976,1.838869667446539,2.348597395149478,0.0952301086799499,0.0265470511747542,0.0314972754307964,-0.4909628660786038,-0.5010816791939733,-0.4085861992033491,1.3696651563874411,1.835018980316037,2.337172669906664,-0.7395751914791497,-0.7201972148317147,-0.6692524936728725,1.4888974684234522,-0.8897880916150153,-0.8028335217384053,-0.883488064362492,9.46714292987599,-1.010338606815953,0.0946753613529949,-0.9360161655940356
0.62,1.3676773566143947,1.828667029530436,2.3402315757964125,0.0963809145427729,0.0252626855830995,0.0309115427312698,-0.5106500583042625,-0.5182906197007245,-0.4271287586693754,1.3531545858034673,1.8138155834868404,2.3281680851893105,-0.59096286756872,-0.6010816806840894,-0.5085862006934652,1.602778589392542,-0.9843596112829311,-0.8604470253375629,-0.9271279733013144,9.436504863706432,-1.011059789232373,0.0906662313641482,-0.9384430819208528
0.64,1.3572481028858077,1.8180338357951484,2.3318063456284306,0.0948598552007321,0.0270395731827468,0.030430956232141,-0.5307842776032541,-0.5433411075298129,-0.4143251317662823,1.3531545858034673,1.8138155834868404,2.3281680851893105,-0.59096286756872,-0.6010816806840894,-0.5085862006934652,1.729773532235362,-1.006710964949581,-1.2525243914544182,0.6401813451546556,11.339769335915662,-1.016753473045077,0.0897382496089475,-0.9347102731533316
0.66,1.3469913072318769,1.8075045763970992,2.3240130799593253,0.090621919860712,0.0311678837421197,0.0300047422745274,-0.5475719642701341,-0.5629798483045779,-0.406648938440408,1.3531545858034673,1.8138155834868404,2.3281680851893105,-0.59096286756872,-0.6010816806840894,-0.5085862006934652,1.3476187394993764,-0.839384333344001,-0.9819370387382508,0.3838096662937107,11.339769335915662,-1.0144196369625784,0.0934227369976782,-0.936523851801596
0.68,1.335875063613223,1.7960711472847977,2.315903184705575,0.085367847106582,0.0368861869759903,0.0296075140205031,-0.5629045285902617,-0.5791038482168633,-0.4050289319409783,1.34724495712778,1.8078047666799997,2.323082223182376,-0.6109628678667431,-0.6210816809821126,-0.5285862009914883,1.115454305272549,-0.766628216006382,-0.8061999956142707,0.0810003249714891,10.436202112078718,-1.0104698144348436,0.0975008914229365,-0.9404028230131962
0.7000000000000001,1.3244746960347162,1.784347030852797,2.3077535591451896,0.0803323777152836,0.0431536693148557,0.0292491407323665,-0.5761568631060777,-0.5924859642351528,-0.4099790091038217,1.3354256997764058,1.7957831330663176,2.3129104991685066,-0.6509628684627896,-0.661081681578159,-0.5685862015875348,0.973664037494646,-0.6626167257907989,-0.6691058009144712,-0.2475038581421729,10.436202112078718,-1.0058300238409537,0.1010412199725509,-0.9454403144867924
0.72,1.312829249171413,1.7723762744759533,2.2994502925722964,0.0759066265980252,0.0493579099837364,0.0289062815259544,-0.5875812886586669,-0.604006649229026,-0.4201021147598882,1.3236064424250311,1.7837614994526358,2.302738775154637,-0.6909628690588361,-0.7010816821742055,-0.6085862021835813,0.956191599600458,-0.5712212776294578,-0.5760342496936632,-0.5061552828033222,10.073396927228714,-1.0009401095174502,0.1036695749188787,-0.951027013686598
0.74,1.3015693644921094,1.7608039749761912,2.291333906997947,0.0724064901802484,0.0548045243680037,0.0285800305978507,-0.597023563865269,-0.6136900753082491,-0.433759126405503,1.3097871850438547,1.7697398658091517,2.290567051110965,-0.7309628696548826,-0.741081682770252,-0.6485862027796278,0.9610401510829978,-0.4721137603301062,-0.4841713039611561,-0.6828505822807446,9.558696453422272,-0.9957736726521568,0.1055721112639357,-0.9572122561381882
0.76,1.2895367611474742,1.748433145854897,2.2824869137963484,0.0695216286246257,0.0597851952502981,0.0282275115870201,-0.6056742761512321,-0.6230031547316237,-0.4503318057923759,1.295967927662678,1.7557182321656677,2.278395327067294,-0.770962870250929,-0.7810816833662985,-0.6885862033756742,1.044296382092599,-0.4325356142981573,-0.465653971168728,-0.8286339693436423,9.558696453422272,-0.9911146084224368,0.1066038796710658,-0.963087054397912
0.78,1.2773372528122633,1.7358728655180138,2.2732896915822507,0.0671653674548818,0.0639724929239552,0.0278513907815542,-0.6138010619309063,-0.6325408135943333,-0.4686316288857656,1.2811486702666,1.7406965985072822,2.265223603008721,-0.8109628708469754,-0.8210816839623448,-0.7285862039717206,1.108935422984017,-0.4063392889837092,-0.4768829431354815,-0.914991154669484,9.443987180834483,-0.9869563587279246,0.106956017834642,-0.9686275723326876
0.8,1.2649794538002408,1.7231237168928355,2.263709772918822,0.0650011585388503,0.0675601955902312,0.027446215267589,-0.6215271637555598,-0.6418481395860532,-0.4884467662146302,1.265329412855621,1.7246749648339958,2.251051878935247,-0.8509628714430219,-0.8610816845583913,-0.768586204567767,1.1607741316496738,-0.3863050912326748,-0.4653662995859953,-0.9907568664432292,9.364107461060485,-0.9828927617126184,0.1070341204927823,-0.9742799653345352
0.8200000000000001,1.25309965572184,1.710843099139997,2.2542290551756023,0.0630286380560888,0.0705557461726228,0.0270398788844711,-0.6285489651129371,-0.6503315923447404,-0.5085357683423243,1.2339030956124628,1.6910313099135328,2.2392874346080904,-0.721527165245676,-0.7418481410761694,-0.5884467677047462,1.145472251407514,-0.3510900678688644,-0.4241726379343558,-1.0044501063847049,9.29457702405216,-0.9791144599476628,0.1069822748193717,-0.9796943127096742
0.84,1.2404807366422703,1.697716475367448,2.2441369396230124,0.0606604865142307,0.0732477332693155,0.0265636213430375,-0.6328258620523095,-0.6617210192253538,-0.498012005875225,1.2339030956124628,1.6910313099135328,2.2392874346080904,-0.721527165245676,-0.7418481410761694,-0.5884467677047462,0.804301666917921,-0.2138448469686193,-0.5694713440306698,0.526188123354962,9.229494007146968,-0.981050244390505,0.1079952797112855,-0.9785819327225042
0.86,1.227786758041271,1.684387267438057,2.234260178836766,0.0583786044418412,0.0752116064859689,0.0260516772732018,-0.6364081834992011,-0.6706867304514743,-0.4907228743199102,1.2339030956124628,1.6910313099135328,2.2392874346080904,-0.721527165245676,-0.7418481410761694,-0.5884467677047462,0.6048728039218879,-0.1791160723445817,-0.4482855613060277,0.3644565777657427,11.207650487352112,-0.9795251685034004,0.1098158714644448,-0.9795637621464977
0.88,1.215659726031964,1.671569284685006,2.2249374262749013,0.0567634404230425,0.0762389450193931,0.0255593913896101,-0.6400145299785751,-0.6782457829960321,-0.490958523100502,1.226687823960006,1.6836128285027712,2.233402966931043,-0.7415271655436991,-0.7618481413741925,-0.6084467680027694,0.4189288145033507,-0.1803173239686983,-0.3779526272278899,-0.0117824390295895,10.749700872232095,-0.9781700261409229,0.1107552865389298,-0.9809557789965256
0.9,1.2028162283531652,1.6579307119625604,2.215064122768404,0.0557618465154856,0.0764911534177897,0.025049079545952,-0.6442304766541267,-0.6852599911195019,-0.4965998379642483,1.2122572806550924,1.6687758656812477,2.221634031576948,-0.7815271661397456,-0.801848141970239,-0.6484467685988159,0.4969852999897697,-0.2107973337775792,-0.3507104061734878,-0.2820657431873152,10.339117634200193,-0.9773610543244512,0.1107199073032137,-0.9822825847279292
0.92,1.189882442503129,1.6441597882355323,2.205029991087682,0.0557395012884668,0.0759960040999138,0.0245714074441232,-0.6490092354781808,-0.6915597025166718,-0.5067059391938064,1.197826737350179,1.6539389028597242,2.209865096222853,-0.8215271667357921,-0.8418481425662855,-0.6884467691948624,0.6415921244220941,-0.2389379412027048,-0.3149855698584947,-0.5053050614779037,10.028485258796536,-0.9771893508280036,0.1096757211725926,-0.9832829576289364
0.94,1.1768475330117896,1.6302683930079709,2.194754041780424,0.0569496385858692,0.0748347501717101,0.0241459440339318,-0.6543061685508594,-0.6974421443733894,-0.5203718108131139,1.1813961940154631,1.6371019400083986,2.196096160838956,-0.8615271673318385,-0.881848143162332,-0.7284467697909088,0.7896465495547604,-0.2648466536339322,-0.2941220928358801,-0.6832935809653773,9.79185736098043,-0.9776768761154452,0.1073386063756033,-0.983987773255144
0.96,1.164362664023927,1.616961212731903,2.184727222126861,0.0593661344699751,0.0731415148859435,0.0237949736719701,-0.6596842146104717,-0.703307966511546,-0.5344051194595435,1.164965650680747,1.620264977157073,2.1823272254550585,-0.901527167927885,-0.9218481437583784,-0.7684467703869553,0.8066365357795221,-0.2689023029806114,-0.2932911069078336,-0.7016654323214799,9.61497212113045,-0.9791666033848856,0.1037092203895597,-0.9838974503487516
0.98,1.151101152469164,1.602805543774117,2.1738760422314547,0.0625239443926716,0.0709056155542055,0.0234343281194808,-0.6662761369243302,-0.7120707760116874,-0.5500122504266161,1.1475351073311302,1.602428014290846,2.16755829005626,-0.9415271685239314,-0.9618481443544248,-0.8084467709830017,0.953706987432552,-0.3295961156929261,-0.4381404750070705,-0.7803565483536279,9.562073814368889,-0.9807372228907354,0.0991560858580964,-0.9841680421675688
1.0,1.1376950499897027,1.5884547830736042,2.1627057730346646,0.0653333564187687,0.0686337172286739,0.023038626054132,-0.674071524102529,-0.7224473314809272,-0.5662262240584417,1.1291045639666122,1.583591051409718,2.1517893546425606,-0.9815271691199776,-1.0018481449504713,-0.8484467715790481,1.0384289884216609,-0.3897693589099416,-0.5188277734619884,-0.810698681591282,9.525777227808248,-0.9821840389568776,0.0949500047847519,-0.9846288429522104
1.02,1.1248028632204443,1.574621008654558,2.1517875693715656,0.0673843609193283,0.0668927358433656,0.0226413148560149,-0.6826532330484466,-0.7330521209630174,-0.5822380535337195,1.1039914737845762,1.5523324164995578,2.1343944618317425,-0.7740715255926451,-0.8224473329710433,-0.6662262255485578,1.0517675260451662,-0.4290854472958794,-0.5302394741045102,-0.8005914737638897,9.504877044403656,-0.9836375475322172,0.0911223604474307,-0.9851001438349494
1.04,1.1110440299311848,1.559768459963034,2.140260003931001,0.067279281258984,0.0666895386639804,0.0221746653139667,-0.6924988667095958,-0.751269019712651,-0.5680549105349837,1.1039914737845762,1.5523324164995578,2.1343944618317425,-0.7740715255926451,-0.8224473329710433,-0.6662262255485578,1.2549436716109468,-0.4922816830574605,-0.9108449374816808,0.7091571499367899,9.477709395955571,-0.9880433702342462,0.0898936721518703,-0.9819384957124824
1.06,1.0971033633695282,1.5445744849033058,2.129023585841168,0.0641466518905624,0.0684734778677411,0.0216356783253321,-0.7008892748806171,-0.7667565475661785,-0.5567648644896794,1.1039914737845762,1.5523324164995578,2.1343944618317425,-0.7740715255926451,-0.8224473329710433,-0.6662262255485578,1.046097041381942,-0.4195204085510662,-0.7743763926763736,0.5645023022652129,11.033071670728532,-0.9878071848941044,0.0926525945273946,-0.9815534825061204
1.08,1.08300686991158,1.52911554984884,2.117927253816543,0.0596376310594993,0.0712543639217699,0.0210673947424796,-0.7081897511088567,-0.7780376001363505,-0.5533752588014973,1.0962507585286498,1.5441079431698477,2.127732199576257,-0.7940715258906683,-0.8424473332690665,-0.686226225846581,0.6929078708086522,-0.3650238114119797,-0.5640526285085989,0.169480284409107,11.033071670728532,-0.9858530209175892,0.0962157764029173,-0.9830871119714228
1.1,1.0694895722335092,1.5142515575538862,2.1073861297372694,0.0553908151566944,0.0742224834314664,0.0205495113867685,-0.7142321100840519,-0.7860401958297603,-0.5563728080744135,1.080769328016797,1.5276589965104266,2.114407675065286,-0.8340715264867148,-0.882447333865113,-0.7262262264426275,0.5232994875328609,-0.3021179487597558,-0.4001297846704887,-0.1498774636458089,10.185796424892033,-0.9830062291464003,0.0997104387269703,-0.9857813591812472
1.12,1.0551456028633095,1.498460378791235,2.0961757384599924,0.0515161091214273,0.0772532253717876,0.0200411048719723,-0.7197893624362117,-0.7927169986724811,-0.564749600536441,1.065287897504944,1.5112100498510057,2.101083150554315,-0.8740715270827613,-0.9224473344611596,-0.7662262270386739,0.6033933249921493,-0.2778626176079934,-0.3338401421360437,-0.4188396231013747,10.185796424892033,-0.9796675375449856,0.1023692445196891,-0.9893689562647908
1.14,1.0406967790738448,1.482548434664691,2.084745536697414,0.0484643019753626,0.0798946805652153,0.0195728673988431,-0.7247963296478921,-0.7983285762169641,-0.5778445637329306,1.0478064669632887,1.4927611031617825,2.085758626013541,-0.9140715276788076,-0.962447335057206,-0.8062262276347204,0.7550456680128775,-0.2503483605840184,-0.2805788772241468,-0.6547481598244809,9.884105572353292,-0.9764152188418832,0.1039089378372963,-0.9932890091041696
1.16,1.0268827955450477,1.4673343574070246,2.073623099717332,0.0463272669445393,0.0819013653546487,0.019161933631628,-0.7290686838895832,-0.8030650762221465,-0.5922899315870062,1.0303250364216336,1.4743121564725594,2.070434101472768,-0.9540715282748542,-1.0024473356532524,-0.8462262282307669,0.7895506562361112,-0.2136177120845572,-0.2368250002591221,-0.7222683927037787,9.648217503213344,-0.9737357856911876,0.1047159760166299,-0.9968789224104536
1.18,1.012253423874886,1.4512174816329064,2.0616028478437203,0.0445894839464001,0.0835389005280242,0.0187503110577994,-0.733642564250109,-0.8083875046492346,-0.6090458191422151,1.0118436058650773,1.454863209768435,2.054109576917093,-0.9940715288709006,-1.0424473362492988,-0.8862262288268132,0.9083066575731524,-0.2286940180262875,-0.2661214213544038,-0.837794377760448,9.544167982165163,-0.9714590403017184,0.104918128351599,-1.0002781833937806
1.2,0.997531440970446,1.434994037712739,2.0492333921378743,0.0430756560855884,0.0848919261652187,0.018349997669306,-0.7383145804003154,-0.8136572635407721,-0.6271143932704627,0.9923621752936196,1.4344142630494094,2.0367850523465174,-1.034071529466947,-1.082447336845345,-0.9262262294228596,0.969628104881848,-0.2336008075103202,-0.2634879445768734,-0.9034287064123792,9.464613900464428,-0.9694901530960572,0.1048744209839642,-1.00340477525853
1.22,0.9827151113069628,1.4186677217842003,2.0364884303567807,0.0416946413496127,0.0861229520074655,0.017962491243186,-0.7430506758416534,-0.8186714496374975,-0.6464763769450388,0.9606157119504304,1.3943111745357004,2.0178776724743512,-0.8383145818904315,-0.9136572650308882,-0.7271143947605788,1.027690461735206,-0.2368047720669008,-0.2507093048362718,-0.9680991837288044,9.400581326844986,-0.9675107996038056,0.1046853492301173,-1.0066605141523797
1.24,0.9685684310226031,1.4030328240886798,2.0243325923798405,0.0398058834436942,0.0876393618389496,0.017576600310034,-0.7456874198346506,-0.8263581840905916,-0.6320915398073509,0.9606157119504304,1.3943111745357004,2.0178776724743512,-0.8383145818904315,-0.9136572650308882,-0.7271143947605788,0.826077848805419,-0.131837199649859,-0.3843367226547045,0.719241856884395,11.421537303156583,-0.969789051111598,0.1052470727122759,-1.005476784312724
1.26,0.9536349263998416,1.3864521526709983,2.011801653501964,0.0376281162751385,0.08961353042615,0.0171803277430618,-0.747475841370818,-0.8313509636257486,-0.6222271546324012,0.9606157119504304,1.3943111745357004,2.0178776724743512,-0.8383145818904315,-0.9136572650308882,-0.7271143947605788,0.5599830219691423,-0.0894210768083714,-0.2496389767578488,0.4932192587474848,10.92228899357633,-0.9679982035234485,0.1075961309763624,-1.0061843439327938
1.28,0.938670548243736,1.3697853533266162,1.99938724562418,0.0360205607621478,0.0913910123721611,0.0168248040197465,-0.7488734433423269,-0.8351511870223893,-0.6200169396342723,0.952232566131526,1.3851746018853914,2.0106065285267456,-0.8583145821884547,-0.9336572653289114,-0.747114395058602,0.2306514658152817,-0.0698800985754422,-0.1900111698320383,0.110510749906445,10.92228899357633,-0.9659544372776414,0.1090421823464669,-1.0076795410318309
1.3,0.923679906372031,1.3530541612949232,1.9869447773624929,0.0352815954144579,0.092645228267043,0.0165201334697004,-0.7501636088649882,-0.83792761653376,-0.6243131745796916,0.9354662744937174,1.3669014565847737,1.9960642406315336,-0.8983145827845012,-0.9736572659249578,-0.7871143956546485,0.2637741582003259,-0.0645082761330684,-0.1388214755685346,-0.2148117472709654,10.47708265919755,-0.9641236828290642,0.1093559510595789,-1.0094840014232844
1.32,0.9094142097206362,1.3371155722398085,1.9749998760407803,0.0356848268391366,0.0932250558293378,0.0162945031295651,-0.7514860864311901,-0.8398506512185249,-0.6328242837316316,0.9186999828559088,1.348628311284156,1.9815219527363224,-0.9383145833805476,-1.0136572665210042,-0.8271143962506949,0.4412651932459443,-0.0661238783100925,-0.0961517342382423,-0.4255554575969988,10.13635339449047,-0.9626737551113506,0.1083459236954366,-1.0113905833907315
1.34,0.8943680480206585,1.320302481855579,1.962216008772127,0.0375854761811929,0.0931582782858569,0.016142328478582,-0.7531358429786754,-0.8415199318051234,-0.6452712040650922,0.8999336911882978,1.3283551659537358,1.9649796648113085,-0.978314583976594,-1.0536572671170503,-0.8671143968467414,0.6333127586948666,-0.0824878273742668,-0.0834640293299271,-0.622346016673031,9.88391865844369,-0.961792209214466,0.1057181980839608,-1.0131620693265044
1.36,0.8792871231810007,1.3034462538597211,1.9491668730934664,0.0409887412497979,0.0923917920902953,0.0160704257882465,-0.7549167179765303,-0.8445338661712587,-0.6590663829516028,0.8811673995206869,1.3080820206233157,1.9484373768862944,-1.0183145845726405,-1.0936572677130971,-0.907114397442788,0.7116218740176973,-0.0890437498927421,-0.1506967183067642,-0.6897589443255303,9.689696759196522,-0.9623291061705438,0.1015778256148657,-1.0138373906789246
1.38,0.8641647287222237,1.2864966600798424,1.9358348865530464,0.0447143368164641,0.0910208114745592,0.0159929925115566,-0.757300864126893,-0.8503066759560711,-0.673440454498224,0.8614011078381748,1.2868088752779945,1.93089508894638,-1.0583145851686868,-1.1336572683091437,-0.9471143980388342,0.7836188781947834,-0.1192073075181376,-0.2886404892406213,-0.718703577331059,9.632397881608997,-0.9630300596161188,0.0971323948260059,-1.0145849144172594
1.4,0.8497473150599943,1.2702725118609852,1.9228986816297715,0.0478569367383607,0.0894050271127873,0.0158729398742401,-0.7602567610253179,-0.8571179098128029,-0.6875436538693152,0.8406348161407615,1.264535729917772,1.9123528009915636,-1.0983145857647332,-1.1736572689051898,-0.9871143986348806,0.79691666067719,-0.1477948449212451,-0.3405616928365884,-0.7051599685545584,9.61225749156074,-0.964002211498455,0.0927196128738617,-1.0152309330716325
1.42,0.8345024613861258,1.2530478643960143,1.9089842349984345,0.0505767274509576,0.087620230273504,0.015697000421502,-0.7641429533629714,-0.8649217957341746,-0.703193563034937,0.8117344770087285,1.227416616370345,1.8885214989363053,-0.860256762515434,-0.957117911302919,-0.7875436553594313,0.8957158914120511,-0.1943096168826763,-0.3901942960685856,-0.7824954582810906,9.591547909309156,-0.9650150752630337,0.0888008831711271,-1.015859957206952
1.44,0.8191696652976067,1.2355900056785698,1.895061887803676,0.0508997726314484,0.0869489551770929,0.0154103032856437,-0.7687301703248405,-0.8799780277471454,-0.6865910907932656,0.8117344770087285,1.227416616370345,1.8885214989363053,-0.860256762515434,-0.957117911302919,-0.7875436553594313,1.143869274020345,-0.2293608480934517,-0.7528116006485397,0.8301236120835664,11.672901730868034,-0.9695878993249172,0.0870371652607415,-1.012945231556817
1.46,0.8037566184443286,1.2178568063985662,1.8814716243921137,0.0480742260240759,0.0879990012364162,0.0149992402744018,-0.7721824446228908,-0.8921906293028055,-0.6734225280002144,0.8117344770087285,1.227416616370345,1.8885214989363053,-0.860256762515434,-0.957117911302919,-0.7875436553594313,0.9144354551044356,-0.1726137149025142,-0.6106300777830032,0.6584281396525615,11.672901730868034,-0.9689879390383264,0.0897944380549308,-1.0127011200954397
1.48,0.7890587172603291,1.200822527714121,1.8687303988171344,0.0440241025239166,0.0896930461105226,0.0145543859758481,-0.77471625159352,-0.899982267239926,-0.6683880239244794,0.8031319093835741,1.2178454372573158,1.8806460623827117,-0.8802567628134572,-0.9771179116009424,-0.8075436556574545,0.4808222925265066,-0.1266903485314607,-0.3895818968560283,0.2517252037867512,11.18187113312706,-0.966866392152112,0.0937146231874364,-1.0141483981869883
1.5,0.7735419543484324,1.1827651655020082,1.8553561752036911,0.0398074787248196,0.0915937277158289,0.0141011444950588,-0.7767939446269061,-0.9053214843953074,-0.6695919937500036,0.7859267741332654,1.1987030790312574,1.8648951892755223,-0.9202567634095036,-1.0171179121969889,-0.8475436562535009,0.2927182583734408,-0.1038846516693059,-0.2669608577690663,-0.0601984912762088,10.69270629526909,-0.9646265672183854,0.0974415409789092,-1.0159315655436083
1.52,0.757987223086381,1.164619905454572,1.8418912027017835,0.036236499085655,0.0932088280912366,0.013689177881519,-0.7785822677209036,-0.9090812534663554,-0.6768232591086415,0.7687216388829567,1.179560720805199,1.8491443161683336,-0.9602567640055502,-1.0571179127930352,-0.8875436568495474,0.4172084660070162,-0.0894161546998728,-0.1879884535524012,-0.3615632679318969,9.984005242517924,-0.9624432487428254,0.1003149177428172,-1.0180453521474944
1.54,0.7423981585990566,1.146410102897505,1.8282344172216456,0.0334633005635797,0.0943363115716632,0.0133245686077252,-0.7802715910906349,-0.9119040236887418,-0.6884925953249518,0.7495165036028457,1.1584183625493385,1.831393443031343,-1.0002567646015963,-1.0971179133890816,-0.927543657445594,0.6062079942255849,-0.0844661684865688,-0.1411385111193208,-0.5834668108155139,9.746853783399274,-0.9606305689932324,0.1021493693725007,-1.020142531893353
1.56,0.7275583853609572,1.1290641005001014,1.8150236417203869,0.0315963528287865,0.0948641471604225,0.0130234835662624,-0.7817805772199907,-0.9140503974111608,-0.7015314936410999,0.7303113683227348,1.1372760042934775,1.813642569894352,-1.040256765197643,-1.1371179139851282,-0.9675436580416404,0.6650128355786252,-0.0754493064677896,-0.1073186861209496,-0.6519449158074064,9.746853783399274,-0.9593983570056616,0.1031932827107748,-1.0219721612156905
1.58,0.7119019215148863,1.110756465351055,1.8008352135805508,0.0301876363264406,0.094950596143625,0.0127415038986519,-0.7838285336931778,-0.9166011128922108,-0.7166874478135097,0.7101062330277226,1.1151336460227157,1.79489169674246,-1.0802567657936897,-1.1771179145811743,-1.0075436586376867,0.7752470929605639,-0.1023978236593559,-0.1275357740524951,-0.757797708620489,9.56834224938575,-0.9584912559611596,0.1035641690675269,-1.023733950340329
1.6,0.6961994003745681,1.092398470120744,1.7863297025737506,0.0291480619671473,0.0947964007743715,0.0124891687008914,-0.7863372487392426,-0.9190627649210918,-0.7331008111404846,0.6889010977178093,1.0919912877370526,1.7751408235756667,-1.1202567663897358,-1.217117915177221,-1.047543659233733,0.8392733130466692,-0.1254357523032379,-0.1230826014440578,-0.8206681663487481,9.56834224938575,-0.957850228622462,0.1035488770168308,-1.025347104909552
1.62,0.680442583970387,1.0739929073972942,1.7714841647808557,0.0284285834465636,0.0945841732010529,0.0122681202184067,-0.7892189583595393,-0.9213619157253362,-0.7506312054471995,0.656882537937606,1.0464453318746894,1.7496746620167265,-0.8863372502293587,-1.019062766411208,-0.8331008126306008,0.8956911706962245,-0.1440854810148328,-0.1149575402122182,-0.876519715335744,9.50789628500752,-0.957307037757873,0.1032350581965217,-1.0268857026588158
1.64,0.6654273054006772,1.0564287893639928,1.7573736546189789,0.0271353557739782,0.0951119912069929,0.0120457141374222,-0.790974007972558,-0.9269838554526167,-0.7337915487892698,0.656882537937606,1.0464453318746894,1.7496746620167265,-0.8863372502293587,-1.019062766411208,-0.8331008126306008,0.8919927715490329,-0.0877524806509377,-0.2810969863640267,0.8419828328964873,9.450263685042955,-0.9607756473960744,0.1036144960024005,-1.0243096551158586
1.66,0.6495987531800929,1.0378546918732754,1.7428347069430623,0.0251503186993372,0.0966418685450927,0.0118044206220774,-0.7917045826223688,-0.9300370737294652,-0.7214591557361946,0.656882537937606,1.0464453318746894,1.7496746620167265,-0.8863372502293587,-1.019062766411208,-0.8331008126306008,0.6362857054432504,-0.0365287324905372,-0.1526609138424284,0.6166196526537604,11.608862530742044,-0.9593114348235784,0.1060724578888202,-1.0245646555212249
1.68,0.6337627659759709,1.0192382487440406,1.7284586730354796,0.0235492610101704,0.0983649027749887,0.0116039953026739,-0.7918320898420692,-0.9315250442876382,-0.7170828046742267,0.6480191654353123,1.0362547042105772,1.7413436538904203,-0.906337250527382,-1.0390627667092311,-0.8531008129286239,0.2312074992871787,-0.0063753609850225,-0.0743985279086423,0.2188175530983938,11.0892469407936,-0.9573082787815168,0.1079070297755072,-1.0257210645892174
1.7,0.6179280129627522,1.0006050415095455,1.7140941772928104,0.022800652441857,0.099768242336246,0.0114647364748988,-0.7916614606179966,-0.9318802982429027,-0.719554194245863,0.6302924204307252,1.015873448882353,1.7246816376378082,-0.9463372511234284,-1.0790627673052775,-0.8931008135246704,0.1251307927693193,0.0085314612036313,-0.0177626977632294,-0.1235694785818142,10.617016239090844,-0.955281778415812,0.1085991860541151,-1.0274318026784086
1.72,0.6028891229341724,0.9829050549137812,1.7003545536288862,0.023253077914786,0.1005574504090668,0.0114094889406627,-0.7914446097970315,-0.9314464918435844,-0.7265892854797323,0.612565675426138,0.995492193554129,1.708019621385196,-0.9863372517194748,-1.119062767901324,-0.9331008141207168,0.352589424612779,0.0108425410482559,0.0216903199659113,-0.3517545616934681,10.253690695289151,-0.9535466339280794,0.1079278708133844,-1.029317827535848
1.74,0.5870619185143601,0.9642864191523352,1.6857099946234344,0.0253174302034226,0.1006971027872341,0.011452593271345,-0.7913615231559473,-0.9306203210500024,-0.7376575988656264,0.5928389303917485,0.9731109381961024,1.689357605102782,-1.0263372523155212,-1.1590627684973704,-0.9731008147167634,0.5549707712538944,0.004154332054207,0.0413085396791024,-0.5534156692947045,9.984180404371727,-0.952390763898926,0.1055116319694826,-1.0310798847845908
1.76,0.5712356829311797,0.9456722348372676,1.6708269001709084,0.0289627544025396,0.1000633225960758,0.0115879812684018,-0.7913153180127676,-0.9313694572126552,-0.7501401689328445,0.573112185357359,0.950729682838076,1.6706955888203676,-1.0663372529115678,-1.199062769093417,-1.0131008153128098,0.6252557384551923,0.0023102571589883,-0.0374568081326298,-0.6241285033609045,9.778749304687151,-0.9528492876600824,0.1015162973168859,-1.0315369123129672
1.78,0.5554055373595941,0.9270100012142511,1.655687579971798,0.0329689599905328,0.0986963668443759,0.0117232653743062,-0.7917763545434788,-0.9348805766051635,-0.7631649178957893,0.5523854403080684,0.9273484274651485,1.651033572523052,-1.106337253507614,-1.2390627696894634,-1.0531008159088562,0.6748788773158323,-0.0230518265355639,-0.1755559696254238,-0.6512374481472405,9.716809763203855,-0.9535116103372412,0.0971210232412419,-1.032134379373282
1.8,0.5403523043060503,0.909200278894688,1.6410597286153783,0.0364291272158543,0.0969037900614285,0.0118048126476507,-0.7928155224862953,-0.9395912002798936,-0.7759554848822234,0.5306586952438765,0.9029671720773196,1.6303715562108354,-1.1463372541036605,-1.2790627702855095,-1.0931008165049023,0.6834991756629336,-0.0519583971408221,-0.2355311837365092,-0.6395283493217052,9.675542535824206,-0.954642601565807,0.0927222613631208,-1.0324465476255622
1.82,0.5244779528989252,0.8903486464583511,1.625391866303423,0.0395290218864773,0.0946739405829636,0.0118327523035325,-0.7946462927836411,-0.9452832065519864,-0.7901913500527485,0.5007115281817356,0.8622207188806934,1.6022619543712673,-0.8928155239764114,-1.0395912017700095,-0.854829827025759,0.7720273836408862,-0.0915385148672898,-0.2846003136046382,-0.7117932585262554,9.675542535824206,-0.9561045622097452,0.0887564633344639,-1.032510398885882
1.84,0.5085619017554022,0.8713019536858675,1.609778086086366,0.0400947100079413,0.0932101611204822,0.0117113507741931,-0.7968077517128492,-0.9585178645523784,-0.7686445493909356,0.5007115281817356,0.8622207188806934,1.6022619543712673,-0.8928155239764114,-1.0395912017700095,-0.854829827025759,1.2689490689640484,-0.1080729464604079,-0.6617329000195904,1.0773400330906455,9.632715140645814,-0.962225061427986,0.0879451614548371,-1.02692496233574
1.86,0.4926081143873656,0.8520166704157878,1.5946054720050504,0.0372988861125093,0.093336035264759,0.0114271457527084,-0.7983273810038625,-0.9689015618768092,-0.7498724690775022,0.5007115281817356,0.8622207188806934,1.6022619543712673,-0.8928155239764114,-1.0395912017700095,-0.854829827025759,1.0753155846093452,-0.0759814645506617,-0.5191848662215448,0.9386040156716736,12.021883709518988,-0.9623028703789616,0.0906275000409375,-1.0262625182751828
1.88,0.4774303175408546,0.8335441725084505,1.5804662218508208,0.0332079568623482,0.0940852230622363,0.0110907973758701,-0.7992197010487107,-0.9747581498240896,-0.739381072979221,0.4917833729419715,0.8518248068629933,1.5937136561010097,-0.9128155242744346,-1.059591202068033,-0.8706046954544662,0.6024227119259763,-0.0446160022424091,-0.292829397364025,0.5245698049140601,11.536552548011969,-0.9610945603213374,0.0947926991443672,-1.0268361796327246
1.9,0.461439570840098,0.8140131185903973,1.5657337027200189,0.0289754584012379,0.0949251352139937,0.0107540106124395,-0.7998134220203006,-0.978029234017135,-0.7347067061439572,0.4739270624624432,0.8310329828275931,1.5766170595604945,-0.952815524870481,-1.0995912026640795,-0.9021544323118804,0.2868022040566929,-0.0296860485794969,-0.1635542096522668,0.2337183417631894,10.64321015391306,-0.9600504178117264,0.0990772980429742,-1.0270359866951964
1.92,0.4454378292582251,0.7944354058551125,1.551029317968884,0.0254437547812679,0.0954269423662015,0.0104675329643829,-0.8003791003400463,-0.979742059936358,-0.7359392195243019,0.456070751982915,0.8102411587921929,1.5595204630199793,-0.9928155254665276,-1.139591203260126,-0.9337041691692948,0.1092343103576049,-0.0282839159872871,-0.0856412959611419,-0.0616256690172345,10.64321015391306,-0.959151082394478,0.1024517730951767,-1.027489471588403
1.94,0.429423355439075,0.7748336385041282,1.5362545147127984,0.0227661155669264,0.0954127129231112,0.0102396350136667,-0.8011151996400175,-0.9805625921630182,-0.74147230790242,0.4362144414735844,0.7874493347269904,1.5408463796365934,-1.032815526062574,-1.1795912038561722,-0.9652539060267088,0.2820912189100921,-0.0368049649985602,-0.0410266113330171,-0.2766544189059083,10.088825912474933,-0.9586539328501492,0.1047291534333389,-1.027899769562697
1.96,0.4141950131933682,0.7562025341513321,1.52209799340358,0.0210550262122501,0.0948420782296309,0.0100799626472878,-0.8019056202723904,-0.9807696703683731,-0.7484046860471492,0.4163581309642539,0.7646575106617879,1.5221722962532074,-1.0728155266586203,-1.2195912044522188,-0.9968036428841232,0.3490183122012795,-0.0395210316186445,-0.0103539102677463,-0.3466189072364567,10.088825912474933,-0.9588985280121556,0.1061820764629341,-1.0278574177385706
1.98,0.398142405053181,0.7365822818006296,1.5070424925091028,0.0199301566527288,0.0937368563037234,0.0099597448104828,-0.80338240891099,-0.9812610853049736,-0.7568271321424435,0.3955018204400222,0.7408656865816842,1.5027094694483862,-1.1128155272546667,-1.2595912050482652,-1.0283533797415374,0.4282522374464288,-0.0738394319299784,-0.0245707468300215,-0.421122304764715,9.997931380713451,-0.9595177674102034,0.1068320591133384,-1.0277298952553031
2.0,0.3820527453769111,0.7169524914982973,1.4918084413944672,0.019325338054555,0.0923503849079261,0.0098805905772986,-0.8055743185988609,-0.9817003389009744,-0.7661914700400029,0.3736455099008893,0.7160738624866794,1.4824578992221296,-1.152815527850713,-1.2995912056443115,-1.0599031165989516,0.4813736492088274,-0.1095954843935431,-0.0219626798000416,-0.4682168948779708,9.935640736611276,-0.9604267938461216,0.1069406339126305,-1.0274560546196436
2.02,0.3659111929443782,0.6973148107526914,1.4763768501567955,0.019212290244223,0.0909228892038588,0.0098436847311843,-0.8085183006966855,-0.9820690171686834,-0.7764935472202598,0.341774029446968,0.6678674745532486,1.453498867892467,-0.905574320088977,-1.0817003403910903,-0.8040529438983594,0.5360404566946477,-0.1471991048912324,-0.0184339133854516,-0.5151038590128443,9.837746115204936,-0.9613335234854566,0.1065701534435831,-1.027262799953748
2.04,0.350527457442668,0.6786084003466961,1.4618452001193083,0.0183547595401632,0.0902932820273009,0.0097779525504597,-0.8105069324967444,-0.9865222666935634,-0.7526217574285683,0.341774029446968,0.6678674745532486,1.453498867892467,-0.905574320088977,-1.0817003403910903,-0.8040529438983594,1.2182450857952944,-0.0994315900029463,-0.2226624762439955,1.1935894895845731,12.082052341454071,-0.9670423195260814,0.1076274675023959,-1.021201217709743
2.06,0.3343031530990389,0.6588514132032847,1.4470262708683332,0.0163243265207222,0.0906005413385687,0.0096583544035912,-0.8117613118928102,-0.988810972321258,-0.7308936109985285,0.341774029446968,0.6678674745532486,1.453498867892467,-0.905574320088977,-1.0817003403910903,-0.8040529438983594,1.0942166015062662,-0.0627189698032881,-0.1144352813847393,1.086407321501992,12.082052341454071,-0.9672716128440936,0.1102313042241125,-1.0198641644640694
2.08,0.3180600437528096,0.6390733910710585,1.4325777493137155,0.0142520387889296,0.0911688866313567,0.0095507778492394,-0.8124821882346858,-0.9889106773976912,-0.7152929202414635,0.3327182862460783,0.6570504711493377,1.4454583384534834,-0.9255743203870002,-1.1017003406891137,-0.8116252386700307,0.7808827631279132,-0.0360438170937782,-0.0049852538216543,0.780034537853247,11.68028416350262,-0.9670034568092932,0.1128737700001932,-1.0190116033936485
2.1,0.3018056925768625,0.6193099590566853,1.4183813288692804,0.0129045723373599,0.091480862392433,0.0095002062559246,-0.8129710395098761,-0.9876203031725412,-0.7051005284629368,0.3146067998442987,0.6354164643415159,1.4293772795755162,-0.9655743209830466,-1.1417003412851603,-0.8267698282133732,0.5142686345120748,-0.0244425637595191,0.0645187112574996,0.5096195889263355,10.980730509718342,-0.9668322415075272,0.1147621182482344,-1.0181909718466546
2.12,0.2863550585031165,0.6005684398137415,1.4050460084677212,0.0127202495468207,0.0912878020343962,0.0095306187419169,-0.8134681945773145,-0.9854345008591124,-0.699115767278266,0.2964953134425192,0.6137824575336941,1.413296220697549,-1.005574321579093,-1.1817003418812069,-0.8419144177567158,0.3195397524253182,-0.0248577533719152,0.1092901156714454,0.2992380592335419,10.980730509718342,-0.9670428515782412,0.115537973236023,-1.0172776806327088
2.14,0.2700793786851122,0.5808917133825886,1.3911036373600614,0.0141221721736666,0.0904236590897721,0.0096711648489134,-0.814142471779468,-0.982535730703962,-0.6955517220549936,0.2763838270109374,0.5901484506960699,1.3964579323424149,-1.0455743221751397,-1.221700342477253,-0.8570590073000585,0.2321633934929509,-0.0337138601076758,0.1449385077575193,0.178202261163618,10.752024617460847,-0.9679234586117796,0.1146544820428065,-1.01606773146049
2.16,0.2537896063484823,0.5612700990073238,1.3772232063047452,0.0174212156852333,0.0887155130361009,0.0099308886705458,-0.814860654557796,-0.98034269626207,-0.692675775382075,0.2562723405793555,0.5665144438584458,1.3796196439872803,-1.085574322771186,-1.2617003430732996,-0.872203596843401,0.1843655053954165,-0.0359091389164012,0.1096517220946002,0.1437973336459286,10.5862996604792,-0.9703014476241516,0.1119049096479661,-1.013704189165195
2.18,0.237479106617453,0.5416556035219738,1.36340097280143,0.0215316301165053,0.0861315974870522,0.0102221072763426,-0.8162619549259601,-0.9813851265830964,-0.68968593258522,0.2351608541328724,0.5418804370059205,1.3624027408935624,-1.1255743233672324,-1.301700343669346,-0.8873481863867436,0.1731290244724877,-0.0700650184082052,-0.0521215160513288,0.1494921398427495,10.555099363546104,-0.9730449072538854,0.1083510875284338,-1.01137113426777
2.2,0.2219490301556566,0.5229826695493704,1.3503272055509363,0.025248571697324,0.083066021180566,0.0104590865832422,-0.8185153104538494,-0.9841144386335272,-0.6866448926901205,0.2130493676714883,0.5162464301384941,1.344807223061261,-1.1655743239632788,-1.3417003442653923,-0.902492775930086,0.2333167324008416,-0.112667776394465,-0.1364656025215349,0.1520519947549758,10.564300995836676,-0.9764473590702346,0.1047014305314805,-1.0084948807174954
2.22,0.2055433856874753,0.5032600275715781,1.3366272841692997,0.0286709676961408,0.0794535808815549,0.0106495991144685,-0.8220634779900982,-0.987986642405184,-0.6835067209098117,0.1810232646329642,0.473776947617694,1.3159949609164303,-0.9185153119439656,-1.084114440123643,-0.6500305752431734,0.305906754736019,-0.1774083768124379,-0.1936101885828378,0.156908589015442,10.576682251260536,-0.9802149467625528,0.1014703118832655,-1.0052591396915982
2.24,0.1890521674778205,0.4833686395197963,1.3232399127359848,0.0290950364935626,0.0764120083960791,0.0106393922058606,-0.8270287682615549,-1.0001865579551934,-0.654042879398716,0.1810232646329642,0.473776947617694,1.3159949609164303,-0.9185153119439656,-1.084114440123643,-0.6500305752431734,1.6136991692212583,-0.2482645135728378,-0.6099957775004716,1.4731920755547856,12.445856648068911,-0.987305129251427,0.1010447137387772,-0.9982195391353093
2.26,0.1732827801048754,0.4642752184133786,1.3111019189201398,0.025761694531554,0.0751004899539235,0.0104254001202842,-0.8325249773430752,-1.0083373651701195,-0.6252240670099334,0.1810232646329642,0.473776947617694,1.3159949609164303,-0.9185153119439656,-1.084114440123643,-0.6500305752431734,1.5224716089491837,-0.2748104540760132,-0.4075403607463057,1.4409406194391294,12.445856648068911,-0.9907797363617098,0.1053391432280784,-0.9929560850442358
2.28,0.1565789611949562,0.4440699382147424,1.2988873691802931,0.0209443258544988,0.0748741762037723,0.0101553944872869,-0.837495823654937,-1.0115453145921265,-0.5978812372504759,0.1718381115135245,0.4629358032164576,1.3094946551639988,-0.9385153122419888,-1.1041144404216665,-0.642707711753784,1.3987767797302186,-0.2485423155930921,-0.1603974711003375,1.3671414879728727,12.269236782983173,-0.9934554183513714,0.1114375334974028,-0.9875787063855612
2.3000000000000003,0.1397826225714845,0.4238361814962473,1.2871806825147991,0.0165767399915965,0.0751060084033161,0.0099410260413329,-0.8418730427076195,-1.0118268392307324,-0.5741342053632045,0.1534678052746452,0.4412535144139847,1.2964940436591357,-0.9785153128380352,-1.144114441017713,-0.6280619847750052,1.2074361538114513,-0.2188609526341256,-0.0140762319303044,1.1873515943635726,12.027546616655854,-0.9951756449286862,0.1165966487012445,-0.983630879702196
2.32,0.1229032433641812,0.4036145591452225,1.2759191451057788,0.0132332224641706,0.0753379365527124,0.0098106882424144,-0.8458706563424123,-1.0106003017346188,-0.5531972332391751,0.1350974990357659,0.4195712256115119,1.283493432154272,-1.0185153134340816,-1.1841144416137594,-0.6134162577962263,1.067522963131046,-0.1998806817396392,0.0613268748056783,1.046848606201467,11.607016147923789,-0.9967665932079108,0.1209550150040716,-0.9800057103847116
2.34,0.1067958056182776,0.3844349619273108,1.2655882970771049,0.0111369888158445,0.075299959356795,0.0097694843012774,-0.8495009987601433,-1.008671261780957,-0.5352994834037673,0.1147271927670842,0.3958889367792367,1.2712251069983471,-1.058515314030128,-1.2241144422098058,-0.5987705308174475,0.9181911979316192,-0.1815171208865484,0.0964519976830891,0.8948874917703908,11.607016147923789,-0.9984487076766048,0.1241343108009051,-0.9765747699023776
2.36,0.0897673477731256,0.3642914971275882,1.2550777740043826,0.0101422920681749,0.0748209555149206,0.0098158299078116,-0.8532157366153027,-1.0059082660199268,-0.5166938068538481,0.0943568864984026,0.3722066479469615,1.258956781842423,-1.0985153146261746,-1.2641144428058524,-0.5841248038386686,0.9586509046418276,-0.1857368927579705,0.1381497880515114,0.9302838274959592,11.45941802001471,-1.000498053097087,0.1261224527139106,-0.9729927388292552
2.38,0.0726581916160583,0.3442021156013159,1.244938945265508,0.0104707007310547,0.0739729711441967,0.0099583694042877,-0.8575701816920372,-1.0033078275316138,-0.4981113300765192,0.0729865802148198,0.3475243590997851,1.247054599860968,-1.138515315222221,-1.3041144434018987,-0.5694790768598899,0.963109437496285,-0.2177222538367274,0.1300219244156464,0.929123838866444,11.45941802001471,-1.0026436224795647,0.1268264684230838,-0.9696393866308324
2.4,0.0563179388347588,0.3251622996489631,1.2356529631302162,0.0118832759508523,0.0730766150376033,0.010173506404035,-0.8622628238412003,-1.0011259360481048,-0.4802816505306105,0.0506162739163359,0.3218420702377076,1.2355185610539825,-1.1785153158182673,-1.344114443997945,-0.554833349881111,0.9282766472012908,-0.2346321074581547,0.1090945741754501,0.8914839772954375,11.467799052664304,-1.005171999912599,0.1265563028274294,-0.9659375672028152
2.42,0.0390170224562263,0.305158389934575,1.2262472781390226,0.0144302425661832,0.0722012259891471,0.0104753930060009,-0.867602947096316,-0.9996213897325912,-0.4612057009724979,0.0132047976426988,0.2751060028465578,1.2116388806036855,-0.8909274183573584,-1.101125937538221,-0.3802816490404944,0.993318211273468,-0.267006162755784,0.0752273157756777,0.9537974779056296,11.467799052664304,-1.008004830389413,0.1253851630723398,-0.961961896037924
2.44,0.0215136404901473,0.2851019419632727,1.2172739955490424,0.0155648460394866,0.0746067547998699,0.0107297859050355,-0.8819841860752583,-1.005523372018868,-0.4367538106709934,0.0132047976426988,0.2751060028465578,1.2116388806036855,-0.8909274183573584,-1.101125937538221,-0.3802816490404944,1.4487480533151589,-0.719061948947114,-0.2950991143138404,1.222594515075226,11.484081756250816,-1.0052824269005325,0.1235810229735475,-0.9661760167438288
2.46,0.0037704287731194,0.2649533752467406,1.208819568967548,0.0142414751269611,0.0820589651657505,0.0108932785681614,-0.8909238612446991,-1.008854581774619,-0.4099147917833296,0.0132047976426988,0.2751060028465578,1.2116388806036855,-0.8909274183573584,-1.101125937538221,-0.3802816490404944,1.4242082760469934,-0.4469837584720415,-0.1665604877875481,1.3419509443831883,11.985573934799504,-1.0035982440488669,0.1267595881729212,-0.965232724663684
2.48,-0.0132010940770483,0.2457734802673268,1.2012865972850129,0.0119648010596382,0.09140495919863,0.0110010074843955,-0.8946696208615538,-1.0098920494002095,-0.3843770793756002,0.0042955234591252,0.2640947434711756,1.2078360641132808,-0.89666033726059,-1.121125937836244,-0.3602816487424711,1.2915899206030008,-0.1872879808427319,-0.0518733812795324,1.2768856203864725,12.023711543768512,-0.997535730569174,0.1306903258509363,-0.9690640317279556
2.5,-0.0310999652176514,0.2255899318349775,1.193878349426697,0.0095813819225579,0.1022213147628656,0.011109507404999,-0.8945911044279461,-1.0084543882741197,-0.357824214586421,-0.0135230249080218,0.2420722247204112,1.200230431132471,-0.9081261750670532,-1.1611259384322907,-0.3202816481464247,1.329593606009225,0.0039258216803839,0.0718830563045114,1.327643239458956,11.98773037861065,-0.9893962156162852,0.1345266770638061,-0.975088408742556
2.52,-0.0489602183773972,0.2054548672457829,1.1869924594845571,0.008166544695451,0.1132549847765826,0.0112736983100984,-0.891067061732877,-1.0053978430546195,-0.3321195951744327,-0.031341573275169,0.2200497059696468,1.1926247981516611,-0.9195920128735166,-1.201125939028337,-0.2802816475503782,1.30622433439923,0.1762021347534559,0.152827260974997,1.2852309705994158,11.958572886302136,-0.9807544105838212,0.1373171744937932,-0.98180250059441
2.54,-0.0667174361585695,0.1853927996302358,1.1806147819263888,0.00824417759728,0.1240778980065683,0.01153897801365,-0.8844997270855008,-1.0012430564747112,-0.3069644443167772,-0.0497334135326393,0.19602718718908,1.1870191652006534,-0.9310578506799798,-1.2411259396243834,-0.2402816469543318,1.3164096537235477,0.3283667323688066,0.2077393289954154,1.257757542882776,11.911273594354498,-0.9712634317844064,0.1389188425002709,-0.9893616528878284
2.56,-0.0834361744587599,0.1664168053249491,1.1750221526550513,0.0101648810572242,0.1338918965038249,0.0119306280806654,-0.8754549448436062,-0.9967415515203948,-0.2830207290832254,-0.0681252537901097,0.1720046684085133,1.181413532249646,-0.9425236884864432,-1.28112594022043,-0.2002816463582853,1.2993971023540587,0.4522391120947322,0.2250752477158224,1.197185761677591,11.892063529460756,-0.9618826962226972,0.1387133792457162,-0.9969263073514968
2.58,-0.1008086286210277,0.1465138634651734,1.1696325710651434,0.0138875168904628,0.1431207328680652,0.0124816512229976,-0.8620646282311479,-0.9943274005225592,-0.2571933736414943,-0.0868037399927416,0.1469821496130454,1.1768078993135396,-0.9539895262929062,-1.3211259408164764,-0.1602816457622389,1.4596069617672278,0.6695158306229132,0.1207075498917797,1.2913677720865546,11.914796119352104,-0.954423096759174,0.13711915074094,-1.0024941636700972
2.6,-0.1178757749237773,0.1266252093954491,1.1647675156226691,0.0179589106129536,0.1503598722459484,0.0130638684964935,-0.845378187691054,-0.9947371168316812,-0.2306406313807798,-0.1057688721405351,0.1209596308026763,1.1732022663923345,-0.9654553640993696,-1.3611259414125227,-0.1202816451661925,1.5681623695555118,0.8343220270046969,-0.0204858154560949,1.3276371130357234,12.04466809006044,-0.9476331794866144,0.1353108807232926,-1.0073763203649422
2.62,-0.133758185368962,0.1077061720954675,1.1606464057019972,0.0214593391989392,0.1549689265899431,0.0135730209045344,-0.8274454877555198,-0.9966569252036284,-0.2045037239307811,-0.16014468430833,0.0768883535538651,1.1532354840536303,-0.8145179983425948,-1.0597266463817565,-0.1306406298906637,1.587769915803848,0.8966349967767073,-0.0959904185973581,1.306845372499936,12.04466809006044,-0.9422424333640976,0.1336529788153573,-1.0108458928661554
2.64,-0.150204093544322,0.087556408539551,1.156620855961784,0.0184251248258811,0.1596376496952681,0.0136445326174507,-0.8180941501929259,-1.015670233233037,-0.2005639547544417,-0.16014468430833,0.0768883535538651,1.1532354840536303,-0.8145179983425948,-1.0597266463817565,-0.1306406298906637,1.077584309455173,0.4675668781296993,-0.9506654014704352,0.1969884588169698,12.130024389225582,-0.9313866929704688,0.1363999131980955,-1.0205292174557945
