t,x,y,z,roll,pitch,yaw,v_x,v_y,v_z,ref_x,ref_y,ref_z,ref_v_x,ref_v_y,ref_v_z,a_com,a_x,a_y,a_z,thrust,wind_x,wind_y,wind_z
0.0,-0.4077161364472737,-1.4704104014997843,2.24850387602879,0.0334474465829189,0.0997467037679377,0.0424101141145001,0.0007533144204315,0.001987584873418,-0.0005375434497702,-0.4076999107984574,-1.4702535556756948,2.248491065371275,0.1005959327234429,0.1043856227595694,-0.1004555219117547,0.1096235513639882,0.037665721021576,0.0993792436709017,-0.0268771724885137,10.255857172901417,-0.9399738524896304,0.2501276610523453,-0.8810683915392694
0.02,-0.4077930171366059,-1.4706928166396342,2.248364693579467,0.0238945914614403,0.1028387482399275,0.0418270318435616,-0.007743785225928,-0.0234556465988204,-0.0130856257622191,-0.4076784707262521,-1.4703110222561135,2.2484769988563014,0.1007533159105476,0.1019875863635341,-0.1005375449398864,1.4807203482343152,-0.4248549823179787,-1.272161573611922,-0.6274041156224431,10.25691671443292,-0.9272265448827752,0.2527725801953239,-0.8971247199955066
0.04,-0.4079929479402679,-1.4711690842133367,2.247963383638364,0.0077989721714094,0.1097315128391611,0.0408237658726374,-0.0124055370850262,-0.0247824275470984,-0.0285230294851409,-0.4076784707262521,-1.4703110222561135,2.2484769988563014,0.1007533159105476,0.1019875863635341,-0.1005375449398864,0.8090205680095537,-0.2330875929549113,-0.0663390474139033,-0.7718701861460917,9.633637007425932,-0.9199310307249332,0.2634362782913084,-0.9050348869196364
0.06,-0.4082592028674003,-1.4716082219479196,2.247204267436677,-0.0096811765007868,0.1189770181231881,0.0396233228044874,-0.0135744528240534,-0.0186190918164124,-0.0467030025566952,-0.4076784707262521,-1.4703110222561135,2.2484769988563014,0.1007533159105476,0.1019875863635341,-0.1005375449398864,0.9615930691000952,-0.058445786951358,0.3081667865343034,-0.9089986535777144,9.370410322086173,-0.9073595118789024,0.2742086151313985,-0.9185301524210796
0.08,-0.4085136363964743,-1.4718788924446522,2.246072460688742,-0.0265496491395617,0.1290287391827042,0.0383083811817018,-0.011480581638461,-0.008376583579864,-0.0656348734542226,-0.4066709375671467,-1.4692911463924785,2.2474716234069025,0.1207533162085708,0.1219875866615573,-0.1205375452379096,1.081329051674674,0.1046935592796216,0.5121254118274164,-0.9465935448763704,9.268273509029314,-0.8928262288697706,0.2854536030532522,-0.932737915381868
0.1,-0.4086962686071694,-1.471909200668344,2.2445589910731347,-0.0426324189393603,0.1391945854247532,0.0368950246967584,-0.0066058666957785,0.0051860603074447,-0.0848449487419935,-0.4046558712489357,-1.4672513946652077,2.245460872508105,0.1607533168046173,0.1619875872576038,-0.160537545833956,1.200765534511412,0.2437357471341249,0.678132194365441,-0.9605037643885412,9.287225647265586,-0.8780512847351329,0.2962500922216595,-0.9462872655445888
0.12,-0.4087571132986193,-1.4716338133839997,2.242762911515186,-0.0564157140596204,0.1486253397488173,0.0355388831745288,0.0001965986093085,0.0228742160798642,-0.1033172663432174,-0.4026408049307247,-1.465211642937937,2.2434501216093072,0.2007533174006637,0.2019875878536502,-0.2005375464300025,1.323226082739435,0.3401232652543514,0.8844077886209756,-0.9236158800611994,9.287225647265586,-0.8620134820210281,0.3074371152165306,-0.959670869214379
0.14,-0.4086599837809053,-1.4709529394574197,2.2404860115977323,-0.0688289048355831,0.1581443394560578,0.0341713098356566,0.0094078090438386,0.044137873839914,-0.1234689805175812,-0.3986257385827114,-1.461171891180864,2.239439370680707,0.2407533179967102,0.2419875884496967,-0.2405375470260489,1.5354812952059815,0.460560521726505,1.0631828880024898,-1.007585708718188,9.317458287185218,-0.8454589342842067,0.3175496645874468,-0.9728199324388828
0.16,-0.4083578423034129,-1.4698227301863451,2.2378000286179422,-0.0790669193151185,0.1671691505363721,0.0329047824569715,0.0205789476317662,0.0676019371806407,-0.1441683019958767,-0.3946106722346982,-1.457132139423791,2.235428619752107,0.2807533185927567,0.2819875890457432,-0.2805375476220955,1.661188215909131,0.5585569293963798,1.1732031670363334,-1.034966073914776,9.332576289431929,-0.8286815134478535,0.3262889987057852,-0.985833287875956
0.18,-0.4078125955769986,-1.4681963959203213,2.234697765557013,-0.0869208545177656,0.1756744259380314,0.0317880303490168,0.0336197568925119,0.0932827163184158,-0.1650488004796461,-0.3895956058717837,-1.4520923876518168,2.230417868808606,0.3207533191888031,0.3219875896417896,-0.3205375482181419,1.7787357450089591,0.6520404630372854,1.2840389568887542,-1.0440249241884692,9.332576289431929,-0.8127491349885988,0.3330807295968394,-0.997962393623852
0.2,-0.4070358220468258,-1.4661648590311358,2.231363927036338,-0.0922362273161816,0.1832739887661986,0.0308881036184347,0.0476855071888296,0.118756092934798,-0.1848488538652374,-0.3835805394939681,-1.4460526358649417,2.224407117850204,0.3607533197848495,0.361987590237836,-0.3605375488141883,1.7598155881445914,0.7032875148158854,1.2736688308191122,-0.990002669279566,9.364199053077757,-0.7968455721280346,0.3386502075114815,-1.0097092725041883
0.22,-0.4059122771038825,-1.46350302460897,2.2274474958165795,-0.0959223078894612,0.1907817458044475,0.0301069568603377,0.0641284013791377,0.1457592450813369,-0.2057596723948606,-0.4046515466873844,-1.4602270543843958,2.222121484343076,0.1476855086789457,0.2187560944249141,-0.2848488553553536,1.8952581135439224,0.8221447095154075,1.3501576073269432,-1.0455409264811577,9.400568041754012,-0.782323870245544,0.3428472439702283,-1.0199012861724723
0.24,-0.4044115128045567,-1.460167884810726,2.223282352117965,-0.0943095020330698,0.1977424617584355,0.0297592044895295,0.0855414568467602,0.1852276829030583,-0.2086353794298072,-0.4046515466873844,-1.4602270543843958,2.222121484343076,0.1476855086789457,0.2187560944249141,-0.2848488553553536,2.2497478855959665,1.0706527733811255,1.9734218910860704,-0.1437853517473317,9.423291944777702,-0.7735706850839114,0.342763910659936,-1.0251301409836029
0.26,-0.4024611135313539,-1.4561290735444357,2.219082309599757,-0.0869607089132295,0.2041443146816688,0.0299152667260734,0.108581432600672,0.2155627016369821,-0.2113882991112551,-0.4046515466873844,-1.4602270543843958,2.222121484343076,0.1476855086789457,0.2187560944249141,-0.2848488553553536,1.90960232188593,1.1519987876955855,1.5167509366961929,-0.1376459840723917,10.650746974526555,-0.7643144433073351,0.3414103967293358,-1.0266530357732293
0.28,-0.4001741074284698,-1.4517973761764784,2.2150105328365157,-0.0787324513759477,0.2097910941841368,0.0302461274777638,0.1311427627049674,0.2386174358107269,-0.2170648318856625,-0.4031746916005949,-1.4580394934401466,2.2192729957895225,0.1676855089769689,0.2387560947229373,-0.3048488556533768,1.6376487781541738,1.1280665052147718,1.1527367086872369,-0.2838266387203747,10.454133807740618,-0.7567022360085403,0.3381872198337318,-1.027671619484145
0.3,-0.3972965506683624,-1.4468055743738584,2.2105796939540387,-0.0704036861181053,0.2153423540458543,0.0306588490257521,0.1555326644881793,0.2592791517205556,-0.2258707357563044,-0.400220981427016,-1.4536643715516484,2.2135760186824154,0.2076855095730154,0.2787560953189838,-0.3448488562494232,1.6577980548849849,1.2194950891605925,1.0330857954914368,-0.440295193532092,10.251622923434295,-0.7493077391895161,0.3343514800541442,-1.0298794321897016
0.32,-0.3939221206220014,-1.4414260709468312,2.2059432719542937,-0.0630394240317545,0.2204470705687966,0.0310854534057235,0.180784413964203,0.2777449046191049,-0.2373468976940591,-0.3972672712534371,-1.4492892496631502,2.207879041575308,0.2476855101690618,0.3187560959150303,-0.3848488568454697,1.6660861131193951,1.2625874738011895,0.9232876449274618,-0.5738080968877359,10.077746868221766,-0.7425995805078821,0.3308560504589795,-1.0325248290802351
0.34,-0.3900281674560255,-1.4356933169997523,2.2010550968861686,-0.0567454594593623,0.2248068724113986,0.031524110758521,0.207350108562013,0.2947486648038249,-0.2509124196796861,-0.3923135610500559,-1.4429141277448496,2.200182064438399,0.2876855107651083,0.3587560965110767,-0.4248488574415161,1.7167464697983994,1.328284729890497,0.8501880092359998,-0.6782760992813497,9.83843982329563,-0.7365568408355744,0.327612556886377,-1.035026768211034
0.36,-0.3858261142318705,-1.4299423808583378,2.196151167343629,-0.0517329945155185,0.2279585843570171,0.0319570997360676,0.2335881570330484,0.3099124871273782,-0.2646129783051912,-0.3873598508466746,-1.436539005826549,2.1924850873014896,0.3276855113611548,0.3987560971071232,-0.4648488580375626,1.6628905568915198,1.3119024235517682,0.7581911161776644,-0.6850279312752533,9.83843982329563,-0.7315480212608434,0.3253343933440754,-1.0365459087459157
0.38,-0.3808550512136251,-1.423577552618533,2.1907005932956385,-0.0471606639377986,0.2299892460043207,0.0324499440228963,0.262069861452588,0.325742835343406,-0.2797359982921008,-0.3814061406283922,-1.4291638838933474,2.183788110149679,0.3676855119572012,0.4387560977031696,-0.5048488586336091,1.7961856424150506,1.4240852209769823,0.7915174108013928,-0.7561509993454785,9.803315582530558,-0.7289139511807626,0.3239862361911682,-1.0357970379549666
0.4,-0.3753072641287963,-1.416899624759589,2.184941734860564,-0.0429644673569487,0.230415757161953,0.0330041157735709,0.2912124018991622,0.3411790536960905,-0.295392872317246,-0.3744524303952087,-1.4207887619452444,2.1740911329829675,0.4076855125532476,0.478756098299216,-0.5448488592296555,1.8253097031402856,1.457127022328708,0.7718109176342247,-0.7828437012572603,9.743601062714331,-0.7280447331184721,0.3226973688709906,-1.0343557059355186
0.42,-0.3694915268642683,-1.4102751263304882,2.1791746401510754,-0.0391749610274084,0.2289711439631661,0.0335993007580749,0.3193929023341967,0.3552803064347247,-0.3108537195412243,-0.3607466440338382,-1.3998406720747845,2.170172091244702,0.3912124033892783,0.4411790551862066,-0.3953928738073621,1.7550097794962682,1.4090250217517253,0.7050626369317081,-0.7730423611989168,9.743601062714331,-0.7288391877491713,0.3214092710038689,-1.0320042747345572
0.44,-0.3630740514361978,-1.403379089451921,2.173366734630132,-0.0355639288466353,0.2252043310951932,0.0342660799311519,0.3544121076585915,0.369818440122186,-0.2995884228829516,-0.3607466440338382,-1.3998406720747845,2.170172091244702,0.3912124033892783,0.4411790551862066,-0.3953928738073621,1.977756924817552,1.750960266219742,0.7269066843730659,0.5632648329136347,9.709613580260338,-0.7286922620653431,0.3169000995751089,-1.0350274967250233
0.46,-0.3556305572668664,-1.395842000979225,2.1674695704775053,-0.0323760557755195,0.2188831237887766,0.034993100380787,0.3875405636421222,0.3832572295863562,-0.290969582346165,-0.3607466440338382,-1.3998406720747845,2.170172091244702,0.3912124033892783,0.4411790551862066,-0.3953928738073621,1.8387360266726536,1.6564227991765323,0.6719394732085104,0.4309420268393288,11.47823861932102,-0.7436113113566706,0.3249336454791668,-1.0099206067935076
0.48,-0.3475710828979698,-1.388040030489704,2.161689577868906,-0.0299474710443375,0.2112079039041882,0.0356946413394524,0.4163492071863394,0.3963377465944397,-0.2876141390428418,-0.3568345199999454,-1.3954288815229223,2.1662181625066284,0.4112124036873015,0.4611790554842299,-0.4153928741053853,1.59083065394965,1.4404321772108624,0.6540258504041746,0.1677721651661606,10.702268992952668,-0.7586281605241316,0.3307358052469016,-0.98839607501667
0.5,-0.3389804875244337,-1.3799812491201078,2.155922820573755,-0.0281025901390808,0.2029378180832438,0.0363608052641058,0.4409867323274338,0.4089757023570287,-0.2891286070151922,-0.3490102719321599,-1.3866053004191985,2.158310305030481,0.4512124042833479,0.5011790560802764,-0.4553928747014317,1.3865597572539818,1.2318762570547177,0.6318977881294513,-0.0757233986175193,10.702268992952668,-0.7715245966404485,0.3350954008585521,-0.970910299116142
0.52,-0.3303994467472184,-1.3720962494101865,2.150378876559383,-0.0268575887749002,0.1951708508918198,0.0369489379557236,0.4608827692532566,0.4204403459347451,-0.2943139334632806,-0.3411860238643743,-1.3777817193154742,2.1504024475543337,0.4912124048793944,0.5411790566763228,-0.4953928752974782,1.1770492216672834,0.9948018462911408,0.5732321788858186,-0.2592663224044195,10.390747701718285,-0.7829654702886059,0.3387510599567553,-0.9557580959255376
0.54,-0.3209917031786709,-1.3635676285995144,2.144403494281967,-0.0262359540144948,0.187649510324202,0.0375018816859387,0.4786589864834801,0.4318548185550742,-0.3030840061464274,-0.3313617757667864,-1.3669581381819478,2.1404945900483843,0.5312124054754409,0.5811790572723693,-0.5353928758935247,1.1436763736783433,0.8888108615111773,0.5707236310164565,-0.4385036341573417,10.12985370248225,-0.7920702394461233,0.3417316919509213,-0.9438881377063302
0.56,-0.3112553857722597,-1.354814210780458,2.138230235798281,-0.0264815084082709,0.1812316047873946,0.0379730433216804,0.4939482446061906,0.4429730791682795,-0.3138595107578565,-0.3215375276691985,-1.3561345570484211,2.130586732542435,0.5712124060714874,0.6211790578684158,-0.5753928764895712,1.087989697374185,0.7644629061355213,0.5559130306602628,-0.538775230571456,9.787451831504768,-0.798648766048073,0.3443110655036206,-0.9353167834980988
0.58,-0.3012318918563925,-1.345828878759226,2.1318230638412974,-0.0273447012620963,0.1761442120372179,0.0383802703706359,0.5075573485666114,0.4549716785226413,-0.3262918418238432,-0.3107132795567094,-1.3443109758999938,2.119678875021584,0.6112124066675337,0.6611790584644621,-0.6153928770856175,1.0997010421090936,0.6804551980210405,0.5999299677180936,-0.6216165532993312,9.787451831504768,-0.803490346749205,0.3466852321044212,-0.9289014242535516
0.6,-0.2914712002405971,-1.3370623912116777,2.125492717327111,-0.0282979372391611,0.172631173873866,0.0387365150494223,0.5191506868795132,0.4671453985832592,-0.3394254256556379,-0.2988890314293193,-1.331487394736665,2.107771017485832,0.6512124072635802,0.7011790590605086,-0.655392877681664,1.0666489319575416,0.5796669156450884,0.6086860030308949,-0.6566791915897346,9.691859634630418,-0.806729774519821,0.3488837190927426,-0.9242491240930244
0.62,-0.2809708652109428,-1.327578802172757,2.1185459053417284,-0.0291024849234312,0.1704875684814502,0.0390949602797441,0.5302152066933306,0.4805301389777693,-0.3546256985002159,-0.2655136658966215,-1.3137051212825146,2.108521446044329,0.6191506883696293,0.5671454000733753,-0.439425427145754,1.15393150651198,0.5532259906908699,0.6692370197255021,-0.7600136422289017,9.608749230055764,-0.8080339494533688,0.3503931382907798,-0.9220492302969656
0.64,-0.2701968568036523,-1.317747159501894,2.111645981877195,-0.0273832753383913,0.170131316021846,0.0395866454059975,0.5469042475857102,0.5010521988970889,-0.3345324569279955,-0.2655136658966215,-1.3137051212825146,2.108521446044329,0.6191506883696293,0.5671454000733753,-0.439425427145754,1.660886349302133,0.8344520446189829,1.026102995965977,1.0046620786110183,11.750106713412606,-0.8054103129730952,0.3483237311028876,-0.926084885980678
0.66,-0.2590883427479831,-1.307551997133486,2.1051110835086857,-0.0228071358731675,0.1712733786875013,0.0402408954121076,0.5633245217519621,0.5167447530209307,-0.3200283081541938,-0.2655136658966215,-1.3137051212825146,2.108521446044329,0.6191506883696293,0.5671454000733753,-0.439425427145754,1.347453144154891,0.8210137083125957,0.7846277061920925,0.725207438690087,11.206270675025737,-0.8121393544919996,0.352238593883251,-0.9114005625380672
0.68,-0.2482282426843927,-1.297617884237411,2.09910263975752,-0.0180205457861413,0.1732282864476365,0.0408800200208063,0.5791364477445803,0.5281192120041278,-0.3131401921728762,-0.2593221590129252,-1.308033667281781,2.1041271917728714,0.6391506886676525,0.5871454003713985,-0.4594254274437772,1.0330070940324534,0.7905962996309079,0.5687229491598556,0.3444057990658777,11.206270675025737,-0.8169551228600489,0.3536795297647698,-0.9015092515092304
0.7000000000000001,-0.2364697638790751,-1.2869501307620768,2.0928617148539157,-0.0134673065167416,0.1756513615110013,0.041522587752984,0.5959268380276994,0.5381059301263439,-0.3115645339926942,-0.2469391452455326,-1.2966907592803134,2.0953386832299565,0.6791506892636989,0.627145400967445,-0.4994254280398237,0.9799674017701238,0.8395195141559564,0.4993359061108038,0.0787829090091035,10.747514275830326,-0.8192066184670489,0.3541650833655144,-0.8957458521348943
0.72,-0.2243739831544815,-1.276095415721108,2.086594295740428,-0.0097386843642422,0.1780636114737449,0.0421181329179601,0.6128527658832142,0.5470320131991033,-0.3152314072063423,-0.23455613147814,-1.285347851278846,2.0865501746870416,0.7191506898597454,0.6671454015634914,-0.5394254286358702,0.974176513724368,0.8462963927757416,0.4463041536379719,-0.1833436606824057,10.395322283590758,-0.8197694219990213,0.3541580676379088,-0.8929616564036889
0.74,-0.212568604963039,-1.265624287450333,2.0805344175135847,-0.0069632420576748,0.1801060176401371,0.0426408637671555,0.6289793706740561,0.5549087793940053,-0.3224600429458983,-0.2201731176809451,-1.272004943247576,2.075761666114324,0.7591506904557919,0.7071454021595379,-0.5794254292319166,0.9674244187846668,0.8063302395420913,0.3938383097450981,-0.3614317869778033,10.11466997032676,-0.8192769475691686,0.3537346144522447,-0.892159816019823
0.76,-0.1998098991829748,-1.2544443995468548,2.073987924585815,-0.0048089624953359,0.1819076642091538,0.0431464457956009,0.6460424655162764,0.5627962478318925,-0.3318813437523008,-0.2057901038837502,-1.2586620352163065,2.0649731575416066,0.7991506910518383,0.7471454027555844,-0.6194254298279631,1.0513351901724703,0.8531547421110175,0.3943734218943617,-0.4710650403201233,9.8976101156386,-0.8181019770024605,0.3532378964122086,-0.8926230005338125
0.78,-0.1867028665267839,-1.2431005481507127,2.067235967289048,-0.003115972824864,0.1831299606984855,0.0436273680696118,0.6637392752955734,0.5711747192623613,-0.3428299216080685,-0.1904070900716541,-1.2443191271701353,2.053184648953988,0.8391506916478847,0.7871454033516307,-0.6594254304240095,1.121658612211855,0.8848404889648498,0.4189235715234385,-0.5474288927883847,9.801412840114608,-0.8173572597976353,0.3528711040581014,-0.8928717433424241
0.8,-0.1732391324205583,-1.2315883698841814,2.0602504031050617,-0.001549921090799,0.1834890626548735,0.0441050348731329,0.6816361566289275,0.5795585774571969,-0.3551652213220673,-0.1740240762446569,-1.228976219109063,2.0403961403514685,0.8791506922439312,0.8271454039476772,-0.6994254310200559,1.1648466194369196,0.8948440666677049,0.4191929097417779,-0.6167649856999385,9.727336144327635,-0.8171389179743388,0.3525761637304677,-0.8926633783643383
0.8200000000000001,-0.1601176257705252,-1.2204980233257343,2.0533718191965917,-7.944436755538539e-05,0.1829022817457241,0.0445598181985177,0.6986027124517418,0.5873612935573936,-0.3682675107396563,-0.1391573245891119,-1.2026104410113216,2.042492142038958,0.7816361581190436,0.679558578947313,-0.4551652228121834,1.1406318238274882,0.8483277911407128,0.3901358050098391,-0.6551144708794532,9.653055312312972,-0.8175077775850881,0.3520821102102193,-0.8921300263828923
0.84,-0.1458821724728246,-1.208631328881095,2.046197243593108,0.0025716249560846,0.1807695931963044,0.0451112834019693,0.72433143912531,0.598253537983207,-0.3466635660433558,-0.1391573245891119,-1.2026104410113216,2.042492142038958,0.7816361581190436,0.679558578947313,-0.4551652228121834,1.7658841916414365,1.286436333678409,0.544612221290669,1.080197234815025,9.572934301087116,-0.809768840841169,0.3454705374070845,-0.9052335473758804
0.86,-0.1311386266347845,-1.1965885407046235,2.0394612706117825,0.0059261149640158,0.1766538431187448,0.0456913392574745,0.7484343509775631,0.6054407030322944,-0.3285453745531475,-0.1391573245891119,-1.2026104410113216,2.042492142038958,0.7816361581190436,0.679558578947313,-0.4551652228121834,1.5498988386957415,1.2051455926126553,0.359358252454367,0.9059095745104162,11.939252294177097,-0.8230488521592197,0.3508162690437257,-0.8848455336051434
0.88,-0.1159461735084158,-1.1844213895100937,2.032993126708052,0.0087587324047486,0.1707742996127742,0.0462036481042655,0.7692058036928947,0.6110716300600866,-0.3190587582297477,-0.1313409630079215,-1.1958148552218486,2.037940489810836,0.8016361584170668,0.6995585792453362,-0.4751652231102066,1.175963941161649,1.0385726357665823,0.281546351389611,0.4743308161699905,11.367988578223049,-0.8358753729738134,0.3552800727605776,-0.8661139805386452
0.9,-0.1003840898407326,-1.172150235180681,2.0266420436470187,0.0108054863584944,0.1638773024810348,0.0466330376771871,0.7856795934202466,0.615968000453912,-0.3164510391828833,-0.1157082398455406,-1.1822236836429023,2.028837185354593,0.8416361590131133,0.7395585798413826,-0.5151652237062531,0.8691380638913396,0.8236894863675959,0.24481851969127,0.1303859523432177,10.832049916869437,-0.8470055047359494,0.3587158425116218,-0.8504910071911469
0.92,-0.0853328434138215,-1.1604078213771194,2.02060073741092,0.0119222261494053,0.1572103701490118,0.0469700690276484,0.7976907935971991,0.6199623801068644,-0.319562154633224,-0.1000755166831597,-1.168632512063956,2.019733880898349,0.8816361596091598,0.7795585804374291,-0.5551652243022995,0.6517342975632239,0.6005600088476226,0.1997189826476231,-0.1555557725170325,10.398369398581051,-0.8563984361541156,0.3612793658229794,-0.8377516392042665
0.94,-0.0692763579761856,-1.147972118215128,2.0141298582207505,0.0119478734908721,0.150769314757437,0.0472485008383834,0.8071557463529749,0.623502940585389,-0.3275618111483434,-0.0824427934909765,-1.1530413404552071,2.008630576412303,0.9216361602052062,0.8195585810334756,-0.595165224898346,0.6444288237095149,0.4732476377887928,0.1770280239262289,-0.3999828257559706,10.042155006623943,-0.8635704373352916,0.3634683938657106,-0.8281047950446628
0.96,-0.0530588248094151,-1.1354691757961302,2.007468124678741,0.0105091022786425,0.1455266574383993,0.0474473712977174,0.8139558861888057,0.6267521233077011,-0.3382927006613816,-0.0648100702987933,-1.1374501688464589,1.997527271926257,0.9616361608012528,0.859558581629522,-0.6351652254943925,0.6556505927147028,0.340006991791536,0.1624591361156058,-0.5365444756519094,9.753742424486518,-0.8676575458954507,0.365362055889204,-0.8224940043882548
0.98,-0.0367261378845001,-1.122888809690447,2.0005696244319537,0.0077931785253133,0.1420263396197705,0.0475921898183297,0.8189118988927955,0.6314013518838445,-0.3510041163046144,-0.0461773470917089,-1.1208589972228091,1.9854239674253096,1.001636161397299,0.8995585822255684,-0.6751652260904388,0.7206897320108705,0.247800635199491,0.232461428807168,-0.6355707821616402,9.507362964589449,-0.869962473021565,0.3673266280812041,-0.8194221841784406
1.0,-0.0211309169076796,-1.1108285219511596,1.9937665785209744,0.0049482247052635,0.1405874223096285,0.0477412538695009,0.8225261242344049,0.6378776256976506,-0.3644757008342348,-0.0265446238697234,-1.103267825584258,1.9723206629094612,1.0416361619933454,0.9395585828216148,-0.7151652266864853,0.7689088649996678,0.1807112670804689,0.3238136906903055,-0.673579226481022,9.507362964589449,-0.8702950659590742,0.3690588524695202,-0.8189164728198949
1.02,-0.0046360029883166,-1.0979883158450454,1.9863150424827976,0.0022999171387146,0.1408529854668317,0.0479409340760774,0.8269533592384916,0.6457656051074793,-0.3800440158689276,0.0199953893040405,-1.078934640666277,1.9755427934792624,0.8975159720732835,0.7378776271877667,-0.4481443276791178,0.9002681016935087,0.2213617502043352,0.394398970491433,-0.7784157517346402,9.425789721462934,-0.8688978978480694,0.3702196260048476,-0.8207633159805681
1.04,0.0120724033868249,-1.084914273613873,1.9789205657667863,0.002304306304054,0.140345073843136,0.0483283323609569,0.8440358642020135,0.6605978068501281,-0.3566091895762471,0.0199953893040405,-1.078934640666277,1.9755427934792624,0.8975159720732835,0.7378776271877667,-0.4481443276791178,1.6286476504538183,0.8541252481760964,0.7416100871324438,1.1717413146340254,11.94244218759468,-0.8576041102269698,0.362148851179942,-0.8419710779452826
1.06,0.0291278195863702,-1.0715731982644168,1.9720078005805195,0.0058894152972162,0.13664418850459,0.0489472416156141,0.8603700437837852,0.6721041367963102,-0.3359955832261015,0.0199953893040405,-1.078934640666277,1.9755427934792624,0.8975159720732835,0.7378776271877667,-0.4481443276791178,1.4353760989708757,0.8167089790885873,0.575316497309103,1.030680317507282,11.94244218759468,-0.8695608008308736,0.3670945981910276,-0.8222739626354838
1.08,0.0456002378490432,-1.0587342943650266,1.965743467353633,0.010393226636571,0.1306823489585333,0.0495682497472383,0.8723157969489875,0.6786381152638442,-0.3243672943477833,0.0289705490247733,-1.0715558643943992,1.9710613502024712,0.9125139416410591,0.7578776274857899,-0.4648780530480944,0.8952806760113815,0.597287658260115,0.3266989233767003,0.5814144439159119,11.416826231317827,-0.8823492931437049,0.3704318509233563,-0.8026831829743952
1.1,0.063135910271029,-1.0451160482447324,1.959316623852961,0.0147012955795079,0.1231131464433631,0.0501371478740677,0.8802430726099179,0.6829186501956604,-0.3192204163793218,0.046920868466239,-1.056798311850644,1.962098463648889,0.9425098807766108,0.7978776280818364,-0.4983455037860476,0.5187847133665149,0.3963637830465161,0.2140267465908119,0.2573438984230708,10.86453423376406,-0.8936306812003427,0.37202784398771,-0.7867269013530575
1.12,0.0807834338332477,-1.0314280493922836,1.9529144212296767,0.0180026609466265,0.1154245996877535,0.0505962170900031,0.8839342792304565,0.6859249262180235,-0.3211942441609696,0.0648711879077047,-1.0420407593068886,1.9531355770953065,0.972505819912162,0.8378776286778828,-0.5318129545240008,0.2576756582884181,0.1845603310269339,0.1503138011181515,-0.0986913890823865,10.405098734800047,-0.9019164993301302,0.3721276870676685,-0.775941884223936
1.14,0.0984687454332814,-1.0176854144751102,1.9464143946059276,0.0202810934049518,0.1084666547107343,0.0509702831600053,0.8842915386459969,0.6883726381353096,-0.3286803640961132,0.0843213043059479,-1.0252832067333308,1.9424993180048264,1.0025017590477137,0.8778776292739293,-0.565280405261954,0.3942109828612428,0.0178629707770161,0.1223855958643049,-0.3743059967571793,10.012952704442796,-0.9078866753154242,0.3718419995521567,-0.768544241970413
1.16,0.1152496153657238,-1.0045915387237057,1.940073406039543,0.0214114881216696,0.1032016606973475,0.0512670146751948,0.8820305318663964,0.689991889570737,-0.3384002263499189,0.1037714207041912,-1.0085256541597734,1.9318630589143464,1.032497698183265,0.9178776298699758,-0.5987478559999072,0.5054944339493055,-0.1130503389800252,0.0809625717713702,-0.4859931126902889,9.705856052237325,-0.9113460896569926,0.3712066061261846,-0.7646659177066608
1.18,0.1328473494697813,-0.9907726722287374,1.9331803101854368,0.0215603857197907,0.0996982492427212,0.0515461389262288,0.8777629435432671,0.6918633901844633,-0.3504805507626441,0.1239714355808232,-0.9907681015713146,1.9203901135554176,1.0624936373188163,0.957877630466022,-0.6322153067378603,0.647396830698861,-0.2133794161564617,0.0935750306863159,-0.6040162206362609,9.565893091360522,-0.912648982917722,0.3706183226723293,-0.7637742238714987
1.2,0.1503467203850836,-0.9769146531144532,1.926029547991638,0.0207725304792752,0.098722453549123,0.0518154088145722,0.8726133413922046,0.69391180358736,-0.3640535221803878,0.144921348935844,-0.9720105489679546,1.90808048192804,1.0924895764543678,0.9978776310620686,-0.6656827574758135,0.7330415283090741,-0.2574801075531263,0.1024206701448371,-0.6786485708871831,9.38937644122734,-0.9118278197212564,0.3699480927099501,-0.7660569145532955
1.22,0.166885440730268,-0.9637076842089328,1.9189740283011807,0.019238618170338,0.0997822114720068,0.052059144751692,0.8687827001220987,0.6962643555841469,-0.3779570128868922,0.1939773874546938,-0.9422190629350852,1.9078268718826183,0.9073544264148924,0.7939118050774762,-0.4453591750372146,0.7306082521838873,-0.1915320635052952,0.1176275998393427,-0.6951745353252187,9.38937644122734,-0.9093063481466996,0.3695442265226034,-0.7704157029568276
1.24,0.1843595217444122,-0.9496950995635388,1.9116083679279627,0.0187680404586265,0.099241685525425,0.0523637841278901,0.8784793672807508,0.7041777275872824,-0.3578461101984106,0.1939773874546938,-0.9422190629350852,1.9078268718826183,0.9073544264148924,0.7939118050774762,-0.4453591750372146,1.184372426003815,0.4848333579326069,0.3956686001567733,1.005545134424077,11.444558668496938,-0.9007880549188304,0.3621568760759737,-0.7889914692834642
1.26,0.2011321482065675,-0.93626200615225,1.9049552265858676,0.0198772987808433,0.0944599253946114,0.0526756664711457,0.8859295243841568,0.7093854108728024,-0.3435390475547741,0.1939773874546938,-0.9422190629350852,1.9078268718826183,0.9073544264148924,0.7939118050774762,-0.4453591750372146,0.8475211613237972,0.3725078551703009,0.2603841642760007,0.7153531321818257,11.444558668496938,-0.9115504549534876,0.3677685508747579,-0.7699849849825738
1.28,0.218885602109557,-0.9220324799168752,1.8981739229203007,0.0215890389758017,0.0864319169729357,0.0529673959877302,0.8884874135669047,0.7132836525103821,-0.3356420025297134,0.2030509317188427,-0.9342799448843104,1.9033732801322465,0.91430264341943,0.8139118053754993,-0.46162030560858,0.4585368171259966,0.1278944591373954,0.194912081878984,0.3948522512530389,10.969962547488649,-0.922881056453866,0.3717803744816002,-0.7514613216796776
1.3,0.2366351132768244,-0.9077396768913576,1.8914750342567497,0.0231948824391843,0.0771181913895195,0.0532038185929534,0.8859469238511178,0.7158365867084578,-0.3349118475876681,0.2211980202471406,-0.918401708782761,1.894466096631502,0.9281990774285052,0.8539118059715458,-0.4941425667513106,0.183743620672372,-0.1270244857893454,0.1276467099037892,0.0365077471022629,10.501196194744807,-0.9327837969081152,0.3740721893634837,-0.7361810885884199
1.32,0.254285144293826,-0.8934100295601867,1.8847185442197176,0.0240857573300524,0.0679509327052537,0.0533777540831769,0.8790160051965896,0.7171647489381678,-0.3407243530647962,0.2393451087754384,-0.9025234726812116,1.8855589131307575,0.9420955114375804,0.8939118065675923,-0.5266648278940413,0.4571292711743567,-0.3465459327264109,0.0664081114854997,-0.2906252738564041,10.084946298186878,-0.9400540878859636,0.3749635700555809,-0.7257053419456081
1.34,0.2717596354452474,-0.8790636516438484,1.8777933101660655,0.0237660201695091,0.0599246632013027,0.0534903906643488,0.8687438910474524,0.7176212794742145,-0.3514860388079872,0.25818701900419,-0.8846452365498596,1.875025616572877,0.9559919454466556,0.9339118071636388,-0.5591870890367721,0.7442086892438968,-0.5136057074568601,0.0228265268023331,-0.5380842871595487,9.485575781856824,-0.9456125941306088,0.3754019727704803,-0.7181972989289733
1.36,0.288145017187371,-0.8654310935686388,1.8709913186584015,0.0219654564839298,0.053996159294106,0.0535420779974771,0.8565085106924758,0.717593242270886,-0.3639614071749273,0.2770289292329417,-0.8667670004185077,1.864492320014996,0.9698883794557308,0.9739118077596852,-0.5917093501795028,0.8736992251435399,-0.6117690177488311,-0.0014018601664278,-0.6237684183470066,9.485575781856824,-0.948644167708136,0.375815038315856,-0.7145060778481672
1.38,0.3051205695784041,-0.8510649047823694,1.8635610863045728,0.0187307774274299,0.0501738060427318,0.0535739404364519,0.8415786722098345,0.7194375511122147,-0.3784629195016573,0.2962182503119202,-0.8478887642722547,1.8531459669285468,0.983784813464806,1.0139118083557317,-0.6242316113222335,1.0447432842357274,-0.7464919241320644,0.09221544206644,-0.7250756163364985,9.375092545718871,-0.9497804476063266,0.3763714636331733,-0.7138979606246627
1.4,0.321782887627151,-0.8366362990032435,1.855831384919622,0.015258825258169,0.0493611722008946,0.0536597574565591,0.8257116656197193,0.7233980396280377,-0.39380857655682,0.3157549822411255,-0.8280105281111005,1.8409865573135296,0.9976812474738812,1.053911808951778,-0.6567538724649642,1.121312353750497,-0.7933503295057598,0.1980244257911489,-0.7672828527581388,9.309030565362264,-0.9481335933864948,0.3761103166151697,-0.7181759115631092
1.42,0.3381406351974352,-0.822114614870833,1.847789959915585,0.0121126695317613,0.0511376617979154,0.0538112861682613,0.8111888536611803,0.7285328427692247,-0.4095682821350145,0.363068470908137,-0.8004663970218416,1.836140956091781,0.7924011405004147,0.8233980411181538,-0.4463157759038392,1.1018695367342743,-0.7261405979269497,0.2567401570593486,-0.7879852789097253,9.269156636075875,-0.9446648957716566,0.3755481423741096,-0.7250407645228673
1.44,0.3535869543629289,-0.8081542129911424,1.84018069950935,0.0114793166222548,0.049867656915865,0.0540833181843393,0.8148152123950297,0.7397045075446957,-0.3906168883478476,0.363068470908137,-0.8004663970218416,1.836140956091781,0.7924011405004147,0.8233980411181538,-0.4463157759038392,1.1148003161983044,0.1813179366924711,0.5585832387735523,0.9475696893583464,9.249696297653829,-0.9374592844002892,0.3664991969134614,-0.7463273209234244
1.46,0.3698866877535255,-0.7932701739910624,1.8325437127754869,0.0136284095041169,0.0413313851809153,0.0544681996091196,0.8139366400263707,0.7478931364559537,-0.3744467363330584,0.363068470908137,-0.8004663970218416,1.836140956091781,0.7924011405004147,0.8233980411181538,-0.4463157759038392,0.90733035471466,-0.0439286184329534,0.4094314455628967,0.8085076007394609,11.382669148782044,-0.9492070989346107,0.3717624179259816,-0.7238544445060533
1.48,0.3860897074416994,-0.7782568113806442,1.8251470564019228,0.0170028640038967,0.0284373315673156,0.0548360238379666,0.8056780795899566,0.75272123817892,-0.3659825463491107,0.3709924823131411,-0.7922324166106601,1.8316777983327424,0.7857390354765538,0.843398041416177,-0.4568172157732431,0.63866442443112,-0.4129280218207021,0.2414050861483163,0.4232094991973828,10.4914572001926,-0.9624830066771316,0.3748784289869525,-0.7009131024577556
1.5,0.4020525666917972,-0.7631808111120751,1.817846904050711,0.0200536507642791,0.0138725890801705,0.0550953482846491,0.7905263357917872,0.754811954977401,-0.3644364366030177,0.3868405051231494,-0.775764455788297,1.8227514828146656,0.7724148254288319,0.8833980420122235,-0.4778200955120508,0.7686626246341428,-0.7575871899084707,0.104535839924047,0.0773054873046519,10.4914572001926,-0.9744659625780122,0.3762417107460458,-0.6815066474781211
1.52,0.4168789261806435,-0.7488337002870384,1.810884191184368,0.0220757437298286,0.0003522581968085,0.0552424040360962,0.7706738807345883,0.7555812521412631,-0.3685458655316072,0.4026885279331577,-0.759296494965934,1.813825167296589,0.75909061538111,0.92339804260827,-0.4988229752508584,1.0143953815494684,-0.9926227528599452,0.0384648581931101,-0.2054714464294726,10.105193507399235,-0.9849691399106966,0.3763281711539738,-0.6655258034871537
1.54,0.4320326515012332,-0.7337247945507177,1.8034263848098184,0.02302474899898,-0.0122410425245498,0.0553237486702757,0.7455505571803547,0.7553926416805511,-0.3772088539319088,0.4178703402407799,-0.7408285341137686,1.803848707791572,0.7457664053333881,0.9633980432043164,-0.519825854989666,1.3287817054922535,-1.2561661777116817,-0.0094305230356028,-0.4331494200150804,9.800757357218572,-0.9927999974674796,0.3755018810125938,-0.6546728795108131
1.56,0.4466480979989827,-0.7186302223587525,1.7957706296192966,0.0223049780203301,-0.0223263799604898,0.0553416470706119,0.7172055041830349,0.7542487944700349,-0.3879896212190672,0.4330521525484021,-0.7223605732616032,1.7938722482865548,0.7324421952856662,1.003398043800363,-0.5408287347284738,1.5173787918329262,-1.417252649865991,-0.0571923605258095,-0.5390383643579216,9.580774186275448,-0.9977131410588196,0.3740378370171401,-0.649538472554068
1.58,0.4606657206165451,-0.7035548902644028,1.78788819269107,0.0197853279436689,-0.0292311064336899,0.0553202777304806,0.6859912769468026,0.753594904437632,-0.3997147205833969,0.4479008596048313,-0.7028926123945366,1.7833707167880677,0.7191179852379445,1.0433980443964093,-0.5618316144672815,1.6675082527779457,-1.560711361811612,-0.0326945016201452,-0.5862549682164847,9.505873960181816,-1.000054859159938,0.372927256360414,-0.6486011993949977
1.6,0.4733789773963495,-0.6892255707579727,1.7801800500862868,0.0163680920527409,-0.0320638769717859,0.0553210699454902,0.6539894486366338,0.7550554720988972,-0.411068864086316,0.4624164614100673,-0.6824246515125689,1.7723441132961095,0.7057937751902226,1.0833980449924556,-0.5828344942060891,1.6993872776471073,-1.6000914155084422,0.0730283830632616,-0.5677071751459567,9.49112154274053,-1.0001617761459094,0.3717554375762159,-0.6520449210000798
1.62,0.4861098912381695,-0.6740924654355017,1.771836800729618,0.0126534376782291,-0.031014479182171,0.0553878268794537,0.6212137792612303,0.7582764281032234,-0.4226009852504601,0.5060784498281812,-0.6514727971530279,1.759626606881971,0.5539894471465177,0.8550554735890133,-0.4305178485006551,1.7447126404741145,-1.638783468770172,0.1610478002163073,-0.5766060582072019,9.504873275860518,-0.997844307991251,0.3703615036205774,-0.6598455024059938
1.64,0.4983134545069801,-0.6588264088475787,1.763496388435173,0.010898452115992,-0.0305510499019175,0.0555848764631239,0.6009680735203915,0.7675082267620478,-0.4097031615584822,0.5060784498281812,-0.6514727971530279,1.759626606881971,0.5539894471465177,0.8550554735890133,-0.4305178485006551,1.2859515576131273,-1.012285287041942,0.4615899329412198,0.6448911845988919,9.520960484869647,-0.9971873394741378,0.3646130208372242,-0.6713906368055714
1.66,0.5101194201122027,-0.6434089424651148,1.7554332617420003,0.0113783919950214,-0.0350850738942352,0.0558782998832232,0.5798986775951859,0.7736396251017945,-0.3974429300718079,0.5060784498281812,-0.6514727971530279,1.759626606881971,0.5539894471465177,0.8550554735890133,-0.4305178485006551,1.2568082255863071,-1.0534697962602813,0.306569916987337,0.6130115743337161,10.933726787572596,-1.0017758604710718,0.3672012678263466,-0.6609204188856859
1.68,0.5208994719144372,-0.6286690302997926,1.747962314298406,0.0125356691641907,-0.0423095366103823,0.0561617408260617,0.5554823831975871,0.7776583909482407,-0.3896038567534602,0.5116183442996464,-0.6429222424171377,1.7553214283969645,0.5339894468484945,0.8750554738870365,-0.4344076453835229,1.297841459432936,-1.2208147198799368,0.2009382923223113,0.3919536659173855,10.512357887319922,-1.0083419771897737,0.3687883764851238,-0.6483866286336224
1.7,0.5317010955026019,-0.6130878962365234,1.7402247615041166,0.0137182605577092,-0.0510833388382955,0.0564262025654577,0.5256189313822376,0.7802888191235241,-0.3847206009727567,0.5226981332425766,-0.6258211329453575,1.7467110714269514,0.493989446252448,0.915055474483083,-0.4421872391492585,1.5187092329777965,-1.4931725907674775,0.131521408764168,0.2441627890351738,10.512357887319922,-1.0153415210475212,0.3693874921663106,-0.6364779486735023
1.72,0.5418647735541668,-0.597468765407565,1.7325528830443453,0.0142033752902007,-0.0596133910206934,0.0566317199314861,0.4920351058419347,0.7815930999650565,-0.3828267408481318,0.533777922185507,-0.6087200234735772,1.7381007144569385,0.4539894456564015,0.9550554750791296,-0.4499668329149942,1.683122984667737,-1.6791912770151434,0.0652140420766222,0.0946930062312445,10.33751790291717,-1.0217448627530945,0.3694363692848934,-0.6264845770044636
1.74,0.5513226693891933,-0.5818363935217877,1.7248936909634724,0.0133736242150374,-0.0667615711880613,0.0567623105109081,0.4553858071561541,0.7818406670973792,-0.3831740878354046,0.542857711098635,-0.5896189139719946,1.7291013777986384,0.4139894450603551,0.995055475675176,-0.4577464266807298,1.8325890384740744,-1.8324649342890296,0.0123783566161328,-0.0173673493636367,10.200237988045046,-1.0266241932639983,0.3690206644538785,-0.6201507380515666
1.76,0.5596021553452473,-0.5669861949501146,1.7176066618976804,0.0109662597208396,-0.0714341095430888,0.0568101422563664,0.4179085824985468,0.7817133290621261,-0.3838673841919247,0.5519375000117631,-0.570517804470412,1.7201020411403385,0.3739894444643086,1.0350554762712223,-0.4655260204464654,1.8741926547516088,-1.873861232880364,-0.0063669017626555,-0.034664817826005,10.133941708219936,-1.029866996703279,0.3680645362926429,-0.6182398881223209
1.78,0.5675210239118014,-0.5513301427356353,1.7099236444063473,0.007324487933196,-0.0730832422055803,0.056831041452204,0.3761520890811408,0.7841718512252835,-0.3843368767133111,0.5600172889099899,-0.5504166949539283,1.710908214637895,0.3339894438682622,1.0750554768672689,-0.4733056142122011,2.091572074404949,-2.0878246708703028,0.1229261081578725,-0.0234746260693224,10.133941708219936,-1.031475025290878,0.3671874134714419,-0.6197999720092997
1.8,0.574606841855723,-0.5356028440193203,1.70224112628851,0.0036135166373422,-0.0711929287908674,0.0568754546387298,0.3348926172259129,0.7885091366542359,-0.3837956717449591,0.5670970777933156,-0.5293155854225433,1.701519898291309,0.2939894432722157,1.1150554774633152,-0.4810852079779367,2.074517392962944,-2.062973592761391,0.2168642714476198,0.0270602484176013,10.227763962431707,-1.0310611621856167,0.3664198711065454,-0.6246969418580609
1.82,0.5808834128999819,-0.5197753936772866,1.6945809943092267,0.0002571585436801,-0.0663786763258917,0.0569443949519383,0.295220266562619,0.7940293914867317,-0.3821569704211651,0.5913514727170186,-0.4961773871866085,1.683051342701262,0.2348926157357968,0.8885091381443521,-0.3708185019183323,2.004403878086732,-1.9836175331646944,0.276012741624787,0.0819350661897005,10.273542322765024,-1.0289744669735643,0.3657992336161004,-0.6317807462409936
1.84,0.5861176426235041,-0.5045602005202733,1.6874348847764415,-0.0002601000778855,-0.059565376854566,0.0571841931283324,0.2582556949587843,0.8061647965321527,-0.3700805203546734,0.5913514727170186,-0.4961773871866085,1.683051342701262,0.2348926157357968,0.8885091381443521,-0.3708185019183323,2.036840847783598,-1.848228580191738,0.6067702522710494,0.6038225033245831,10.273542322765024,-1.024811026880127,0.3618800794180444,-0.6461074349265549
1.86,0.5909069887437852,-0.4883427396072537,1.68017630515689,0.0023032413312858,-0.0508444111200713,0.057657720843556,0.2230359457986476,0.8147377248589368,-0.3564012699658504,0.5913514727170186,-0.4961773871866085,1.683051342701262,0.2348926157357968,0.8885091381443521,-0.3708185019183323,1.9371678568203907,-1.7609874580068352,0.4286464163392067,0.6839625194411503,10.94508120910632,-1.0210085815535002,0.3600005214196031,-0.6544738143152737
1.88,0.5950282615286993,-0.4719933096086453,1.6731862023533604,0.0059360435560411,-0.0414497220640886,0.0582281324352827,0.1912006499349477,0.8196077498077753,-0.3433148259047709,0.5937003988743765,-0.487292295805165,1.6793431576820788,0.2148926154377736,0.9085091384423752,-0.3682230679530069,1.7381442862255283,-1.5917647931849952,0.243501247441924,0.6543222030539753,10.923856946378692,-1.0163842055358043,0.3574195351360298,-0.6643223684815309
1.9,0.5985467990696344,-0.4555749332647568,1.6664476960058696,0.0090450346009834,-0.0320039838355707,0.0587847617613717,0.1625027317474564,0.8222402045084853,-0.3311733700828635,0.5983982511890925,-0.469522113042278,1.6719267876437125,0.1748926148417271,0.9485091390384216,-0.3630322000223562,1.5635818458930777,-1.4348959093745643,0.1316227350355026,0.6070727910953672,10.85873010988962,-1.0124541068950237,0.3552049321683529,-0.6728698463801441
1.92,0.6013852615468435,-0.4399383825027325,1.6602633193888077,0.0110390300955213,-0.0234421197346617,0.0592562410349891,0.1378736728331936,0.8238878200824055,-0.3204180291561939,0.6030961035038085,-0.4517519302793909,1.6645104176053456,0.1348926142456807,0.9885091396344682,-0.3578413320917055,1.3462749891186268,-1.2314529457131365,0.0823807786960062,0.5377670463334816,10.791034590275558,-1.0083024018344409,0.3534089012133262,-0.6814411339706075
1.94,0.6038933806481273,-0.4234507838820737,1.6539682940529177,0.0119095079882847,-0.0152468147807639,0.0596613836372056,0.1143972330253575,0.824931797603623,-0.309682822950438,0.6057939557887221,-0.4319817474867016,1.6573535909635115,0.0948926136496342,1.0285091402305149,-0.3526504641610548,1.2917795549123914,-1.1738219903918072,0.0521988760608771,0.5367603102877982,10.733652401451764,-1.004451841192031,0.3524629100083386,-0.6888402710862113
1.96,0.605954215308859,-0.4069488547510956,1.6478854611923774,0.0111001530272025,-0.0081649557116684,0.0599286103293481,0.0929582258028214,0.8253982687859801,-0.2991481019221502,0.6084918080736357,-0.4122115646940122,1.6501967643216775,0.0548926130535877,1.068509140826561,-0.3474595962304041,1.1946013699094054,-1.0719503611268035,0.0233235591178548,0.5267360514143865,10.6935096276311,-1.001207140572087,0.352552397748498,-0.6946989645735352
1.98,0.6075987925994215,-0.3904283056309085,1.6420129004509372,0.0085811974079498,-0.0022110841209157,0.0600470049252639,0.0726189436703237,0.8268717109952625,-0.2886379506195584,0.6101896603436482,-0.3914413818864217,1.6431697093781097,0.0148926124575413,1.1085091414226074,-0.3422687282997534,1.1470840313734736,-1.016964106624886,0.073672110464118,0.5255075651295904,10.68343913928129,-0.9989263820870834,0.3537390301900678,-0.6984132804170955
2.0,0.6087916582003995,-0.3746821324764015,1.6366301514857542,0.0053537991493892,0.0025700291840447,0.060074268762001,0.0539973955190584,0.8307390748837313,-0.2784936495293502,0.6108875125987594,-0.36967119906393,1.636272426132808,-0.025107388138505,1.1485091420186535,-0.3370778603691027,1.0777585578464732,-0.9310774075632644,0.1933681944234433,0.5072150545104098,10.683593392486728,-0.9976567953698864,0.3559512894348968,-0.69992013131164
2.02,0.6096717553857828,-0.3580069120306391,1.6311742905206517,0.002059102367168,0.0068223613497546,0.0600873537341916,0.0350476156584682,0.8366007297108037,-0.2676166959003143,0.6114915279763524,-0.3331451787322149,1.6227054690092866,-0.0460026059710576,0.9307390763738476,-0.2594035670329456,1.1311070620467016,-0.9474889930295108,0.2930827413536174,0.5438476814517951,10.6930175784737,-0.997261198642164,0.3586504949657474,-0.6994414651004425
2.04,0.6101791586906049,-0.3411402702498202,1.6259522648932352,0.0012098202764155,0.0102642356915136,0.0602552405182102,0.0167057304444965,0.8490755639881046,-0.2550426421431825,0.6114915279763524,-0.3331451787322149,1.6227054690092866,-0.0460026059710576,0.9307390763738476,-0.2594035670329456,1.2749049683563427,-0.9170942606985854,0.6237417138650447,0.6287026878565888,10.704091150768363,-0.998674105909182,0.3603526879317597,-0.6967171500589183
2.06,0.61033065701666,-0.3240608604878511,1.6209820281768397,0.0033197345176567,0.0127650962148196,0.0606214339315788,-0.0006470075862486,0.8580635779036462,-0.242633349340767,0.6114915279763524,-0.3331451787322149,1.6227054690092866,-0.0460026059710576,0.9307390763738476,-0.2594035670329456,1.1574675580396665,-0.8676369015372616,0.4494006957770802,0.620464640120777,10.812371544398957,-1.0001229530038698,0.3610003905495177,-0.6935847720940623
2.08,0.610157080511641,-0.3076961878955082,1.616481348993479,0.0064480426316102,0.0142726088158034,0.0610391888889483,-0.016800363111719,0.863832414816491,-0.2317369370922765,0.6110315019166418,-0.3238377879684764,1.620111433338957,-0.0660026062690808,0.9507390766718706,-0.2555855505336646,1.0160489333052514,-0.8076677762735158,0.2884418456422399,0.5448206124245222,10.777702356907866,-1.0021668462658175,0.3609677439397945,-0.689910406472685
2.1,0.6096441617598924,-0.290382071036803,1.6119590349369206,0.0094746499867459,0.015098551856372,0.0614471791009587,-0.0336993040032359,0.8673866588566357,-0.2211020521477131,0.6101114497972207,-0.3052230064409995,1.614923361998298,-0.1060026068651273,0.9907390772679172,-0.2479495175351028,1.0140360345372212,-0.8449470445758461,0.1777122020072352,0.5317442472281719,10.715889669725584,-1.0048981021520276,0.3607185354499275,-0.6858428153789194
2.12,0.6087915093898083,-0.2730105100995992,1.6076394786297488,0.0115744944850234,0.015306276509336,0.0617747266117792,-0.0508040951041055,0.8698842045362689,-0.2113731206827898,0.6091913976777995,-0.2866082249135225,1.6097352906576392,-0.1460026074611737,1.0307390778639636,-0.2403134845365409,0.9917959977679612,-0.855239555043482,0.1248772839816614,0.4864465732461645,10.661054477798643,-1.0076971960792092,0.3607581085860835,-0.6817494510394637
2.14,0.6076616098157349,-0.2564684953561556,1.603710614345144,0.012522236535855,0.0151103230280623,0.0619994102907762,-0.0673371217739222,0.8714525213661399,-0.2026681275268209,0.6062713455285761,-0.2659934433562433,1.6049290209669085,-0.1860026080572202,1.07073907846001,-0.232677451537979,0.937519992305753,-0.8266513334908347,0.0784158414935509,0.4352496577984435,10.608638605501255,-1.0108262240435384,0.3612240490293553,-0.6771504340332207
2.16,0.606130081115035,-0.2390307462396806,1.599751980462322,0.0120399286386652,0.0146276807237571,0.0621221886299724,-0.0850018667478945,0.8723987186592531,-0.1936498573880191,0.6033512933793526,-0.245378661798964,1.6001227512761775,-0.2260026086532667,1.1107390790560565,-0.2250414185394172,0.9928087688590632,-0.8832372486986158,0.0473098646556591,0.4509135069400913,10.574641098469328,-1.0142864639977638,0.3623624279147135,-0.6719733215547292
2.18,0.6042362658694245,-0.2215661281252416,1.5959736533789015,0.0100203361839993,0.0141153703293017,0.0621339895780327,-0.1035246955490657,0.87413634333528,-0.1846190866163733,0.599431241215228,-0.2237638802267836,1.595507382410411,-0.2660026092493131,1.1507390796521029,-0.2174053855408553,1.0340083982277943,-0.926141440058556,0.0868812338013447,0.4515385385822884,10.564196020029158,-1.0180883592017187,0.3643190079491261,-0.6660244365252995
2.2,0.6019635895520787,-0.2040493632222192,1.592378613787964,0.0070131999205433,0.0139381188956201,0.0620797269908032,-0.1227831776992462,0.8777679303018273,-0.1753141977533528,0.5945111890362021,-0.201149098639702,1.591082914369608,-0.3060026098453595,1.1907390802481492,-0.2097693525422935,1.084733279863742,-0.9629241075090256,0.1815793483273653,0.465244443151025,10.564062396778354,-1.0218223423044537,0.3666763407866859,-0.6600447943320455
2.22,0.5994430309609741,-0.1873186619778796,1.5891390474850258,0.0041992781722495,0.014269716305889,0.0620341694196649,-0.1414966595637008,0.8831298053960897,-0.1661396211608872,0.5958244306671164,-0.1601609667071278,1.5836129039002962,-0.2227831791893623,0.9777679317919434,-0.1355893299624154,1.0760076250528634,-0.9356740932227304,0.2680937547131168,0.4587288296232839,10.575965015067595,-1.0257732910397004,0.3693715255090171,-0.653473283933845
2.24,0.5963815228249878,-0.1695345465736932,1.5859366388937115,0.0034324411429586,0.0158863303844027,0.0621410228549416,-0.1634567007406912,0.8944114719628425,-0.1544491450058897,0.5958244306671164,-0.1601609667071278,1.5836129039002962,-0.2227831791893623,0.9777679317919434,-0.1355893299624154,1.3658208536893377,-1.098002058849519,0.5640833283376445,0.584523807749876,10.591317869702834,-1.02915293380599,0.3711053634329765,-0.6481514811008443
2.26,0.592899444132769,-0.1515561071582482,1.5829790989067254,0.0053533843731354,0.0190069122912292,0.0624363748980639,-0.1834263349151895,0.9027222124059746,-0.1418488650884976,0.5958244306671164,-0.1601609667071278,1.5836129039002962,-0.2227831791893623,0.9777679317919434,-0.1355893299624154,1.2516206991067986,-0.9984817087249171,0.4155370221566035,0.6300139958696022,10.737618212254349,-1.0325043322910754,0.3715094920842513,-0.6439721155652011
2.28,0.5890384092886577,-0.1334367815975208,1.580273441974518,0.0084338732882418,0.0227778965070662,0.0628158944471888,-0.2015176854890876,0.9085456524398388,-0.1293306989677234,0.5935965988752228,-0.1503832873892084,1.582257010600672,-0.2427831794873855,0.9977679320899666,-0.1276443564042279,1.137886091007127,-0.9045675286949036,0.2911720016932073,0.6259083060387083,10.725404285074546,-1.034692068882339,0.3713945871233239,-0.6415731520012284
2.3000000000000003,0.5850521339866226,-0.1161426250226054,1.5779311552718256,0.0111620684991471,0.0264400114320045,0.0631650977731697,-0.2171206301073,0.911779595603559,-0.1178416521622546,0.5891409352914355,-0.1308279287533695,1.5795452240014238,-0.282783180083432,1.0377679326860132,-0.111754409287853,0.9822276539115437,-0.7801472309106202,0.1616971581860138,0.5744523402734416,10.725404285074546,-1.0365232526767734,0.3711790239633087,-0.639929035672115
2.32,0.580550317041067,-0.0978834012731931,1.575698764542243,0.0131750128978399,0.0299651160727867,0.0634694285053513,-0.2321891003642525,0.9141662325750194,-0.1060074495446901,0.5846852717076483,-0.1112725701175306,1.5768334374021755,-0.3227831806794785,1.0777679332820596,-0.095864462171478,0.9654055928880028,-0.7534235128476258,0.1193318485730177,0.5917101308782251,10.68818228399141,-1.0386407568171163,0.3714076054421393,-0.6377259558069177
2.34,0.5757580075456983,-0.0795833632736824,1.5737001773313566,0.0140273668088672,0.0328743627879389,0.0636822042131477,-0.2462768963824934,0.9158439918677702,-0.0944496668831124,0.5782296080940588,-0.0897172114518894,1.574916148158746,-0.3627831812755249,1.117767933878106,-0.079974515055103,0.9149634049351948,-0.7043898009120433,0.0838879646375412,0.577889133078887,10.66382275417891,-1.040877923555294,0.3722929190729565,-0.63483595192414
2.36,0.5706918075142415,-0.0612571791019072,1.5719324596971418,0.0133188194518623,0.0350216020854698,0.0637708425923129,-0.2596991718472589,0.9169439357513964,-0.0828882837571123,0.5717739444804691,-0.0681618527862482,1.5729988589153163,-0.4027831818715714,1.1577679344741525,-0.064084567938728,0.8874583581573418,-0.6711137732382729,0.0549971941813165,0.5780691563000012,10.641506582133845,-1.043484028568777,0.3739461674007136,-0.6308560196957242
2.38,0.5656285865210993,-0.0438164416004222,1.5704698931321628,0.0113029658525415,0.0364676400721337,0.0637490294297094,-0.2726234810336604,0.9189696954308606,-0.0716299013381971,0.5643182808519784,-0.0456064941057058,1.5714788183497963,-0.4427831824676178,1.1977679350701989,-0.0481946208223531,0.8629783382495543,-0.6462154593200764,0.1012879839732028,0.5629191209457617,10.638297590207912,-1.0468679288906826,0.3767682397405753,-0.6248299658925133
2.4,0.5600312066943922,-0.0253977415822398,1.5691674188551288,0.008351435512438,0.0376018812071745,0.0636605916417995,-0.2864598526842578,0.9230739329896268,-0.0591669360887259,0.5558626172085865,-0.0220511354102624,1.5703560264621854,-0.4827831830636643,1.2377679356662452,-0.0323046737059781,0.9534351697962594,-0.6918185825298684,0.2052118779383049,0.6231482624735625,10.650341984265651,-1.0512163412197426,0.3804180069476993,-0.6167704990513873
2.42,0.5541535240342617,-0.0068726653006529,1.5681202912940837,0.0055617261646762,0.0385384464587866,0.0635798073921888,-0.3006088555423726,0.9291838478337496,-0.0461363988471406,0.5457082140601793,0.0207559550672415,1.5662090720506925,-0.3864598541743739,0.954099154560953,-0.0303406267207115,1.0091088173305662,-0.7074501429057439,0.3054957422061466,0.651526862079264,10.67916698089175,-1.055685205622365,0.3841192459917275,-0.6082929389432045
2.44,0.5479544434853193,0.0120804867207996,1.567257487797697,0.0128314247324336,0.039879793067644,0.0641983298420636,-0.318004641504204,0.9595608098077936,-0.04078352577544,0.5457082140601793,0.0207559550672415,1.5662090720506925,-0.3864598541743739,0.954099154560953,-0.0303406267207115,1.7706117856013015,-0.8697892980915695,1.5188480987021913,0.2676436535850282,10.23370632314618,-1.059580186440254,0.3865784429180825,-0.598318880698683
2.46,0.5417707990587175,0.0303956112999298,1.5665285178795656,0.0270825452712384,0.0416105950326707,0.0652987557758418,-0.3319318277301069,0.9661579991724052,-0.0362036138480731,0.5457082140601793,0.0207559550672415,1.5662090720506925,-0.3864598541743739,0.954099154560953,-0.0303406267207115,0.803842361638716,-0.6963593112951444,0.3298594682305866,0.2289955963683473,10.193630629793006,-1.060087934537863,0.3788403810207473,-0.6038473255133606
2.48,0.5349900430835254,0.0497211150387137,1.5658407115223618,0.0427647393310882,0.0434536829104355,0.0665036311773568,-0.3453380063938446,0.965622417817274,-0.0329100940437058,0.5418436155184356,0.030296946612851,1.5659056657834851,-0.4064598544723971,0.9603041988752182,-0.0245753648471086,0.6907599917007694,-0.6703089331868833,-0.0267790677565549,0.1646759902183655,10.193630629793006,-1.0609023613435673,0.3708279519853173,-0.6089666191482679
2.5,0.527951598024382,0.068974032180857,1.565201434768667,0.0573071837647824,0.0450876648502297,0.0676161208845674,-0.3578135730176126,0.9596669186893408,-0.0312566648255666,0.5341144184349481,0.0493789297040701,1.5652988532490713,-0.4464598550684435,0.9727142875037488,-0.0130448410999029,0.6961349736694138,-0.6237783311884015,-0.297774956396668,0.0826714609069582,10.102965392587066,-1.0612161479396995,0.3629203192410599,-0.6148169452795211
2.52,0.5206722331143272,0.0880572033698883,1.5645805219363424,0.0694813214053074,0.0463640530007142,0.0685333385507888,-0.3695520963098059,0.9494620388061102,-0.0309053252187869,0.5263852213514606,0.0684609127952891,1.564692040714657,-0.48645985566449,0.9851243761322792,-0.0015143173526972,0.7779073563603482,-0.5869261646096635,-0.5102439941615244,0.017566980338983,9.98381619344309,-1.0614001662357155,0.3549600248610082,-0.6211019813605654
2.54,0.5135442459076924,0.1059731334270833,1.5639915456367957,0.0785161150874946,0.0471694631178104,0.0691857884017658,-0.3802492415720199,0.9374925549096051,-0.03108411096958,0.5166560242381708,0.0881634003179347,1.5646617543676031,-0.5264598562605365,0.9975344647608098,0.0100162063945085,0.80269767947573,-0.5348572631106996,-0.5984741948252548,-0.008939287539654,9.97408682344576,-1.06179385790146,0.3479116259466011,-0.6266061796637198
2.56,0.5058242923925459,0.1245761432132532,1.563366395694738,0.0855636730553485,0.0475380902626387,0.0696443180365284,-0.3912457535923695,0.9238042790740656,-0.0313998670230271,0.506926827124881,0.1078658878405803,1.564631468020549,-0.566459856856583,1.0099445533893403,0.0215467301417142,0.8780544884128707,-0.5498256010174812,-0.6844137917769721,-0.0157878026723568,9.97408682344576,-1.062364724084817,0.3415196621200156,-0.631666650035074
2.58,0.4978802949793979,0.1428977820415666,1.5627369363916834,0.0904342793758712,0.0475595034677437,0.069900922890087,-0.4026592647035477,0.9095172292987408,-0.0314961803718078,0.49619762999669,0.1278786275789392,1.5648894447671753,-0.6064598574526293,1.0223546420178706,0.0330772538889199,0.9143266695070604,-0.5706755555589083,-0.71435248876624,-0.0048156674390332,9.98026769360331,-1.0629993489726293,0.3360297109384411,-0.6360650316033198
2.6,0.4897040146141239,0.1609309015679862,1.5621114392409496,0.0936240703097255,0.0475219158306274,0.0700157394004693,-0.4144181442869204,0.8949025376343683,-0.0310196374842985,0.4844684328535979,0.1482016195330112,1.5654356846074815,-0.6464598580486758,1.0347647306464012,0.0446077776361257,0.9381998116400592,-0.5879439791686369,-0.7307345832186285,0.023827144375463,10.004110652691452,-1.0636838884740918,0.3311263746488588,-0.6402739210693922
2.62,0.4817166195130823,0.1777889904867611,1.561532672682128,0.0953734223834821,0.0476023105448447,0.0700306026925184,-0.4257667651202054,0.8806447974884973,-0.0299064677035418,0.4689831073997779,0.2056760284497046,1.5605604573667349,-0.5144181457770365,0.8492462365531878,-0.0091752914080485,0.9128437651723906,-0.5674310416642514,-0.71288700729355,0.0556584890378393,10.044587374442926,-1.0645172035213386,0.3266236337401316,-0.6443016354700501
2.64,0.4730414091253629,0.1954357651317082,1.5608774813464588,0.1020082663719003,0.0483883367256622,0.0704328554952739,-0.4408731264063943,0.8818650225789109,-0.036399451529364,0.4689831073997779,0.2056760284497046,1.5605604573667349,-0.5144181457770365,0.8492462365531878,-0.0091752914080485,0.8243936249488638,-0.7553180643094459,0.0610112545206764,-0.3246491912911118,10.090883715150085,-1.0634768737260136,0.3234334215408121,-0.6467782509708799
