t,x,y,z,roll,pitch,yaw,v_x,v_y,v_z,ref_x,ref_y,ref_z,ref_v_x,ref_v_y,ref_v_z,a_com,a_x,a_y,a_z,thrust,wind_x,wind_y,wind_z
0.0,-1.0731139951749915,1.4897125246036678,2.228921210768953,0.0256822147899221,0.0994840027506917,0.0418351396158676,0.0010099487552519,0.0065372910978464,-0.0004278549907387,-1.0730787579584908,1.4898518803815897,2.228906721416532,0.0085299357754328,-0.0948100063956824,-0.1004674759376683,0.3314333691683673,0.0504974377625993,0.3268645548923248,-0.0213927495369356,10.25591343355154,-0.9408278662663248,0.2573611953412087,-0.8771970006494639
0.02,-1.073119364852584,1.490043043393822,2.228817905606772,0.0345239285517286,0.0996936545202023,0.0424556363701029,-0.001304130199941,0.0235396692247968,-0.0105712778194091,-1.0730787579584908,1.4898518803815897,2.228906721416532,0.0085299357754328,-0.0948100063956824,-0.1004674759376683,0.9966504528467564,-0.1157039477596533,0.8501189063475156,-0.5071711414335202,9.595784513604483,-0.9384868151404724,0.2548175630430793,-0.8753253021471352
0.04,-1.073169432030893,1.490531153044678,2.228430481725612,0.0489815349131385,0.1002559379086725,0.0434620328985022,-0.0035174791547203,0.0237436345927197,-0.0279422603765101,-1.0730787579584908,1.4898518803815897,2.228906721416532,0.0085299357754328,-0.0948100063956824,-0.1004674759376683,0.8756305591772747,-0.1106674477389659,0.0101982683961462,-0.8685491278550512,9.265864778414652,-0.931058537500746,0.239121353229322,-0.8905835442820998
0.06,-1.073258918599283,1.4909523177705315,2.227668382983144,0.0637065687250069,0.1011431089949566,0.0444853872527203,-0.0052420372615432,0.0180108703497141,-0.0474846476634766,-1.0729934586007366,1.4889037803176328,2.227902046657155,0.0100102046487071,-0.1148100066937056,-0.1204674762356915,1.0219388281637516,-0.0862279053411426,-0.2866382121502793,-0.9771193643483236,9.20678293315359,-0.9234135994165616,0.2207848345914274,-0.9083193586541192
0.08,-1.0733769284537882,1.4912225538763757,2.226502397011666,0.0778531470261172,0.1022412981864342,0.0454659291900064,-0.0063947202227156,0.0089781248104177,-0.068201675703877,-1.072822859885228,1.4870075801897191,2.2258926971384017,0.0129707423952558,-0.1548100072897521,-0.1604674768317379,1.1314972611692364,-0.0576341480586222,-0.4516372769648197,-1.035851402020021,9.20678293315359,-0.9155690333462608,0.2025825584653376,-0.9261850833007566
0.1,-1.073504350200072,1.4912854614401827,2.225003582460221,0.0906546864894354,0.1033678871534753,0.0463444583405204,-0.0069067099081421,-0.0021671805099081,-0.0885913261032456,-1.0726522611697191,1.4851113800618057,2.2238833476196485,0.0159312801418044,-0.1948100078857985,-0.2004674774277844,1.162129303831699,-0.0255994842713238,-0.5572652660162944,-1.01948251996843,9.179664937525558,-0.9076341937624416,0.1836759197868552,-0.9440290080413002
0.12,-1.0736430271242354,1.4910969496289492,2.2229995014512287,0.1034680514898386,0.1045376413809713,0.0472038334274633,-0.0068811952578156,-0.0163870798587462,-0.1108243959662856,-1.072333635566883,1.4812151799040898,2.2198739980710926,0.0188918178883531,-0.234810008481845,-0.2404674780238308,1.3195790844273865,0.0012757325163237,-0.7109949674419069,-1.111653493152002,9.172072925591236,-0.8998294706222123,0.1649671355687004,-0.9612078727837045
0.14,-1.07377559559453,1.4905985655244007,2.220541293536944,0.1156306454767473,0.1056058464106139,0.0479856979337548,-0.0063357725140676,-0.0330126986468195,-0.1339723184744377,-1.072015009964047,1.4773189797463735,2.215864648522537,0.0218523556349017,-0.2748100090778915,-0.2804674786198773,1.4252499802658682,0.0272711371874023,-0.8312809394036627,-1.157396125407601,9.145340429711723,-0.8917537910586403,0.1459330686226492,-0.9786817558913996
0.16,-1.0738917706761153,1.4897431817505844,2.217612788662937,0.1271727397268962,0.1064995475190528,0.0486779792519191,-0.0052871536842443,-0.0519562569539361,-0.1577965786926298,-1.0716223709175472,1.4724227795737566,2.21085529895908,0.0248128933814504,-0.3148100096739379,-0.3204674792159238,1.522788049704816,0.0524309414911627,-0.9471779153558296,-1.1912130109096073,9.145450306123166,-0.8839796848668177,0.1274659172903896,-0.9955157834711574
0.18,-1.0739784514565796,1.4885584923850856,2.214384986379624,0.1375898567147218,0.1071432914001012,0.0492426062075405,-0.0038833845935966,-0.0720146110867717,-0.1808403093204797,-1.0711557184273837,1.4665265793862383,2.204845949380722,0.027773431127999,-0.3548100102699843,-0.3604674798119702,1.5291514472306276,0.0701884545323861,-1.0029177066417811,-1.1521865313924948,9.145450306123166,-0.8770392060844224,0.1097592973440193,-1.0101282101635427
0.2,-1.07403758544944,1.4868744503578244,2.2105081100442194,0.1478750498753842,0.1075874141601588,0.0497223957933428,-0.0020964403725732,-0.0955000427639856,-0.2056936681387675,-1.0741726206862594,1.484957761830747,2.2053429709136,-0.0083319753937628,-0.1720146125768878,-0.2808403108105958,1.7120514852543849,0.0893472110511705,-1.1742715838606956,-1.2426679409143924,9.155648583055154,-0.8704628441878487,0.0926571564402725,-1.0237949330334992
0.22,-1.0740251929701286,1.4845146761253056,2.206325909471737,0.1524759204829495,0.1077514442803996,0.0497235143596495,0.0032668837236346,-0.1373495571135331,-0.2098190813222552,-1.0741726206862594,1.484957761830747,2.2053429709136,-0.0083319753937628,-0.1720146125768878,-0.2808403108105958,2.119649812226327,0.2681662048103971,-2.092475717477375,-0.2062706591743832,9.157370200959122,-0.8715400405638718,0.0773920290834786,-1.0343177376306074
0.24,-1.0739047806142734,1.4813842740426646,2.202086917840548,0.1502279573959782,0.1075239080264227,0.0491553700820361,0.0083854003832071,-0.1726554044304932,-0.2138569045196278,-1.0741726206862594,1.484957761830747,2.2053429709136,-0.0083319753937628,-0.1720146125768878,-0.2808403108105958,1.7951365433693722,0.2559258329786219,-1.7652923658480022,-0.2018911598686279,10.611071777137113,-0.870879248389176,0.0769217735298893,-1.0368113490564246
0.26,-1.0737026600430584,1.4778156831467202,2.1979545628690915,0.1450378491673886,0.1068971007646748,0.0483245864294912,0.0125456130907749,-0.2005213126396361,-0.2208141310909712,-1.074255940440197,1.483237615704978,2.202534567805494,-0.009221693553796,-0.1920146128749111,-0.3008403111086191,1.4510506638791054,0.2080106353783899,-1.3932954104571489,-0.34786132856717,10.393324933179429,-0.8698436022659106,0.0796281547880292,-1.039452603612489
0.28,-1.0734131107415836,1.4735401111111774,2.193431819832289,0.138805353721919,0.1058099757066579,0.0473276319286322,0.0161218382339268,-0.2253510909233889,-0.2312384182282034,-1.0744225799480724,1.4797973234534405,2.1969177615892823,-0.0110011298738624,-0.2320146134709575,-0.3408403117046655,1.358282958567818,0.1788112571575967,-1.2414889141876384,-0.5212143568616114,10.154128921744814,-0.8683153297710235,0.0825032656689863,-1.0431104005143248
0.3,-1.073060296513193,1.4687980858105656,2.188665251364021,0.132825744019094,0.1043127274233083,0.0462899218452644,0.0189252453750955,-0.2475799779108097,-0.2448838470410454,-1.0745892194559477,1.4763570312019023,2.1913009553730705,-0.0127805661939289,-0.272014614067004,-0.3808403123007119,1.3116594792332932,0.1401703570584347,-1.1114443493710406,-0.6822714406421015,9.941393098123626,-0.8674272830275128,0.0851843195333976,-1.046008874267008
0.32,-1.072680956178689,1.4638994384646824,2.1838597100667885,0.1277182057720652,0.1025748035148804,0.0453031757227102,0.0208183737980565,-0.2670144793829536,-0.2602903868455185,-1.0748448307798262,1.4709167389205624,2.183684149127056,-0.0145600025139953,-0.3120146146630504,-0.4208403128967584,1.2436290156668448,0.0946564211480491,-0.9717250736071908,-0.7703269902236506,9.619886381401557,-0.8667702818835228,0.0872825994994097,-1.0490872434288327
0.34,-1.0722507170169742,1.45835751296256,2.1784710788173083,0.1231044756058607,0.1005319428997489,0.0442919545434309,0.0220377573329514,-0.286219103003182,-0.2778379644925784,-1.0751004421037047,1.4654764466392225,2.176067342881042,-0.0163394388340618,-0.3520146152590969,-0.4608403134928049,1.3021347336963724,0.0609691767447439,-0.9602311810114228,-0.8773788823529999,9.619886381401557,-0.8660427834096966,0.0881781614926059,-1.0528276487373265
0.36,-1.0718044782729377,1.4524309564940543,2.172719866026765,0.1190072269439568,0.0984485912603208,0.0433122871286935,0.0224533115529132,-0.3053976642812426,-0.2964418067164265,-1.075400539335585,1.4590361543429813,2.1674505366201267,-0.0181188751541282,-0.3920146158551433,-0.5008403140888513,1.3361257832777973,0.0207777109980928,-0.958928063903028,-0.9301921111924016,9.49868338124088,-0.8652260201136026,0.0881885927005002,-1.0571796692249615
0.38,-1.0713592635674232,1.446125261747646,2.166586030676143,0.1150777040789106,0.0965613864200989,0.0423677080290967,0.021996981703569,-0.3240877848074068,-0.3160046451243687,-1.075745122475467,1.4515958620318388,2.15783373034431,-0.0198983114741947,-0.4320146164511897,-0.5408403146848978,1.3529906584943665,-0.0228164924672091,-0.9345060263082128,-0.9781419203971105,9.49868338124088,-0.8641774871135646,0.0879183443907259,-1.0617736870278245
0.4,-1.0709527236017091,1.4397948525051714,2.1603879727158706,0.1114094393188502,0.0951848937845268,0.0415222036367067,0.0207892606693479,-0.3412173264367701,-0.3354400252438291,-1.0702594144822448,1.4299208725072756,2.150785798419925,0.0356891567417279,-0.424087786297523,-0.4160046466144848,1.2967399381877858,-0.060386051711056,-0.8564770814681627,-0.9717690059730194,9.453914245102167,-0.8625965813219265,0.087699036430576,-1.0669423943238197
0.42,-1.0705705414734403,1.4327734053693637,2.153723671350727,0.1081495225582205,0.0956736897684247,0.0408842818748997,0.0178723352202982,-0.3603184594890018,-0.3286017862219844,-1.0702594144822448,1.4299208725072756,2.150785798419925,0.0356891567417279,-0.424087786297523,-0.4160046466144848,1.0248454162387763,-0.145846272452485,-0.9550566526115856,0.3419119510922358,9.40947171544576,-0.8665831745755368,0.0851763442853851,-1.0693654676808586
0.44,-1.0702326412235317,1.42537688791754,2.14720123297016,0.1058616583325091,0.0989756657047767,0.0406055524101142,0.0163807560192976,-0.3784795602470751,-0.3244412524970642,-1.0702594144822448,1.4299208725072756,2.150785798419925,0.0356891567417279,-0.424087786297523,-0.4160046466144848,0.934559294713215,-0.0745789600500328,-0.9080550379036628,0.2080266862460073,11.153321787312052,-0.865327368166114,0.0882812607197961,-1.0686805350198418
0.46,-1.0699200126475834,1.4180162552810442,2.141020299164571,0.104262183363304,0.1036938777948257,0.0405324407596017,0.0168570659354936,-0.395438216689213,-0.3263713002210248,-1.0699025229148276,1.4256799946443004,2.14662575195378,0.0384275917493597,-0.4440877865955462,-0.436004646912508,0.8537388120430911,0.0238154958098039,-0.8479328221068977,-0.0965023861980302,10.750857244562212,-0.8609371710829131,0.0901164869833454,-1.0714655424645687
0.48,-1.0695598349299364,1.4099277020000502,2.134428919757507,0.1029131813085334,0.1093588103649823,0.0405343993519018,0.0193356104207275,-0.4124884789691805,-0.332874620725727,-1.0691887397799928,1.41719823891835,2.13830565902149,0.0439044617646233,-0.4840877871915926,-0.4760046475085545,0.9207983006172508,0.123927224261692,-0.8525131139983766,-0.3251660252351102,10.143250798484589,-0.8542439504558067,0.0906227006248264,-1.0772563285656065
0.5,-1.0691306260505269,1.4015057284503454,2.1276664415492648,0.1019166887449414,0.1150134344535444,0.0405433238409857,0.0235994753864274,-0.4288297501911292,-0.3432131247489796,-1.0684749566451583,1.4087164831923995,2.1299855660892004,0.0493813317798868,-0.5240877877876391,-0.516004648104601,0.9900787279729572,0.213193248284994,-0.8170635610974336,-0.5169252011626269,10.143250798484589,-0.8464645567547917,0.0900803033941673,-1.0846837841672667
0.52,-1.0686003041350345,1.3927637443969438,2.120664058100296,0.1013204776141949,0.1201472552833639,0.0405123904587002,0.0293035914645105,-0.4445447795657543,-0.356648028116614,-1.0674873300095606,1.398234727436647,2.1196654731271085,0.0548582017951504,-0.5640877883836856,-0.5560046487006475,1.0723755370382746,0.2852058039041573,-0.785751468731255,-0.671745168381721,9.941764869831786,-0.8386713733402593,0.0886365060508389,-1.0926517658856765
0.54,-1.067978171490767,1.3841719423208183,2.113747037269037,0.1012121734178254,0.1242322525633066,0.0404228765935961,0.0359051722898014,-0.4591107771130628,-0.3708030364149881,-1.066499703373963,1.3877529716808938,2.1093453801650166,0.060335071810414,-0.604087788979732,-0.596004649296694,1.0678405942228542,0.3300790412645468,-0.7282998773654265,-0.7077504149187064,9.785964668322777,-0.8306742333088113,0.0860264395289752,-1.1015174354673365
0.56,-1.0671784406379774,1.3748216167394525,2.1061636556789205,0.1013599618029246,0.127545479897709,0.0402357772272714,0.0437215112315405,-0.4751206035282653,-0.3868461087157964,-1.0653751549879835,1.37627121591024,2.0980252871880234,0.0658119418256775,-0.6440877895757784,-0.6360046498927403,1.1987387800789058,0.3908169470869547,-0.8004913207601244,-0.8021536150404157,9.730219854601271,-0.8242684709516434,0.0833960803956174,-1.1087797154458765
0.58,-1.0662151672543383,1.3651424039244036,2.098248089890214,0.1012673413342358,0.1297611289469362,0.0399090013323558,0.0521376422169735,-0.4918654758665028,-0.4039073128518143,-1.0641136848516226,1.363789460124685,2.085705194196129,0.0712888118409411,-0.6840877901718249,-0.6760046504887868,1.2671885188861116,0.4208065492716462,-0.8372436169118758,-0.8530602068008958,9.682303479297843,-0.8192537452971217,0.0811554411415279,-1.114767353937422
0.6,-1.0651420023995637,1.3556318269203826,2.090403398295664,0.1005717248033987,0.1308797796846474,0.0394455375027324,0.0603191667182904,-0.5082559512007507,-0.4209903850814006,-1.0636082851434898,1.3405491301310783,2.078052724247623,0.0671804836514522,-0.591865477356619,-0.5039073143419305,1.2524140505933925,0.4090762250658484,-0.8195237667123934,-0.8541536114793136,9.605876813432587,-0.8149480533960055,0.0792965191631968,-1.1204510321373733
0.62,-1.063798187855744,1.3452303547737086,2.0820749253691395,0.0981169931512754,0.1308694960891668,0.0387087837552949,0.0737304528006776,-0.5306523087535198,-0.4093921912406416,-1.0636082851434898,1.3405491301310783,2.078052724247623,0.0671804836514522,-0.591865477356619,-0.5039073143419305,1.428266017224144,0.6705643041193587,-1.1198178776384515,0.5799096920379526,9.605876813432587,-0.8193574914211834,0.0772520295537515,-1.1213422171685703
0.64,-1.0621887353751265,1.3344206073368254,2.0739893938422376,0.0942957782045295,0.129465037070957,0.0377383185270263,0.086381577954323,-0.5489295657149278,-0.4001840663110109,-1.0636082851434898,1.3405491301310783,2.078052724247623,0.0671804836514522,-0.591865477356619,-0.5039073143419305,1.203015642465033,0.6325562576822693,-0.9138628480704014,0.4604062464815317,11.542582991182826,-0.8205602044037826,0.0819794623859536,-1.1186402171662482
0.66,-1.060339818968303,1.3232726469036695,2.066013315888954,0.0904029585678548,0.1266339534766186,0.0366360856262627,0.0977454682804372,-0.5648698866007715,-0.3978309166094188,-1.0629364803069752,1.3346304753575122,2.073013651104204,0.070189051938348,-0.6118654776546422,-0.5239073146399537,0.9858614846997044,0.5681945163057124,-0.797016044292187,0.1176574850796058,11.114920196044295,-0.8223428981435172,0.0862574125123041,-1.1163261108881553
0.68,-1.0583870829137143,1.3124035731331023,2.058428144405505,0.0869541461723801,0.1225815497011711,0.0354968853466725,0.1071013515231073,-0.5784551132347515,-0.400697752304308,-1.061592870633946,1.3227931658103798,2.062935504817365,0.0762061885121395,-0.6518654782506886,-0.5639073152360001,0.837122572937447,0.4677941621335036,-0.6792613316989993,-0.1433417847444579,10.711090381603752,-0.8256249214295086,0.0897076058362871,-1.113531989203119
0.7000000000000001,-1.0561611635341557,1.300697239408919,2.050342194047075,0.0837824260660015,0.1170638798994021,0.0342398622694702,0.1146600008689431,-0.5914933337245252,-0.4079279518453262,-1.060249260960917,1.3109558562632473,2.0528573585305265,0.082223325085931,-0.6918654788467351,-0.6039073158320466,0.8357693444907479,0.3779324672917902,-0.6519110244886828,-0.3615099770509111,10.390659444624362,-0.8298174133148933,0.092271325865452,-1.110570957782958
0.72,-1.053815819980878,1.288738703887745,2.0420719805367504,0.0811468803598884,0.110969307022352,0.0329920047825622,0.1192684045962052,-0.6037508541978678,-0.4188750456584847,-1.0586047944591983,1.2971185466863129,2.0407792122138857,0.0882404616597225,-0.7318654794427816,-0.6439073164280931,0.8534094211191214,0.2304201863631047,-0.6128760236671305,-0.5473546906579252,10.132403662109937,-0.8345049589987147,0.0937373148812888,-1.1079084452925203
0.74,-1.0514053720429446,1.2765414203581702,2.033559472441097,0.0790492445065035,0.1050063461455754,0.0318100441061534,0.1214336295322428,-0.615474280323303,-0.4318130059993292,-1.05696032795748,1.283281237109378,2.028701065897245,0.094257598233514,-0.771865480038828,-0.6839073170241395,0.8796558090006573,0.1082612468018787,-0.58617130627176,-0.6468980170422245,9.82603834227939,-0.8389026053861903,0.094065964967758,-1.1060942215861198
0.76,-1.0490942914800154,1.2647315751175192,2.0252191885399955,0.077247155913281,0.0999138031613331,0.0307591497908421,0.121634330672368,-0.6269904766375441,-0.4454497541876538,-1.0551654330414164,1.268443927517542,2.0156229195657027,0.1002747348073055,-0.8118654806348744,-0.7239073176201859,0.89250204432198,0.0100350570062586,-0.5758098157120584,-0.6818374094162333,9.82603834227939,-0.8431239660057376,0.093972148352141,-1.104758665501676
0.78,-1.0466768198981635,1.2520663433689787,2.016145734145177,0.0753141988550905,0.0956033057472091,0.0297443892394759,0.1199610930325465,-0.6388348364371678,-0.4612376977282825,-1.0532201097110083,1.252606617910805,2.0015447732192597,0.106291871381097,-0.8518654812309209,-0.7639073182162324,0.9903884900688394,-0.0836618819910754,-0.5922179899811808,-0.789397177031434,9.751917790465995,-0.8465337613807682,0.0938133228345075,-1.1041405381828189
0.8,-1.044312794847726,1.2391669543273065,2.0067405231656354,0.0732638255573973,0.092939578140393,0.0288571017052001,0.1164790504144061,-0.6503734625468861,-0.4784798700705019,-1.040678765246536,1.2201246015471203,1.9930838492587628,0.1601865988614039,-0.7388348379272839,-0.5612376992183987,1.0518519624609892,-0.1741021309070153,-0.5769313054859171,-0.8621086171109682,9.671241506109254,-0.8480879750136143,0.0936542830970211,-1.1050184819101323
0.8200000000000001,-1.0420535008200529,1.2260052854194012,1.997297927639172,0.0707266406876582,0.0941379882900116,0.0282242584220794,0.1102664287976119,-0.6649909697372937,-0.4632248062221902,-1.040678765246536,1.2201246015471203,1.9930838492587628,0.1601865988614039,-0.7388348379272839,-0.5612376992183987,1.1011189273088766,-0.3106310808397107,-0.7308753595203776,0.7627531924155828,9.601499603500995,-0.8485474686859505,0.0894406941937927,-1.1119370652514733
0.84,-1.0399981735934702,1.213255624043638,1.988609245994673,0.0682057396191649,0.0997377515497313,0.0279273040787041,0.1069863195390507,-0.6763667002014447,-0.4523109732884657,-1.040678765246536,1.2201246015471203,1.9930838492587628,0.1601865988614039,-0.7388348379272839,-0.5612376992183987,0.8051057533739954,-0.1640054629280608,-0.568786523207554,0.5456916466862249,11.24009493860558,-0.8456376241436951,0.0939935327191831,-1.110773690551977
0.86,-1.0378596527499355,1.1996164168609218,1.9796200398109625,0.0659525293391874,0.1083669104918768,0.0278169707507097,0.1074971064517725,-0.6869619968253201,-0.4474938450403198,-1.039076899257922,1.2127362531678474,1.9874714722665787,0.1682317000271753,-0.7588348382253071,-0.5812376995164219,0.5825073784451112,0.0255393456360893,-0.5297648311937686,0.2408564124072976,11.24009493860558,-0.8385455819323018,0.0975797526061988,-1.113630284312838
0.88,-1.0356759530241295,1.185775605247526,1.9706648977027008,0.0641601084881453,0.1182788626980373,0.0278096837790391,0.1112141460053952,-0.6966191913795229,-0.4485089657085088,-1.035873167280694,1.1979595564093015,1.9762467182822108,0.1843219023587183,-0.7988348388213535,-0.6212377001124684,0.5198756093333868,0.1858519776811361,-0.4828597277101387,-0.050756033409452,10.795778566895024,-0.8287508761613859,0.1001681189199325,-1.1192967230857007
0.9,-1.033505182652598,1.1724572125124098,1.9620898752524385,0.062940479551606,0.1280165337317925,0.0278469999178609,0.1173757929151137,-0.704893286747186,-0.4540847380669084,-1.032669435303466,1.183182859650756,1.9650219642978428,0.2004121046902613,-0.8388348394174,-0.6612377007085148,0.5863356210096742,0.3080823454859244,-0.4137047683831552,-0.2787886179199783,10.46225828164006,-0.8177287402431878,0.1014663049054008,-1.1268365842837529
0.92,-1.031063890098983,1.1582779075237104,1.9529126427481347,0.0623843442332187,0.1378689658514049,0.0279068914485723,0.1266580393551342,-0.7126456332962061,-0.4635363567211461,-1.0286611932096608,1.166406162862408,1.9517972102836725,0.2165023070218042,-0.8788348400134465,-0.7012377013045613,0.7674504400521759,0.4641123220010236,-0.3876173274510064,-0.4725809327118857,10.21299151432504,-0.8054005865202423,0.1015380808305621,-1.135963556349284
0.94,-1.0284079646519804,1.1439495791415473,1.9435264808442867,0.062838471412672,0.1466637992435743,0.0279738100111841,0.1386210560810339,-0.7198842472919493,-0.4746898725096625,-1.0246529511158555,1.14962946607406,1.938572456269502,0.2325925093533472,-0.9188348406094928,-0.7412377019006078,0.8943045010065231,0.5981508362949874,-0.3619306997871607,-0.5576757894258183,10.02047763866085,-0.7935228996834407,0.0998650340923779,-1.1455379216933907
0.96,-1.0254860155167334,1.1294675819106823,1.9339042044655048,0.0641334307132976,0.1538549673679839,0.0280075914525858,0.1529605780646196,-0.7279705466117782,-0.4870116465330644,-1.0202424539637618,1.131852769270811,1.9243477022404307,0.2486827116848902,-0.9588348412055392,-0.7812377024966541,1.028149116727948,0.7169760991792825,-0.4043149659914424,-0.6160887011700977,9.958670267650632,-0.7832277939915747,0.0970994919394643,-1.1543056267231335
0.98,-1.0224287105943537,1.115551356616734,1.9245251577126183,0.0657351310278575,0.1589239440172833,0.0279615892906682,0.1680608528979689,-0.7364722543840615,-0.499660244924564,-1.015429701753379,1.1130760724526605,1.909122948196458,0.2647729140164332,-0.9988348418015855,-0.8212377030927006,1.0727119561623115,0.7550137416674637,-0.4250853886141659,-0.6324299195749783,9.890757557895084,-0.7738269276930189,0.0935560452359243,-1.1627341922242482
1.0,-1.0188930639367637,1.1007205373355635,1.9143817279180853,0.0674902690673094,0.162369778201569,0.0278000811849259,0.1846357146661199,-0.7461705810482924,-0.5140739623426023,-1.0140256679494553,1.0787277438975311,1.8995421454663903,0.2058283898361593,-0.8364722558741776,-0.5831352609820553,1.200561152676641,0.828743088407552,-0.4849163332115436,-0.7206858709019132,9.890757557895084,-0.7662117325860887,0.0897783678326439,-1.1700739168052126
1.02,-1.014922333112928,1.0856184376357605,1.904270760569535,0.0674836462808018,0.1625980716694057,0.0272996891582884,0.2118775099557486,-0.763270151169633,-0.4945201024817459,-1.0140256679494553,1.0787277438975311,1.8995421454663903,0.2058283898361593,-0.8364722558741776,-0.5831352609820553,1.8820627941136112,1.3620897644814347,-0.8549785060670334,0.9776929930428196,12.208487977358343,-0.7665048600796776,0.0837219513491063,-1.1762434405020437
1.04,-1.0104024884108764,1.0701902227102171,1.8945703948354904,0.0647232750521245,0.1580261194824114,0.0262920354517318,0.2380452735455617,-0.7784131378911431,-0.4769109733675606,-1.0140256679494553,1.0787277438975311,1.8995421454663903,0.2058283898361593,-0.8364722558741776,-0.5831352609820553,1.7493879831959993,1.3083881794906562,-0.7571493360755022,0.8804564557092637,11.7481738037186,-0.7709799713382431,0.0889405133048132,-1.1699175133399948
1.06,-1.005671229666713,1.0552856876054382,1.8856125721831645,0.0607034096524882,0.1501719856644305,0.0250424765595184,0.2581027253586709,-0.789395131814566,-0.4667830449501079,-1.0119673840510937,1.0703630213387894,1.8937107928565695,0.2133818972237974,-0.8564722561722008,-0.5998302641935536,1.2504804054825678,1.002872590655457,-0.5490996961711458,0.5063964208726346,11.7481738037186,-0.7791694359541942,0.0952312214211056,-1.161794692017586
1.08,-1.0003365593150977,1.039404826003685,1.8763361033961548,0.0564618635017466,0.1397502905943703,0.0236512671813937,0.2737685219851722,-0.7980815337982756,-0.4616124622818562,-1.0078508162543705,1.0536335762213058,1.8820480876369288,0.2284889119990736,-0.8964722567682473,-0.6332202706165501,0.9322093226506591,0.783289831325068,-0.4343200991854812,0.2585291334125827,11.277479536385728,-0.7897897613894741,0.1005764463776623,-1.1530076390710706
1.1,-0.9947453097585078,1.0233692566402115,1.8671019209989004,0.0528264477055831,0.1284743187261136,0.0223149829678084,0.284204217885356,-0.8051676135061707,-0.4620038615759652,-1.0037342484576472,1.0369041311038223,1.870385382417288,0.2435959267743498,-0.9364722573642936,-0.6666102770395466,0.6310100394510064,0.5217847950091892,-0.3543039853947549,-0.0195699647054459,10.889230392856916,-0.8006483124672347,0.1045062538641286,-1.1446534468740572
1.12,-0.9889949333252424,1.007202891239528,1.8578133093789488,0.0499531030355028,0.1174356460961803,0.0210981588749388,0.2900733135496124,-0.8112846092549933,-0.4668112736949658,-0.9988623299221604,1.0181746859565364,1.8570531768764968,0.258702941549626,-0.97647225796034,-0.7000002834625431,0.4872759284769293,0.2934547832128209,-0.3058497874411314,-0.2403706059500299,10.289911992275847,-0.8121200878660906,0.107336956575356,-1.136280767595497
1.14,-0.9834590827581156,0.9917372232182342,1.8488779091091951,0.0479534724581321,0.1079122390819766,0.0200803344522241,0.2922531534723667,-0.8165542404943846,-0.4735034479165699,-0.9939904113866732,0.9994452408092506,1.8437209713357057,0.2738099563249022,-1.0164722585563866,-0.7333902898855397,0.4396189011527628,0.1089919961377111,-0.263481561969564,-0.3346087110802087,10.289911992275847,-0.822446368990578,0.1087382305610295,-1.1293733518935392
1.16,-0.9776135932761068,0.9753444246871,1.839317412509769,0.0463312643625681,0.0993396051444925,0.0191426589767087,0.2920584800140026,-0.8224353203590017,-0.4822617763327553,-0.9887408174818044,0.9797157956470636,1.82955401563434,0.2889169711001784,-1.056472259152433,-0.7667802963085362,0.5275730157408435,-0.0097336729182023,-0.2940539932308528,-0.4379164208092673,10.161270839449571,-0.8313256536883851,0.1093682040314188,-1.1237146905638582
1.18,-0.9717961235411846,0.9588339169896444,1.8295626688882067,0.0449209550455159,0.0925121780428268,0.0183257959078889,0.2896575036040686,-0.8282752760160447,-0.4927580764732513,-0.9831135482075536,0.9589863504699752,1.8145523097723992,0.3040239858754545,-1.0964722597484793,-0.8001703027315327,0.6124583382497637,-0.1200488204967015,-0.2919977828521491,-0.5248150070248009,9.966264098212378,-0.8377875841057322,0.1095755647668022,-1.1200282119462908
1.2,-0.9660479914469112,0.9422085074551044,1.819581944438984,0.0436137675183376,0.0877506187690373,0.0176301233821737,0.2852256416419651,-0.8339205372160232,-0.5047832168772388,-0.9573132483609812,0.917420153188842,1.804924765064544,0.3395960109821699,-0.9282752775061608,-0.5496166421315822,0.7002042134312241,-0.2215930981051744,-0.2822630599989273,-0.601257020199375,9.966264098212378,-0.8421548769481777,0.1094978279398265,-1.118253041906421
1.22,-0.9606950105589176,0.9262692269535728,1.810196876338756,0.0415607312224741,0.0868609287442972,0.0170867152913382,0.2789828525077643,-0.8429629428556866,-0.4824503909861577,-0.9573132483609812,0.917420153188842,1.804924765064544,0.3395960109821699,-0.9282752775061608,-0.5496166421315822,1.2444804419994455,-0.3121394567100394,-0.4521202819831704,1.116641294554055,9.886103252680186,-0.8434539008298574,0.1067676135797897,-1.1229797232311582
1.24,-0.9551691570638228,0.909342565287766,1.8007573819486231,0.0388642660800117,0.0904004232358534,0.0166739154368788,0.2744182072238664,-0.8491494672779233,-0.4630748997339634,-0.9573132483609812,0.917420153188842,1.804924765064544,0.3395960109821699,-0.9282752775061608,-0.5496166421315822,1.0422556455335248,-0.2282322641948969,-0.309326221111833,0.9687745626097172,11.717475243255649,-0.8447738055243056,0.1120792239817985,-1.1170463421687056
1.26,-0.949704879797038,0.8923135904508805,1.7916329601603116,0.0365773362959465,0.0969720462695452,0.0164097860000992,0.2727335526396695,-0.8535688609895643,-0.4503039034954061,-0.9539172882511596,0.9081374004137804,1.7994285986432283,0.3495837124577902,-0.948275277804184,-0.5609883552632484,0.6809321676418842,-0.0842327292098432,-0.2209696855820508,0.6385498119278604,11.717475243255649,-0.8416300357704604,0.1161568267431299,-1.1157963055385272
1.28,-0.9445144688874868,0.8760652531967899,1.783154174625854,0.0350653522985914,0.1047335365091929,0.016260372248684,0.2740451347760563,-0.856714257355525,-0.4428409503437893,-0.947125368031516,0.8895718948636573,1.7884362658005966,0.3695591154090307,-0.9882752784002306,-0.5837317815265808,0.4102116397139281,0.0655791068193384,-0.1572698182980336,0.373147657580844,11.295948437847985,-0.8351213898411747,0.1190550142069791,-1.1181284234696838
1.3,-0.938993068879712,0.8589065940164315,1.774345056912866,0.0344288618242152,0.1134570607434181,0.016192734064661,0.2783179286588468,-0.8590690768814131,-0.4386441094687641,-0.9403334478118728,0.871006389313534,1.777443932957965,0.3895345183602713,-1.028275278996277,-0.6064752077899132,0.3217740507506692,0.2136396941395252,-0.1177409762944059,0.2098420437512571,10.988700437389523,-0.8266909852570716,0.1204636218606247,-1.1228023481435918
1.32,-0.9344958156415905,0.8451508894818608,1.7673371819769714,0.0348678542653442,0.1202945580071342,0.016208084203901,0.2837397911329848,-0.8603317427702023,-0.4376728783634268,-0.9325427574446672,0.8504408837336085,1.7653144288021667,0.4095099213115118,-1.0682752795923234,-0.6292186340532455,0.2825517992119015,0.2710931237069031,-0.0631332944394602,0.0485615552668655,10.765586837605042,-0.8194496084177968,0.1204172971912148,-1.1272999069604372
1.34,-0.92873144409327,0.8279353848111454,1.758584527561586,0.0370813938983835,0.1281512433094052,0.0163386572628718,0.2925328300724635,-0.8613606561599041,-0.4377079817300764,-0.9247520670774618,0.8298753781536828,1.7531849246463684,0.4294853242627524,-1.10827528018837,-0.6519620603165779,0.4426551389090787,0.4396519469739346,-0.0514456694850895,-0.0017551683324817,10.599411560003318,-0.8101058839306052,0.1181818820157515,-1.133930284434211
1.36,-0.923067509397828,0.8115380607606549,1.7502633096582152,0.0404559597209673,0.1345032546920536,0.0165376679011858,0.3032473292811364,-0.8649365092482761,-0.4382408123034503,-0.9164619916364756,0.8083098725588562,1.7404868348339868,0.4494607272139929,-1.1482752807844163,-0.6747054865799103,0.565400581495529,0.5357249604336423,-0.1787926544186024,-0.0266415286686944,10.545795612141774,-0.8021048810621476,0.114535878263348,-1.1398907733875607
1.38,-0.9168680197907972,0.7941781572828865,1.741488252683184,0.0440294674418967,0.1396598117089506,0.0167137127478503,0.3161509777653462,-0.8708895209290757,-0.4392675145379535,-0.907672531121708,0.7857443669491284,1.727220159365022,0.4694361301652334,-1.188275281380463,-0.6974489128432426,0.7123843936985823,0.6451824242104887,-0.2976505840399768,-0.0513351117251592,10.545795612141774,-0.7952116796071628,0.1106079707436577,-1.1450923943432765
1.4,-0.910397784446996,0.776684526656187,1.732687353781862,0.0470706020800609,0.143083717911818,0.0167958535218286,0.3301698778847753,-0.8781017724294474,-0.4407931995654413,-0.9010604709025298,0.7506336812364327,1.7195248769562863,0.3764050523984676,-0.9612038421489968,-0.4519844458288781,0.7919498833042482,0.7009450059714567,-0.3606125750185873,-0.0762842513743866,10.522380096697816,-0.7901258349988367,0.1072262171396202,-1.1489616767214113
1.42,-0.9035719783711048,0.7589227080208364,1.724115230342927,0.0460525868830307,0.143830824447163,0.0164807223125016,0.3518305315542339,-0.8967566327857525,-0.4148605092550153,-0.9010604709025298,0.7506336812364327,1.7195248769562863,0.3764050523984676,-0.9612038421489968,-0.4519844458288781,1.9298265200776012,1.0830326834729287,-0.9327430178152518,1.296634515521297,12.523883916392151,-0.7917165550185463,0.1051485448216163,-1.150644919245781
1.44,-0.896682852828556,0.7417605374578129,1.7164768069467853,0.0403112670812741,0.1411020703129724,0.0157128075891912,0.3719673618171457,-0.9077148359529222,-0.3905417900514858,-0.9010604709025298,0.7506336812364327,1.7195248769562863,0.3764050523984676,-0.9612038421489968,-0.4519844458288781,1.6710582376075402,1.0068415131455926,-0.5479101583584889,1.2159359601764756,12.523883916392151,-0.7991326286311515,0.1149431713754506,-1.139779512311478
1.46,-0.8890483229489915,0.7235477366477177,1.7088919927083943,0.0332578705086421,0.1350455452262817,0.014761528788626,0.3898234777955616,-0.9127981042477408,-0.3693939864186295,-0.8972964203785452,0.7410216428149428,1.7150050324979975,0.3884558673250919,-0.979266706392981,-0.454527832087063,1.4070448579252857,0.8928057989207927,-0.2541634147409266,1.0573901816428144,11.848387134389668,-0.8071222546344818,0.1255168836797451,-1.1291175797314306
1.48,-0.8811075739913172,0.7052742038569753,1.70167459597113,0.0269047947151729,0.1270332015784635,0.013870845805768,0.402948488744787,-0.914460703287516,-0.3533404522723543,-0.8897683193305758,0.7217975659719628,1.70596534358142,0.4125574971783405,-1.0153924348809495,-0.4596146046034328,1.040127524116603,0.6562505474612734,-0.083129951988764,0.8026767073137597,11.508796769414404,-0.8164005541687344,0.134446480809493,-1.1181368715703013
1.5,-0.8729519242097205,0.6869897138815397,1.6947344993597724,0.0218205233268135,0.1183508660238499,0.0131274703075456,0.4116776638981357,-0.9141944865263092,-0.3414358564872043,-0.8822402182826065,0.7025734891289829,1.6969256546648424,0.4366591270315891,-1.051518163368918,-0.4647013771198026,0.7382221397208285,0.436458757667435,0.013310838060343,0.5952297892575009,11.508796769414404,-0.8266264803945231,0.14188239996695,-1.1069845500718192
1.52,-0.8650797116819257,0.6696357998750362,1.6883293637019483,0.018283743562244,0.1104053434658107,0.0125776624636325,0.4164041703344984,-0.9128635989092952,-0.3333603305750914,-0.8735070357419746,0.6815431258616045,1.6876316271224463,0.4607607568848377,-1.0876438918568865,-0.4697881496361724,0.472560164686217,0.2363253218181316,0.0665443808507026,0.4037762956056456,11.233173685822294,-0.8363946540864035,0.1474621726354276,-1.0966339958888016
1.54,-0.8567262045290138,0.651400754436664,1.6817382344126897,0.0158577398529011,0.1030481037389746,0.0121541726151943,0.4185556598600089,-0.9109591913663846,-0.3262231076433949,-0.8647738532013429,0.6605127625942261,1.6783375995800502,0.4848623867380863,-1.1237696203448548,-0.4748749221525423,0.384693470326082,0.1075744762755265,0.0952203771455273,0.356861146584822,11.01542983926629,-0.8450195182548554,0.151050447774111,-1.0879407169005888
1.56,-0.8483550157262334,0.6332003826096283,1.6752769424068823,0.0144611773870675,0.0972191071144105,0.0118595300546083,0.4183583004200383,-0.909294782884333,-0.3202447245509262,-0.85543812991438,0.6385792561146486,1.668916402724745,0.508964016591335,-1.1598953488328232,-0.4799616946689121,0.3104443216745459,-0.0098679719985311,0.0832204241025813,0.2989191546234393,10.92817541538716,-0.8514688924769891,0.1531616516689935,-1.081517222627072
1.58,-0.8404265930152786,0.6159420201551244,1.669241282520358,0.0138961385797345,0.0935689130831502,0.0116813741999018,0.4161701114847485,-0.907533578324302,-0.3153787263378542,-0.8454998658810857,0.6157426064228718,1.6593680365565304,0.5330656464445835,-1.1960210773207915,-0.4850484671852819,0.2809268184439578,-0.1094094467644912,0.0880602280015463,0.2432999106535965,10.862239421050615,-0.8560326490633697,0.1543014691381472,-1.0769508036758306
1.6,-0.8321397017755092,0.5978131277599255,1.6629815135859465,0.0141522077463138,0.0922030046841719,0.0116038129615882,0.412831383663476,-0.9055077884852992,-0.3108743763394599,-0.8196180874410411,0.5705653412389093,1.6534723462034653,0.4883613051845852,-0.9497081858396372,-0.3240143571689766,0.2980775773367584,-0.166936391063624,0.101289491950135,0.2252174999197165,10.814733950568552,-0.8588788082331584,0.1544937168346205,-1.073750650630593
1.62,-0.8239161413878063,0.5795348242671731,1.6569312546712192,0.0093317414260484,0.0937067803383472,0.0112273313244504,0.4100319981983996,-0.919669568915718,-0.2936339196824622,-0.8196180874410411,0.5705653412389093,1.6534723462034653,0.4883613051845852,-0.9497081858396372,-0.3240143571689766,1.1243063747076325,-0.1399692732538204,-0.7080890215209357,0.8620228328498847,11.67958975491183,-0.8587385070714885,0.1576677889160231,-1.0750813137979454
1.64,-0.8157317991964768,0.5611160984536779,1.6512299228537768,-0.0009338296804894,0.0978946154265576,0.0104990585988699,0.4088766636088882,-0.9206380244354988,-0.2775644127674289,-0.8196180874410411,0.5705653412389093,1.6534723462034653,0.4883613051845852,-0.9497081858396372,-0.3240143571689766,0.8070033404512926,-0.0577667294755696,-0.0484227759890432,0.8034753457516641,11.67958975491183,-0.8591034710872986,0.1695461680132103,-1.069474992854569
1.66,-0.8079587775858437,0.5436795978037698,1.6460721336860935,-0.0110265006873965,0.1034882348955643,0.0097616383334346,0.4097008987003753,-0.914725254316336,-0.2661586544968692,-0.8147344743891953,0.561068259380513,1.6502322026317755,0.5027995439245525,-0.958143107342704,-0.3257414833352011,0.6436838037704296,0.0412117545743551,0.2956385059581512,0.5702879135279865,11.438132130767372,-0.8559697839704048,0.1825188805852531,-1.0663905435345822
1.68,-0.7997360487886461,0.5254901818041362,1.6408465462038646,-0.0203140386726256,0.1102474486825873,0.0090368790620698,0.4127987773075615,-0.9046639197131664,-0.2571422159795752,-0.8049672482855036,0.5420740956637202,1.643751915488396,0.5316760214044872,-0.9750129503488382,-0.3291957356676501,0.6930430531322406,0.1548939303593122,0.5030667301584801,0.4508219258647,11.179700421468624,-0.8506635213672006,0.1939468383240143,-1.0656136212616425
1.7,-0.7914270717667174,0.507530963781915,1.6357722441536453,-0.0275926971878388,0.117209911883097,0.0084205418765783,0.4181586295089867,-0.8922152908956194,-0.2507407597149781,-0.7952000221818118,0.5230799319469275,1.6372716283450164,0.5605524988844219,-0.9918827933549722,-0.332649988000099,0.749458166553897,0.2679926100712576,0.6224314408773468,0.3200728132298547,10.996003088582256,-0.8445964816308117,0.2028343728686188,-1.0662310277175902
1.72,-0.7829879910935348,0.4898351319517972,1.6308084671177256,-0.0328405622738329,0.1238172305884337,0.0079413756077163,0.4256244238231434,-0.8784806717228791,-0.2459637793659769,-0.7839889722041234,0.5032422760798281,1.6306186285850144,0.5894289763643566,-1.0087526363611063,-0.336104240332548,0.8173086776369164,0.3732897157078391,0.6867309586370107,0.2388490174500573,10.860267961486898,-0.837666621377009,0.2099647382919452,-1.068159026440464
1.74,-0.7748138994806837,0.4732854004096339,1.626176655135367,-0.0360781791890071,0.1293949313374807,0.0076311292531084,0.4344987771424771,-0.8647369502791148,-0.2418354976755035,-0.772777922226435,0.4834046202127285,1.6239656288250124,0.6183054538442914,-1.0256224793672404,-0.3395584926649969,0.8436331188319578,0.4437176659666836,0.6871860721882173,0.2064140845236706,10.77888758260724,-0.8309475654445125,0.2150982056267339,-1.070525575487405
1.76,-0.7660091527760226,0.4561439342788697,1.6213853058836276,-0.0379955007509934,0.1342048779259336,0.0074586300776891,0.4455612830920842,-0.8503480355149577,-0.2375177819621481,-0.7608449603117482,0.4631452182704758,1.6172262727566993,0.647181931324226,-1.0424923223733744,-0.3430127449974459,0.9328217607836796,0.5531252974803558,0.7194457382078523,0.2158857856677715,10.76912087141045,-0.825179539241065,0.2187894530540585,-1.0723330685496142
1.78,-0.7569684853434742,0.4392947174552833,1.616680084356329,-0.0384889382191912,0.1376416478378888,0.0074572638743599,0.4579332176040168,-0.8354333246471248,-0.2332194707062709,-0.748190086460063,0.4424640702530696,1.6104005603800748,0.6760584088041607,-1.0593621653795084,-0.3464669973298949,0.9924576105444032,0.618596725596629,0.7457355433916457,0.2149155627938603,10.7783860758409,-0.8209436430631997,0.2210479838793956,-1.073280859965226
1.8,-0.7476711105251997,0.4227506522436191,1.6120609155046042,-0.0372388029247884,0.1395425205486175,0.0076596956037248,0.4710494404900318,-0.8199962565694136,-0.2289021425733997,-0.7340718244632733,0.3975230512229271,1.6050191108210154,0.5210845697115417,-0.8186495302589498,-0.2401489153210687,1.0355888371337312,0.6558111443007497,0.771853403885564,0.2158664066435611,10.786306275251263,-0.8177222548116848,0.2217754409440429,-1.0737154644048803
1.82,-0.7385248025534058,0.4071088018766702,1.6078323026123655,-0.0410984294277097,0.1381517904740298,0.0076463730474759,0.4907552206000312,-0.8236609835467085,-0.2165128282403229,-0.7340718244632733,0.3975230512229271,1.6050191108210154,0.5210845697115417,-0.8186495302589498,-0.2401489153210687,1.178179849604403,0.9852890054999676,-0.1832363488647459,0.61946571665384,10.793160757068108,-0.822938723046188,0.2267248403269692,-1.0666735374170568
1.84,-0.7285168217595079,0.3907272203716218,1.6036224649938116,-0.0509987586039665,0.1318169128896256,0.0075020290126898,0.508196987159076,-0.8133729756367294,-0.2052254067332572,-0.7340718244632733,0.3975230512229271,1.6050191108210154,0.5210845697115417,-0.8186495302589498,-0.2401489153210687,1.1591637198150389,0.8720883279522418,0.514400395498954,0.5643710753532829,11.336106326203662,-0.8279401671918462,0.238850469383909,-1.0580772773519111
1.86,-0.7182217808245459,0.3746432022168354,1.599600347661872,-0.0614058767329266,0.1225566783904033,0.0076048434539741,0.5199240682696828,-0.7955275642758622,-0.1975031336764866,-0.728860978766158,0.3893365559203376,1.6026176216678047,0.5337148401330467,-0.8152927713813148,-0.2415348042440283,1.1353596777856811,0.5863540555303415,0.8922705680433574,0.3861136528385281,10.945317741940926,-0.8354953046661441,0.2510288928140052,-1.047068436721633
1.88,-0.7082764327808502,0.3597362013564991,1.5958923593682504,-0.0699041239469364,0.1128000738994173,0.0079955103313475,0.5260895505403329,-0.7748762429393812,-0.1931493053571422,-0.7184392873719271,0.3729635653151586,1.5978146433613831,0.5589753809760566,-0.8085792536260448,-0.2443065820899474,1.0993703488891078,0.3082741135325029,1.0325660668240533,0.2176914159672194,10.761083245926784,-0.8443141869376182,0.2620745180407926,-1.035331750345056
1.9,-0.6977273914409121,0.3444873765546976,1.592055993537705,-0.0768936795628522,0.1029117920112043,0.0086425709595791,0.5282360462654676,-0.7513888239911523,-0.1907801204919576,-0.7080175959776963,0.3565905747099796,1.593011665054962,0.5842359218190666,-0.8018657358707748,-0.2470783599358665,1.1851996980182966,0.107324786256735,1.174370947411446,0.1184592432592321,10.761083245926784,-0.8527760793997239,0.2707346620541807,-1.0246695236805248
1.92,-0.6871741191692075,0.3297209654966109,1.588247375996956,-0.0818428163925417,0.094406517973134,0.0094232449192287,0.5268696513608218,-0.7267895587638262,-0.1902336416940085,-0.696332877541315,0.3405532599925641,1.5880700978562443,0.6094964626620766,-0.7951522181155048,-0.2498501377817857,1.2321622497021054,-0.0683197452322925,1.2299632613663014,0.0273239398974542,10.630762513378611,-0.8600549308114432,0.2772409261066096,-1.015466024352602
1.94,-0.6766802384024456,0.315453906254201,1.5844391418735797,-0.0848304594001424,0.0880480582565762,0.0102299672130837,0.522553033224303,-0.7016842277902294,-0.1905617801348527,-0.6846481591049336,0.3245159452751486,1.5831285306575271,0.6347570035050865,-0.7884387003602348,-0.2526219156277048,1.2737920849443216,-0.2158309068259367,1.2552665486798398,-0.01640692204221,10.500051168076425,-0.8644160594625749,0.2814813852980133,-1.0096923757171794
1.96,-0.6668122565332958,0.3023689662237153,1.5808130185268707,-0.0860076372232546,0.0846450256450292,0.0109253840561165,0.5163948377653149,-0.6773040750413005,-0.1910851474819832,-0.672331927147477,0.3086464685016148,1.578117669012662,0.6600175443480965,-0.7817251826049648,-0.2553936934736239,1.2575662335959186,-0.3079097729494051,1.2190076374464454,-0.026168367356523,10.500051168076425,-0.8665777783904635,0.2842361164389298,-1.0060910728030987
1.98,-0.6565569633807011,0.2890988666265696,1.576987220024196,-0.0853419180713211,0.0841804777454827,0.0115457251467025,0.5098250193705225,-0.6511950929605463,-0.1914238493829589,-0.6593841816689452,0.2929448296719629,1.5730375129216487,0.6852780851911063,-0.7750116648496947,-0.2581654713195431,1.34625051347383,-0.3284909197396213,1.3054491040377092,-0.0169350950487839,10.501792269121324,-0.8675337917175142,0.2850364558477289,-1.0035659461572817
2.0,-0.6464150820840325,0.2763572065795549,1.573161263076678,-0.0822837519036376,0.0861591095386945,0.0121440151102809,0.5050060259977905,-0.6248838687062858,-0.1910975683930516,-0.631065712412175,0.2565391119785423,1.567416027555048,0.5517043082227373,-0.62065702760155,-0.1691468834817033,1.337544091019806,-0.2409496686365975,1.315561212713029,0.0163140494953639,10.505565738264522,-0.865330525333268,0.2836155346226108,-1.0048538047373596
2.02,-0.6367951143692959,0.2646845164490291,1.569608426673297,-0.0788690794773624,0.0878865890198571,0.0127775157656205,0.5079186151999554,-0.6049257769044871,-0.1825172391950189,-0.631065712412175,0.2565391119785423,1.567416027555048,0.5517043082227373,-0.62065702760155,-0.1691468834817033,1.0959364185209388,0.145629460108243,0.997904590089932,0.4290164599016322,11.04549254806443,-0.8663960200809548,0.2805061648121617,-1.0041994896234303
2.04,-0.6266069124874227,0.2528109145121414,1.5660689938157055,-0.075901390499794,0.0876166415327843,0.013579515566835,0.5105674977834311,-0.5835137902232038,-0.171880872789858,-0.631065712412175,0.2565391119785423,1.567416027555048,0.5517043082227373,-0.62065702760155,-0.1691468834817033,1.2027281934058611,0.1324441291737865,1.070599334064165,0.531818320258047,11.090549986844962,-0.8664617415416769,0.2804807884943522,-1.0011432799653657
2.06,-0.6163774507738333,0.2413665401673385,1.5627440848571852,-0.0730377037657549,0.0858901764965446,0.0144927624990774,0.5121185414924502,-0.5621225099121372,-0.1611229055917188,-0.6255486693299477,0.2503325417025268,1.5657245587202309,0.5600801659931802,-0.6145494145297506,-0.1646914903014521,1.1997150371756544,0.077552185450952,1.0695640155533317,0.5378983599069589,11.090549986844962,-0.86858476201234,0.280752616964988,-0.9958370012563112
2.08,-0.6061312787112096,0.2303462325582199,1.5596332204960803,-0.0700539936393403,0.0832246128169835,0.0154857720155711,0.5122934276924865,-0.5411678633252791,-0.1504702258469095,-0.6145145831654929,0.2379194011504957,1.562341621050597,0.5768318815340662,-0.6023341883861522,-0.1557807039409499,1.175380134795288,0.008744310001818,1.0477323293429042,0.5326339872404634,11.088352928532911,-0.8715914573597232,0.2809330537027098,-0.989922398888275
2.1,-0.5964097140589519,0.2202585906152442,1.55687353740345,-0.0670858311011276,0.0803379235356822,0.0164622842788153,0.5109199359853324,-0.5219008041915398,-0.14052909037545,-0.6034804970010381,0.2255062605984648,1.5589586833809628,0.5935835970749521,-0.5901189622425536,-0.1468699175804476,1.0862000524702362,-0.0686745853577086,0.9633529566869636,0.497056773572975,11.073435513788354,-0.8750632103043104,0.2809191910431903,-0.9836287163524028
2.12,-0.5862222035190562,0.2100263415672089,1.554171676130432,-0.0638901216596012,0.0775323406192931,0.0174766415297361,0.5077724696793221,-0.5024702005418732,-0.1301698860708509,-0.591608825059539,0.2137038813536137,1.5560212850293538,0.6103353126158381,-0.577903736098955,-0.1379591312199454,1.1121690700634672,-0.157373315300513,0.9715301824833322,0.5179602152299595,11.054358559427785,-0.8782629510783112,0.2806952525469731,-0.977851585834542
2.14,-0.5761154235912384,0.2001747727443676,1.551677721555309,-0.0606742518290074,0.0756382994334648,0.0184319271305568,0.502988514283527,-0.4837846169551305,-0.1197222828618465,-0.5797371531180401,0.2019015021087626,1.5530838866777448,0.627087028156724,-0.5656885099553565,-0.1290483448594432,1.0968018007129925,-0.2391977697897562,0.9342791793371358,0.5223801604502198,11.042253086474377,-0.8808817665020953,0.2804285048971985,-0.972724144687636
2.16,-0.5661099283538183,0.1906910416560999,1.549394703669188,-0.0574057377335282,0.0750292768043866,0.0193131360893038,0.497951583991557,-0.4656883670967554,-0.109072025960798,-0.5674466882880189,0.1904045035175015,1.5503692579851485,0.6438387436976098,-0.5534732838117579,-0.1201375584989409,1.0796676546063075,-0.2518465145984999,0.9048124929187524,0.5325128450524227,11.045776745146211,-0.8836678919534167,0.2800675479762765,-0.9671100903864978
2.18,-0.5566935217946674,0.1820100560394011,1.5474257122360604,-0.0542468371707914,0.0753826408172392,0.0201032830609404,0.4936027173555899,-0.4491437921099158,-0.0987008395874049,-0.5547374305694756,0.1792128855798304,1.5478773989515646,0.6605904592384958,-0.5412580576681594,-0.1112267721384387,1.0002463562845925,-0.2174433317983531,0.8272287493419822,0.5185593186696535,11.04509841206618,-0.8854252626043612,0.2796910143238084,-0.9624632393681968
2.2,-0.5468641634363732,0.1732032467572669,1.5455693674812503,-0.0509217624409828,0.0764283000716256,0.0209034348983576,0.4896516373100691,-0.4325206697329357,-0.0874517193545416,-0.5320133859268878,0.1595528664339053,1.54249067025669,0.5019938545904565,-0.4213044760547371,-0.0924190171332206,1.0228415531004595,-0.1975540022760402,0.8311561188490052,0.5624560116431656,11.048474345105204,-0.8865456994934511,0.2793843842379633,-0.9583529672838134
2.22,-0.5370329376743224,0.1647059690693321,1.5438939572214163,-0.0481128975083431,0.075391900959381,0.0217745645483397,0.4937731868249337,-0.417886954031587,-0.0808963132283567,-0.5320133859268878,0.1595528664339053,1.54249067025669,0.5019938545904565,-0.4213044760547371,-0.0924190171332206,0.8278075789557037,0.2060774757432298,0.7316857850674319,0.3277703063092475,11.057313716350109,-0.8948215645553261,0.2805003927232212,-0.94512357170962
2.24,-0.5276227296289555,0.156906804043397,1.5424140008739375,-0.0459908371996577,0.0699545909919969,0.0227729558390507,0.4958504818809499,-0.4037978552973907,-0.0751743031431379,-0.5320133859268878,0.1595528664339053,1.54249067025669,0.5019938545904565,-0.4213044760547371,-0.0924190171332206,0.7673969919588984,0.1038647528008113,0.7044549367098141,0.2861005042609394,10.710859743698164,-0.8991611376346584,0.2822433974525367,-0.9366432540793618
2.26,-0.5177283857177858,0.1489853562056529,1.5409706170280957,-0.044000456896418,0.0614910297502821,0.0239198905430852,0.4929902336673576,-0.3891325174468548,-0.0694630720915878,-0.5269934473809833,0.1553398216733579,1.541566480085358,0.5036720820374299,-0.4157366128437014,-0.0911626526423838,0.7997989032217866,-0.1430124106796132,0.733266892526796,0.285561552577504,10.69334357414482,-0.9069577815316732,0.2840288864391005,-0.9248308660899534
2.28,-0.5079431706372669,0.1413539945489727,1.5396353058738956,-0.0421236785797463,0.0521379402975854,0.025081861986136,0.4853358120211165,-0.3747983268343886,-0.0643631211405492,-0.5169535702891741,0.1469137321522632,1.5397180997426934,0.5070285369313765,-0.4046008864216299,-0.0886499236607101,0.8515701541211401,-0.3827210823120597,0.7167095306233134,0.2549975475519279,10.663365451585378,-0.9161905546541272,0.285959740093285,-0.9111999431620575
2.3000000000000003,-0.4983568646715747,0.1340050444749424,1.5383939280016632,-0.040296922206014,0.0434114204390956,0.0261975980590752,0.4735754238251938,-0.3608828983187825,-0.060000082958501,-0.506913693197365,0.1384876426311684,1.537869719400029,0.5103849918253232,-0.3934651599995585,-0.0861371946790363,0.9367256581701908,-0.5880194097961339,0.6957714257803033,0.2181519091024132,10.620981330343056,-0.9255966488623396,0.2876683468334625,-0.8974628933977022
2.32,-0.4894999463574529,0.1272768497949061,1.537289990375513,-0.0386009741618577,0.0366597259841296,0.0271793587456529,0.4592877440160506,-0.3480989202496972,-0.0564033422390668,-0.4967059933608585,0.1306183394311773,1.5361469755064483,0.5137414467192698,-0.382329433577487,-0.0836244656973626,0.975326142121556,-0.7143839904571597,0.6391989034542633,0.1798370359717083,10.57990629766664,-0.9334780572355188,0.2889055983132854,-0.8859105931938582
2.34,-0.4804982052680637,0.1204514702082238,1.5361966233376565,-0.0368886506505664,0.0320527210929984,0.0281007997218697,0.4414938497317876,-0.3351561428206689,-0.0531394332991836,-0.4864982935243521,0.1227490362311861,1.5344242316128676,0.5170979016132164,-0.3711937071554155,-0.0811117367156889,1.1121951975088953,-0.8896947142131489,0.6471388714514137,0.1631954469941614,10.55186503004461,-0.9390675004011332,0.289870111803684,-0.8771800364474555
2.36,-0.4718740000773611,0.1138827182236918,1.5351644925867176,-0.0351990236946301,0.0308931983423831,0.0288878532918026,0.4221509242479298,-0.3224342504607013,-0.0502149913079913,-0.4762066823154969,0.1151581261917467,1.5327643059438287,0.5204543565071631,-0.3600579807333441,-0.0785990077340152,1.166777262861818,-0.96714627419289,0.6360946179983812,0.1462220995596116,10.510488090324545,-0.9424205997294158,0.2897010959312285,-0.8725799907427059
2.38,-0.4636248925341207,0.1075655044594243,1.534191933378828,-0.0334627980201793,0.0329091648064508,0.0295656943493861,0.4041373619462265,-0.3100064771817903,-0.0471490017684884,-0.4658311597342932,0.1078456093128591,1.5311671984993318,0.5238108114011097,-0.3489222543112726,-0.0760862787523415,1.1049188514611623,-0.9006781150851628,0.6213886639455518,0.1532994769751491,10.510488090324545,-0.9430717713623205,0.2891707447090629,-0.8715110893574437
2.4,-0.4561019662179522,0.1017912590260852,1.5333283848703416,-0.0317740375269069,0.0369116082007125,0.0301457297144196,0.3889602209411381,-0.2984998003251892,-0.0438808167121762,-0.4434180244368094,0.0920651806003347,1.5318344832904036,0.4101043726901426,-0.2772579456316213,-0.0397915906819291,0.9662171791746396,-0.7588570502544245,0.5753338428300531,0.1634092528156085,10.501527033762612,-0.941707926019882,0.2886304056974637,-0.8725699940857502
2.42,-0.4484523430431421,0.0959294887317981,1.532505256327314,-0.0305201317133009,0.0419384318312195,0.0306988285312289,0.3769977263813278,-0.2881668198324066,-0.038517672057108,-0.4434180244368094,0.0920651806003347,1.5318344832904036,0.4101043726901426,-0.2772579456316213,-0.0397915906819291,0.8346182998067168,-0.5981247279905122,0.5166490246391292,0.2681572327534104,10.600051059544056,-0.9403069299526744,0.2882148556357178,-0.8739659379640129
2.44,-0.4410245957712358,0.0902746819137909,1.5317931812063428,-0.03019336971429,0.0467588823888167,0.0311960661320533,0.3664841889816034,-0.2777708616562603,-0.0329665542103351,-0.4434180244368094,0.0920651806003347,1.5318344832904036,0.4101043726901426,-0.2772579456316213,-0.0397915906819291,0.7896602503677574,-0.5256768699862219,0.5197979088073151,0.2775558923386427,10.600051059544056,-0.938305258491968,0.2898078426560835,-0.8738243098564119
2.46,-0.4341516763934375,0.085098526537651,1.5312181998860044,-0.0306046628652956,0.0510244316368129,0.0316269104751662,0.3575822511161541,-0.2675666261139282,-0.0278324699527042,-0.439316980709908,0.0892926011440185,1.5314365673835844,0.4112977748389258,-0.2707082393215875,-0.0383201084646172,0.7241024477381793,-0.4450968932724647,0.5102117771166093,0.2567042128815465,10.59558962095889,-0.936533043620908,0.2921272414596759,-0.8730925748083213
2.48,-0.4270896961840221,0.0798643182235734,1.5307166504920426,-0.0316341779572928,0.0550930118580364,0.0320490565812116,0.3491630590902864,-0.2563507160964603,-0.0225983191668153,-0.4311148932561051,0.0837474422313861,1.5306407355699456,0.4136845791364922,-0.2576088267015199,-0.0353771440299935,0.7484580254392891,-0.4209596012933858,0.5607955008733928,0.2617075392944454,10.583665261728129,-0.9351731164193052,0.2950177342048817,-0.8716541166281857
2.5,-0.4201873472218277,0.0748630661781587,1.5303169530878324,-0.0330369295671671,0.0586797595398711,0.032456841163952,0.3415419282428384,-0.2443355711396049,-0.0176273093356788,-0.4229128058023023,0.0782022833187537,1.529844903756307,0.4160713834340586,-0.2445094140814523,-0.0324341795953698,0.7535852348431213,-0.3810565423723988,0.6007572478427675,0.2485504915568225,10.570677375216292,-0.9342049947410732,0.2984311958365379,-0.8693611063966361
2.52,-0.4137653469049051,0.0703435350567035,1.530026930318937,-0.0344183687176329,0.0616429856439671,0.032852434476225,0.3348724501717472,-0.2320403172460757,-0.0131432729498499,-0.4145913781336211,0.0733120950371246,1.5291962201643996,0.4184581877316251,-0.2314100014613847,-0.029491215160746,0.7344416048205411,-0.3334739035545569,0.6147626946764614,0.2242018192914452,10.55390036472454,-0.9336696723021142,0.3018958270340678,-0.866479640915417
2.54,-0.4071373162979395,0.0658465741337539,1.529812425767204,-0.0356230364517459,0.064327629076372,0.0332989191459032,0.3283197527627556,-0.2183144860738501,-0.0085415798468146,-0.4062699504649399,0.0684219067554956,1.5285475365724923,0.4208449920291914,-0.2183105888413171,-0.0265482507261223,0.7945310946035555,-0.3276348704495807,0.6862915586112822,0.2300846551517673,10.537731124814854,-0.9334967864452745,0.305469679869618,-0.8629062188905963
2.56,-0.4006360563422533,0.0616373905638102,1.5296880933704264,-0.0361121139254554,0.0666012039620347,0.0338086225725587,0.3221585077990096,-0.2034394057799767,-0.0041075170382772,-0.3978888526888195,0.0638592037893682,1.5279724270914503,0.4232317963267579,-0.2052111762212495,-0.0236052862914986,0.8349997997642266,-0.3080622481873019,0.7437540146936678,0.2217031404268668,10.528811889861572,-0.933747140158981,0.3087105207321609,-0.8587208804425831
2.58,-0.3942549592739621,0.0577335886108579,1.5296511855661727,-0.0354290433193223,0.0685117123624636,0.0344125913446949,0.316281719924662,-0.1878792583128587,0.0002128919371386,-0.3894480848052601,0.0596239861387426,1.5274708917212745,0.4256186006243243,-0.1921117636011819,-0.0206623218568749,0.8592449572639226,-0.2938393937173822,0.778007373355899,0.2160204487707961,10.517435326439228,-0.9342781051835464,0.3110694065461104,-0.8545488095766038
2.6,-0.3882996779952934,0.0543150398617825,1.5296955599900974,-0.0334161510067005,0.0700449001000041,0.0350908468130066,0.3109030968727098,-0.172948086636997,0.0042607514058934,-0.3784408732777291,0.0483396256952149,1.5296618301630296,0.3395593043880199,-0.1640069983085767,-0.0001284601381997,0.8189240499396689,-0.2689311525976096,0.7465585837930874,0.202392973437741,10.507516919036789,-0.9350446864296926,0.3124842456132658,-0.8503079707654708
2.62,-0.3821536630221095,0.0510383855135758,1.529822505391345,-0.0290747468557866,0.0718477669633833,0.0359528218560202,0.3040987430560687,-0.1564587324073645,0.0082494505110296,-0.3784408732777291,0.0483396256952149,1.5296618301630296,0.3395593043880199,-0.1640069983085767,-0.0001284601381997,0.9139307335947986,-0.3402176908320509,0.8244677114816246,0.1994349552568118,10.498803386344662,-0.9350454422377944,0.3123360470963212,-0.8473036333498465
2.64,-0.3761385361324237,0.0480407212128937,1.5300269892853855,-0.0235206002791014,0.0742664933096324,0.0368824859508693,0.2979166070575996,-0.1443769650408624,0.012016357396726,-0.3784408732777291,0.0483396256952149,1.5296618301630296,0.3395593043880199,-0.1640069983085767,-0.0001284601381997,0.7042327308627278,-0.3091067999234559,0.6040883683251064,0.1883453442848175,10.454469994288049,-0.934564364640974,0.3103755891256392,-0.8467963698804569
