t,x,y,z,roll,pitch,yaw,v_x,v_y,v_z,ref_x,ref_y,ref_z,ref_v_x,ref_v_y,ref_v_z,a_com,a_x,a_y,a_z,thrust,wind_x,wind_y,wind_z
0.0,1.872118915156557,-0.7025079023309907,2.765541776047433,0.0332847050769591,0.0997709517481416,0.0423678390549321,-0.0003820310245394,0.001865768505293,-0.0002722544617333,1.8721012360217928,-0.7023579381555523,2.7655367431415456,-0.1005350730708111,0.1041760117600475,-0.100194859977311,0.0961920255399065,-0.0191015512269706,0.0932884252646548,-0.0136127230866695,10.255725579757382,-0.9401933974606136,0.2501713400269922,-0.8809213897564273
0.02,1.872276707614915,-0.7027627650906387,2.7654212024813747,0.0246071915894577,0.0945540113369634,0.0416109301967426,0.0154623749088979,-0.0224964461288631,-0.0121051325973672,1.8721012360217928,-0.7023579381555523,2.7655367431415456,-0.1005350730708111,0.1041760117600475,-0.100194859977311,1.5689006551061533,0.7922202966718689,-1.2181107317078146,-0.5916439067816937,10.256791985504606,-0.945742818630458,0.2507304911989462,-0.8816758236051274
0.04,1.872700030776031,-0.7032456764746388,2.764992721658423,0.0077801185406317,0.0794939209862762,0.0402464567224609,0.0246610122326122,-0.0236899415804641,-0.0303377932202087,1.8721012360217928,-0.7023579381555523,2.7655367431415456,-0.1005350730708111,0.1041760117600475,-0.100194859977311,1.0228260768502355,0.4599318661857163,-0.0596747725800457,-0.9116330311420756,9.627444766154897,-0.951208867436138,0.2661573945368092,-0.8682448265049256
0.06,1.8731914751925005,-0.7036610249916342,2.76417689667608,-0.0095950247673719,0.0584463842468861,0.0391753224736523,0.0229732329994397,-0.0174218851322634,-0.0503607589131661,1.8710958852910848,-0.7013161780379518,2.7645347945417726,-0.1205350733688343,0.1241760120580707,-0.1201948602753342,1.0524451120119145,-0.0843889616586258,0.3134028224100345,-1.0011482846478708,9.19150412162071,-0.9618004146749268,0.2793249986616682,-0.8524303297179365
0.08,1.8735402351462835,-0.7039115942104294,2.762952242335416,-0.0262848081416639,0.0354705544884317,0.0386196090214306,0.0113376551067777,-0.0076170968614087,-0.0711216379076994,1.8690851838296685,-0.6992326578027509,2.7625308973422262,-0.1605350739648808,0.1641760126541172,-0.1601948608713807,1.2869874150104836,-0.5817788946331001,0.4902394135427343,-1.0380439497266631,9.086761964306788,-0.9752062437587692,0.2899502787829162,-0.8354743219801886
0.1,1.8735738156003143,-0.7039413055808923,2.7613975025170863,-0.0413781670831618,0.0145686389885253,0.0385289664653514,-0.0074966978490241,0.0042759381636457,-0.0915395843361285,1.867074482368252,-0.6971491375675499,2.7605270001426803,-0.2005350745609272,0.2041760132501636,-0.2001948614674271,1.5108521351584154,-0.941717647790096,0.5946517512527245,-1.0208973214214538,9.061383661376569,-0.9903700364176624,0.2994310929654728,-0.8176893507251591
0.12,1.8731583854736604,-0.7037021154181743,2.7593347491339983,-0.0564946525359434,-0.0046683074088918,0.0387516497571139,-0.0333171695094343,0.0193217305298297,-0.1137249042189824,1.8630637808770336,-0.6930656173025467,2.756523102913332,-0.2405350751569737,0.2441760138462101,-0.2401948620634736,1.8609547569708131,-1.2910235830205108,0.7522896183092009,-1.1092659941426934,9.057121357107462,-1.0047878650144677,0.3073726898741869,-0.801896876438326
0.14,1.8721753461380908,-0.7031359538896538,2.756820368410433,-0.0708647597281426,-0.0200382069955861,0.0391246968664361,-0.0637579499849384,0.0368324003955192,-0.1366567969291676,1.859053079385815,-0.6889820970375434,2.752519205683983,-0.2805350757530202,0.2841760144422566,-0.2801948626595201,2.097102988872054,-1.5220390237752033,0.875533493284474,-1.146594635509261,9.072040128664412,-1.016721197306176,0.3140593574567398,-0.7901769784876557
0.16,1.8706387852595057,-0.7022408267722281,2.7540000486605067,-0.0835190285317643,-0.0303550575889783,0.0394624488288305,-0.0962631427923261,0.0565226818688133,-0.1590846160636097,1.8540423778796955,-0.683898576757639,2.747515308439733,-0.3205350763490666,0.324176015038303,-0.3201948632555665,2.206412141390548,-1.6252596403693875,0.9845140736647032,-1.121390956722107,9.072040128664412,-1.0246738061500955,0.3195557339499552,-0.7838039752266461
0.18,1.868328643408972,-0.700855068737149,2.750562062714717,-0.095032837664254,-0.0361728413167303,0.0396607459363402,-0.1330742246316762,0.0807761646174999,-0.1835631540687779,1.8480316763586744,-0.6778150564628334,2.7415114111805825,-0.360535076945113,0.3641760156343494,-0.3601948638516129,2.5211535031085632,-1.840554091967505,1.2126741374343293,-1.2239269002584097,9.090698726913615,-1.029032838500509,0.3241940276287302,-0.7827353767065904
0.2,1.8652729182363137,-0.6989586073135969,2.7466310868842307,-0.1041554635801781,-0.0364399739804095,0.0395555271366816,-0.1700631548344203,0.1073104261458776,-0.2082090284864811,1.861674932177388,-0.696816260506274,2.741383905011278,-0.2330742261217924,0.180776166107616,-0.2835631555588941,2.588275061799369,-1.8494465101372008,1.3267130764188846,-1.2322937208851608,9.102085298236489,-1.0306564204776754,0.3265067131267884,-0.7872019809924649
0.22,1.8614411901654884,-0.696340559444842,2.7424335109704545,-0.1059752926078289,-0.0307419333909856,0.039342169715556,-0.210096740540349,0.1500480365089512,-0.2098356325520059,1.861674932177388,-0.696816260506274,2.741383905011278,-0.2330742261217924,0.180776166107616,-0.2835631555588941,2.9290942135777343,-2.0016792852964387,2.136880518153682,-0.0813302032762391,9.114073972310509,-1.0338437501333309,0.325110036097885,-0.7874567834729365
0.24,1.8571149726158207,-0.6931614281749047,2.738423035690912,-0.101163116430172,-0.0205219626884861,0.0391082005182341,-0.2425496783424728,0.1811354617828734,-0.2120544107668956,1.861674932177388,-0.696816260506274,2.741383905011278,-0.2330742261217924,0.180776166107616,-0.2835631555588941,2.24974674070054,-1.6226468901061872,1.5543712636961124,-0.1109389107444833,10.296985101525024,-1.0314250596630656,0.321358250260612,-0.7921527003856035
0.26,1.8519596999525212,-0.6892631877391655,2.7341257445828977,-0.0941078042836401,-0.0070226508566954,0.0387952967663553,-0.270647190193134,0.206705630187628,-0.2176799094061936,1.8593441899161705,-0.6950084988451978,2.738548273455689,-0.2530742264198156,0.2007761664056392,-0.3035631558569173,1.920253836987636,-1.4048755925330585,1.278508420237727,-0.2812749319648991,9.995968972186349,-1.0253264235307975,0.3163524877429671,-0.8019106233563028
0.28,1.846302750846858,-0.6848973670272643,2.729670589657365,-0.0870821531141305,0.0074572233751209,0.0384842891932923,-0.2932022964774568,0.2285708350523276,-0.2275132988982894,1.8546827053937345,-0.6913929755230455,2.732877010344511,-0.293074227015862,0.2407761670016857,-0.3435631564529637,1.6458398708377155,-1.1277553142161416,1.0932602432349807,-0.4916694746047903,9.995968972186349,-1.0168700054191326,0.3114493396795779,-0.8148594251802133
0.3,1.8405579773068197,-0.6803681530213477,2.725220379521214,-0.0811276742738184,0.0208589915202773,0.0382549769042872,-0.3101451059616412,0.2472113286210194,-0.2404553105374668,1.8500212208712985,-0.6877774522008931,2.727205747233333,-0.3330742276119085,0.2807761675977321,-0.3835631570490102,1.4160000520572122,-0.8471404742092181,0.9320246784345898,-0.6471005819588704,9.73189754557552,-1.0065071258382392,0.306672928420632,-0.8300785869005786
0.32,1.8342036761799936,-0.6752338906416718,2.7202360603607643,-0.0758650457293241,0.0336668655996204,0.038120881495793,-0.3241713815384064,0.2653367143287723,-0.2574898460647844,1.8433597363190604,-0.6821619288489386,2.7195344840923528,-0.3730742282079549,0.3207761681937786,-0.4235631576450566,1.4277967416982205,-0.701313778838264,0.9062692853876466,-0.8517267763658798,9.509753095210726,-0.9954275392008716,0.3025298824629656,-0.8457022326425891
0.34,1.8276036697669664,-0.6697478724908466,2.714884844294044,-0.0716833919576043,0.0444933110947462,0.0381129394206835,-0.3351036263679781,0.2825618614274989,-0.2768244040686734,1.8366982517668224,-0.6765464054969839,2.711863220951373,-0.4130742288040014,0.3607761687898251,-0.4635631582411031,1.4053867819858468,-0.5466122414785834,0.8612573549363289,-0.96672790019445,9.219413579061438,-0.9849360460969304,0.2989118830168212,-0.86041123309333
0.36,1.8208024674188048,-0.6639135617912897,2.709129945669648,-0.0681307346938017,0.0532454025961816,0.0382417281676751,-0.3444088285702349,0.299963517641745,-0.2977897905946408,1.829036767199683,-0.6699308821301281,2.7031919577954917,-0.4530742294000479,0.4007761693858715,-0.5035631588371495,1.439576204310585,-0.4652601101128389,0.8700828107123026,-1.0482693262983704,9.219413579061438,-0.9756820653399084,0.2959428139490262,-0.8730415160424062
0.38,1.814181095615148,-0.6580517036943531,2.703259387290013,-0.065004572624041,0.0597768468059115,0.0384868941937672,-0.3521324821482996,0.3161360365193155,-0.3191350022547169,1.8203752826176425,-0.6623153587483711,2.6935206946247088,-0.4930742299960943,0.4407761699819179,-0.543563159433196,1.3935774577080169,-0.3861826789032352,0.8086259438785243,-1.0672605830038069,9.147288430512162,-0.966940948150644,0.2928772519809812,-0.8850991935731871
0.4,1.8070598557370248,-0.651556106118011,2.696627542350096,-0.0618900126296555,0.0650278338348987,0.0388497507649435,-0.3595829871606157,0.3325046238344587,-0.3430012106423507,1.796574471507733,-0.6422449018683873,2.687302637177277,-0.4521324836384157,0.4161360380094316,-0.4191350037448331,1.4941858807005683,-0.3725252506158072,0.8184293657571617,-1.193310419381685,9.084890692174667,-0.9599024078446272,0.2899754408685461,-0.8949325115972365
0.42,1.7998268052926718,-0.6447278367327921,2.68978861667162,-0.0591476994461703,0.0683806723404193,0.0393083187028335,-0.3633461026917677,0.3496363718157146,-0.338263774155222,1.796574471507733,-0.6422449018683873,2.687302637177277,-0.4521324836384157,0.4161360380094316,-0.4191350037448331,0.908434273714453,-0.1881557765575997,0.856587399062797,0.2368718243564327,9.019105495834992,-0.9654631107629408,0.2871342121346211,-0.8908716739777562
0.44,1.792893400587436,-0.6379383786856465,2.683379751806058,-0.0573341301598135,0.0694290841632963,0.0398125663765671,-0.366500275625758,0.3644389694786189,-0.3367732831385771,1.796574471507733,-0.6422449018683873,2.687302637177277,-0.4521324836384157,0.4161360380094316,-0.4191350037448331,0.7604065819317233,-0.1577086466995142,0.740129883145213,0.0745245508322445,10.753588507222958,-0.963599418500126,0.2873907717965813,-0.8910042639388065
0.46,1.7855229837527884,-0.6304893218345812,2.67660515208995,-0.056312058157385,0.0684116643272265,0.0403961500218966,-0.3704947102237216,0.3797234429902021,-0.3410221511046629,1.7920531466713487,-0.638083541488293,2.6831112871398286,-0.472132483936439,0.4361360383074548,-0.4391350040428563,0.8179601415670091,-0.1997217298981807,0.764223675579162,-0.2124433983042906,10.363939163487885,-0.9630812287852212,0.2878856818536281,-0.890313401927388
0.48,1.7780641654209584,-0.6227392530960997,2.669689094664263,-0.0561473366450668,0.0653217864982265,0.0410295650442418,-0.3753516969759078,0.3945955005677363,-0.3503391198035513,1.7830104969985805,-0.6297608207281044,2.674728587064932,-0.5121324845324854,0.4761360389035013,-0.4791350046389028,0.9104591185721468,-0.2428493376093105,0.7436028788767063,-0.4658484349444186,10.026301914343094,-0.9645531673032172,0.2886988348598254,-0.8878655369574999
0.5,1.770493339363305,-0.6146938260713616,2.662549106045495,-0.0568301935397455,0.0603510694765764,0.0417062650348288,-0.3818151053249953,0.409268555401982,-0.3631841708642372,1.7739678473258125,-0.6214380999679158,2.6663458869900354,-0.5521324851285319,0.5161360394995478,-0.5191350052349493,1.027216533170421,-0.3231704174543715,0.7336527417122873,-0.6422525530342948,9.580368467783046,-0.9671240834732686,0.2898329537396332,-0.8845235608873927
0.52,1.763155164092538,-0.6067793744418293,2.6555021119584725,-0.0582623998059256,0.0545548035532118,0.0423587803792901,-0.3905291373673132,0.4231679118891582,-0.377954816841127,1.7629251976232416,-0.6111153791779248,2.6559631868853364,-0.5921324857245783,0.5561360400955943,-0.5591350058309957,1.1037418717331078,-0.4357016021158982,0.6949678243588081,-0.7385322988444909,9.580368467783046,-0.9711434882044364,0.2914075366497837,-0.8797815429948224
0.54,1.7552267188423396,-0.5981607311480117,2.64777025570922,-0.0605780338392551,0.0481315111533711,0.0430191708208133,-0.4020703727474219,0.438186898693119,-0.3944961868671495,1.751882547920671,-0.6007926583879338,2.6455804867806374,-0.6321324863206248,0.5961360406916407,-0.5991350064270422,1.2573653019850832,-0.5770617690054353,0.7509493401980399,-0.8270685013011231,9.440615598800832,-0.976536139904155,0.2934638196940067,-0.8734863024708581
0.56,1.747038874049531,-0.5892172210951472,2.639701004902248,-0.0629574909074075,0.042117151222279,0.043665884208512,-0.4162678606256284,0.4553462993229596,-0.4116065085309157,1.7398398982031993,-0.5894699375830417,2.634197786661037,-0.6721324869166712,0.6361360412876871,-0.6391350070230886,1.4042585227307172,-0.709874393910323,0.8579700314920308,-0.8555160831883124,9.37656622457962,-0.982014749790471,0.2955814885895127,-0.8669250919429262
0.58,1.738540002509604,-0.579918142015869,2.631283227028369,-0.0646235201923911,0.0373427655460481,0.044294314276795,-0.4329808536149269,0.4734722288589849,-0.4292980296024085,1.7267972484708265,-0.5771472167632484,2.621815086526536,-0.7121324875127176,0.6761360418837336,-0.679135007619135,1.5172865369042576,-0.8356496494649257,0.9062964768012632,-0.8845760535746372,9.37656622457962,-0.986278314523144,0.2970290986889189,-0.861907150031806
0.6,1.730133833289472,-0.570742344795871,2.6229513475178337,-0.0652516407642876,0.0347783232220735,0.0448314248085939,-0.4510604550028909,0.4913141641201742,-0.4468431950908419,1.7168909598288578,-0.5562445305729198,2.609818325548249,-0.532980855105043,0.573472230349101,-0.5292980310925246,1.543566869484975,-0.9039800693981996,0.892096763059469,-0.8772582744216717,9.358262511031173,-0.9892283018059256,0.2977027957902347,-0.858697142535174
0.62,1.720878709525852,-0.5606637097328357,2.6140949209970854,-0.0635243334686591,0.0358081443582893,0.0453141950883486,-0.4729633687570028,0.5153238385139169,-0.4363085956554687,1.7168909598288578,-0.5562445305729198,2.609818325548249,-0.532980855105043,0.573472230349101,-0.5292980310925246,1.7082007205517244,-1.0951456877055954,1.2004837196871343,0.526729971768658,9.331014774400956,-0.9998812339744774,0.296479989373004,-0.8465788990667394
0.64,1.7112164827750218,-0.5501377832321234,2.605458943080986,-0.0592240144081698,0.0407135708120598,0.0457289156962858,-0.4916683819368075,0.5354009850064312,-0.4282116920241137,1.7168909598288578,-0.5562445305729198,2.609818325548249,-0.532980855105043,0.573472230349101,-0.5292980310925246,1.4304974464797169,-0.935250658990236,1.003857324625712,0.4048451815677534,11.191593688110515,-0.9994178003091292,0.2953404770031609,-0.8452407248250837
0.66,1.7012160961123617,-0.5392524894375429,2.596905123753008,-0.0543972510753469,0.0478704651523402,0.0460610427248037,-0.5070264863088574,0.5520043115610909,-0.4275105442372743,1.7115611512778073,-0.5505098082694287,2.604525345237324,-0.5529808554030662,0.5934722306471242,-0.5492980313905478,1.131407785462908,-0.767905218602491,0.830166327732984,0.0350573893419664,10.741980824684106,-0.995416743547986,0.2931613641869051,-0.8491408688319855
0.68,1.6914622740888337,-0.5286248441307214,2.5887332977129294,-0.0500738245310153,0.0555959460254519,0.046328483214086,-0.5186731256763131,0.5658946869724598,-0.4326998846623583,1.7009015341757066,-0.5390403636624468,2.593939384615473,-0.5929808559991127,0.6334722312431706,-0.5892980319865943,0.942756585328024,-0.5823319683727846,0.6945187705684475,-0.2594670212541977,10.297721845704473,-0.9892025432245654,0.2905528769088252,-0.8565211432009616
0.7000000000000001,1.6809852050662148,-0.5171671979728171,2.579974224517992,-0.0461176055186388,0.063771170175398,0.0465874233707269,-0.5282100664980596,0.5791886868049819,-0.4431705757320683,1.6902419170736056,-0.5275709190554647,2.5833534239936222,-0.6329808565951591,0.6734722318392171,-0.6292980325826407,0.9712350941737756,-0.4768470410873249,0.6646999916261054,-0.5235345534854996,9.653489058329797,-0.9822331885190898,0.2880508261041237,-0.8650254496220349
0.72,1.6703422109751676,-0.5054530957157473,2.570954294639625,-0.0428671330282398,0.0712956339153136,0.0468426262849675,-0.535517232700325,0.5916771651021205,-0.4583005019598727,1.6775822999417025,-0.5141014744186804,2.5707674633419693,-0.6729808571912056,0.7134722324352636,-0.6692980331786872,1.0467466691425824,-0.3653583101132729,0.6244239148569308,-0.7564963113902201,9.653489058329797,-0.97523576754037,0.2858105720904644,-0.8737612240964008
0.74,1.660114136997724,-0.4940985446465123,2.5620825926248427,-0.0403858867405533,0.0774444728200351,0.0470930164243878,-0.5407402289190343,0.6030303934095241,-0.4748222826418274,1.6649226828097992,-0.500632029781896,2.5581815026903167,-0.7129808577872521,0.7534722330313101,-0.7092980337747337,1.0357904220971716,-0.2611498109354626,0.5676614153701798,-0.8260890340977378,9.424978091912635,-0.968439084256625,0.2835688590893169,-0.8825721725237808
0.76,1.6492497826428392,-0.4819093554193308,2.552386811637246,-0.0381146630900895,0.0827590926011013,0.0473810554109233,-0.5453784690640056,0.6152382750676635,-0.4939722599787207,1.6512630656629947,-0.4861625851302105,2.5445955420237625,-0.7529808583832984,0.7934722336273564,-0.74929803437078,1.1589513344237996,-0.2319120072485636,0.6103940829069676,-0.957498866844661,9.231923929157348,-0.9621677064778624,0.2815209017804822,-0.890677012326495
0.78,1.6382998048842463,-0.4694764872182788,2.5422906522108115,-0.0358724340487022,0.0869944946160552,0.0477058524011295,-0.549380119503356,0.627317616594788,-0.5146907389099535,1.6366034485012892,-0.4706931404636238,2.530009581342308,-0.7929808589793449,0.8334722342234029,-0.7892980349668265,1.2157087101682789,-0.2000825219675206,0.6039670763562266,-1.0359239465616426,9.163152542061653,-0.9565913591881616,0.2793449895633956,-0.8981081457058123
0.8,1.627827302047313,-0.457444907380803,2.5323028530280536,-0.0336668924654061,0.0901597015331207,0.0480458452997257,-0.5527876399254331,0.6384402336979934,-0.5356254245865227,1.6108307989090784,-0.4381106063885394,2.5165561152653138,-0.6493801209934721,0.7261682989726033,-0.6146907404000697,1.1974815980090692,-0.1703760211038574,0.5561308551602695,-1.04673428382846,9.101099631749094,-0.9520102031504808,0.2771832159401197,-0.9043602588146784
0.8200000000000001,1.6167583303958155,-0.4445384368504401,2.5216588808899214,-0.0310068307223315,0.092886265464607,0.0484407104621309,-0.5537453766978311,0.6514291050192391,-0.5260657613152597,1.6108307989090784,-0.4381106063885394,2.5165561152653138,-0.6493801209934721,0.7261682989726033,-0.6146907404000697,0.8077982418045633,-0.0478868386198982,0.6494435660622855,0.4779831635631504,9.101099631749094,-0.9556993443407358,0.2737399568280673,-0.9036178593534152
0.84,1.6056839580892517,-0.4313967692287926,2.5112114582796785,-0.0284610711256799,0.0949821883190908,0.0488382381748788,-0.553692331055012,0.6621558849620951,-0.519676729495694,1.6108307989090784,-0.4381106063885394,2.5165561152653138,-0.6493801209934721,0.7261682989726033,-0.6146907404000697,0.6242722750813601,0.0026522821409524,0.536338997142799,0.3194515909782869,10.609977855137004,-0.9535464004099548,0.2736422595716795,-0.9038971380640698
0.86,1.5951654679115717,-0.418720480019098,2.501330455455088,-0.0265604956354434,0.0960585817207734,0.0491956422991091,-0.5536199436947421,0.6717479721239569,-0.5207176278487949,1.6043369976991435,-0.4308489233988134,2.510409207861313,-0.6693801212914953,0.7459384354481663,-0.6346907406980928,0.4824335328109163,0.0036193680134966,0.4796043580930886,-0.0520449176550474,10.609977855137004,-0.9512717295532642,0.273263095495925,-0.905110673527696
0.88,1.5840920279867508,-0.4051864037088449,2.490853059092703,-0.0251019262850215,0.0961484565888155,0.0495491302850648,-0.5538258563564197,0.6811852027526363,-0.5272033068898565,1.5913493952792743,-0.4163255574193613,2.4981153930533115,-0.7093801218875417,0.7854787083992925,-0.6746907412941393,0.5726424595390851,-0.0102956330838788,0.4718615314339702,-0.3242839520530782,10.206182508496568,-0.949806574641693,0.272847278316928,-0.9060600606447292
0.9,1.573010546491302,-0.3914694761899641,2.4801981530588373,-0.0243316395047763,0.0951200314727599,0.0498692193459396,-0.5543828114103313,0.6900675476447589,-0.5381308964252944,1.578361792859405,-0.4018021914399092,2.4858215782453104,-0.7493801224835882,0.8250189813504185,-0.7146907418901858,0.7046603131468852,-0.0278477526955811,0.4441172446061292,-0.5463794767718966,9.898455983854548,-0.9495675427387608,0.2727654699263658,-0.9059169511853348
0.92,1.5624700577941422,-0.3782788960177151,2.4698377708950243,-0.0243982891240651,0.092968485877493,0.0501350682931575,-0.5552098774001911,0.698058642929762,-0.5518679006397302,1.5633741904097331,-0.3853018118129009,2.4715277634075066,-0.7893801230796347,0.8645592543015446,-0.7546907424862322,0.7956866952403596,-0.041353299492991,0.3995547642501595,-0.68685021072179,9.66370895190994,-0.9502949276897736,0.2729925533455658,-0.9050880268933634
0.94,1.551353778459008,-0.3642328564970717,2.458636729327231,-0.0254835246446451,0.0893096312825015,0.0503708010791484,-0.5564901674022212,0.7062158376945986,-0.5675540117654662,1.5483865879600611,-0.3688014321858925,2.457233948569703,-0.8293801236756811,0.9040995272526708,-0.7946907430822787,0.8863309923072075,-0.0640145001015057,0.4078597382418281,-0.7843055562867962,9.487260023651288,-0.9525564196393655,0.2738751748610769,-0.9027023758014469
0.96,1.5401979857112578,-0.3500117522516875,2.447116037926359,-0.0273898430419881,0.0842826817065972,0.050584077905258,-0.559287059222003,0.7155079329075976,-0.5837374945792037,1.5323989854954885,-0.351312545735106,2.4419401337169977,-0.8693801242717275,0.9436398002037968,-0.8346907436783251,0.9434918564586788,-0.1398445909890855,0.4646047606499504,-0.8091741406868747,9.422073329459636,-0.9556726458597496,0.2754326431618071,-0.8991784251739526
0.98,1.528960273173537,-0.3355916102197006,2.4352676411084917,-0.0295116136315344,0.0785605999914121,0.0508069363792942,-0.5645429824086148,0.7260624087376267,-0.6002818259630075,1.5154113830160143,-0.3328351524605413,2.425646318849392,-0.909380124867774,0.9831800731549228,-0.8746907442743715,1.0157959804106205,-0.2627961593305916,0.5277237915014554,-0.8272165691901923,9.398428366044756,-0.959796679700013,0.2771578081880786,-0.8944057772434981
1.0,1.5181651368842823,-0.3216853792598741,2.423701658636536,-0.0311641697056686,0.0731635547383552,0.0510480981533262,-0.5716148144536558,0.7370735057806596,-0.6163490720239622,1.5007331240531063,-0.2992884897828193,2.405253549810341,-0.6645429838987309,0.7527831765783698,-0.7002818274531236,1.0361122798080555,-0.3535916022520513,0.5505548521516412,-0.8033623030477333,9.381046829907971,-0.964878493445855,0.2787730018260636,-0.8884719911633951
1.02,1.5065996657471237,-0.3065348618516387,2.4114850139767783,-0.0234496852778968,0.0694532539341009,0.0518824660181229,-0.5845753089367453,0.7729699782681179,-0.6026857912465998,1.5007331240531063,-0.2992884897828193,2.405253549810341,-0.6645429838987309,0.7527831765783698,-0.7002818274531236,2.0268302814308865,-0.6480247241544723,1.7948236243729154,0.683164038868117,9.36152527723334,-0.9725993355880336,0.2711090065320022,-0.8845776275542798
1.04,1.4947749785074422,-0.2909161480802038,2.3995521887892948,-0.0070065004584953,0.0696997167815457,0.0531764114399554,-0.5967032211366528,0.7859554687480457,-0.5917623398253619,1.5007331240531063,-0.2992884897828193,2.405253549810341,-0.6645429838987309,0.7527831765783698,-0.7002818274531236,1.042869848405239,-0.6063956099953749,0.6492745239963904,0.5461725710618981,11.420618293706866,-0.9758713636513864,0.2613319973599416,-0.8808861965389094
1.06,1.482733441020292,-0.2751456269216429,2.387733762523958,0.0103671291522438,0.0726433587523037,0.054500064702572,-0.6064898486834535,0.7900011771168935,-0.5905852013701984,1.494087694214119,-0.2917606580170356,2.3982507315358097,-0.6845429841967541,0.7581273301465185,-0.7202818277511468,0.5327557833759028,-0.4893313773400354,0.2022854184423939,0.0588569227581714,10.86028781355708,-0.9747866308013444,0.2491763922382943,-0.8836473555716843
1.08,1.4711341460028318,-0.2601313749213996,2.3764524581041644,0.0263452689970657,0.076786791811852,0.0557541881610766,-0.6137752668590064,0.7899152729982858,-0.5969732293146064,1.4807968345361444,-0.2767049944854682,2.3842450949867477,-0.7245429847928005,0.7688156372828157,-0.7602818283471933,0.4844883861580379,-0.3642709087776474,-0.004295205930388,-0.3194013972203979,10.281677113069236,-0.9711690153744084,0.2364789992077967,-0.8900912926317766
1.1,1.4587956820748176,-0.2443612743794291,2.364383849866091,0.0423969338009341,0.0816480167363334,0.0570696055431133,-0.6195134144772521,0.7867508199432102,-0.6098426915571967,1.4675059748581698,-0.2616493309539008,2.370239458437685,-0.764542985388847,0.7795039444191129,-0.8002818289432397,0.7220857976030512,-0.2869073809122824,-0.1582226527537811,-0.6434731121295167,9.505885199570002,-0.9658368562137052,0.223161495759136,-0.8993578441528607
1.12,1.446360151901959,-0.2286878062680322,2.3519954460931114,0.057521696713735,0.0863449570216773,0.0583485499195714,-0.6236577906559696,0.7805178598654037,-0.6283652839872748,1.4522151151503928,-0.2460592520655185,2.35423382185882,-0.8045429859848935,0.7901922515554101,-0.8402818295392862,0.998889477836556,-0.2072188089358773,-0.3116480038903246,-0.9261296215039015,9.505885199570002,-0.9599766955003204,0.2101940245500995,-0.9095301088471296
1.14,1.4338581877982537,-0.2131850414334766,2.339203673248291,0.0710652850862284,0.0904395631886165,0.0595057303042699,-0.6263216390113017,0.7702690642374955,-0.6499035387840191,1.4369242554426158,-0.2304691731771362,2.338228185279956,-0.84454298658094,0.8008805586917073,-0.8802818301353327,1.200031582472222,-0.1331924177666033,-0.5124397813954074,-1.0769127398372158,9.242108961593658,-0.95403828195105,0.1963961128244704,-0.9208694955515924
1.16,1.421938788576703,-0.1986711233385041,2.326632280796787,0.082106077785758,0.0936478055697914,0.0604354897569922,-0.628219876320183,0.7582664684968913,-0.6723332960377211,1.4206333957199375,-0.2146118866103465,2.321222548686189,-0.8845429871769863,0.8115688658280046,-0.9202818307313791,1.2754995294522824,-0.0949118654440639,-0.6001297870302125,-1.1214878626851,9.116162799728954,-0.948184963084584,0.1832921876553286,-0.9322882359052388
1.18,1.4093583136881709,-0.1836554036603017,2.3129209489374,0.0919010085961271,0.0963641543242282,0.0612240183789032,-0.6297206517694149,0.7440718460994856,-0.697700668663185,1.4033425359823586,-0.1984873923651494,2.3032169120775223,-0.9245429877730328,0.8222571729643018,-0.9602818313274256,1.4553721395858568,-0.0750387724615997,-0.7097311198702827,-1.268368631273198,9.034645251599612,-0.942681647033064,0.1712079276265902,-0.9432036089793544
1.2,1.39675220113403,-0.1689394242946097,2.29868750346105,0.0999340630204066,0.0984559372795297,0.0618124926611662,-0.6308217811085968,0.7284112221994604,-0.724423147641077,1.3778722810997002,-0.1464518113553275,2.2780359155042404,-0.7297206532595311,0.694104341061701,-0.7625882295672111,1.5496439183595725,-0.0550564669590913,-0.7830311950012603,-1.3361239488945964,8.961730408632775,-0.9377924339158316,0.1606034076283526,-0.9532025588970544
1.22,1.3847855405422398,-0.1551949740719132,2.284995995635842,0.1091877098526775,0.099950529939582,0.0624100718857951,-0.6286684261837301,0.7171685644360192,-0.7156211476035282,1.3778722810997002,-0.1464518113553275,2.2780359155042404,-0.7297206532595311,0.694104341061701,-0.7625882295672111,0.7219928941466822,0.1076677462433339,-0.5621328881720622,0.4401000018774359,8.914735841102356,-0.9418348965852572,0.1483090078218997,-0.9557231951112904
1.24,1.3722464325696448,-0.1410485190448857,2.2707376436461684,0.1205872701935317,0.1008578692521608,0.0630471575893285,-0.6254125419285314,0.6977026428337602,-0.7111310046308967,1.3778722810997002,-0.1464518113553275,2.2780359155042404,-0.7297206532595311,0.694104341061701,-0.7625882295672111,1.01203294168621,0.1627942127599368,-0.9732960801129508,0.2245071486315752,10.980943549378026,-0.9397078562902192,0.1375836570557338,-0.9595780367444328
1.26,1.359776564187901,-0.1273256461288248,2.2565060431690416,0.1317740660215008,0.1006834921269669,0.0634907416162959,-0.6218135095645934,0.6753010661873632,-0.7125027518786374,1.3705750745671048,-0.1395107679447105,2.2704100332085684,-0.7497206535575542,0.6841108400541441,-0.7755657417480163,1.1365137050567795,0.1799516181968996,-1.1200788323198485,-0.0685873623870347,10.589095002535942,-0.9381035596028282,0.1259927534955199,-0.9637068591157886
1.28,1.3473821786712723,-0.1140714568522501,2.2421968546445696,0.1424303626411796,0.0989993941264835,0.0636330436535607,-0.6179139031066077,0.6509736350856113,-0.7183632174893764,1.3559806615019143,-0.1256286811234764,2.255158268617224,-0.7897206541536007,0.6641238380390303,-0.8015207661096266,1.2662700064681114,0.1949803228992852,-1.216371555087592,-0.293023280536947,10.287496949389606,-0.937891985913284,0.1147366019422368,-0.9667637450128974
1.3,1.3356816667193847,-0.1019477902279378,2.2284658059151123,0.1520288569165709,0.0955561447809521,0.0633899866129334,-0.6140445211005685,0.626200697766862,-0.7267384424961374,1.3413862484367236,-0.1117465943022424,2.23990650402588,-0.8297206547496472,0.6441368360239165,-0.8274757904712371,1.321755399479435,0.1934691003019573,-1.238646865937465,-0.4187612503380511,10.074891014632158,-0.9395588739585724,0.102786011353894,-0.968456329239647
1.32,1.323437234779174,-0.0897186819107797,2.2138183910986755,0.1614091845677234,0.089686770957099,0.0626374685882928,-0.6110545721889946,0.597871393238748,-0.7376561050500976,1.3247918353417307,-0.0988638575817641,2.223356988216455,-0.8697206553456936,0.6241498340088026,-0.8534308148328476,1.5253562249377906,0.1494974455786946,-1.4164652264056998,-0.5458831276980103,9.931497688157831,-0.9427817061239204,0.0907206206710362,-0.9689852842878474
1.34,1.311227309501152,-0.0780949691285406,2.1989482745048687,0.1694025554494392,0.0820714907592408,0.0613863384823386,-0.610465533156972,0.5660771437084163,-0.7487465460912562,1.3081974222467376,-0.0859811208612857,2.206807472407031,-0.90972065594174,0.6041628319936888,-0.8793858391944579,1.683908513448445,0.0294519516011282,-1.589712476516586,-0.5545220520579319,9.86542494868445,-0.9487948737119224,0.0795503402420137,-0.9669985705160804
1.36,1.2989982565866651,-0.0671360890624909,2.183862326223444,0.1753858094086242,0.0735526675993806,0.0597279443549012,-0.6128065519698846,0.5317408909017918,-0.7591880279171878,1.2906030091368434,-0.0735980591911853,2.189609080988565,-0.9497206565377864,0.584175829978575,-0.9053408635560684,1.7982513510380729,-0.1170509406456299,-1.7168126403312278,-0.522074091296576,9.86542494868445,-0.9560147129115636,0.070471858238399,-0.9635639694739376
1.38,1.287310585628105,-0.0573791604703884,2.1693462227881564,0.1789645677464251,0.0653553647077881,0.0579019946248738,-0.6175966896288732,0.4976045558762622,-0.7682021061193043,1.2720085960120482,-0.0617146725714626,2.1717618139610604,-0.989720657133833,0.5641888279634611,-0.9312958879176788,1.78149403142498,-0.2395068829494251,-1.7068167512764798,-0.4507039101058263,9.927248147352657,-0.9644777238954234,0.0629881029694251,-0.9587978130054824
1.4,1.2748842053572178,-0.0478152348192663,2.153888709078756,0.1806636184260399,0.0571339511021298,0.0558458002832942,-0.6250126160232496,0.4609161303722742,-0.7769774569071843,1.2564307511466617,-0.0324989326765753,2.1309361174821912,-0.7175966911189893,0.4532121005070281,-0.7781397734071904,1.922266443354584,-0.3707963197188246,-1.8344212751993996,-0.4387675393940027,9.992748012737138,-0.9730216182798888,0.0574547148712124,-0.953713025306256
1.42,1.262245134669782,-0.0390828992816767,2.138443793823907,0.178423877026852,0.0514641941145011,0.053943731154213,-0.6388157617063966,0.4146922562290881,-0.7659061936097932,1.2564307511466617,-0.0324989326765753,2.1309361174821912,-0.7175966911189893,0.4532121005070281,-0.7781397734071904,2.474745563969883,-0.69015728415735,-2.3111937071593034,0.5535631648695583,10.041782308869188,-0.9814551758299652,0.0540551141623348,-0.950273254681314
1.44,1.2493186293313632,-0.0312430823169503,2.123270635022137,0.1716473837544737,0.0503982362452671,0.0525462841048903,-0.6526842778301272,0.3728429367080806,-0.7518432897338589,1.2564307511466617,-0.0324989326765753,2.1309361174821912,-0.7175966911189893,0.4532121005070281,-0.7781397734071904,2.313799121179991,-0.6934258061865262,-2.0924659760503754,0.7031451937967115,11.50626690354602,-0.9858432751311598,0.0575816712171854,-0.947456472603566
1.46,1.236805657871226,-0.0245274869798476,2.109114117685137,0.1630574654021222,0.0521990135186899,0.0515440141933148,-0.6635435446736984,0.3370274718167045,-0.7388554020712523,1.2492547842354715,-0.027966811671505,2.1231547197481198,-0.7375966914170125,0.4443336094331813,-0.7801273068647676,1.9807551765057716,-0.5429633421785596,-1.7907732445688025,0.6493943831303306,11.443777843192947,-0.9869532863873554,0.0634246935816558,-0.947702397869529
1.48,1.2234360244789428,-0.0181506459683171,2.094474052254067,0.1528249082148776,0.0556146670990539,0.0506260236872045,-0.6726590475106954,0.3031806311412943,-0.7257844582586181,1.234902850413092,-0.0189025696613644,2.1075919242799754,-0.7775966920130589,0.4265766272854876,-0.7841023737799221,1.8705283931492112,-0.4557751418498512,-1.6923420337705135,0.6535471906317092,11.340853238093588,-0.9873500710524246,0.0713911222498992,-0.9476110567240098
1.5,1.209905537755864,-0.0124158148674589,2.0800845465652595,0.1418829897097342,0.0595296877846614,0.0496953479464923,-0.6798434703171764,0.2726525984057857,-0.7137166196805084,1.220550916590712,-0.0098383276512238,2.092029128811832,-0.8175966926091054,0.408819645137794,-0.7880774406950766,1.6801855862596544,-0.3592211403240508,-1.5264016367754265,0.603391928905489,11.242250740524469,-0.9862756370054396,0.079373751333829,-0.9489150730249682
1.52,1.1969336015713576,-0.0075005994903103,2.0666293493730103,0.1312056165826231,0.0630593769324718,0.0487269968341848,-0.6852480938098706,0.2467359611299288,-0.7031634899469706,1.20419898273853,-0.001661934748468,2.07626757999793,-0.8575966932051519,0.3910626629901004,-0.792052507610231,1.4250005175077989,-0.2702311746347108,-1.295831863792847,0.5276564866768862,11.145582303967783,-0.984687677792077,0.0880074229553364,-0.9505821622324654
1.54,1.1831802097949533,-0.0028240467489217,2.052681990975364,0.1200419974135499,0.0661149767166669,0.0475939945340293,-0.6897994986994619,0.2226507260001078,-0.6921071676117401,1.1878470488863475,0.0065144581542878,2.0605060311840284,-0.8975966938011983,0.3733056808424067,-0.7960275745253855,1.3444851257156734,-0.2275702444795635,-1.2042617564910485,0.5528161167615286,11.0574240966489,-0.9835606522765457,0.0966449145964876,-0.9515958505956144
1.56,1.1693392714142328,0.0013988574732471,2.03895469823401,0.1091429991021571,0.0683605778807547,0.0463600455846232,-0.6940909196913478,0.201190310473373,-0.6811573225952939,1.1704951150192644,0.0142469265033514,2.0446451056972483,-0.9375966943972448,0.3555486986947131,-0.8000026414405399,1.223585749543029,-0.2145710495942976,-1.0730207763367403,0.5474922508223068,11.032036026934293,-0.9829144851816056,0.105087352440126,-0.9519669639770248
1.58,1.155413218029682,0.0052206846628772,2.025444124681665,0.0985999555637486,0.0699215181314314,0.045065630911845,-0.698341968594752,0.1823708071219098,-0.6704209870787967,1.15214318113728,0.0215354702987225,2.028684803537589,-0.9775966949932912,0.3377917165470195,-0.8039777083556944,1.1039859866611397,-0.2125524451702054,-0.9409751675731604,0.536816775824861,11.011773945861025,-0.9829267854094428,0.112968055967318,-0.9514600299857932
1.6,1.1421037552922373,0.008527932670068,2.012805259258341,0.0890509593943232,0.0708936076436413,0.0438168152922767,-0.7024760225857032,0.1668969660755666,-0.6605080860277844,1.1204961195999443,0.0143392250189726,1.991923075327725,-0.7983419700848681,0.1813967768879902,-0.6332790828439105,0.941801155200442,-0.2067026995475618,-0.7736920523171583,0.495645052550614,10.986371807585783,-0.9834863466708436,0.1209712063147039,-0.9501734543533524
1.62,1.1280071474884108,0.011670676253313,1.9998138728288373,0.0784649221601397,0.0718081650903989,0.0424591446147075,-0.7069330854336339,0.1489785585099675,-0.6384794591872844,1.1204961195999443,0.0143392250189726,1.991923075327725,-0.7983419700848681,0.1813967768879902,-0.6332790828439105,1.437180520494311,-0.2228531423965341,-0.8959203782799546,1.101431342025,10.956274435034176,-0.9872496158396464,0.1298565248042682,-0.9452598114521196
1.64,1.1138292827463392,0.0145044170840329,1.987285986552104,0.0673763631723846,0.072712037137783,0.0410741576397348,-0.7106334673011233,0.1357008089510011,-0.6154842619039166,1.1204961195999443,0.0143392250189726,1.991923075327725,-0.7983419700848681,0.1813967768879902,-0.6332790828439105,1.340494831598472,-0.1850190933744722,-0.6638874779483217,1.1497598641683926,11.762323602469223,-0.9892227276354196,0.1401673950821355,-0.9405114725031036
1.66,1.1002969936023266,0.0169853477143138,1.9758023913177687,0.0571886433774221,0.0731304338763352,0.0397653046631757,-0.7137141287139365,0.1263300717499637,-0.5944481686709737,1.1125126998990955,0.0161531927878525,1.9855902844992857,-0.8183419703828912,0.1812019708412063,-0.6258507019969333,1.1616996265562451,-0.1540330706406578,-0.4685368600518727,1.0518046616471433,11.70168030010518,-0.9913365376946796,0.1496539730928787,-0.935588237333812
1.68,1.0859902623060318,0.019435279603148,1.9641403521573897,0.0471701360993202,0.0728797940889774,0.0384182036119119,-0.7168865029878352,0.1193334335782446,-0.5728857588411852,1.0965458604973983,0.0197811283256123,1.972924702842408,-0.8583419709789377,0.1808123587476384,-0.6109939403029788,1.144502535938006,-0.1586187136949357,-0.3498319085859506,1.078120491489426,11.630159096853276,-0.9941832697968336,0.1590388721933263,-0.9296282778846582
1.7,1.0716178354668848,0.0217730859216191,1.9529025381916545,0.0380779803089769,0.0718103833721925,0.0371267218917649,-0.7202843522560948,0.1148910273443263,-0.5519993149343094,1.080579021095701,0.0234090638633722,1.9602591211855296,-0.8983419715749842,0.1804227466540706,-0.5961371786090244,1.081115039984225,-0.1698924634129794,-0.2221203116959176,1.044322195343789,11.578468551707374,-0.9978329348986898,0.1676589494933883,-0.9227030649336097
1.72,1.057174408478268,0.0240466550039215,1.9420758329034795,0.0300575900544299,0.0698085897913138,0.0359116037893611,-0.7240058771421926,0.1126445311431791,-0.5317051529611009,1.0626121816642011,0.0270175187964536,1.948336377613349,-0.9383419721710308,0.1800331345605027,-0.5812804169150699,1.0377252801855097,-0.1860762443048891,-0.1123248100573591,1.014708098660427,11.52424037757646,-1.0021958609744086,0.1750251065588708,-0.9150919277124384
1.74,1.0433794071547833,0.0261829180033655,1.932166946213716,0.0234767750659754,0.0669440357107356,0.0348403067677812,-0.7280316333334342,0.1122330597015118,-0.5123409485995728,1.0446453422327016,0.030625973729535,1.9364136340411688,-0.9783419727670772,0.1796435224669349,-0.5664236552211155,0.989126422927893,-0.201287809562084,-0.0205735720833641,0.968210218076404,11.476418329192713,-1.007844738526364,0.1818792855093096,-0.9058803074245234
1.76,1.028761879976146,0.0284373476579523,1.9221369124283736,0.0176404453592725,0.0630275921224199,0.0338122193886566,-0.7336748592314124,0.1131658482219893,-0.4916607484129363,1.025678502786301,0.0342246883602772,1.924862309511337,-1.0183419733631236,0.179253910373367,-0.5515668935271609,1.0728312690247532,-0.2821612948989083,0.0466394260238763,1.0340100093318232,11.476418329192713,-1.013919184401118,0.1877563904007659,-0.8961756676901341
1.78,1.0140115027815744,0.0307232850366286,1.912522436581792,0.0129115729852081,0.0586468538443741,0.0328978355053685,-0.7412630999607661,0.1152717210838438,-0.4708079975512209,1.0057116633249987,0.0378136626886802,1.9136824040238545,-1.05834197395917,0.1788642982797992,-0.5367101318332065,1.1145103368494274,-0.3794120364676856,0.1052936430927208,1.0426375430857695,11.489717692861632,-1.0204040013990654,0.1928381571929902,-0.8858228444214074
1.8,0.999085062050492,0.0330615887714727,1.9033255350513836,0.0092784445474658,0.0544827068059738,0.0321019953803406,-0.7511338178248962,0.1182353942713027,-0.4499130503023193,0.976948347783536,0.0364868710908208,1.888982036704231,-0.7937174001855472,0.1124562130329997,-0.4348691795435133,1.1649176477864227,-0.4935358932065037,0.1481836593729461,1.044747362445081,11.495703468376632,-1.0264034979554495,0.1968570470400271,-0.876147050377759
1.82,0.984588327830314,0.035385476268193,1.894940932596851,0.0082037239386262,0.0549760570810586,0.031575776616174,-0.7732400351111967,0.125365422145293,-0.4336571417617647,0.976948347783536,0.0364868710908208,1.888982036704231,-0.7937174001855472,0.1124562130329997,-0.4348691795435133,1.4175477969647847,-1.1053108643150231,0.3565013936995154,0.8127954270277321,11.498407571722964,-1.0250597434875293,0.1987649864554348,-0.8754161073094524
1.84,0.9689382450943111,0.0379568096019298,1.886449771944461,0.0099840312327046,0.0619780705291951,0.0312963706726149,-0.7897981484178436,0.1311652482720788,-0.4162533361216664,0.976948347783536,0.0364868710908208,1.888982036704231,-0.7937174001855472,0.1124562130329997,-0.4348691795435133,1.2356188228323293,-0.8279056653323458,0.2899913063392906,0.8701902820049123,11.323678717609257,-1.025019928928542,0.1987990394227468,-0.8738437686656808
1.86,0.953021962644942,0.0406248159062923,1.878299162225374,0.0138419075537247,0.072298108812224,0.03123243976823,-0.8004199839027277,0.1347381203696316,-0.3997242320653573,0.9690111737816808,0.0376114332211508,1.884633344908796,-0.8042082602305034,0.1118931114228309,-0.4276814159419718,0.9984989797161922,-0.5310917742442078,0.1786436048776388,0.826455202815457,11.213432859478417,-1.0208330970025374,0.1970725568252657,-0.8776205248751663
1.88,0.9369437211666573,0.0433305531450608,1.8704633814122509,0.0183204452479591,0.0840554106877843,0.031289601902294,-0.8063988615988386,0.1354952234975889,-0.3846836914844955,0.9531368257779697,0.0398605574818107,1.8759359613179256,-0.8251899803204158,0.1107669082024932,-0.4133058887388888,0.8101512892910261,-0.2989438848055414,0.0378551563978674,0.7520270290430897,11.213432859478417,-1.01399296519118,0.1946041651851643,-0.8848970912671138
1.9,0.9215956202064076,0.0458978362606285,1.8632846146725357,0.0224217990782681,0.0956172160586039,0.0313994386121832,-0.8085410742037097,0.1346941304577172,-0.3717445078769252,0.9372624777742588,0.0421096817424707,1.8672385777270557,-0.8461717004103282,0.1096407049821556,-0.3989303615358057,0.6569880085157862,-0.1071106302435564,-0.0400546519935887,0.6469591803785146,11.030982022620265,-1.0052434844841744,0.1918374710578245,-0.8943918441435011
1.92,0.9054297668115456,0.0485728604950862,1.8559827841303465,0.0263139800452525,0.1076665127514531,0.0315414184818071,-0.8075740468813029,0.1328498189050804,-0.3591857988232581,0.9203390437660522,0.0443024958421139,1.859259970496339,-0.8671534205002406,0.108514501761818,-0.3845548343327227,0.6365096229440121,0.0483513661203416,-0.0922155776318378,0.6279354526833564,11.030982022620265,-0.995750590706383,0.189214385189722,-0.904595436480666
1.94,0.8893226237761829,0.0512023299262261,1.8489179471831791,0.0296638304046614,0.119030123460813,0.0316796653933292,-0.8029566033605299,0.1302571055632868,-0.3479593762449127,0.9034156097578456,0.046495309941757,1.8512813632656229,-0.8881351405901531,0.1073882985414804,-0.3701793071296396,0.6206357849975791,0.2308721760386489,-0.1296356670896781,0.5613211289172665,10.916721708253135,-0.986919784431752,0.1870647718897521,-0.9138399207760534
1.96,0.8741404274363752,0.0536472237161645,1.842404278939968,0.0323406944306478,0.1285309252823192,0.031776265985672,-0.795327073903549,0.1273009628252153,-0.3382818628338314,0.8859676327473913,0.0486599689608916,1.843662144214984,-0.9091168606800656,0.1062620953211427,-0.3558037799265566,0.6336457319442239,0.381476472849046,-0.1478071369035785,0.4838756705540681,10.916721708253135,-0.9783255870262448,0.1851429484029561,-0.9225871401610524
1.98,0.8583426119572446,0.0561566742021393,1.83574018174174,0.0346693893064651,0.136660405962695,0.0318138810259872,-0.7847840920136684,0.1238381262103921,-0.3286787591414894,0.8679951127346891,0.0507964728995179,1.836402313344422,-0.930098580769978,0.1051358921008051,-0.3414282527234736,0.7337664905765007,0.5271490944940282,-0.1731418307411594,0.4801551846170981,10.875051178198191,-0.9708734188891488,0.1835249503387084,-0.9299414917415628
2.0,0.8427778171693701,0.0585928067779367,1.829263613383581,0.0365197458901696,0.1425579572332754,0.0317628245550809,-0.7723352570289622,0.1200269369752219,-0.3194754381800574,0.8191034073565612,0.0623485805126589,1.8193062437846648,-0.7650014612869733,0.0972973494957095,-0.3275795429718117,0.7971821820980685,0.6224417492353085,-0.1905594617585104,0.4601660480716002,10.86131120650498,-0.9653775287323548,0.1823129437256148,-0.9351177649554898
2.02,0.8281538473879445,0.0608850101420623,1.8231884376620384,0.0394952079391555,0.1481158337091601,0.0318161873699458,-0.767134601550903,0.1204038203457709,-0.3205333072399794,0.8191034073565612,0.0623485805126589,1.8193062437846648,-0.7650014612869733,0.0972973494957095,-0.3275795429718117,0.2660260580488517,0.2600327739029628,0.0188441685274515,-0.0528934529961,10.856630986873824,-0.9532731598464206,0.1783886247643255,-0.9480014403193668
2.04,0.8128940726801677,0.0632652238439421,1.816757593104568,0.0439275426533205,0.1553907574519509,0.0320486440623903,-0.7587545262930288,0.1173189196720918,-0.3225099679343759,0.8191034073565612,0.0623485805126589,1.8193062437846648,-0.7650014612869733,0.0972973494957095,-0.3275795429718117,0.4573003963339453,0.4190037628937104,-0.1542450336839557,-0.0988330347198251,10.236233511919636,-0.9459795774328994,0.1739854358157633,-0.9561819103745244
2.06,0.7978331245108452,0.0655578253741308,1.810291184863847,0.0484977020905757,0.1632210914459746,0.0323525524200605,-0.7474862541734172,0.112019334108225,-0.3240772750119343,0.8114533927436914,0.063321554007616,1.8160304483549472,-0.7610449351416343,0.091989194152773,-0.3273596997378762,0.6275269221031968,0.5634136059805783,-0.264979278193337,-0.0783653538779183,10.278915896331457,-0.9377676744905346,0.1694910452239068,-0.9651779612335192
2.08,0.7837575412878153,0.0676231249209302,1.80412284346008,0.0524948955322383,0.1707124640559253,0.0326540446928222,-0.7345138164761095,0.1056718373633404,-0.3251827333963183,0.796153363517952,0.0652675009975302,1.809478857495511,-0.7531318828509563,0.0813728834668999,-0.3269200132700051,0.724218359641028,0.6486218848653857,-0.3173748372442324,-0.0552729192192041,10.324048330404366,-0.928383876453712,0.1649392148867545,-0.9751439968028834
2.1,0.7692293667424406,0.0696575935163414,1.7976107219605648,0.0561986705429556,0.1783965325172413,0.0329573330649776,-0.7187667926565461,0.0981191206261203,-0.3259811483449393,0.7808533342922125,0.0672134479874444,1.8029272666360747,-0.7452188305602783,0.0707565727810269,-0.326480326802134,0.874142087587543,0.7873511909781694,-0.3776358368610059,-0.0399207474310492,10.324048330404366,-0.9187105120685596,0.1607673571855959,-0.9850990132353412
2.12,0.7550370148988362,0.0715319311035543,1.7910874444217362,0.0593237702050235,0.1857409856619868,0.033227846560866,-0.7010673228190253,0.0897790381907234,-0.3263502180481587,0.7659489576810069,0.0686285794430649,1.796397660100032,-0.7373057782696002,0.0601402620951539,-0.326040640334263,0.9784738371621878,0.8849734918760399,-0.4170041217698434,-0.0184534851609685,10.369928188317315,-0.9090026763660014,0.1570637478849226,-0.994790642883728
2.14,0.7418984489668317,0.0731530976517929,1.784883583029668,0.0617769502148312,0.1923494261854831,0.0334463456265543,-0.6826691567411911,0.0813348637019329,-0.3266879531489162,0.7510445810698013,0.0700437108986855,1.7898680535639897,-0.7293927259789222,0.0495239514092808,-0.3256009538663919,1.012312529339373,0.9199083038917087,-0.4222087244395239,-0.0168867550378731,10.416213541536308,-0.8997635393475133,0.1539489661840146,-1.0037727401583585
2.16,0.7284642527667461,0.0746805055534907,1.778347223260062,0.0637779814678658,0.1988391570155972,0.0336219247819728,-0.6615601802673934,0.0719401689222827,-0.326946768253841,0.7363380307658627,0.0711934345871592,1.7833494391896436,-0.7214796736882442,0.0389076407234078,-0.3251612673985208,1.1553312977590784,1.0554488236898862,-0.4697347389825121,-0.0129407552462407,10.440161891190655,-0.8903404702343497,0.1511698686488683,-1.0127168261020327
2.18,0.7154810831754549,0.0760145755913555,1.771806702290241,0.0651147399723802,0.2043771991879382,0.0336999802270589,-0.6377357896786907,0.0619873180562803,-0.3271002412662839,0.7218293067691911,0.0720777505084861,1.7768418169769944,-0.7135666213975662,0.0282913300375348,-0.3247215809306498,1.2910116006929386,1.1912195294351335,-0.49764254330012,-0.0076736506221475,10.50386929643264,-0.8827168513460673,0.1489709202755086,-1.0200323721727136
2.2,0.7036107381122872,0.077090857311482,1.7655934876901938,0.0655278937269632,0.208089405359686,0.0336167318896098,-0.6130901997850654,0.0519183064858751,-0.3269205513549794,0.6835942936915204,0.0791139414941695,1.7554516902269268,-0.6282220445942858,0.0455659571612426,-0.3023242332861757,1.331185922095354,1.2322794946812654,-0.5034505785202574,0.0089844955652285,10.50386929643264,-0.8756505553216516,0.1473559386074762,-1.026735253790826
2.22,0.6916653452524497,0.0779593943825147,1.759025696027406,0.0629728374852775,0.2088717403861071,0.033115500593899,-0.582775915085897,0.0361315830011203,-0.3299536776316951,0.6835942936915204,0.0791139414941695,1.7554516902269268,-0.6282220445942858,0.0455659571612426,-0.3023242332861757,1.7156459062236942,1.5157142349584207,-0.78933617423774,-0.1516563138357851,10.54835510997691,-0.8729589400545195,0.1482553729351449,-1.0297640387636255
2.24,0.6803365235428345,0.0785641368106819,1.7524195739751254,0.0571890449003987,0.2048413520483201,0.0321037014581057,-0.5521632113426047,0.0257789635335719,-0.3302503180219863,0.6835942936915204,0.0791139414941695,1.7554516902269268,-0.6282220445942858,0.0455659571612426,-0.3023242332861757,1.6158607271633871,1.530635187164614,-0.5176309733774216,-0.0148320195145601,10.40984617076083,-0.8724694029977726,0.1521996637202362,-1.029934019713137
2.26,0.6695903377839012,0.0790066761529428,1.7458462965104375,0.0508686934124086,0.1968907206475635,0.030884441723197,-0.5245404709519689,0.019120534739539,-0.3268557859493347,0.6773120732455775,0.0795696010657819,1.752428447894065,-0.6263192955774047,0.0422816849822351,-0.297369031690154,1.4307981240254783,1.3811370195317918,-0.3329214397016458,0.1697266036325778,10.572032823024529,-0.8762390091400883,0.1571522924663322,-1.0261489395450931
2.28,0.659859645817466,0.0793251565849533,1.7396983067641234,0.0453214042498581,0.1870209319976522,0.0297120428288056,-0.5016103564001724,0.0146821579856668,-0.3204209803899426,0.6647476323536917,0.0804809202090068,1.7463819632283415,-0.6225137975436428,0.03571314062422,-0.2874586284981107,1.211296891925144,1.146505727589825,-0.2219188376936091,0.3217402779696038,10.894561498411347,-0.8835055056618887,0.1621006193736816,-1.0189741073859977
2.3000000000000003,0.6500469761676911,0.0795819478283519,1.733384730632122,0.0402690263618032,0.175414717979245,0.0285587284375625,-0.4813026925548465,0.011180405511913,-0.3111338122971959,0.652183191461806,0.0813922393522317,1.740335478562618,-0.6187082995098808,0.029144596266205,-0.2775482253060674,1.1301714166721883,1.015383192266292,-0.1750876236876887,0.4643584046373383,10.894561498411347,-0.8927320486512578,0.1666369285637018,-1.009736415684955
2.32,0.6406002113071785,0.0797780316680363,1.7272793132338096,0.0360839843252034,0.1635548302896315,0.0275320605159191,-0.4647528569057279,0.0085277479540122,-0.2997690285546983,0.6398090254716085,0.0819751312775557,1.7347845140564966,-0.6149028014761189,0.0225760519081899,-0.2676378221140241,1.0125363717492637,0.827491782455933,-0.1326328778950398,0.5682391871248804,11.014602064117751,-0.9027056389606608,0.1706585517406152,-0.9994705892837368
2.34,0.6314461618221848,0.0799283318453602,1.7214171740378623,0.032744718200155,0.152224773233988,0.0266474355867508,-0.4517374012455828,0.0064951592490222,-0.2869871914120479,0.6274348594814109,0.0825580232028799,1.7292335495503752,-0.6110973034423569,0.0160075075501748,-0.2577274189219808,0.9177538662763716,0.6507727830072529,-0.1016294352495,0.6390918571325177,11.108008758531469,-0.9125104574929916,0.1740225203031327,-0.9890737131103756
2.36,0.622960659890371,0.0800363681785026,1.7160938011725793,0.0302227356718998,0.1424559242534303,0.0259319765877774,-0.4422703429366942,0.0048838915611821,-0.2739850913459305,0.6151558309420573,0.0829767015192536,1.723930345124055,-0.6072918054085948,0.0094389631921598,-0.2478170157299375,0.8082016807627672,0.4733529154444305,-0.0805633843920061,0.6501050033058703,11.164161781685834,-0.9227130994966156,0.177218489114891,-0.97784394353949
2.38,0.6141966294913028,0.0801194628377667,1.7107637683145782,0.0281179335383821,0.1335460351671665,0.0252970870014612,-0.434783467813614,0.0034590731920242,-0.2596615734162375,0.6029719398535477,0.0832311662266769,1.718874900777536,-0.6034863073748329,0.0028704188341447,-0.2379066125378942,0.811243755562906,0.374343756154008,-0.0712409184578961,0.7161758964846499,11.199505738821244,-0.932310722957118,0.1801197005156234,-0.9668365595755212
2.4,0.6055586375502933,0.0801773701328628,1.7057243255974772,0.0265056105380713,0.1262603082207083,0.0247725819343361,-0.4295295388009713,0.002373567056156,-0.2449736107127843,0.5924574561006222,0.0802924164973679,1.6977806896437664,-0.4541039855920106,-0.0015161712108612,-0.2199532347383543,0.7818541136601623,0.2626964506321355,-0.0542753067934093,0.7343981351726577,11.222608853645395,-0.9405800034956996,0.1827248431486619,-0.9568418977869868
2.42,0.5970144103787391,0.0801897153907897,1.700912807687332,0.0244459354428661,0.1203106067219663,0.0242785968745941,-0.4252767765524203,-0.0005450794196716,-0.2368776636397207,0.5924574561006222,0.0802924164973679,1.6977806896437664,-0.4541039855920106,-0.0015161712108612,-0.2199532347383543,0.4799709444419775,0.2126381124275517,-0.1459323237913822,0.4047973536531815,10.79699503876236,-0.946026863928313,0.1854495306532533,-0.9495703960380368
2.44,0.5889636391788329,0.0801699339644743,1.6965000070841556,0.0221112382542279,0.1155350692181159,0.0238319365658359,-0.4225083500842151,-0.0013440607179533,-0.2279254537309645,0.5924574561006222,0.0802924164973679,1.6977806896437664,-0.4541039855920106,-0.0015161712108612,-0.2199532347383543,0.4702249952823007,0.1384213234102566,-0.0399490649140879,0.4476104954378113,10.79699503876236,-0.951998555606853,0.1881895444343947,-0.9422445327550664
2.46,0.5805312932302683,0.0801443972221789,1.692056227389517,0.0198707048235791,0.1117109269752145,0.0234303355851452,-0.4209890052246772,-0.0011836784937583,-0.2168521629888715,0.587916416244702,0.0802772547852593,1.6955811572963828,-0.45796808914769,-0.0025112200914383,-0.2120115670027777,0.5589094271860268,0.0759672429768987,0.0080191112097504,0.5536645371046506,10.89610500980325,-0.9570989883024104,0.1909172204903185,-0.9355501028367617
2.48,0.5721161393297761,0.0801288302994278,1.687846585532668,0.0180377330438989,0.1094808276500158,0.023111411144563,-0.4206545807717187,-0.0004307576894561,-0.2046178427144161,0.5788343365328619,0.0802469313610421,1.691182092601616,-0.4656962962590486,-0.0045013178525924,-0.1961282315316244,0.6131013823794521,0.0167212226479251,0.0376460402151122,0.6117160137227697,10.9872136213271,-0.9612300197911502,0.1935156410848632,-0.9296161222673892
2.5,0.5637072278734178,0.0801343491368185,1.683890769178127,0.0167087068815376,0.1089049874389491,0.0228752423367344,-0.4200780131562776,0.0008908724082797,-0.1915699161616497,0.5697522568210216,0.0802166079368248,1.6867830279068488,-0.4734245033704072,-0.0064914156137466,-0.1802448960604712,0.6563678916141499,0.0288283807720557,0.0660815048867917,0.6523963276383173,11.04826462181245,-0.9646955640931112,0.1959255352360246,-0.9241458261426072
2.52,0.5557386190052626,0.0801695130888443,1.6803789498132755,0.0160483461644071,0.1093570557787056,0.0227230232206096,-0.4186615395292313,0.0026815200261062,-0.1787434762102795,0.5602837667536135,0.0800867796245499,1.6831781299856392,-0.4811527104817659,-0.0084815133749008,-0.1643615605893179,0.6514030592756126,0.0708236813523111,0.0895323808913271,0.6413219975685099,11.080252793578438,-0.9669390096757448,0.1979779951762905,-0.919861900941254
2.54,0.5473890457590954,0.0802465751834292,1.676946868685192,0.0161360363973711,0.1103698679027017,0.0226385382543857,-0.4162982587611156,0.0048792215744433,-0.1651344895577241,0.5508152766862053,0.079956951312275,1.67957323206443,-0.4888809175931246,-0.010471611136055,-0.1484782251181647,0.6993202159846754,0.118164038405788,0.1098850774168536,0.6804493326277722,11.096830512277847,-0.9682558028349024,0.1993775265919791,-0.9166427387258208
2.56,0.539093958761944,0.0803680634192878,1.6737863978050795,0.01711849678461,0.1115681683049698,0.0226315564846514,-0.4132817547352967,0.007086821938231,-0.15159569493399,0.5411535814410132,0.0797773705559712,1.6763654175299991,-0.4966091247044831,-0.0124617088972091,-0.1325948896470114,0.702267320483495,0.1508252012909411,0.1103800181893877,0.6769397311867028,11.095252238676949,-0.9688825148625928,0.1999851055782144,-0.9144055603442258
2.58,0.5308654665774954,0.0805303126575431,1.6708960419670968,0.0189924049109436,0.1127138114101884,0.0226972859470059,-0.4097027480741722,0.0089265542734255,-0.1381133405239988,0.5312986810180371,0.0795480373556385,1.6735546863823474,-0.5043373318158418,-0.0144518066583633,-0.1167115541758582,0.7035051246830849,0.1789503330562297,0.0919866167597228,0.6741177204995632,11.079263707587415,-0.969312195966439,0.1998597073302552,-0.912501351392374
2.6,0.523119091295996,0.0807088202459031,1.6683998038973191,0.021391782868083,0.1136080010912918,0.0228088695612415,-0.4058872896999351,0.0095566909880143,-0.1253236191066761,0.5103803291737868,0.0809766403712144,1.6639903749408969,-0.4133428328344357,-0.0049859837930808,-0.1187379901976991,0.6680789040549976,0.1907729187118512,0.0315068357294411,0.639486070866134,11.079263707587415,-0.9696894405194264,0.1990142466727324,-0.9109779688736694
2.62,0.5150013160527104,0.0809083216120409,1.665935395862537,0.0244099343535913,0.1153585412206667,0.0229889175421714,-0.4059861296261277,0.0100934429742288,-0.1223202208134528,0.5103803291737868,0.0809766403712144,1.6639903749408969,-0.4133428328344357,-0.0049859837930808,-0.1187379901976991,0.1526292348589489,-0.0049419963096264,0.026837599310723,0.1501699146611627,11.076167762846126,-0.9635389094951968,0.19689474002593,-0.9168410489281398
2.64,0.5068958952495985,0.0810998858294804,1.6635161308413935,0.0276375338429392,0.1185687766060903,0.0232329629388105,-0.4043088720894516,0.008955248870858,-0.1196640655703723,0.5103803291737868,0.0809766403712144,1.6639903749408969,-0.4133428328344357,-0.0049859837930808,-0.1187379901976991,0.1670616602981415,0.083862876833804,-0.0569097051685408,0.1328077621540233,10.409107948250494,-0.962084721103197,0.1945934861735826,-0.9186566270041988
