t,x,y,z,roll,pitch,yaw,v_x,v_y,v_z,ref_x,ref_y,ref_z,ref_v_x,ref_v_y,ref_v_z,a_com,a_x,a_y,a_z,thrust,wind_x,wind_y,wind_z
0.0,1.8516581780593169,-1.8555842203145,3.00305761234897,0.0226670240236576,0.0995400176896362,0.0415964803526949,0.0002531895643235,-0.0045088240782975,-0.0002613917695253,1.8516691665051492,-1.8557821185130237,3.003047501291227,-0.0996703051354923,0.094086842038075,-0.1003098714673192,0.2261742977312706,0.0126594782161791,-0.2254412039148756,-0.0130695884762679,10.25995497200256,-0.9405181451735576,0.2578678461219029,-0.8792193366306268
0.02,1.851825024816067,-1.8559073401800985,3.0029408090872383,0.0130635571031091,0.0942416078306801,0.0408518624383419,0.0157800542512427,-0.0234227538610225,-0.0117732293723652,1.8516691665051492,-1.8557821185130237,3.003047501291227,-0.0996703051354923,0.094086842038075,-0.1003098714673192,1.352167400718113,0.776343234345959,-0.945696489136254,-0.5755918801419949,10.259090189721974,-0.9465830772864068,0.2602818783586503,-0.877863222687371
0.04,1.8522525532856011,-1.8563749285375637,3.002524099898116,-0.0034242948918863,0.0791155266556164,0.0397030600538284,0.0247864717750273,-0.0216286120113864,-0.0294947240907506,1.8516691665051492,-1.8557821185130237,3.003047501291227,-0.0996703051354923,0.094086842038075,-0.1003098714673192,0.9979803062224116,0.4503208761892286,0.0897070924818095,-0.8860747359192699,9.616019602259712,-0.9521850447769086,0.2756159951677522,-0.8639179763109687
0.06,1.852744193143558,-1.8567253382304576,3.001726888778897,-0.0202602446312882,0.0580366320863718,0.0389201169235626,0.0228919172144025,-0.0131538017321476,-0.0492916776349134,1.8506724634537943,-1.8548412500926428,3.002044402576554,-0.1196703054335155,0.1140868423360982,-0.1203098717653424,1.080892126766142,-0.0947277280312413,0.4237405139619369,-0.9898476772081382,9.218045152083503,-0.9621379327944978,0.2881913657524667,-0.8482885620819586
0.08,1.8530779368439128,-1.8568680686092645,3.0005942582230456,-0.0356199533023788,0.0362189872580721,0.0386609308554877,0.0117785913569943,-0.0020171170766341,-0.0689638436218852,1.8486790573510847,-1.8529595132518808,3.000038205147208,-0.159670306029562,0.1540868429321447,-0.1603098723613889,1.2594898484587531,-0.5556662928704105,0.5568342327756763,-0.9836082993485936,9.1032572263548,-0.9761587097407444,0.2993608623422445,-0.8298548427612404
0.1,1.853116605631644,-1.856762260057956,2.998989802638837,-0.0510136925421607,0.0141502109420714,0.0388280831862191,-0.007823731448382,0.0123168408308879,-0.0905215066874174,1.846685651248375,-1.85107777641112,2.9980320077178613,-0.1996703066256084,0.1940868435281911,-0.2003098729574353,1.6236119036794203,-0.9801161402688194,0.7166978953761055,-1.0778831532766084,9.053113937139187,-0.991413654249497,0.3086435821451414,-0.8115172067997831
0.12,1.852691600250837,-1.8563434698596808,2.996947494448255,-0.0656462413394521,-0.0050994832578549,0.0392835808335873,-0.0339444748893183,0.0291366894359504,-0.1126871750077897,1.8426922451158627,-1.847196039540556,2.9940258102587127,-0.2396703072216549,0.2340868441242375,-0.2403098735534818,1.9082173599286256,-1.3060371720468114,0.8409924302531233,-1.1082834160186137,9.053113937139187,-1.0055898430075707,0.3163249687458979,-0.7957372686324395
0.14,1.8516895062051548,-1.855547471851469,2.9944525799175974,-0.0790542893286396,-0.020300505816128,0.0398620557299341,-0.0648147416811472,0.0495509824913834,-0.1357189245698307,1.8386988389833503,-1.843314302669992,2.990019612799564,-0.2796703078177014,0.2740868447202841,-0.2803098741495283,2.179551685920969,-1.5435133395914478,1.0207146527716506,-1.1515874781020514,9.071389392614035,-1.0167735849974688,0.3222347112390356,-0.7844930049522977
0.16,1.8501302495629892,-1.854374283722681,2.991647708367686,-0.0898258451035648,-0.0304232031678302,0.0404022961493973,-0.0975683539119112,0.0724322538874143,-0.1583601658552626,1.8337054328359368,-1.838432565784527,2.9850134153255143,-0.3196703084137478,0.3140868453163305,-0.3203098747455747,2.2961802530546347,-1.637680611538201,1.144063569801542,-1.132062064271594,9.095420094856308,-1.0250227520401116,0.3269193231141437,-0.7778259424707101
0.18,1.8477920250496995,-1.852655313881272,2.9882230215351786,-0.0988140174722992,-0.0359730129997012,0.0407871571889745,-0.1345398518882108,0.097922708770353,-0.1829290563849594,1.8277120266736229,-1.8325508288841608,2.979007217836563,-0.3596703090097942,0.3540868459123769,-0.3603098753416211,2.5594361364424008,-1.8485748988149795,1.2745227441469351,-1.2284445264848385,9.095420094856308,-1.0290567868196103,0.3297275793137956,-0.7779158671163718
0.2,1.8447055289449257,-1.8504114782267045,2.9843045423479717,-0.1054206929837825,-0.0358980816599563,0.0408229788223407,-0.1715158556446685,0.12464113999023,-0.2075624277973632,1.841065032455289,-1.8477591784427545,2.979076568715931,-0.234539853378327,0.1979227102604691,-0.2829290578750755,2.592249220170731,-1.8488001878228824,1.3359215609938524,-1.231668570620191,9.104948581478313,-1.0302541257519704,0.3301726144702176,-0.7834610372136042
0.22,1.8410596636087404,-1.847634719609876,2.9803330002166533,-0.1058097559757316,-0.0304059968791704,0.0406984523989383,-0.2094053509177857,0.1639602730705239,-0.2088642221399031,1.841065032455289,-1.8477591784427545,2.979076568715931,-0.234539853378327,0.1979227102604691,-0.2829290578750755,2.7309809349150105,-1.8944747636558623,1.965956654014696,-0.0650897171269954,9.113785486008055,-1.0334156853997494,0.327343817833657,-0.7852578127318378
0.24,1.836505614085419,-1.8440091094108644,2.976136242359201,-0.1001427004643818,-0.0196826872594706,0.0404969439383293,-0.243220075730885,0.1953141479617305,-0.2107689208109781,1.841065032455289,-1.8477591784427545,2.979076568715931,-0.234539853378327,0.1979227102604691,-0.2829290578750755,2.307666008062398,-1.6907362406549635,1.5676937445603265,-0.0952349335537505,10.59474862019124,-1.0306925084890015,0.3229319345659386,-0.7909599023132889
0.26,1.831339637330932,-1.8398346791668871,2.971859606721136,-0.0928554180831713,-0.0062192370844314,0.0402102664983465,-0.2710720706711562,0.2202544704162577,-0.2166848911113644,1.8387196339215055,-1.8457799513401496,2.9762472781371803,-0.2545398536763502,0.2179227105584923,-0.3029290581730987,1.8925855402621403,-1.3925997470135565,1.2470161227263603,-0.2957985150193132,10.293840822667336,-1.0247726453522557,0.3180939267553059,-0.8003965357272215
0.28,1.8256763270032816,-1.8352026784212805,2.9674238960236345,-0.0857605367945874,0.0081846097250716,0.0399195806747497,-0.2934328359419538,0.2417009714023548,-0.226565920920695,1.8340288368539392,-1.8418214971349405,2.970588696979678,-0.2945398542723966,0.2579227111545388,-0.3429290587691451,1.6260311944541954,-1.1180382635398805,1.0723250493048575,-0.4940514904665308,9.987244496462154,-1.016028119425914,0.3128483277947926,-0.8139241127773807
0.3,1.8199287044611852,-1.8304272782960955,2.9629908182293967,-0.0798071482144029,0.0214918092417046,0.039705314128493,-0.3102294280341266,0.2600301858987008,-0.239599190017629,1.8293380397863728,-1.837863042929731,2.964930115822177,-0.3345398548684431,0.2979227117505852,-0.3829290593651916,1.4035238805565398,-0.8398296046086412,0.9164607248172972,-0.6516634548466987,9.725003837909751,-1.0056707601756345,0.307967512586063,-0.8293488498816748
0.32,1.8135739183258317,-1.825039483182636,2.9580223611542555,-0.0745744331936437,0.0341898577576765,0.0395824018598056,-0.324147667562746,0.2778925162858882,-0.2567555015028754,1.822647242689004,-1.8319045886947192,2.957271534634873,-0.3745398554644895,0.3379227123466317,-0.422929059961238,1.4204922229775332,-0.6959119764309712,0.8931165193593715,-0.8578155742623202,9.501453607173971,-0.9946129016101404,0.3038055032395775,-0.8450109341271163
0.34,1.8069749949374128,-1.8193045293868404,2.95268450654151,-0.0704228627138314,0.04491297689777,0.0395807868575115,-0.3350254170714032,0.2949089749789811,-0.2762155837255198,1.815956445591635,-1.8259461344597077,2.949612953447569,-0.414539856060536,0.3779227129426782,-0.4629290605572845,1.4023017693589606,-0.543887475432861,0.8508229346546436,-0.9730041111322196,9.310625509466265,-0.98470680702484,0.3003442402933404,-0.8589602950406915
0.36,1.8005209219730525,-1.8135379601327697,2.94723668049343,-0.0670731179740862,0.053158591261272,0.0397028809612145,-0.3438061066780285,0.3112233193889953,-0.2962958669644233,1.808265648479365,-1.8189876802097944,2.9409543722453644,-0.4545398566565825,0.4179227135387246,-0.5029290611533309,1.3660857572376683,-0.4390344803312629,0.8157172205007085,-1.004014161945174,9.211218583871414,-0.9749553922983228,0.2970907560400687,-0.8725046837606159
0.38,1.7935582071294391,-1.807137099553751,2.9410742582956817,-0.0638501149851894,0.0599819358264428,0.0399528520866448,-0.3519781153746294,0.3279473575838486,-0.3189776341229436,1.799574851352194,-1.8110292259449807,2.9312957910282584,-0.4945398572526288,0.457922714134771,-0.5429290617493774,1.4670870297238388,-0.4086004348300448,0.8362019097426648,-1.134088357926019,9.139710803635351,-0.9662417652241492,0.2940353947149958,-0.8845690818042115
0.4,1.7864398263395826,-1.8004064029515212,2.934444328797045,-0.06080523338799,0.0651523316526675,0.0403064116475591,-0.3594509993883979,0.3442054753624497,-0.3429406087569317,1.7759593013607076,-1.7907397316745586,2.925125376589534,-0.4519781168647455,0.4279473590739647,-0.4189776356130598,1.4953214892584623,-0.3736442006884249,0.8129058889300572,-1.1981487316994026,9.068130898948766,-0.9593865643461472,0.2911372295058876,-0.8942411477553054
0.42,1.7792121683100508,-1.7933423924034204,2.927636133557949,-0.0580519762712926,0.0684025982651393,0.0407593079645112,-0.363143530594413,0.3614156567249161,-0.3366881716118345,1.7759593013607076,-1.7907397316745586,2.925125376589534,-0.4519781168647455,0.4279473590739647,-0.4189776356130598,0.9339674773376389,-0.1846265603007546,0.8605090681233218,0.3126218572548578,10.74743684715395,-0.9651096733290756,0.2884005650242166,-0.8898406542538521
0.44,1.7722810799634086,-1.7863298973694277,2.92125385735811,-0.0561309408034713,0.0694319693940821,0.0412571375411382,-0.3664483330613859,0.3761324371107274,-0.3355451004001522,1.7759593013607076,-1.7907397316745586,2.925125376589534,-0.4519781168647455,0.4279473590739647,-0.4189776356130598,0.7563265763955545,-0.1652401233486478,0.7358390192905656,0.0571535605841194,10.74743684715395,-0.9631987763705118,0.2885435341493493,-0.8900765543196254
0.46,1.7649101428566214,-1.778648446624917,2.9145001908772348,-0.054919691306107,0.0684680077380046,0.0418315382146355,-0.3705871295977509,0.3912674144842369,-0.340135954349196,1.77143952019206,-1.786460258083819,2.920935600233404,-0.4719781171627688,0.4479473593719879,-0.438977635911083,0.8174244871049569,-0.2069398268182476,0.756748868675472,-0.2295426974521924,10.341048436666824,-0.9626260897044676,0.2888394642691035,-0.8895405322144363
0.48,1.7574481625072862,-1.7706697053649094,2.907598737292938,-0.0545093516702007,0.065505505675598,0.0424511155346666,-0.3755626075109314,0.4059204444345317,-0.3497479635096492,1.762399957854765,-1.7779013109023396,2.912556047521143,-0.5119781177588152,0.4879473599680343,-0.4789776365071294,0.910847664663829,-0.2487738956590268,0.7326514975147413,-0.4806004580226591,10.006298008291196,-0.9638970381147172,0.2893855244773227,-0.8874235535875945
0.5,1.749872979668815,-1.7624012195630674,2.9004675304476173,-0.0549236490112707,0.0607103663494806,0.0431074236727902,-0.3819910374863051,0.4202619742610307,-0.3628813491746352,1.7533603955174704,-1.7693423637208603,2.904176494808881,-0.5519781183548617,0.5279473605640808,-0.5189776371031759,1.0240727619875232,-0.3214214987686842,0.7170764913249472,-0.6566692832493004,9.563221824887478,-0.9664832907393056,0.2902695015585674,-0.8841935244821684
0.52,1.7425328350924405,-1.7542818473632178,2.893423754241815,-0.0561103796201131,0.0550447681480609,0.0437370323149453,-0.3905677186432797,0.4337616184343096,-0.3779050428633396,1.7423208331503732,-1.7587834165095786,2.893796942066818,-0.5919781189509081,0.5679473611601272,-0.5589776376992224,1.0971682010129118,-0.4288340578487287,0.6749822086639462,-0.7511846844352216,9.563221824887478,-0.9703053549673806,0.2915621866085911,-0.8798223067616636
0.54,1.7346054531564423,-1.7454576434846167,2.8856902799576525,-0.0582360801621895,0.048716659298636,0.0443672528435662,-0.4019293815226505,0.4480838273335103,-0.3946893031091073,1.731281270783276,-1.748224469298297,2.8834173893247543,-0.6319781195469546,0.6079473617561737,-0.5989776382952688,1.240891255443517,-0.5680831439685424,0.7161104449600358,-0.839213012288384,9.424607416316576,-0.9755038989699472,0.2933614391356897,-0.873946082758177
0.56,1.7264224576288747,-1.736324172245234,2.877614693367608,-0.0606376076252291,0.0427561329066537,0.0449707195475775,-0.4159370134657228,0.4645426701776255,-0.4120386810835209,1.7192417084012774,-1.736665522072114,2.87203783656779,-0.671978120143001,0.6479473623522201,-0.6389776388913152,1.3857382297163212,-0.7003815971536154,0.8229421422057598,-0.8674688987206802,9.37749956587868,-0.9809132087648617,0.2954317041548243,-0.8675476742656341
0.58,1.7179323137759812,-1.7268475817796511,2.8691859191695506,-0.0624372123539861,0.0379945280033248,0.0455533363391278,-0.4324500544648794,0.4820671965610292,-0.4299547329025401,1.706202146004378,-1.7241065748310302,2.859658283795924,-0.7119781207390474,0.6879473629482665,-0.6789776394873617,1.5006452452063912,-0.8256520499578285,0.8762263191701869,-0.8958025909509587,9.343460026518189,-0.9851157988224788,0.2969010543187209,-0.8626799794934529
0.6,1.7095382291311287,-1.717514021792123,2.860839716415977,-0.0632891186412872,0.0354000952581751,0.0460475303733797,-0.45033172067437,0.4993678210218198,-0.4476843344535859,1.6963098110527373,-1.7027442219515996,2.847688182524424,-0.5324500559549956,0.5820671980511454,-0.5299547343926563,1.527583356416098,-0.8940833104745277,0.8650312230395307,-0.8864800775522902,9.343460026518189,-0.9882260645075724,0.2977359368290241,-0.8592277244144843
0.62,1.700299270230522,-1.7072794720755262,2.851964443755839,-0.0618682411883798,0.036370364706467,0.0464893802491803,-0.4720898112241823,0.522894752748884,-0.4373457111244107,1.6963098110527373,-1.7027442219515996,2.847688182524424,-0.5324500559549956,0.5820671980511454,-0.5299547343926563,1.6836108169692416,-1.0879045274906185,1.1763465863532052,0.5169311664587589,9.317727459358592,-0.9987334558411892,0.2967018798407789,-0.8473342834358621
0.64,1.6906547745133376,-1.6966032717864197,2.8432988161591224,-0.0578023546615989,0.0412364074739125,0.0468724544697995,-0.4907182469731309,0.5428902983520992,-0.429807425373601,1.6963098110527373,-1.7027442219515996,2.847688182524424,-0.5324500559549956,0.5820671980511454,-0.5299547343926563,1.4174503646369994,-0.9314217874474257,0.999777280160763,0.3769142875404863,11.176487749758962,-0.9982160685630408,0.2956402588318384,-0.8461507084446904
0.66,1.680674744345081,-1.685569613137619,2.834712026027276,-0.0530772951187705,0.0483384799250551,0.0471849931434031,-0.5059500999244775,0.5593346049763755,-0.429201489496002,1.6909853104931871,-1.6969235499710882,2.842388635180497,-0.5524500562530188,0.6020671983491686,-0.5499547346906795,1.1211508852206578,-0.7615926475673301,0.8222153312138158,0.0302967938799469,10.729914191159878,-0.9942066698123102,0.2934765510490618,-0.8501040054672445
0.68,1.6709424088850868,-1.6748046223303188,2.82650733111059,-0.048808825440159,0.0560041181480056,0.0474373138699574,-0.5174962217207016,0.5730259007597581,-0.4344641179225452,1.6803363093740873,-1.6852822060100652,2.831789540492644,-0.5924500568490653,0.642067198945215,-0.5899547352867259,0.9333538540087192,-0.5773060898112081,0.6845647891691287,-0.2631314213271563,10.292485967574066,-0.9881122067549196,0.2909058207595376,-0.8572930330008653
0.7000000000000001,1.660489820867845,-1.6632067100576382,2.817712200208277,-0.0448971148995036,0.0641124059876049,0.0476805692986979,-0.5269466320981138,0.586095641682191,-0.4450082695363177,1.6696873082549877,-1.6736408620490424,2.8211904458047905,-0.6324500574451117,0.6820671995412615,-0.6299547358827724,0.9634670691508306,-0.4725205188706061,0.6534870461216424,-0.5272075806886267,9.936249173286342,-0.9812543968418296,0.2884237191794718,-0.8656333327504651
0.72,1.649872324730388,-1.6513559471974566,2.808658848186315,-0.0416670567831714,0.0715920603883266,0.0479192617286667,-0.5342017501107101,0.598389874487075,-0.4599894883126162,1.6570383071060852,-1.6599995180582172,2.808591351087135,-0.6724500580411582,0.722067200137308,-0.6699547364788189,1.03467605275843,-0.3627559006298186,0.6147116402442032,-0.7490609388149244,9.649338768572306,-0.9739649681899396,0.2860423874703537,-0.8747587169297422
0.74,1.6391302679236064,-1.6392658604892227,2.7992766546980734,-0.0391034387963942,0.0779833854515982,0.0481640709248679,-0.5396224080619313,0.6101334485799235,-0.4774892757579574,1.644389305957183,-1.646358174067392,2.79599225636948,-0.7124500586372047,0.7620672007333544,-0.7099547370748653,1.0880459844722548,-0.2710328975610576,0.5871787046424215,-0.8749893722670599,9.421468388320136,-0.9675742968421306,0.2839323514521592,-0.8830246545089728
0.76,1.628833498354434,-1.6275577885431125,2.790023265390798,-0.0369518046042407,0.0829570020030716,0.0484207037885067,-0.5439615871082186,0.6216313201918423,-0.4956858092685368,1.6307403047933795,-1.6317168300616656,2.7823931616369237,-0.752450059233251,0.8020672013294008,-0.7499547376709117,1.0978881525473647,-0.2169589523143666,0.5748935805959421,-0.9098266755289686,9.312098749066536,-0.9614084917705156,0.2818440590775609,-0.8910348580108086
0.78,1.6179120613624598,-1.6150001974937749,2.7798935953268646,-0.0347236048302363,0.0871592782375477,0.0487237504318214,-0.5479283965013644,0.6334367626208627,-0.5164011125005639,1.6160913036146751,-1.616075486041038,2.7677940668894654,-0.7924500598292975,0.8420672019254473,-0.7899547382669582,1.2085402720858078,-0.1983404696572877,0.5902721214510187,-1.035765161601354,9.236350216379831,-0.9558941134103154,0.2796694698748678,-0.8983655399025321
0.8,1.6069160646503184,-1.602209568712717,2.769333894301269,-0.0324370630128381,0.0904306970624285,0.0490577736046867,-0.5514738575121472,0.64490629895145,-0.5385356344751002,1.5905156415373916,-1.5833283593627316,2.7540735397018365,-0.6479283979914805,0.7334367641109788,-0.61640111399068,1.259025039920649,-0.1772730505391395,0.5734768165293669,-1.106726098726818,9.15846437845903,-0.9513306503370672,0.2774895320538389,-0.9046181737808536
0.8200000000000001,1.5964281337327364,-1.5898337381933392,2.759192764501953,-0.0299865170721211,0.0929923086540534,0.0494052665719463,-0.5522781149719718,0.6569827491778109,-0.5278271468039375,1.5905156415373916,-1.5833283593627316,2.7540735397018365,-0.6479283979914805,0.7334367641109788,-0.61640111399068,0.808021021284252,-0.0402128729912298,0.6038225113180418,0.5354243835581363,9.095835368912049,-0.9549084077201404,0.2740206759364347,-0.904101703683636
0.84,1.5853830958430877,-1.5765850313643257,2.748708587184156,-0.0276336079628867,0.0951006207055269,0.0497638838278358,-0.5522247712274609,0.6673599442270529,-0.5216053599524667,1.5905156415373916,-1.5833283593627316,2.7540735397018365,-0.6479283979914805,0.7334367641109788,-0.61640111399068,0.604978624147637,0.0026671872255412,0.518859752462103,0.3110893425735395,11.058999503159612,-0.9526484482038908,0.2739882594550307,-0.9044536325693168
0.86,1.5743405301945608,-1.5631349817889812,2.738266469732517,-0.0259099508957618,0.0962322995961617,0.0500945323154811,-0.5521446164399944,0.6772290387770991,-0.5228863778934459,1.5840363575574767,-1.575993991721622,2.7479095285619297,-0.6679283982895037,0.753436764409002,-0.6364011142887032,0.4976104374729668,0.0040077393733295,0.4934547275023071,-0.0640508970489617,10.598942691088268,-0.950418870650258,0.2737949686575912,-0.9056539341097164
0.88,1.5638491285960476,-1.5501796610752352,2.728269499365522,-0.0248282021567547,0.0963204190623224,0.0503838090249487,-0.5523256003656236,0.6860533825392328,-0.5293493206080581,1.571077789597647,-1.5613252564394022,2.735581506282116,-0.7079283988855501,0.7934367650050484,-0.6764011148847496,0.5469721806134249,-0.0090491962814631,0.4412171881066851,-0.3231471357306059,10.197219320503793,-0.9490097012398824,0.2736220815794853,-0.906449690681952
0.9,1.552798146014486,-1.5363679948038609,2.717571131211627,-0.0244559683994287,0.0953333749638305,0.0506493809310876,-0.5528326912400842,0.6946984306940437,-0.5403297190859816,1.5581192216378177,-1.5466565211571828,2.7232534840023024,-0.7479283994815966,0.8334367656010949,-0.7164011154807961,0.6992194746428809,-0.0253545437230273,0.4322524077405465,-0.5490199238961768,9.896191055818235,-0.9487635857497948,0.2738113169209222,-0.9062637113411972
0.92,1.541733682128133,-1.5223869205717488,2.7066171103473904,-0.0250635715673549,0.0930943428665119,0.0508671264902664,-0.5536753293214942,0.703049271095877,-0.5546468530932938,1.5431606536481857,-1.529987785845161,2.7089254616926866,-0.7879284000776431,0.8734367661971414,-0.7564011160768426,0.8297995247896752,-0.0421319040705026,0.4175420200916657,-0.715856700365608,9.487181943035466,-0.949522337699024,0.2744657301966207,-0.9052929765576178
0.94,1.5306487435713387,-1.508239385790635,2.695361620211936,-0.0267741177312448,0.0894184455021009,0.0510396975045704,-0.5549198012354601,0.7114206304180719,-0.5701648546041099,1.5282020856585536,-1.513319050533139,2.6945974393830707,-0.8279284006736896,0.913436766793188,-0.796401116672889,0.8837940061683527,-0.0622235956982963,0.4185679661097452,-0.7759000755408085,9.487181943035466,-0.95174257249461,0.2758520008770297,-0.9026715283472384
0.96,1.5200819706628104,-1.4946292894650168,2.684377368166268,-0.0290712122467072,0.0846682940602668,0.0511940969781823,-0.5575325728931964,0.7209055672854329,-0.585289298405527,1.5122435176540203,-1.495650315206216,2.6792694170585536,-0.8679284012697359,0.9534367673892342,-0.8364011172689354,0.9021355267024967,-0.1306385828868106,0.474246843368048,-0.7562221900708543,9.414411808084878,-0.9548220767212816,0.2778579684144084,-0.8989832872525856
0.98,1.5088810095706873,-1.4800915288406755,2.672499293965765,-0.0313742262931143,0.0789525915499125,0.051393770614006,-0.5626475353604953,0.7323173277475298,-0.601736433191425,1.4952849496345864,-1.4769815798643915,2.662941394719135,-0.9079284018657824,0.9934367679852806,-0.8764011178649819,1.033077151707038,-0.2557481233649461,0.5705880231048455,-0.8223567392948994,9.414411808084878,-0.9594125735470522,0.2799873196401259,-0.8933677675549448
1.0,1.4975534382348854,-1.4653162286006676,2.6602881962102005,-0.0330941279137445,0.0732266004747619,0.0516410778465163,-0.5699978788411032,0.7445191212348093,-0.6185526889235751,1.4807486328026624,-1.4434756624532992,2.642412472306194,-0.6626475368506114,0.8323173292376459,-0.7017364346815411,1.1019275956683854,-0.3675171740303962,0.6100896743639783,-0.8408127866075032,9.36607796545195,-0.9645599409580372,0.2816033296060819,-0.8872879313522802
1.02,1.4860192647980186,-1.4502401297777612,2.648069962931749,-0.0326101954924044,0.06996077761796,0.0519573230312219,-0.5830465135876293,0.7617759965322326,-0.6023806248583697,1.4807486328026624,-1.4434756624532992,2.642412472306194,-0.6626475368506114,0.8323173292376459,-0.7017364346815411,1.3505575421915292,-0.6524317373263033,0.8628437648711629,0.8086032032602664,9.36607796545195,-0.9715257188504876,0.278456726043975,-0.8845938294383789
1.04,1.4748191945727929,-1.4356235128017398,2.6367314824976518,-0.0297427889587437,0.0709367408029308,0.0522797078250477,-0.5947409425130966,0.7757023706041465,-0.5919957498742665,1.4807486328026624,-1.4434756624532992,2.642412472306194,-0.6626475368506114,0.8323173292376459,-0.7017364346815411,1.0470783054756887,-0.5847214462733674,0.6963187035956941,0.5192437492051616,11.427411584209947,-0.9745449614122282,0.2787714917845584,-0.878147187807776
1.06,1.4628191445787633,-1.4199869195863164,2.624938716695771,-0.0256311636577266,0.0746835956382874,0.0526076759748831,-0.6043239692437106,0.7869793731416068,-0.5881341672066162,1.4741221574341563,-1.4351524891609226,2.6353951079593787,-0.6826475371486346,0.8523173295356691,-0.7217364349795643,0.76471728149795,-0.4791513365306976,0.5638501268730167,0.1930791333825177,10.920278002964553,-0.9734912747948756,0.2774752503033028,-0.8775573077243798
1.08,1.45065366427552,-1.404149554264606,2.613151492312277,-0.0216220738863732,0.0798489645746436,0.0528941950623717,-0.6115084765229114,0.7961786672014113,-0.591052220403687,1.460869206697144,-1.4185061425761698,2.621360379265748,-0.722647537744681,0.8923173301317155,-0.7617364355756108,0.6015795676894679,-0.3592253639600418,0.4599647029902232,-0.1459026598535417,10.451311822814205,-0.9698629876438551,0.2757294962336489,-0.8805321521931068
1.1,1.4383670609296657,-1.3881421298880208,2.601239437436112,-0.0181528715851869,0.0854246451259704,0.0531389949040046,-0.6166389026459368,0.8042076194796781,-0.5999882232542961,1.4476162559601318,-1.401859795991417,2.607325650572117,-0.7626475383407275,0.932317330727762,-0.8017364361716572,0.6531414353656528,-0.2565213061512694,0.4014476139133416,-0.4468001425304568,10.05994173561885,-0.9651743304815108,0.2740345335627278,-0.8851450014152321
1.12,1.4266165142998042,-1.3727934157355235,2.5897136623884323,-0.0154577378666941,0.090462242890965,0.0533368650829647,-0.6199430645971369,0.811167424346279,-0.6128080256948312,1.4323633051933171,-1.3832134493768615,2.591290921848684,-0.802647538936774,0.9723173313238084,-0.8417364367677037,0.7478363868441875,-0.1652080975600045,0.347990243330043,-0.6409901220267522,9.749032302886008,-0.9598584128774184,0.2722338482942457,-0.8909020184542359
1.14,1.414194644909921,-1.3564990510958643,2.5772932610246744,-0.013282828626278,0.0950406358811318,0.0535087118177896,-0.6220256686638997,0.8180118278040783,-0.6286658538912676,1.417110354426503,-1.3645671027623063,2.5752561931252504,-0.8426475395328205,1.0123173319198548,-0.8817364373637502,0.8698474198095427,-0.104130203338143,0.3422201728899676,-0.792891409821822,9.509251823698833,-0.9547059257040204,0.2703913074463825,-0.8970556899808036
1.16,1.4017382544992114,-1.340061443780017,2.564535681006877,-0.0114696110911388,0.0987055970797834,0.0536620194748528,-0.623507198704078,0.8253515693912569,-0.6463014004084852,1.400857403644787,-1.3449207561328502,2.558221464386916,-0.8826475401288668,1.0523173325159012,-0.9217364379597964,0.9579656032283372,-0.0740765020089129,0.3669870793589269,-0.8817773258608774,9.389637705107816,-0.9499355306450188,0.268633965302009,-0.9028911176219075
1.18,1.3892564655494986,-1.323476929275596,2.5514103990623305,-0.0096729087239287,0.1015462644981359,0.0538157939827671,-0.6246021470043608,0.8326298334488507,-0.665352009043275,1.38360445284817,-1.3242744094884926,2.540186735633681,-0.9226475407249132,1.0923173331119476,-0.961736438555843,1.0211485308566546,-0.0547474150141391,0.3639132028796898,-0.95253043173949,9.31101946655599,-0.9459468106200454,0.2668739447569835,-0.9079216430174044
1.2,1.3773808926270976,-1.3075894351100246,2.538575807205605,-0.0078977596621351,0.1035710108729145,0.0539644432006332,-0.6254151803059664,0.8392729747762225,-0.6847098638037343,1.3580263581992804,-1.2818454376031536,2.5181427986101665,-0.7246021484944769,0.9326298349389668,-0.7653520105333911,1.024108015264986,-0.0406516650802823,0.3321570663685935,-0.9678927380229684,9.243121876716032,-0.9422321514940598,0.264829275217967,-0.9128417078143164
1.22,1.3648792152102098,-1.2907207295577476,2.524975628519363,-0.0056020655039692,0.1056653574986253,0.054140748932978,-0.624448163704235,0.846981712634406,-0.6726480974470093,1.3580263581992804,-1.2818454376031536,2.5181427986101665,-0.7246021484944769,0.9326298349389668,-0.7653520105333911,0.7173666568053613,0.0483508300865742,0.3854368929091745,0.6030883178362534,9.178589183530676,-0.9431303393663416,0.2576590139235045,-0.9202733812710068
1.24,1.3524140152511397,-1.2737239755328076,2.5116212619416487,-0.0033373765300805,0.1079505948351916,0.0543030864491192,-0.6220970063452649,0.8523987501447764,-0.6639272954123759,1.3580263581992804,-1.2818454376031536,2.5181427986101665,-0.7246021484944769,0.9326298349389668,-0.7653520105333911,0.5266037989861625,0.1175578679485034,0.2708518755185185,0.4360401017316662,11.219563896770524,-0.9414491704486564,0.258182684753468,-0.9190914498594016
1.26,1.3400027489513613,-1.2566262133717077,2.498362134976853,-0.0016892666185652,0.1097216216743174,0.054413438598056,-0.6191883600645074,0.8571848165441961,-0.6627254090477084,1.3507803367143356,-1.272519139253764,2.5104892785048327,-0.7446021487925001,0.95262983523699,-0.7853520108314143,0.286405244364486,0.1454323140378743,0.2393033199709848,0.0600943182333779,10.748615285585402,-0.9391296957595286,0.2587951593740127,-0.9190002018289783
1.28,1.3282680722361302,-1.2403009457071756,2.485724037783658,-0.0008676268630364,0.1105312020639256,0.0544572470291546,-0.6162971884248409,0.8611312270198765,-0.6676271903471932,1.3362882937444462,-1.2538665425549846,2.4951822382941646,-0.7846021493885466,0.9926298358330364,-0.8253520114274607,0.3462675591235451,0.1445585819833228,0.1973205237840225,-0.245089064974241,10.316153865184788,-0.9375537844880358,0.2593513339965406,-0.9188817116854504
1.3,1.3159736961205537,-1.2230408688776442,2.4722749858844946,-0.0010392547081071,0.1102801087075458,0.0544212810627763,-0.6133750658473426,0.8647601912312914,-0.6772109495344936,1.3217962507745566,-1.2352139458562053,2.479875198083497,-0.824602149984593,1.032629836429083,-0.8653520120235072,0.5328147468065706,0.1461061288749177,0.1814482105707449,-0.4791879593650183,9.98600282501775,-0.936672852968932,0.2601166127130038,-0.9187317357917684
1.32,1.3037365759156634,-1.2057103040124224,2.4585966337013714,-0.0025218988320696,0.1086747399117255,0.0542878240918752,-0.6105608796307886,0.8682399051488723,-0.6902698275714542,1.3053042077748649,-1.2145613491276237,2.4625681578430267,-0.8646021505806395,1.0726298370251293,-0.9053520126195536,0.6902216104155604,0.1407093108276969,0.173985695879042,-0.6529439018480299,9.555300671480836,-0.9372424097162322,0.2615797803834118,-0.917376974553136
1.34,1.291556100084559,-1.1883063295759506,2.4446421343322102,-0.0054069134398766,0.10536740779896,0.0540619224968473,-0.6077919716227802,0.8724257189487346,-0.704501510278291,1.288812164775173,-1.193908752399042,2.445261117602557,-0.904602151176686,1.1126298376211758,-0.9453520132156,0.754534096963168,0.138445400400422,0.2092906899931135,-0.7115841353418417,9.555300671480836,-0.9392229202994324,0.2636164419665592,-0.914942324831966
1.36,1.280025615653167,-1.1716662462993888,2.431119870765604,-0.0085224797686939,0.1005423822842488,0.0538409595750523,-0.6063653981918807,0.8789389478121207,-0.718167260657669,1.2713201217605798,-1.172256155655559,2.4269540773471854,-0.9446021517727324,1.1526298382172222,-0.9853520138116464,0.7602795463052792,0.0713286715449734,0.3256614431693061,-0.6832875189689003,9.50445365116684,-0.9427572783098138,0.266208005872312,-0.9106095951352524
1.38,1.2678918618735535,-1.1540040158975564,2.416602580992179,-0.0114188843419018,0.0942694176115215,0.0536613139400663,-0.6073657941497673,0.8868738804842307,-0.7328458091610026,1.2528280787310857,-1.1496035588971751,2.407647037076913,-0.9846021523687788,1.1926298388132686,-1.0253520144076929,0.8357986221994382,-0.0500197978943295,0.3967466336054992,-0.7339274251666805,9.494004460628275,-0.9478232791855804,0.2685846064497686,-0.9045917994949936
1.4,1.255711544125441,-1.136175759105949,2.4017895803249445,-0.0136825571332992,0.0875500991927876,0.0535459863634713,-0.6108274606961237,0.8954326793172623,-0.7477159269810751,1.2375235721660651,-1.109660321873345,2.379960290534129,-0.7073657956398834,0.9868738819743468,-0.7970494663708758,0.8751522392208481,-0.1730833273178189,0.4279399416515839,-0.7435058910036263,9.47197573790254,-0.9537402408310508,0.2703592499429593,-0.8978841288748391
1.42,1.2434135467544472,-1.1181176707707174,2.3870621788568838,-0.0135509334711529,0.0827463527316832,0.0535745776602,-0.6188122868456408,0.9091136038009016,-0.7242444273483106,1.2375235721660651,-1.109660321873345,2.379960290534129,-0.7073657956398834,0.9868738819743468,-0.7970494663708758,1.4158358294448516,-0.399241307475856,0.6840462241819611,1.1735749816382255,9.458196705588309,-0.9590744075603844,0.2636218573322227,-0.9022333117226372
1.44,1.2315721735198235,-1.1007342658836443,2.3734860409888023,-0.0107359724131567,0.0817907316597228,0.0537265929457626,-0.6268170773500387,0.91973058210829,-0.7060629730378066,1.2375235721660651,-1.109660321873345,2.379960290534129,-0.7073657956398834,0.9868738819743468,-0.7970494663708758,1.1262350778631878,-0.400239525219892,0.5308489153694251,0.9090727155252,11.889035250155755,-0.9645713552254436,0.2651120978182064,-0.8915137538786335
1.46,1.218966330472827,-1.082257247240212,2.3595028032626475,-0.0065333892698041,0.083327349304376,0.0539325590742782,-0.6331017537324302,0.9271609232603536,-0.6935071625028592,1.2304499142096663,-1.0997915830536016,2.37198979587042,-0.7273657959379066,1.00687388227237,-0.8098901978128504,0.7942850638419087,-0.3142338191195748,0.3715170576031823,0.6277905267473738,11.412877859263972,-0.9665644073717956,0.2648924799958689,-0.8858446413768791
1.48,1.2062544053358146,-1.0636588656451196,2.345696540126313,-0.0025155944494446,0.0861468191042488,0.0541114633189471,-0.6376118384186926,0.9323705761463988,-0.6877126827486122,1.2163025982968685,-1.0800541054141146,2.3560488065430025,-0.7673657965339531,1.0468738828684163,-0.8355716606967998,0.4501592570766327,-0.225504234313123,0.2604826443022512,0.2897239877123481,10.953993749999428,-0.965774306365409,0.2639201587892575,-0.884578023747096
1.5,1.1941093489341337,-1.0459059448720427,2.3326372676385203,0.0006901266996418,0.0891657393078975,0.0542357280719167,-0.6405242224331062,0.9362395224459298,-0.6872283655934871,1.2021552823840709,-1.0603166277746277,2.340107817215585,-0.8073657971299996,1.086873883464463,-0.861253123580749,0.2433376729095574,-0.1456192007206813,0.1934473149765525,0.0242158577562545,10.261533484959728,-0.9636641932565222,0.2624393553467129,-0.8858103118509624
1.52,1.1812773975394335,-1.027146114837363,2.318859258596982,0.0032859957668273,0.092096749214955,0.0543090709163506,-0.6424847005544576,0.9396708737423128,-0.6907806962574056,1.1860079664414709,-1.0385791501053383,2.3228827547439703,-0.847365797726046,1.1268738840605093,-0.8869345864646982,0.2656910768604323,-0.098023906067568,0.1715675648191528,-0.1776165331959234,10.261533484959728,-0.9611662463903052,0.26098956007063,-0.8880724265491639
1.54,1.1684163684267577,-1.008321740755418,2.304987216420822,0.005065018466674,0.094366839878572,0.0543179857215707,-0.6435320859090222,0.9427110668524744,-0.6963083166702332,1.169860650498871,-1.0168416724360492,2.3056576922723555,-0.8873657983220925,1.1668738846565558,-0.9126160493486476,0.3197435599677454,-0.0523692677282305,0.1520096555080785,-0.2763810206413808,10.027367526156922,-0.9590071872077198,0.2595853896772712,-0.8905956850804437
1.56,1.155536279501144,-0.9894311463238412,2.2909916757705866,0.0062962287612818,0.0958724629608955,0.0542775863777771,-0.6444530301207246,0.9461821651360536,-0.7030140492888561,1.1527133345413698,-0.9941041947518588,2.287790593228641,-0.927365798918139,1.2068738852526022,-0.9382975122325968,0.3803403459002129,-0.0460472105851206,0.1735549141789527,-0.3352866309311475,9.934626473576827,-0.9573394519630756,0.2585253644660451,-0.892606066599403
1.58,1.1432832534156834,-0.9714200934312806,2.277561423513619,0.0072207095887203,0.0966928246735721,0.0542106547790968,-0.6453347686069796,0.949507604886682,-0.7103593515349813,1.1345660185689677,-0.9703667170527672,2.2692814576128293,-0.9673657995141854,1.2468738858486486,-0.963978975116546,0.4055535642185097,-0.0440869243127473,0.1662719875314244,-0.3672651123062587,9.87648737643758,-0.9561416497411304,0.2575343303576922,-0.8941651318497946
1.6,1.1303659457148731,-0.9523945255180408,2.263263375886442,0.0080006449429431,0.0970221659123051,0.0541144843872969,-0.6463899879847933,0.952845963536649,-0.7191058415930414,1.1110165149853344,-0.9239447131869464,2.24204345593687,-0.7453347700970957,1.049507606376798,-0.7341895418359228,0.4710605447998868,-0.052760968890686,0.1669179324983505,-0.4373245029030026,9.825746447384518,-0.9554095556579378,0.2566455824089049,-0.8952446352869627
1.62,1.117432816747995,-0.9332804357039838,2.2490642758761035,0.0094376177278018,0.0975046264701467,0.054056075021262,-0.6466712861827635,0.9581515585668876,-0.698896053768703,1.1110165149853344,-0.9239447131869464,2.24204345593687,-0.7453347700970957,1.049507606376798,-0.7341895418359228,1.044825333735082,-0.014064909898509,0.2652797515119376,1.0104893912169175,11.674674180290822,-0.957149881096783,0.250205310991161,-0.9011802354929328
1.64,1.1045085332302584,-0.9140840785190756,2.2352870827347098,0.0116111628647957,0.0984163721443977,0.054042717645292,-0.6457274336566702,0.9611284375546848,-0.6799914748887551,1.1110165149853344,-0.9239447131869464,2.24204345593687,-0.7453347700970957,1.049507606376798,-0.7341895418359228,0.958039363396896,0.0471926263046651,0.1488439493898485,0.9452289439973948,11.674674180290822,-0.9582282464366028,0.2511486021948216,-0.8968446196221593
1.66,1.0922557899369845,-0.8958092481357195,2.2225019507247645,0.0133430931529263,0.0990237603202948,0.0539949363217163,-0.6441523553448929,0.9625514740638051,-0.6667429936350923,1.103563167284363,-0.9134496371231784,2.2347015605185105,-0.7653347703951189,1.0695076066748213,-0.738955579896111,0.670872864489198,0.0787539155888639,0.0711518254560228,0.6624240626831424,11.362082172903683,-0.9588577507740272,0.2518410330177354,-0.8934748094023183
1.68,1.079393649802276,-0.8765528623692759,2.209277402749956,0.0143362366247602,0.098948742788428,0.0538683559486316,-0.6422415020731145,0.9630998474322404,-0.656569205291422,1.0886564718824214,-0.8924594849956425,2.2200177696817924,-0.8053347709911653,1.1095076072708678,-0.7484876560164877,0.5183098562618582,0.0955426635889211,0.0274186684217581,0.508689417183511,11.051633601665344,-0.9596661815383944,0.2524079640401324,-0.89079722934705
1.7,1.0665710673188058,-0.8572943592484917,2.1962197361797786,0.0139804718871965,0.0978194232165211,0.0536256449615838,-0.6402326249340828,0.962940386105401,-0.6496786750854329,1.0737497764804795,-0.8714693328681066,2.205333978845074,-0.8453347715872118,1.1495076078669142,-0.7580197321368642,0.3589582907321216,0.1004438569515819,-0.0079730663419652,0.3445265102994588,10.816606730069909,-0.9611905392426816,0.2535776962960847,-0.8876603249543162
1.72,1.0544273604267818,-0.8390043444883917,2.1839223413657014,0.0120769486805736,0.0954472799461848,0.0532670228195858,-0.6382764942801439,0.9625637277061893,-0.6451073757669825,1.0568430810487353,-0.8484791807107682,2.1901735842023364,-0.8853347721832583,1.1895076084629606,-0.7675518082572408,0.2493245683032517,0.0978065326969479,-0.0188329199605929,0.2285649659225175,10.635031391861048,-0.9640196490199632,0.2558731577394699,-0.8829878778976736
1.74,1.0416829802526144,-0.8197478582337421,2.1710701457053623,0.0084575268277015,0.0911957033725693,0.0527673671467727,-0.6364215570580684,0.963670674626688,-0.640326042905049,1.039936385616991,-0.82548902855343,2.175013189559599,-0.9253347727793048,1.2295076090590071,-0.7770838843776174,0.262332172632564,0.0927468611037762,0.0553473460249476,0.2390666430966748,10.512215318573908,-0.968379881041886,0.2591037073820736,-0.876744921942266
1.76,1.0289576407210204,-0.8004338066648266,2.1583200068626622,0.0044412007387505,0.0851275006749923,0.0522501075841996,-0.6366174139743161,0.9677320672410376,-0.6348811175094272,1.0220296901703456,-0.8014988763811906,2.1596144930138523,-0.9653347733753512,1.2695076096550535,-0.786615960497994,0.3397811150705059,-0.0097928458123897,0.2030696307174784,0.2722462697810901,10.505933769267358,-0.974347179414612,0.2631728245679847,-0.8677641839187439
1.78,1.016196291923373,-0.7810207932258929,2.145686590317212,0.0008822922817012,0.0781133673074406,0.051791415565277,-0.6397840478325426,0.9732567830371406,-0.6287136874311503,1.003122994708799,-0.7765087241940499,2.1439774945650965,-1.0053347739713976,1.3095076102511,-0.7961480366183706,0.4432472458747209,-0.1583316929113232,0.2762357898051459,0.3083715039138457,10.538351350427549,-0.98147263968694,0.2668288774022831,-0.8574305122160164
1.8,1.0039875476439322,-0.7624678257911556,2.133803116025685,-0.0018467371851314,0.0713223545361443,0.0514272842258215,-0.6453527581492821,0.9792611386708924,-0.6224694747926253,0.9842070895317456,-0.7323579540740359,2.1142509059456547,-0.7352853813076555,1.0732567845272567,-0.6280329018049773,0.5149102170365311,-0.2784355158369722,0.3002177816875895,0.3122106319262518,10.570904353688093,-0.9895163499060776,0.270194110564425,-0.8458534454397278
1.82,0.9909405008995285,-0.7427544433452258,2.121569529358968,-0.0020868432792519,0.0666721936476716,0.0512365922854052,-0.6593596360759637,0.9911140746666518,-0.6004240978125749,0.9842070895317456,-0.7323579540740359,2.1142509059456547,-0.7352853813076555,1.0732567845272567,-0.6280329018049773,1.4341228740636789,-0.7003438963340824,0.5926467997879714,1.102268849002519,10.587578768050662,-0.9961288801236426,0.268806399106249,-0.8405308621830505
1.84,0.9776083965654428,-0.7228370929530185,2.1097902346862765,0.0009576633974744,0.0669461356129168,0.051259074398171,-0.672562715025903,0.999652963275406,-0.578769443373503,0.9842070895317456,-0.7323579540740359,2.1142509059456547,-0.7352853813076555,1.0732567845272567,-0.6280329018049773,1.338056399508874,-0.6601539474969664,0.4269444304377146,1.0827327219535945,11.512951909508956,-1.00147370678255,0.2693496335477474,-0.831596046082345
1.86,0.9640452661024989,-0.7027923081015243,2.0984030257299,0.0051598140608469,0.0703679791034259,0.0513646811831161,-0.6827045429038746,1.0042405580994749,-0.5610031736465052,0.9768542357186688,-0.7216253862287634,2.1079705769276047,-0.754385648002678,1.09325678482528,-0.6278967446797427,1.0482640876571376,-0.5070913938985788,0.2293797412034282,0.8883134863498898,11.512951909508956,-1.002940215070904,0.2687011083499166,-0.8277767485472576
1.88,0.9510009665262804,-0.68368969229667,2.0878791779648505,0.0088040865355413,0.0751308572157774,0.0514574270645539,-0.6896495199544802,1.0064863405836322,-0.5476470600615944,0.9621485280925158,-0.7001602505382182,2.095409918891505,-0.7925861813927233,1.1332567854213265,-0.6276244304292735,0.7610223638182835,-0.3472488525302797,0.112289124207876,0.6678056792455422,11.235104287324248,-1.0017347507508676,0.2675952686038831,-0.8279732949300906
1.9,0.9371546149832474,-0.6635468493409177,2.077045975617545,0.01177549935238,0.0806221884425698,0.051510745933769,-0.6944418136952211,1.0078537946255417,-0.5365090587163668,0.9474428204663627,-0.6786951148476731,2.0828492608554057,-0.8307867147827684,1.1732567860173728,-0.6273521161788043,0.6101046709798451,-0.239614687037043,0.068372702095476,0.5569000672613789,10.991488549962924,-0.9992155556537852,0.2665446659474842,-0.8302556243480467
1.92,0.9232356834666952,-0.643382380287875,2.0664049384873846,0.0137122539772089,0.0857615797308208,0.0514963874685738,-0.6971595594252,1.008789317233977,-0.52814656934641,0.9308270861707072,-0.6552299791273256,2.0703022185318294,-0.8689872481728136,1.2132567866134192,-0.627079801928335,0.4421328218599935,-0.135887286498948,0.0467761304217662,0.418124468497838,10.804798252392176,-0.9964311352636288,0.2660146504221328,-0.8328738335467921
1.94,0.9092806521486592,-0.6232036248260591,2.055916980015225,0.0145660472382212,0.0900043344985241,0.0513978466181391,-0.6982316968663949,1.0092243664550646,-0.5210710371019462,0.914211351875052,-0.6317648434069781,2.057755176208253,-0.9071877815628588,1.2532567872094658,-0.6268074876778659,0.3584756025869381,-0.0536068720597415,0.0217524610543806,0.3537766122231889,10.652493226790284,-0.9938633773517812,0.2658616262343602,-0.8353857422859999
1.96,0.8960104890985978,-0.6040203248286421,2.046077776498923,0.0144452473028249,0.0930359795994283,0.0512244772862714,-0.6986088634727419,1.0101008867835366,-0.5149904461660727,0.8966406042446454,-0.6072997076717295,2.045214941740939,-0.945388314952904,1.293256787805512,-0.6265351734273966,0.3077504210581823,-0.0188583303173506,0.0438260164235981,0.3040295467936771,10.585269734358915,-0.9918942659826008,0.266417503547286,-0.8369447224887624
1.98,0.8820383256660888,-0.5838055376171183,2.035842175601539,0.0135391863200484,0.0952388311881238,0.0509719073340279,-0.6986156197251623,1.0113795922311448,-0.5089022118627932,0.8781148432794879,-0.5818345719215797,2.0326815151298865,-0.983588848342949,1.3332567884015585,-0.6262628591769275,0.3110535733612434,-0.0003378126210207,0.0639352723804109,0.3044117151639769,10.551316319880245,-0.9908152774638328,0.2676348552625204,-0.8371864836472417
2.0,0.8680682499244932,-0.5635584072126936,2.0257259084735324,0.0120103897183174,0.0965055850740606,0.0506624964763761,-0.6984669639701347,1.0132996369027758,-0.5030251379381172,0.8471075446798306,-0.533236558005561,2.0103970650083998,-0.7339139187695329,1.035825099906554,-0.4847034730046894,0.3092275375458474,0.0074327877513769,0.0960022335815491,0.2938536962337978,10.535575444153435,-0.9905867716648036,0.2693461304186024,-0.836186253946289
2.02,0.8547057199846865,-0.5440146500328413,2.0163205467752863,0.0189412115242454,0.09981573384689,0.0509832938650442,-0.7070181918641482,1.038275107755137,-0.4872557216646064,0.8471075446798306,-0.533236558005561,2.0103970650083998,-0.7339139187695329,1.035825099906554,-0.4847034730046894,1.5375078311993804,-0.4275613947006706,1.2487735426180646,0.7884708136755403,10.524647483319312,-0.9902278193237324,0.2657445133782776,-0.8364314786290438
2.04,0.8405221279479371,-0.5231916811368699,2.006736927572702,0.0337060074029816,0.1070722113730184,0.0519658399902181,-0.7102981817977674,1.0418530201172038,-0.4720987883106564,0.8471075446798306,-0.533236558005561,2.0103970650083998,-0.7339139187695329,1.035825099906554,-0.4847034730046894,0.7957581597623676,-0.163999496680961,0.1788956181033363,0.757846667697501,11.25282060196514,-0.9878922836616708,0.2571839635378053,-0.8398803952224152
2.06,0.8263190011366547,-0.502386955507555,1.997412345374156,0.0491591284431412,0.1161754210641134,0.0531672411971919,-0.7094335329193449,1.038050602413097,-0.4613514783916557,0.8397684054921353,-0.5228783070064955,2.0055500302783527,-0.7409735785784071,1.040714201441636,-0.4798637252330686,0.5716438326758021,0.0432324439211262,-0.190120885205336,0.5373654959500346,11.044607342374547,-0.980994133569702,0.246673435675378,-0.8497303375644915
2.08,0.8121673536266572,-0.4816988624031073,1.9882575781168776,0.0640965375986505,0.1260009051939286,0.0544970142997944,-0.7054012402112542,1.030596388165427,-0.4547052460182718,0.8250901271167447,-0.5021618050083644,1.995855960818259,-0.7550928981961553,1.0504924045117998,-0.4701842296898271,0.5385097475786903,0.2016146354045345,-0.372710712383506,0.3323116186691954,10.77234633808439,-0.9722958017768788,0.2359220368450383,-0.8619935970232141
2.1,0.7988245335291315,-0.4622170581524205,1.979654177806076,0.0774611349438973,0.1354405118582231,0.0558281381628793,-0.6990318369602979,1.0203406757556963,-0.4512992144325318,0.810411848741354,-0.4814453030102333,1.986161891358165,-0.7692122178139036,1.0602706075819637,-0.4605047341465856,0.6271961136029335,0.3184701625478126,-0.5127856204865222,0.1703015792869994,10.568880129721038,-0.961768390259547,0.2241357247602918,-0.8766561522300758
2.12,0.7849428781838282,-0.441965389089348,1.9706441420153091,0.0899261515350064,0.1449620247655919,0.0571949747534176,-0.68923692576092,1.005491837495612,-0.4500051227846893,0.7950276043850759,-0.460239890858594,1.9769517966752328,-0.7833315374316518,1.070048810652127,-0.4508252386033441,0.891772050849966,0.489745559968896,-0.7424419130042215,0.0647045823921221,10.426441826665725,-0.9504466439137284,0.2122707005769107,-0.8924225258606715
2.14,0.7712939928254358,-0.422041225036055,1.961642966182222,0.1001295059268468,0.1532932099956479,0.0583784724653964,-0.6760257147240776,0.9879433730174362,-0.4502357457652215,0.7796433600287977,-0.4390344787069548,1.9677417019923011,-0.7974508570494001,1.079827013722291,-0.4411457430601026,1.0983372541721177,0.6605605518421209,-0.8774232239087965,-0.0115311490266084,10.306275151905538,-0.939170244696064,0.201120819592374,-0.9079885306043138
2.16,0.7579368728032351,-0.4024846169954765,1.9526306852356696,0.1080435115729426,0.1597677384021908,0.0592606038551217,-0.6603375119131366,0.9688776017265812,-0.4509860820106485,0.7639061326820761,-0.4175846114785614,1.9587735946979508,-0.8115701766671484,1.0896052167924546,-0.4314662475168611,1.2350975131883335,0.7844101405470483,-0.9532885645427424,-0.0375168122713515,10.306275151905538,-0.92939257217669,0.1918544986456691,-0.9211838374252354
2.18,0.7455573879928765,-0.3842720123732798,1.9440569419958995,0.1135559713440047,0.1638727349377641,0.0597486949817099,-0.6437178413504278,0.949615635349754,-0.4514564415900905,0.7478159223449106,-0.3958902891734139,1.950047474792181,-0.8256894962848966,1.0993834198626184,-0.4217867519736196,1.2722598363237108,0.8309835281354427,-0.9630983188413712,-0.0235179789720985,10.323204330228693,-0.9207630934870628,0.1836745822469931,-0.9327356780140832
2.2,0.7328765157993692,-0.3655012692846866,1.9350300145145327,0.1175602819113209,0.1660029621333312,0.0598773626276013,-0.6253785975024071,0.9287446490043196,-0.4511449245361409,0.7133714959253551,-0.3367912306057921,1.9214841199163948,-0.6613880983674442,0.9043999504292044,-0.4548392969178904,1.3892650744398676,0.9169621924010328,-1.043549317271708,0.0155758526974802,10.372698857341677,-0.9142669102026076,0.1770665790453193,-0.9416157104043928
2.22,0.7204918044970431,-0.3469977079456932,1.925925492780417,0.1246914525145834,0.1675127260983674,0.0601353634092887,-0.6139727700322193,0.9204890052839324,-0.4601134096197056,0.7133714959253551,-0.3367912306057921,1.9214841199163948,-0.6613880983674442,0.9043999504292044,-0.4548392969178904,0.8346889813154761,0.5702913735093906,-0.4127821860193725,-0.4484242541782368,10.445509182407475,-0.9082810769383384,0.1729946284605405,-0.944778815634123
2.24,0.7083534195076322,-0.3287739399146865,1.9166145548036908,0.1350801171536828,0.169560001996356,0.0606720381609698,-0.6003340015372722,0.9018319823468104,-0.470562212945641,0.7133714959253551,-0.3367912306057921,1.9214841199163948,-0.6613880983674442,0.9043999504292044,-0.4548392969178904,1.268146286789438,0.6819384247473526,-0.9328511468561008,-0.5224401662967698,9.766924285060668,-0.9021313487069538,0.1601335282705865,-0.955116099147525
2.26,0.6970944072425244,-0.31185106254524,1.9075812587177108,0.1450239856205595,0.1712016791131579,0.0611292051432794,-0.5855329576353784,0.8802333729417101,-0.4798461279340362,0.7067576149416807,-0.3277472311015,1.916935726947216,-0.6649221497708474,0.8953568134450947,-0.4555158679834504,1.3890301529589086,0.7400521950946926,-1.0799304702550083,-0.4641957494197601,9.826107443863291,-0.8947047700371102,0.1457161721197295,-0.9669504534958268
2.28,0.6855608139485566,-0.2945080523458923,1.897890884590202,0.1550504268556866,0.1721385729266498,0.0614377535884557,-0.5686263021750956,0.8549477738293437,-0.4886942262833873,0.6935298529743318,-0.3096592320929159,1.907838941008858,-0.671990252577654,0.8772705394768748,-0.4568690101145704,1.583891856885914,0.8453327730141402,-1.2642799556183193,-0.4424049174675537,9.90932470683856,-0.8874812656122765,0.1311706033048233,-0.9784299743477348
2.3000000000000003,0.6743779371355292,-0.2776990160976197,1.8880351889492315,0.1644283429161805,0.1719203991377442,0.0614807908715543,-0.5505404782637798,0.8270399341246418,-0.4964087849484683,0.6803020910069829,-0.2915712330843318,1.8987421550705004,-0.6790583553844606,0.8591842655086551,-0.4582221522456903,1.706940947229453,0.9042911955657872,-1.395391985235095,-0.3857279332540514,10.001557156892886,-0.8815833057125879,0.1173847611289565,-0.988441248243154
2.32,0.6641018005444788,-0.2622879956692014,1.8785405041054983,0.1720201073072312,0.1702318862527489,0.0611338033727809,-0.5321867006996867,0.7968860760318891,-0.5026183584717303,0.6667209238992937,-0.2743875477741587,1.8895777120255863,-0.6861264581912672,0.8410979915404354,-0.4595752943768103,1.792118238350134,0.9176888782046588,-1.5076929046376364,-0.3104786761630979,10.213617610147594,-0.8773616030488675,0.103810627630697,-0.997065234358426
2.34,0.6536682091962862,-0.2467055752300035,1.868428531642661,0.1781506054310256,0.1664157568395486,0.0602202709325671,-0.5122411032906726,0.7631865486616167,-0.5081510577627115,0.6531397567916044,-0.2572038624639856,1.8804132689806727,-0.6931945609980737,0.8230117175722156,-0.4609284365079303,1.9774325288278665,0.9972798704507012,-1.6849763685136188,-0.2766349645490606,10.213617610147594,-0.8753729747918556,0.0919615086190358,-1.0033183791418387
2.36,0.6436276257707446,-0.2318195881570805,1.8582224954668167,0.1821543965554654,0.1602844833397943,0.0586732894774496,-0.4932738234234772,0.727477818785885,-0.511990014959017,0.6393818871137451,-0.240472334003018,1.871214997382481,-0.7002626638048802,0.8049254436039959,-0.4622815786390502,2.030768750531159,0.9483639933597688,-1.7854364937865852,-0.1919478598152724,10.302473385309897,-0.8760014198965086,0.0833621833824167,-1.0060214576001516
2.38,0.6339430793794176,-0.2176663488303146,1.8479643049120449,0.1838294947443323,0.1524769618978062,0.0565984702189761,-0.4765675627364742,0.6902263174340247,-0.5135051468418945,0.6254473148657156,-0.2241929623912559,1.861982897231011,-0.7073307666116868,0.7868391696357762,-0.4636347207701702,2.042712121012321,0.8353130343501491,-1.8625750675930144,-0.0757565941438775,10.41969770061587,-0.8797696086591883,0.0770909076339272,-1.0055430108230123
2.4,0.625028752054206,-0.2049259060007605,1.8382125135449856,0.1830394579416503,0.1441570420913124,0.0542634821195882,-0.4629568170274208,0.6531912650645161,-0.5128167173187254,0.6101147012425939,-0.1831550329586133,1.8222890475699505,-0.5237870664074051,0.6404898772522926,-0.4753366308318485,1.9731456091588475,0.6805372854526703,-1.851752618475433,0.0344214761584582,10.68811784499303,-0.8856177263807524,0.0733927796112657,-1.003028335716177
2.42,0.6159023612174886,-0.1922678024274934,1.8279303670771747,0.1793344148588193,0.1346258948679624,0.0514662881891265,-0.4508149570082307,0.6152257205804759,-0.5154795868907288,0.6101147012425939,-0.1831550329586133,1.8222890475699505,-0.5237870664074051,0.6404898772522926,-0.4753366308318485,1.997434734260888,0.6070930009595049,-1.8982772242020107,-0.1331434786001728,10.68811784499303,-0.891802910832495,0.0727223152272622,-0.9996506248932788
2.44,0.6069946865539688,-0.1803471079087563,1.817640809088347,0.1734644490794077,0.1243487216294596,0.0484287160979298,-0.4409925284241816,0.5794381753555665,-0.51316078617965,0.6101147012425939,-0.1831550329586133,1.8222890475699505,-0.5237870664074051,0.6404898772522926,-0.4753366308318485,1.8591700656821164,0.4911214292024596,-1.7893772612454673,0.1159400355539408,10.72127197066402,-0.900557788344205,0.0739425063726442,-0.9940960074571384
2.46,0.5986894971237217,-0.1696691768247347,1.8079571821829816,0.1669631351375275,0.1143001491106892,0.0454967372496679,-0.4340661094829664,0.5468026620348153,-0.506188251610661,0.6048768305785199,-0.1767501341860904,1.817535681261632,-0.5332309671415913,0.6305425892159461,-0.4677029276298393,1.704162732380552,0.3463209470607575,-1.6317756660375604,0.3486267284494471,10.984062703159909,-0.91159543829044,0.076929943821422,-0.9858618332115774
2.48,0.5900613900773252,-0.1590827110167784,1.7979471338073894,0.1596566008255881,0.1038048884093921,0.0424774953684373,-0.4294372268297142,0.5138929208806906,-0.494951567960069,0.5944010892503718,-0.1639403366410445,1.8080289486449947,-0.5521187686099637,0.6106480131432532,-0.4524355212258209,1.7540956907424907,0.2314441326626115,-1.6454870577062353,0.5618341825295997,10.984062703159909,-0.92402260573352,0.0814418445544757,-0.975223556337478
2.5,0.5814967724602221,-0.1491415844641848,1.7881974184015257,0.1520858616587392,0.0937255508722256,0.0396001219574988,-0.4275458254789208,0.4822023963457124,-0.4803918271048504,0.5839253479222237,-0.1511305390959987,1.7985222160283578,-0.571006570078336,0.5907534370705604,-0.4371681148218025,1.7463195570563277,0.0945700675396676,-1.5845262267489113,0.7279870427609331,11.365685997285254,-0.9365684014706442,0.0867657497465404,-0.9636252473334004
2.52,0.5729415151920713,-0.1398200450189833,1.7787690667644949,0.1443294819904409,0.084368021632265,0.0369149507371711,-0.4283062830113529,0.4519331830606009,-0.4630995550719041,0.572505216520657,-0.1393154703545875,1.7897788537319217,-0.5898943715467083,0.5708588609978675,-0.4219007084177841,1.7434350006665127,-0.0380228766216045,-1.5134606642555726,0.8646136016473155,11.365685997285254,-0.9484294960557662,0.0924581381255645,-0.9519040507021272
2.54,0.5647758730421369,-0.1315093198986348,1.7701494103109705,0.1369016348843584,0.0763633325063866,0.0345735002756146,-0.4313450151265643,0.4247135119449868,-0.4450366525712378,0.5610850851190903,-0.1275004016131763,1.7810354914354856,-0.6087821730150808,0.5509642849251746,-0.4066333020137657,1.64043655413642,-0.151936605760572,-1.3609835557807035,0.903145125033314,11.497486252791532,-0.9601835110108804,0.0987659849998586,-0.9396609926049816
2.56,0.5560936969624071,-0.1233030047490416,1.7614605818688964,0.129074348494014,0.0691009551981224,0.0323512880739327,-0.4368771163296551,0.3976659187151276,-0.4246931840804047,0.5491927586808143,-0.1161826972735824,1.77267381429915,-0.6276699744834531,0.5310697088524817,-0.3913658956097473,1.7146669891604938,-0.2766050601545389,-1.352379661492961,1.0171734245416564,11.576972167317765,-0.9710119704338322,0.1052097441282331,-0.9278940497774092
2.58,0.5472739673374915,-0.1156203235703019,1.7531901615309706,0.1212375582709985,0.0634497966801136,0.0304127170195414,-0.4449486046301609,0.3723132025428119,-0.4033084717307078,0.536828237205829,-0.1053623573358058,1.764693822322915,-0.6465577759518254,0.5111751327797889,-0.3760984892057289,1.7067623318570728,-0.4035744150252873,-1.2676358086157855,1.0692356174848427,11.69113855611704,-0.9804267298925758,0.1118033361452769,-0.9171393618569834
2.6,0.5382667150336186,-0.1084243238890812,1.7453545731240343,0.1134792056632337,0.0600704056172622,0.0288163161497675,-0.4549020418091037,0.3499813311904465,-0.382382333105684,0.5250265371059835,-0.0970046634431613,1.7330247379444352,-0.4525690151581948,0.3502643063642087,-0.3436182048830973,1.6091043063824932,-0.4976718589471435,-1.1165935676182708,1.0463069312511897,11.69113855611704,-0.9876467592100656,0.1181420578631619,-0.9084136128293696
2.62,0.5294224568290865,-0.1020020176549673,1.7382306607471696,0.1060796848350186,0.0618980317158261,0.0278959769852222,-0.4739009504157875,0.3287307980547197,-0.3696073891296196,0.5250265371059835,-0.0970046634431613,1.7330247379444352,-0.4525690151581948,0.3502643063642087,-0.3436182048830973,1.561844166673911,-0.9499454303341898,-1.062526656786339,0.638747198803219,11.72503337631042,-0.9864195453664512,0.1243534180579297,-0.9085717746228472
2.64,0.5197992037803882,-0.0956302029840015,1.7309860602288862,0.0983564569938274,0.0694847810995063,0.0275184366747872,-0.4867290114186481,0.3097681257373062,-0.3552784133755147,0.5250265371059835,-0.0970046634431613,1.7330247379444352,-0.4525690151581948,0.3502643063642087,-0.3436182048830973,1.350427373715854,-0.6414030501430301,-0.9481336158706748,0.7164487877052456,11.14921778000189,-0.9875765188650568,0.131535365697227,-0.9062383706856166
