t,x,y,z,roll,pitch,yaw,v_x,v_y,v_z,ref_x,ref_y,ref_z,ref_v_x,ref_v_y,ref_v_z,a_com,a_x,a_y,a_z,thrust,wind_x,wind_y,wind_z
0.0,1.2770230547983,1.7410743925679646,2.034144266666331,0.0249830795540358,0.0996003197478446,0.0417168604739537,0.0008712954446369,-0.0079648636078037,-0.0004441887604068,1.2770493333689394,1.7408083166719035,2.0341291607195138,-0.0991237914379037,-0.1086450335777931,-0.100488211213652,0.4012340703929367,0.0435647722318481,-0.3982431803901881,-0.022209438020341,10.261142028953143,-0.940117104834445,0.2553558333192207,-0.8808738202704214
0.02,1.2771977126504908,1.7411994747887642,2.0340415749095184,0.0313346298677815,0.0937136151726668,0.0419902226713122,0.0162405637233749,0.0157989845736489,-0.0104276603171987,1.2770493333689394,1.7408083166719035,2.0341291607195138,-0.0991237914379037,-0.1086450335777931,-0.100488211213652,1.500503742198125,0.7684634139369012,1.188192409072638,-0.4991735778395949,10.26065667342118,-0.9529022599056944,0.2550876733271113,-0.8633051744449121
0.04,1.2776354854199428,1.7415649516347185,2.0336481269168942,0.0453835693932253,0.0773016573351784,0.042290541916785,0.0253389061716386,0.0186142715170074,-0.0286771982335921,1.2770493333689394,1.7408083166719035,2.0341291607195138,-0.0991237914379037,-0.1086450335777931,-0.100488211213652,1.0292610335104535,0.454917122413182,0.1407643471679208,-0.9124768958196728,9.63658059568661,-0.9561919057916064,0.2443833829166424,-0.8604892808592935
0.06,1.278140802794623,1.741895451612386,2.032862462454053,0.0600646299657798,0.0547549857017487,0.0420160530491606,0.0236696848465125,0.0138949936980142,-0.0490136430996205,1.2760580954545604,1.7397218663361258,2.033124278607377,-0.1191237917359269,-0.1286450338758163,-0.1204882115116752,1.0471734249326938,-0.0834610662563057,-0.2359638909496575,-1.0168222433014174,9.1658268980691,-0.9665830746855836,0.2297362609234954,-0.854489823815616
0.08,1.2785062509277685,1.7420885238982164,2.0316617579334237,0.0742161633172372,0.0301181196334746,0.0411728863183419,0.0122525157180658,0.0052954928639935,-0.0700834825679127,1.2740756196258023,1.73754896566457,2.031114514383104,-0.1591237923319733,-0.1686450344718627,-0.1604882121077216,1.273029163767942,-0.5708584564223352,-0.429975041701034,-1.0534919734146098,9.070442277503387,-0.980314655845407,0.2138750685968237,-0.8472909141474526
0.1,1.278555993457854,1.7420822292787184,2.030125540751573,0.0870487701173749,0.0075342569410345,0.0400174707475199,-0.0067452297758357,-0.0058086748468624,-0.0906395727211762,1.2720931437970442,1.735376064993014,2.0291047501588317,-0.1991237929280198,-0.2086450350679092,-0.2004882127037681,1.5056308617909728,-0.9498872746950784,-0.5552083855428,-1.027804507663175,9.054891081010284,-0.9958274385288588,0.1957066997435247,-0.8406518612181355
0.12,1.2781507507070846,1.7418184526090117,2.0280794030861022,0.0999308331911748,-0.0134236155154033,0.0386529807247263,-0.0330605040009267,-0.0202941238960579,-0.112973517065193,1.268110667938484,1.731203164291656,2.025094985904756,-0.2391237935240662,-0.2486450356639556,-0.2404882132998145,1.8715815248475125,-1.3157637112545468,-0.7242724524597766,-1.1166972172008405,9.096086812151498,-1.0113558612405804,0.1770758057776434,-0.8348975072925112
0.14,1.2771622464821224,1.7412365248749406,2.0255777402434103,0.1121954986630498,-0.030271916709143,0.0373614962024311,-0.0643589272179322,-0.0374552212695013,-0.1361358443497429,1.2641281920799234,1.7270302635902977,2.0210852216506803,-0.2791237941201128,-0.2886450362600021,-0.2804882138958611,2.127550213372298,-1.5649211608502789,-0.8580548686721711,-1.158116364227494,9.096086812151498,-1.0241882994975795,0.1588444630479906,-0.8325624217275572
0.16,1.2756079006564025,1.740341487582044,2.0227672139199084,0.1232892295107112,-0.0418889077185157,0.0363823393429393,-0.0974479063559116,-0.0561318482694997,-0.1585822633222505,1.259145716206462,1.7218573628740383,2.016075457381704,-0.3191237947161592,-0.3286450368560485,-0.3204882144919075,2.2065463178800795,-1.6544489568989704,-0.9338313499999196,-1.1223209486253798,9.114442557737677,-1.0347824077335546,0.1393765899748932,-0.8341398937987532
0.18,1.2732699757077333,1.7389917895175715,2.0193427380890974,0.1343899712130686,-0.0491510574603775,0.0357817797241374,-0.1346603445842157,-0.0781133055639611,-0.1827368794186128,1.2531632403180992,1.715684462142878,2.0100656930978262,-0.3591237953122056,-0.368645037452095,-0.3604882150879539,2.475578468987716,-1.8606219114152045,-1.0990728647230703,-1.2077308048181177,9.15054492926174,-1.041755783216989,0.1224543217634765,-0.8370946914173981
0.2,1.2701697458245362,1.737161117675822,2.015430937494405,0.1443527600563096,-0.0507631638689342,0.0357887642193935,-0.1729555891750002,-0.1037859140608556,-0.207133331502921,1.2665369584785224,1.7350861242393736,2.010205894118166,-0.2346603460743319,-0.1781133070540773,-0.2827368809087289,2.6080622402488656,-1.9147622295392253,-1.2836304248447217,-1.2198226042154106,9.21168728019802,-1.0463638299313052,0.1061860802933258,-0.8430753471981408
0.22,1.2662800734177109,1.734614459629276,2.0112147255231347,0.148034392971647,-0.046085572682379,0.0362529987076532,-0.2135458861918624,-0.147615552020309,-0.2117016780719735,1.2665369584785224,1.7350861242393736,2.010205894118166,-0.2346603460743319,-0.1781133070540773,-0.2827368809087289,2.99561311168049,-2.029514850843108,-2.191481897972673,-0.228417328452625,9.21168728019802,-1.0517990625739917,0.0936072232443609,-0.849525321441358
0.24,1.2618766284676723,1.7314460167279058,2.0071608051759138,0.144590387721861,-0.036344075190745,0.03697742135273,-0.2472699456576843,-0.1823439744950753,-0.2145889923663378,1.2665369584785224,1.7350861242393736,2.010205894118166,-0.2346603460743319,-0.1781133070540773,-0.2827368809087289,2.4247227152164155,-1.6862029732910968,-1.7364211237383145,-0.1443657147182128,10.64879988924804,-1.0514089353137654,0.0951937459253083,-0.8519686903194197
0.26,1.256609933913425,1.7274848084214285,2.002814202467184,0.13803824565797,-0.0231035347219427,0.037900197991291,-0.2770249345268642,-0.2113340665956661,-0.2199608361668205,1.264190355017779,1.7333049911688327,2.0073785253090795,-0.2546603463723551,-0.1981133073521005,-0.3027368812067522,2.0944220613468376,-1.4877494434589924,-1.4495046050295362,-0.2685921900241375,10.407998976857016,-1.0456056664998914,0.0986102152212577,-0.8610033854105805
0.28,1.250806359380771,1.722996994365168,1.998326227230426,0.1308590733101983,-0.008751561472015,0.0388303584532392,-0.3013749820803196,-0.2357321520353116,-0.2286954737163915,1.2594971480962924,1.7297427250277513,2.0017237876909046,-0.2946603469684015,-0.2381133079481469,-0.3427368818027986,1.777980091352375,-1.2175023776727716,-1.2199042719822777,-0.4367318774785467,10.129512786612397,-1.0369454219423662,0.1019988880331072,-0.8736276981673666
0.3,1.244567837416317,1.718057281034006,1.9936232483277392,0.1240388596773133,0.0052471014011277,0.0396323323534134,-0.3209783209567023,-0.2569801986884992,-0.2411602369791281,1.2548039411748058,1.7261804588866698,1.9960690500727305,-0.334660347564448,-0.2781133085441934,-0.382736882398845,1.5741193608446602,-0.9801669438191328,-1.0624023326593803,-0.62323816313683,9.875425368667493,-1.0273739043378192,0.1050237047831629,-0.8867228072898206
0.32,1.2383158350312238,1.7129940044809353,1.9888935957955165,0.1182659839004379,0.0173176614635738,0.040204542250095,-0.3360192072623039,-0.2750088219446236,-0.2561109710614283,1.248110734223517,1.720618192715786,1.9884143124247533,-0.3746603481604944,-0.3181133091402398,-0.4227368829948915,1.3917470737969564,-0.7520443152800815,-0.9014311628062184,-0.7475367041150107,9.653678680340818,-1.017598807485023,0.107823115227368,-0.8996591730398628
0.34,1.231456800670431,1.7073117001714442,1.9835868471057525,0.1131079549635186,0.0281443907373425,0.0405785269906501,-0.3489648228321006,-0.2923486550340197,-0.2739177205824399,1.241417527272228,1.715055926544902,1.9807595747767768,-0.4146603487565409,-0.3581133097362863,-0.462736883590938,1.401195117170629,-0.6472807784898338,-0.8669916544698036,-0.8903374760505817,9.466601992796312,-1.007911942074374,0.1091965679483063,-0.912931892113482
0.36,1.224357921868792,1.7012857431992956,1.97790375902674,0.1086473152402972,0.0368932683588893,0.0407143458405345,-0.3602225526963096,-0.3093332771213833,-0.2935956410346773,1.2337243203060375,1.7084936603591172,1.9721048371138985,-0.4546603493525873,-0.3981133103323327,-0.5027368841869844,1.4163636736998788,-0.5628864932104488,-0.8492311043681838,-0.9838960226118688,9.355016506953689,-0.99892287803469,0.1096039416563834,-0.9256356729777696
0.38,1.2170465731983091,1.694927110983139,1.9718095398557516,0.1045548786974431,0.0437510127481692,0.0406329822361727,-0.3703686563796072,-0.3256223387127835,-0.3148657788025746,1.2250311133249463,1.700931394158431,1.9624500994361191,-0.4946603499486338,-0.4381133109283792,-0.5427368847830308,1.432389357111033,-0.5073051841648829,-0.8144530795700072,-1.0635068883948633,9.204865855142998,-0.9915686682617948,0.1097425809403514,-0.9362480361033612
0.4,1.2099191648267755,1.6885918045517694,1.9656134429813144,0.1009045228714746,0.0487737596504278,0.0403907885477703,-0.3794013966640818,-0.3403815696376814,-0.3363086935772039,1.1985281403793289,1.6786459940474998,1.9560662509156224,-0.4703686578697233,-0.4256223402028996,-0.4148657802926907,1.3777008824244523,-0.4516370142237269,-0.7379615462448946,-1.072145738731464,9.204865855142998,-0.9850371411486348,0.1097872556317542,-0.9459319891718287
0.42,1.2022719227283003,1.681614260006453,1.9589194359019555,0.0976904115593622,0.0520102498554397,0.0399555570667323,-0.3848795745281875,-0.3568805652520058,-0.3305828343420656,1.1985281403793289,1.6786459940474998,1.9560662509156224,-0.4703686578697233,-0.4256223402028996,-0.4148657802926907,0.9151676799539152,-0.2739088932052852,-0.824949780716222,0.2862929617569121,9.1458994011482,-0.9905680951677542,0.1109613934055055,-0.9421433323875102
0.44,1.1945203328566911,1.6743160644480055,1.9523427214251785,0.0954705996198531,0.0525633383019464,0.0393192121862506,-0.3901310325147774,-0.3722790187291746,-0.3278695239205011,1.1985281403793289,1.6786459940474998,1.9560662509156224,-0.4703686578697233,-0.4256223402028996,-0.4148657802926907,0.8247002999836082,-0.2625728993294968,-0.7699226738584392,0.1356655210782265,10.866900641568463,-0.9903710719312054,0.1124325531708867,-0.9420991942125526
0.46,1.1866565711200932,1.6667126021045544,1.945749015942181,0.0940273857108909,0.0505143702941985,0.0384866632267219,-0.3961571182146373,-0.3873759056297066,-0.3316132769816015,1.1938244538006315,1.674389770645471,1.951917593112696,-0.4903686581677466,-0.4456223405009228,-0.4348657805907139,0.8340344566203618,-0.3013042849929925,-0.7548443450266007,-0.1871876530550181,10.12887550954747,-0.9916909845188496,0.1125395090444814,-0.9412434232407736
0.48,1.1790622229166752,1.6592146599894746,1.9393713928130367,0.0931980185506931,0.0463745328548548,0.0375275208023851,-0.403189190927119,-0.4011786401655228,-0.3395216789408539,1.1844170806432373,1.6658773238414128,1.9436202775068416,-0.530368658763793,-0.4856223410969693,-0.4748657811867603,0.8696383570901032,-0.351603635624087,-0.6901367267908076,-0.3954200979626204,10.12887550954747,-0.9944912302995144,0.1114806542471789,-0.9396432128627294
0.5,1.1708961409903689,1.6510446076181964,1.9324602751409508,0.0929941281482408,0.0403603373727999,0.0364090558909119,-0.4133843342126965,-0.4151452909186757,-0.3513359699236061,1.1750097074858428,1.6573648770373548,1.935322961900988,-0.5703686593598395,-0.5256223416930157,-0.5148657817828068,1.0471219500363167,-0.5097571642788734,-0.6983325376576449,-0.5907145491376137,9.879483691261155,-0.9984746410364655,0.1093465413657293,-0.937394880629986
0.52,1.1624940942813324,1.6425968725149058,1.9252828283911347,0.0935803675951546,0.0336936109948463,0.0352787302291675,-0.4265421771280981,-0.4289880797268608,-0.3659266253200677,1.163602334298646,1.6468524302034944,1.925025646265332,-0.610368659955886,-0.5656223422890622,-0.5548657823788533,1.201705930201617,-0.6578921457700837,-0.6921394404092562,-0.7295327698230769,9.552089435987,-1.0036113384920864,0.1063794012771828,-0.9342160486611114
0.54,1.1538015613701906,1.6338702636505404,1.9178009476737168,0.0949694593248567,0.0272221252688706,0.0342099179997017,-0.4421672922527209,-0.4430742967945656,-0.3815254545683281,1.1521949611114493,1.6363399833696342,1.914728330629676,-0.6503686605519324,-0.6056223428851086,-0.5948657829748998,1.309474329504591,-0.781255756231139,-0.7043108533852399,-0.7799414624130224,9.552089435987,-1.0090156464325528,0.1028562412804511,-0.930811971818779
0.56,1.1452291920244566,1.6253036969761812,1.910397709160934,0.0966543548684222,0.0219627721606096,0.0332886886837676,-0.4594711804996708,-0.4579094860499056,-0.3969771097149405,1.1397875879093513,1.6248275365208726,1.9034310149791185,-0.6903686611479788,-0.645622343481155,-0.6348657835709461,1.3768270002750156,-0.8651944123474947,-0.7417594627670027,-0.7725827573306171,9.518523115637436,-1.013462075394302,0.0984937753518263,-0.9289187705798764
0.58,1.1358273892998842,1.615970245634412,1.9022786176154949,0.0982572954534815,0.0182172414346835,0.032466056430428,-0.4799261172537819,-0.4746257946554854,-0.4141592316360752,1.126380214692352,1.61231508965721,1.89113369931366,-0.7303686617440253,-0.6856223440772015,-0.6748657841669926,1.5756464742482723,-1.0227468377055542,-0.8358154302789883,-0.8591060960567387,9.5041772416198,-1.0161058430116066,0.09413953687829,-0.9291147309481712
0.6,1.1259957019899522,1.606289351571158,1.8938059182020768,0.0991534087611507,0.0172040214977321,0.0318546801068365,-0.502026049438368,-0.4925372380349009,-0.4322531026899225,1.1118310834371952,1.592238955901638,1.8815706560336911,-0.579926118743898,-0.5746257961456016,-0.5141592331261914,1.6856860444716286,-1.1049966092293055,-0.8955721689707735,-0.9046935526923622,9.474674075051553,-1.0173462758822376,0.0904457125477409,-0.9308059992344292
0.62,1.1157132809938743,1.5961654071054687,1.8852793858402264,0.0974177947507111,0.0197064533109369,0.0314048400266846,-0.5245378988733231,-0.5181503154602669,-0.419337217819614,1.1118310834371952,1.592238955901638,1.8815706560336911,-0.579926118743898,-0.5746257961456016,-0.5141592331261914,1.823206778017064,-1.125592471747755,-1.2806538712683002,0.645794243515424,9.443998887469206,-1.0226148740909018,0.0897925198411822,-0.9273994400473268
0.64,1.105556048812233,1.5861120208986896,1.877392626711311,0.0931113455192859,0.024848735008869,0.0310518246570519,-0.543159524726066,-0.5380892284084494,-0.4114777752313113,1.1118310834371952,1.592238955901638,1.8815706560336911,-0.579926118743898,-0.5746257961456016,-0.5141592331261914,1.4195915228980192,-0.9310812926371426,-0.9969456474091254,0.3929721294151339,11.358376816046077,-1.0197543506799602,0.0935643117578945,-0.9297677406764157
0.66,1.094512441424547,1.5751712887546938,1.8691882666028576,0.0878971647880097,0.0318261674468206,0.0307543975783127,-0.5599002558647819,-0.5547185346904066,-0.4096562763601748,1.1060318222497565,1.586492697940182,1.8764290637024288,-0.5999261190419212,-0.5946257964436248,-0.5341592334242146,1.1833255729251588,-0.837036556935794,-0.8314653140978567,0.0910749435568264,10.88360110450958,-1.0145504491188182,0.0974586374848393,-0.9351736632709288
0.68,1.0831619688123,1.5639287727772018,1.860947808917326,0.0829127662693906,0.0394201532082594,0.0304966005148437,-0.5740605417986923,-0.5686791436223964,-0.41444336826154,1.0944332998748785,1.57500018201727,1.8661458790399053,-0.6399261196379676,-0.6346257970396713,-0.574159234020261,1.022654081733127,-0.7080142966955194,-0.6980304465994902,-0.2393545950682613,10.447190401372607,-1.009025243506743,0.1006796776933049,-0.9412919753285454
0.7000000000000001,1.0721389320363333,1.5530088094804972,1.852980981282444,0.0787245529455052,0.0465489740704978,0.0302559246652206,-0.5854028737955823,-0.5801694160813806,-0.42393258472648,1.0828347775000002,1.563507666094358,1.8558626943773813,-0.6799261202340141,-0.6746257976357177,-0.6141592346163075,0.9363761068980982,-0.5671165998445027,-0.5745136229492132,-0.4744608232469971,9.79040999856079,-1.0028449423626578,0.103430483391402,-0.9482771282983536
0.72,1.060322771224086,1.5412928092251847,1.844357683265652,0.0750534134557209,0.0534703735538449,0.0299859722015367,-0.5954866818264553,-0.5908992107416927,-0.438103816482819,1.0692362550953198,1.5500151501416437,1.8435795096850556,-0.7199261208300606,-0.7146257982317642,-0.654159235212354,1.0218065953836764,-0.5041904015436471,-0.5364897330156049,-0.7085615878169527,9.79040999856079,-0.9966375469276012,0.105266200361779,-0.9555806748118012
0.74,1.0483225469745,1.52937253478525,1.8354217314207013,0.0722090231642434,0.0594351367708491,0.0296869491411199,-0.6039908272334149,-0.6007733623162355,-0.4547954844033475,1.0556377326906397,1.536522634188929,1.8312963249927288,-0.759926121426107,-0.7546257988278107,-0.6941592358084004,1.05880963396278,-0.4252072703479825,-0.4937075787271372,-0.8345833960264254,9.55585662822159,-0.991003482392647,0.1061684624468841,-0.9625474172121256
0.76,1.03615997308841,1.5172510540118456,1.8261333734412009,0.0698319016734584,0.0644365449452334,0.0293426408801527,-0.6117978675903375,-0.6108572628126119,-0.4732150095152419,1.0410392102710582,1.5220301182213136,1.8180131402855015,-0.7999261220221534,-0.794625799423857,-0.7341592364044468,1.120171676243363,-0.3903520178461295,-0.504195024818821,-0.9209762555947189,9.442235375948258,-0.9860614450822666,0.1064754883445771,-0.9689183529550992
0.78,1.0244661173307632,1.5055508820718084,1.816954093901052,0.0677277767985791,0.0684676362781884,0.0289716708242106,-0.6187083411982844,-0.6201854664944935,-0.4921095337133384,1.0254406878365756,1.506537602238797,1.8037299555633732,-0.8399261226181999,-0.8346258000199035,-0.7741592370004933,1.108797855888589,-0.3455236803973471,-0.4664101840940793,-0.9447262099048226,9.361641742286338,-0.9813533152885217,0.1065585423901917,-0.9752083801594484
0.8,1.0120196216521,1.4930486438333956,1.8068889395865413,0.0656215338325705,0.0720942136042927,0.028544675985898,-0.6255355646260269,-0.6295021379797905,-0.5134851262320242,0.993530700270849,1.4745416087470835,1.7923486172153849,-0.7187083426884006,-0.7201854679846096,-0.5513823594312643,1.214832604540808,-0.3413611713871223,-0.4658335742648511,-1.0687796259342934,9.290816806684234,-0.9770209158608908,0.1064671422112014,-0.9811895611392744
0.8200000000000001,0.999483147383184,1.4803224951808145,1.7967417442824969,0.0629816572547646,0.0746964576399217,0.0280133046102108,-0.6276676456576816,-0.6423590693695014,-0.4982994279758023,0.993530700270849,1.4745416087470835,1.7923486172153849,-0.7187083426884006,-0.7201854679846096,-0.5513823594312643,1.000564697826055,-0.1066040515827371,-0.6428465694855445,0.7592849128110979,9.213849356946412,-0.980264204359836,0.1078191143940542,-0.9785397617664326
0.84,0.9875401325484012,1.4680187172049943,1.7874025009779018,0.0601836431767291,0.0757951815800522,0.0274047503882935,-0.6295388339405631,-0.6521267486184966,-0.4857500354761721,0.993530700270849,1.4745416087470835,1.7923486172153849,-0.7187083426884006,-0.7201854679846096,-0.5513823594312643,0.8006187538570073,-0.0935594141440732,-0.4883839624497621,0.6274696249815082,11.528441301979,-0.9792922399944318,0.1103291174061094,-0.9788186421457464
0.86,0.9749243052716932,1.454884022296613,1.7777714608804789,0.0576372881168101,0.0756353544553268,0.0267205548830214,-0.6320507942792147,-0.6608793567892034,-0.4782750215187127,0.986343616843965,1.4673397540672375,1.7868347936210722,-0.7387083429864237,-0.7401854682826328,-0.5632369245748495,0.5890541744973357,-0.1255980169325821,-0.4376304085353388,0.373750697872971,11.126818501992602,-0.9797003723191036,0.1123404619997079,-0.9779252461829092
0.88,0.9622520234101952,1.4415850291965178,1.7682318654360942,0.0557025998071175,0.0741542375003619,0.0260139158657807,-0.6351619445249319,-0.6687379195482829,-0.4760346079064066,0.971969449990197,1.4529360447075454,1.775807146432447,-0.7787083435824702,-0.7801854688786792,-0.58694605486202,0.43719480110136,-0.1555575122858588,-0.3929281379539739,0.1120206806153018,10.766544683726352,-0.9812738331263344,0.1135538045572577,-0.9761731970762826
0.9,0.9495099337303992,1.428136498788784,1.758697569813456,0.0544427010746443,0.0713485098667104,0.0252927380983158,-0.6390157693349027,-0.6758320913866646,-0.4774952939303495,0.9575952831364288,1.4385323353478532,1.7647794992438215,-0.8187083441785167,-0.8201854694747257,-0.6106551851491904,0.410222023418343,-0.1926912404985381,-0.354708591919084,-0.0730343011971418,10.271179447437136,-0.9839951703706042,0.1139899232856305,-0.9736336446556134
0.92,0.9373241233294732,1.4152360962436628,1.7495864517800392,0.0540850089263551,0.067473724108418,0.0246099751797573,-0.6436381505699578,-0.6818750998036488,-0.4814869734105421,0.9412211162528586,1.4221286259583588,1.752566395540838,-0.8587083447745631,-0.8601854700707722,-0.6343643154363607,0.4295866154878512,-0.2311190617527547,-0.302150420849212,-0.1995839740096316,10.271179447437136,-0.987842374455678,0.1134348896367362,-0.970265455920989
0.94,0.9243893026566922,1.401536986879688,1.739907504298147,0.0548701084356406,0.0622303003849711,0.023913686138498,-0.6498643761436204,-0.6878411660579463,-0.4862145608923856,0.9248469493692882,1.4057249165688643,1.740353291837854,-0.8987083453706096,-0.9001854706668186,-0.6580734457235312,0.4917059966160697,-0.3113112786831296,-0.298303312714876,-0.2363793740921743,10.115942088759766,-0.992655057954924,0.1115912208333909,-0.966286853997128
0.96,0.91130114135056,1.3877069589599846,1.7301324448557345,0.0567288193037904,0.056465668002982,0.0232589434701424,-0.6588110170897563,-0.6949221472887726,-0.491048233937514,0.9074727824708168,1.3883212071644686,1.727547459877691,-0.938708345966656,-0.940185471262865,-0.6817825760107016,0.6195705660326161,-0.4473320473067976,-0.3540490615413116,-0.2416836522564192,10.088893236711556,-0.9978009193742208,0.1088494301804461,-0.962111930248654
0.98,0.8980072955459666,1.3737204037275823,1.7202600718023782,0.0591416423762735,0.0510975072066812,0.0226541964283466,-0.6702424979693812,-0.7035236239948187,-0.4959495583178025,0.8890986155574442,1.3699174977451718,1.714148899660349,-0.9787083465627026,-0.9801854718589116,-0.705491706297872,0.7561202571461338,-0.5715740439812433,-0.4300738353023081,-0.2450662190144253,10.09151182374262,-1.0033254386180797,0.1055055443018535,-0.9575791139468726
1.0,0.8851435504051862,1.360256215929739,1.710788015405649,0.0612551587013994,0.0471323837668107,0.0221245239289862,-0.6833487854825435,-0.713228363180771,-0.5008581796064272,0.8644951706474975,1.3385442225278414,1.695462593886488,-0.7495994589216631,-0.8035236254849348,-0.5011334832386595,0.8515446230236148,-0.655314375658117,-0.4852369592976135,-0.245431064431234,10.09693158340815,-1.0075907657016685,0.1021349543834805,-0.9545288260254146
1.02,0.8712659341101885,1.3458009347364304,1.7009632194787243,0.06107293034321,0.0469267073093844,0.021640872764198,-0.703327447247463,-0.7312953890976319,-0.4799506911429744,0.8644951706474975,1.3385442225278414,1.695462593886488,-0.7495994589216631,-0.8035236254849348,-0.5011334832386595,1.7049101334432497,-0.9989330882459736,-0.9033512958430469,1.0453744231726405,10.096715696198771,-1.0108586930868189,0.100423770927063,-0.9529502973691972
1.04,0.8577361996161222,1.3317532035839357,1.692045310299196,0.0576482445144257,0.0517286261245993,0.0212611491932985,-0.7192378252086361,-0.7458332691248664,-0.45988273539536,0.8644951706474975,1.3385442225278414,1.695462593886488,-0.7495994589216631,-0.8035236254849348,-0.5011334832386595,1.4724239627582254,-0.7955188980586558,-0.726894001361722,1.0033977873807192,11.962668312909043,-1.0106066279139394,0.1042771574328036,-0.9515920829283984
1.06,0.8432135140642201,1.3167232636851127,1.68303214811415,0.0527463034043679,0.0598664068268831,0.0209321505631592,-0.7316984510171988,-0.7561228602589374,-0.4426616159763422,0.8569991760582808,1.3305089862729922,1.6904512590541014,-0.7654708511121195,-0.823523625782958,-0.5021702682228308,1.1807940498785572,-0.6230312904281332,-0.5144795567035509,0.8610559709508886,11.688579035964722,-1.0061981067111785,0.1092004303356976,-0.9546410954862464
1.08,0.8284852465629668,1.301522449993627,1.6743163601035782,0.04807525503172,0.0694561684139923,0.0206662511123116,-0.7401176713347067,-0.7634337427728103,-0.4299745047343848,0.8420071868798475,1.3144385137632937,1.6804285893893285,-0.7972136354930323,-0.8635236263790045,-0.5042438381911737,0.8445339921403314,-0.4209610158753984,-0.3655441256936453,0.6343555620978714,11.3642275131524,-0.999481216852108,0.1137397340866781,-0.9602963581294192
1.1,0.813628195758275,1.2861968989451598,1.665807036720007,0.0442242453665883,0.079184072564211,0.0204357942368266,-0.7449154873661875,-0.7689414833382135,-0.4215978361197697,0.8270151977014143,1.2983680412535947,1.670405919724555,-0.8289564198739451,-0.903523626975051,-0.5063174081595164,0.5557041071622548,-0.2398908015740386,-0.2753870282701631,0.4188334307307528,10.813469304092903,-0.991996138389183,0.1171436233215858,-0.9670844197620118
1.12,0.7994551332963157,1.271546616865796,1.657846682547916,0.0414640941708712,0.087698441071301,0.020229543401031,-0.7466358771465957,-0.7731399659996039,-0.416777100224695,0.8104360693039354,1.2802975687140936,1.6602795715613647,-0.8606992042548579,-0.9435236275710972,-0.5083909781278592,0.3310079010559663,-0.0860194890204113,-0.2099241330695167,0.2410367947537378,10.813469304092903,-0.9840536943706374,0.1197221408507346,-0.9744897020369576
1.14,0.7845277578903234,1.256046578940778,1.6495509598297369,0.0395612276920242,0.0952568068276026,0.0200165737298787,-0.7459848682368541,-0.7769046457890036,-0.4130796648070207,0.7938569409064564,1.2622270961745927,1.6501532233981744,-0.8924419886357706,-0.9835236281671438,-0.510464548096202,0.2658366753532631,0.0325504454870839,-0.188233989469988,0.1848717708837155,10.62682548259454,-0.977415665543836,0.1211895248656153,-0.9807719426752332
1.16,0.7696291824180196,1.2404663059514032,1.6413194921604553,0.0383929921476961,0.1011595720645435,0.019790801386934,-0.7439249356361693,-0.7809744540061577,-0.4102738446290846,0.7764842428994547,1.2431566236201903,1.6399750359857754,-0.9241847730166834,-1.02352362876319,-0.5125381180645447,0.2677652335287921,0.1029966300342355,-0.203490410857704,0.1402910088968006,10.524549719798417,-0.9714019671673968,0.1218951332151757,-0.9866392778812773
1.18,0.7555230514766044,1.2255900599440035,1.6335463345273922,0.0377695792334257,0.1052889641969067,0.0195594940955814,-0.7410858486054219,-0.7847598237984416,-0.4081077692472205,0.7583179752829302,1.223086151050887,1.629745009324168,-0.9559275573975962,-1.0635236293592365,-0.5146116880328876,0.2601985885454178,0.1419543515373711,-0.1892684896141916,0.108303769093207,10.524549719798417,-0.9667299340199386,0.1220830458345909,-0.991238748479515
1.2,0.7407379677683044,1.2098545481455718,1.6254052238806809,0.0376103629271147,0.1082112989417171,0.0193056977062102,-0.737611947296552,-0.788609968299262,-0.4061374842015146,0.7184687590463332,1.1863520687540816,1.6131409460650312,-0.7490249460769571,-0.8847598252885577,-0.3835529094003901,0.2773699070839264,0.1736950654434965,-0.192507225041022,0.0985142522852949,10.504346213860115,-0.9633734307586675,0.1217868701520972,-0.9946060741034742
1.22,0.7259551417617127,1.193994677557761,1.6173961856856085,0.0366259250928368,0.1124537718880289,0.0190526622225032,-0.7404615181366607,-0.7968734464455302,-0.3943415386479402,0.7184687590463332,1.1863520687540816,1.6131409460650312,-0.7490249460769571,-0.8847598252885577,-0.3835529094003901,0.7340801328014911,-0.1424785420054364,-0.4131739073134077,0.5897972776787219,10.493463758564758,-0.957220385286982,0.1209104301090888,-1.0021174261599894
1.24,0.711888873012989,1.1787982509028814,1.6100193781606498,0.0344938034870067,0.1194455516769736,0.018838480289959,-0.7395995142792403,-0.8021903474065244,-0.382816921506766,0.7184687590463332,1.1863520687540816,1.6131409460650312,-0.7490249460769571,-0.8847598252885577,-0.3835529094003901,0.6360607021540383,0.0431001928710206,-0.2658450480497121,0.5762308570587099,11.119247904806798,-0.9522497547894152,0.1235225607043814,-1.0056127502310817
1.26,0.6971386793110109,1.1627193557991204,1.602478879795065,0.0323222734056562,0.1282553391536183,0.0186621948162341,-0.7350813543693684,-0.8054848739816982,-0.3719213594227098,0.7109785095855636,1.177504470501196,1.6093054169710272,-0.7506127655712642,-0.9047598255865807,-0.3786419374310241,0.6123335436125129,0.225907995493596,-0.1647263287586908,0.5447781042028088,11.119247904806798,-0.9444271259019592,0.1259700735961234,-1.0118747636425112
1.28,0.6825110587225001,1.1465903198574532,1.5951399429312796,0.0309559091178568,0.1376024662455416,0.018555096161881,-0.7275781383438614,-0.8074528820457643,-0.3625503333352684,0.6959980106640246,1.1598092739954249,1.6016343587830195,-0.7537884045598783,-0.9447598261826272,-0.3688199934922919,0.6082504344370842,0.3751608012753482,-0.0984004032033025,0.4685513043720696,11.03525220336178,-0.935537351677822,0.1274876947463116,-1.0192913443510665
1.3,0.6687786474317402,1.1312406980410994,1.5883306918686049,0.0307914246506393,0.1464968754329611,0.0185361702859542,-0.7180634659258487,-0.8083934701194949,-0.3547162081441101,0.6810175117424854,1.1421140774896537,1.5939633005950118,-0.7569640435484923,-0.9847598267786738,-0.3589980495535598,0.6180356273251533,0.4757336209006368,-0.0470294036865326,0.3917062595579168,10.956679774437362,-0.9254738822331684,0.1278835093666059,-1.02784486697205
1.32,0.6545427440226237,1.1150695417075636,1.5813172471007744,0.032221208865658,0.1556022620802209,0.0186351525501706,-0.7057677936024456,-0.8088479847215901,-0.3470955151921878,0.6658782308715155,1.12241888095408,1.5867833396039406,-0.7601396825371064,-1.0247598273747205,-0.3491761056148276,0.7236454630471635,0.6147836161701559,-0.0227257301047612,0.3810346475961151,10.905616158347584,-0.9151682393497385,0.1266388346428656,-1.0367250546316404
1.34,0.6405894080518879,1.0988852820020605,1.574455084993588,0.0354905427151345,0.1638746245138551,0.0188637917159975,-0.6900024576482711,-0.8100965036121799,-0.3395358820668341,0.6507389500005457,1.1027236844185069,1.5796033786128694,-0.7633153215257205,-1.0647598279707668,-0.3393541616760955,0.8764312154386258,0.7882667977087254,-0.0624259445294872,0.3779816562676813,10.887286227969524,-0.9064463628774546,0.1238047438713282,-1.0440616110439287
1.36,0.6269847202975957,1.082638682449385,1.5677474326799097,0.0394426263170406,0.1704617554069533,0.0191133733074786,-0.6713044989513873,-0.8146097476058206,-0.3316437926649069,0.6355202781548606,1.082028487868032,1.5726689662202666,-0.7664909605143346,-1.1047598285668132,-0.3295322177373633,1.0395529158062573,0.9348979348441866,-0.2256621996820362,0.394604470096363,10.956888807301766,-0.8988070780325299,0.1202647365927995,-1.0506399552488033
1.38,0.6144267380287078,1.0671008680014122,1.5615273727124406,0.0428553883129657,0.1747460048352758,0.019272028665015,-0.6516600172010143,-0.820638662940944,-0.3235077753760597,0.62022221533446,1.0603332913026562,1.565980102426132,-0.7696665995029487,-1.1447598291628596,-0.3197102737986312,1.105043280468288,0.9822240875186516,-0.3014457667561698,0.4068008644423609,10.956888807301766,-0.8922380749415947,0.1166879766682977,-1.0563367353447743
1.4,0.601621315661412,1.0506116474362797,1.5551549754770442,0.0457954526450944,0.177053046655275,0.019312380369305,-0.6300361430372836,-0.8278960393993581,-0.3141166824748598,0.5818437371686571,1.026068934854365,1.5453519839436376,-0.624989522152849,-0.92063866443106,-0.2828770957984706,1.233343091749989,1.0811937081865342,-0.3628688229207033,0.4695546450599941,11.02237281867292,-0.8876444008707843,0.1136551934230853,-1.0603204284580512
1.42,0.5891909943427244,1.0338981625642278,1.548924922353448,0.0456521084207734,0.1788742594196527,0.0191228274252888,-0.6140636972543898,-0.8423226554316162,-0.3095873441790007,0.5818437371686571,1.026068934854365,1.5453519839436376,-0.624989522152849,-0.92063866443106,-0.2828770957984706,1.0997285799551015,0.7986222891446904,-0.7213308016129072,0.2264669147929554,10.790091314789606,-0.8809310772024526,0.1127748424678991,-1.0666648022873229
1.44,0.5770978287354486,1.016940544039663,1.5427990556307738,0.0417405403551227,0.1815100303897665,0.0187112942200796,-0.5959288479988696,-0.852004026926252,-0.3031863353008441,0.5818437371686571,1.026068934854365,1.5453519839436376,-0.624989522152849,-0.92063866443106,-0.2828770957984706,1.0765391611500112,0.9067424627760112,-0.4840685747317885,0.3200504439078294,10.926253706983516,-0.8770709756370494,0.1161548879152678,-1.0694917857158597
1.46,0.5659651381864671,1.000702474237345,1.5371128749482212,0.0372126012335785,0.1838942235555049,0.0182608637009384,-0.5768370507882666,-0.8567454628827437,-0.2956970236390421,0.5755938419471286,1.0168625482100544,1.542523212985653,-0.6196554231432159,-0.9406386647290834,-0.2747509598829528,1.0524586985101865,0.9545898605301472,-0.2370717978245839,0.3744655830901,10.926253706983516,-0.8728468410403781,0.1208429855199503,-1.0722159023137918
1.48,0.5546526343001749,0.9835404481157564,1.5312917735751306,0.0330697139785675,0.1857450631871995,0.0178107199812428,-0.5554146437511921,-0.8593388156601913,-0.2867743764290325,0.5630940515040717,0.9984497749214332,1.5368656710696835,-0.6089872251239498,-0.98063866532513,-0.2584986880519172,1.1675386879293208,1.0711203518537271,-0.1296676388723827,0.4461323605004785,11.010261471165904,-0.8691470199237049,0.125053666688899,-1.0744034054587464
1.5,0.5437807615606888,0.9663412367079944,1.525660107669687,0.0300850160142346,0.1865468246346519,0.0174162570908907,-0.5329732063946213,-0.860776104381057,-0.2768520831662124,0.5505942610610146,0.980037001632812,1.531208129153714,-0.5983190271046837,-1.0206386659211764,-0.2422464162208816,1.2289587188850393,1.122071867828539,-0.071864436043284,0.4961146631410035,11.08106109464552,-0.8665962296460993,0.1280835217054342,-1.0756972618485054
1.52,0.5338743303960113,0.9499813882718852,1.5205041152572891,0.0283830478719582,0.1861354186571581,0.0170969682589692,-0.5110521045260517,-0.8615133849234176,-0.2663766681800125,0.538627880518921,0.9596242283143884,1.5263632008292964,-0.5876508290854175,-1.0606386665172227,-0.225994144389846,1.215331856802344,1.096055093428483,-0.0368640271180276,0.5237707493099958,11.215223609366149,-0.8665385405770045,0.1307966062349804,-1.0742365103126683
1.54,0.5238990894496809,0.9327507890358724,1.5153026329829575,0.0279281641618625,0.1842665249229669,0.0168256695103804,-0.4876986748967354,-0.8616498691701111,-0.2542642483310459,0.5266614999768273,0.9392114549959648,1.5215182725048788,-0.5769826310661514,-1.1006386671132693,-0.2097418725588103,1.315401096622873,1.1676714814658122,-0.0068242123346773,0.605620992448333,11.215223609366149,-0.8682593027031031,0.1322506932007554,-1.0713626861857128
1.56,0.5143935494534811,0.9155126384182588,1.5103563268125773,0.028867269528197,0.1806125036710387,0.016609373825037,-0.4641368064661663,-0.8622646692382316,-0.2408994827216904,0.5149618243852152,0.9177986816626404,1.517079650976237,-0.5663144330468852,-1.1406386677093157,-0.1934896007277747,1.3547662001764564,1.178093421528456,-0.0307400034060267,0.6682382804677741,11.281785639012014,-0.8724339979135007,0.1322495663482554,-1.0667295402225212
1.58,0.5053556526736124,0.8982546655698243,1.50569445489832,0.0309592134918934,0.1748596082704823,0.0164108316072472,-0.4412709528233915,-0.8636144319424752,-0.225900227078164,0.503528853744085,0.8953859083144144,1.5130473362433712,-0.5556462350276191,-1.180638668305362,-0.1772373288967391,1.3689839225045877,1.1432926821387357,-0.0674881352121792,0.7499627821763194,11.353323556118085,-0.8790617735278368,0.1317434527305429,-1.0595609679946738
1.6,0.497169656311427,0.8818183734941525,1.501560155317085,0.0335899946587343,0.1678903900313999,0.0162079460805811,-0.4219059816544113,-0.8666518019942554,-0.2099946086304727,0.4832921050324428,0.8550739439727005,1.494399443544412,-0.4398132694305912,-0.9636144334325912,-0.1574186849081162,1.2621573034000408,0.968248558449014,-0.1518685025890087,0.7952809223845627,11.436803734788556,-0.8880848592135316,0.1306255614939578,-1.050193305262865
1.62,0.4889331872511306,0.8643760735442038,1.4974566838064638,0.0342077684564883,0.1588977342998762,0.0157763397344657,-0.4032836251625088,-0.8767443938293942,-0.2015362670917983,0.4832921050324428,0.8550739439727005,1.494399443544412,-0.4398132694305912,-0.9636144334325912,-0.1574186849081162,1.1403904077629254,0.9311178245951236,-0.5046295917569388,0.4229170769337195,11.523308830390306,-0.9000459761742062,0.1324110293621435,-1.0369241933779605
1.64,0.4810301329905588,0.8467667582122402,1.4935433922183383,0.0319272064701621,0.1483382332363086,0.0151132883138888,-0.3883877315288499,-0.8835181913234198,-0.1899253730870034,0.4832921050324428,0.8550739439727005,1.494399443544412,-0.4398132694305912,-0.9636144334325912,-0.1574186849081162,1.0032258459912322,0.7447946816829448,-0.3386898747012812,0.5805447002397448,10.941107625902989,-0.9103704844538346,0.1349185376381346,-1.026802971525938
1.66,0.4733849131282262,0.8290532467377035,1.489902583405087,0.0285630135705392,0.137424587011283,0.0144151678138963,-0.3772234946546571,-0.8872570664732801,-0.1746963946708792,0.4788939723381369,0.8454377996383746,1.4928252566953308,-0.4395217327520311,-0.9836144337306144,-0.1437223764741067,0.962472280078894,0.5582118437096412,-0.1869437574930132,0.7614489208062097,11.174014507441823,-0.9225566184426232,0.1391646687518378,-1.0139079709601604
1.68,0.4662946654183348,0.8121836795933809,1.4867493317324365,0.0257457000282661,0.1275512569935643,0.0138447097077781,-0.3698748029766874,-0.888504783459787,-0.1579618737925841,0.4700977069495251,0.8261655109697228,1.4896768829971685,-0.4389386593949109,-1.023614434326661,-0.1163297596060876,0.915975239952444,0.3674345838984849,-0.062385849325347,0.8367260439147567,11.347774994944302,-0.9352687918446356,0.1434919632144309,-0.9997199657588366
1.7,0.4589518040615311,0.7944123779055593,1.483792288776818,0.023760158110815,0.1182653417392772,0.0133844166073218,-0.3649881222458109,-0.8887575263952961,-0.1385281168394824,0.4613014415609132,0.806893222301071,1.4865285092990062,-0.4383555860377908,-1.0636144349227077,-0.0889371427380684,1.0020160139304135,0.2443340365438223,-0.0126371467754571,0.9716878476550852,11.469068440522278,-0.9474312911324784,0.1471190667865375,-0.9855451953960056
1.72,0.4516787441011523,0.7766458045803556,1.481240213154259,0.0231198236450912,0.1105453811546272,0.0130833418437866,-0.3626426785060742,-0.8881366246825739,-0.1176318408113139,0.4525343298401574,0.7856209336026168,1.4847497664442448,-0.4377725126806706,-1.1036144355187538,-0.0615445258700493,1.0518328968026984,0.1172721869868359,0.031045085636111,1.0448138014084265,11.567434064107148,-0.957596925078713,0.1495598433584994,-0.9731502263931792
1.74,0.4447903591012451,0.759784778970083,1.4792102213039129,0.0240844899409272,0.1050156022099869,0.012959893153489,-0.362657074356955,-0.8869901500969768,-0.0970802537965247,0.4437672181194016,0.7643486449041627,1.4829710235894835,-0.4371894393235505,-1.1436144361148004,-0.0341519090020302,1.0291772685528866,-0.0007197925440377,0.0573237292798567,1.0275793507394568,11.677638821181064,-0.9662219814344408,0.15073409319413,-0.9620895975388738
1.76,0.4375180298885259,0.7420489631101644,1.477503156866819,0.0267259782556364,0.1016502740756981,0.0130032357580826,-0.3646788542463633,-0.886893444263944,-0.0746628842043566,0.4350146832325738,0.7420763561908074,1.4818770961564225,-0.4366063659664303,-1.1836144367108468,-0.0067592921340111,1.1254281467193088,-0.1010889944704163,0.0048352916516392,1.120868479608407,11.677638821181064,-0.9729111630626188,0.1504754789254634,-0.9530912566504464
1.78,0.4301993000772553,0.7242863068171466,1.476252245138476,0.0301466160010931,0.101107698969286,0.0131766656283514,-0.3667471140007542,-0.8895328565398646,-0.0515343550599137,0.4262767251796739,0.7188040674625509,1.4814679841450622,-0.4360232926093101,-1.2236144373068931,0.0206333247340079,1.1685172826698556,-0.1034129877195477,-0.1319706137960286,1.156426457222144,11.749283973541424,-0.9782465321321124,0.1498502957540667,-0.9454531557001284
1.8,0.423222959554696,0.7073428629109996,1.475497679927697,0.033149251109997,0.1025008320978495,0.0133886293716283,-0.3672937417037936,-0.8937651990001242,-0.0290364089488591,0.4118619443772176,0.6798096639901533,1.4736755273854805,-0.3434630810598897,-0.9512147827903225,-0.0156954269862691,1.1449553525821037,-0.0273313851519685,-0.2116171230129804,1.1248973055527305,11.749283973541424,-0.9815501028633812,0.1494417906558661,-0.9397828650233182
1.82,0.4158167359713446,0.6892284416358174,1.4749773169477869,0.0296503021785044,0.106840682219929,0.013251453702064,-0.3729860562321954,-0.9148605214443528,-0.0250529226694474,0.4118619443772176,0.6798096639901533,1.4736755273854805,-0.3434630810598897,-0.9512147827903225,-0.0156954269862691,1.1104990282013822,-0.2846157264200871,-1.0547661222114255,0.1991743139705822,11.76857111638219,-0.9777106869515676,0.154647259325872,-0.9404975899129652
1.84,0.4083304676490355,0.67084909057005,1.4745154964531495,0.0192675178439652,0.1144735873483223,0.0127033727050216,-0.3748207017336507,-0.9209095193951712,-0.0211979191829473,0.4118619443772176,0.6798096639901533,1.4736755273854805,-0.3434630810598897,-0.9512147827903225,-0.0156954269862691,0.3701937067466995,-0.0917322750727672,-0.302449897540924,0.1927501743250056,10.500358783323463,-0.9719677258056236,0.1630913661974178,-0.9451872668025066
1.86,0.4012236439385628,0.6533687090694668,1.474150844699867,0.0089269602173716,0.1231608913480217,0.0121149779645647,-0.3728422855840937,-0.9188841159634966,-0.0174151729010346,0.4084273135666187,0.6702975161622501,1.4735185731156175,-0.3388062744717168,-0.963551168040414,-0.0085276413715401,0.2362496505563134,0.0989208074778508,0.1012701715837283,0.189137314095639,10.548203643107628,-0.9640477610973768,0.1731223154123515,-0.9509914808312984
1.88,0.3938228625336794,0.6350565771606402,1.4738431463554316,-0.0004427772767485,0.1326057492834626,0.0115340606588644,-0.3670408390701381,-0.9126512539121332,-0.0135918756504596,0.4015580519454209,0.6512732205064437,1.4732046645758925,-0.3294926612953709,-0.988223938540597,0.0058079298579176,0.4666983845908029,0.2900723256977794,0.3116431025681654,0.1911648625287457,10.548203643107628,-0.9558618328660335,0.182015400783798,-0.9569166082395656
1.9,0.3865745636634889,0.6168957934103968,1.47361032407527,-0.0076176852446507,0.1413842831325922,0.0110533609499217,-0.3578882298715413,-0.9040940980684016,-0.0099092897636573,0.3946887903242231,0.6322489248506372,1.472890756036167,-0.3201790481190251,-1.01289670904078,0.0201435010873755,0.6529866194835606,0.4576304599298419,0.4278577921865867,0.1841292943401165,10.550971265595765,-0.9481060187048388,0.1891082858017321,-0.9624836019073116
1.92,0.3795404449145888,0.598921570361633,1.473454239781543,-0.0124914195540437,0.1487644084842883,0.0107170835070969,-0.3459657968190707,-0.8943404563798928,-0.0059062396714205,0.3882852093618427,0.6119909906698217,1.4732936260579146,-0.3108654349426793,-1.0375694795409631,0.0344790723168333,0.7957737525820627,0.5961216526235269,0.4876820844254392,0.2001525046118379,10.563683649034829,-0.9418086015545294,0.194033852747432,-0.966897057933292
1.94,0.3730976474976127,0.5820301709909736,1.473380396870554,-0.0152697379198531,0.1541325769705931,0.0105433999103791,-0.3328792413822069,-0.8846768019968546,-0.0020749403469315,0.3818816283994621,0.591733056489006,1.473696496079662,-0.3015518217663335,-1.0622422500411464,0.0488146435462912,0.8356479578009405,0.6543277718431911,0.4831827191519089,0.1915649662244504,10.60376877239105,-0.9365706828675204,0.1976175314701205,-0.9703229643935078
1.96,0.3665964175469592,0.5644426222585892,1.4733859730536316,-0.0166884292881518,0.1579411437663016,0.0105038465150326,-0.3179807810528234,-0.8747513621158864,0.00245805536007,0.3757108877664903,0.5708583030456859,1.474457755382146,-0.2922382085899876,-1.0869150205413294,0.0631502147757491,0.923345178003088,0.7449230164691734,0.4962719940484084,0.226649785350083,10.621019002347566,-0.9329605710501429,0.199847636812412,-0.9723901166041804
1.98,0.3604019666389738,0.5470577390463748,1.4734911660715226,-0.0166224139480745,0.1598557033436891,0.0106161876208906,-0.302386708235614,-0.8644582700871809,0.0078418233262706,0.3697729874629271,0.549366730339861,1.4755774039653664,-0.2829245954136418,-1.1115877910415126,0.0774857860052069,0.9722497210769994,0.7797036408604741,0.5146546014352771,0.269188398310031,10.664507098966167,-0.9310390706097568,0.2008663465866816,-0.9729852483066236
2.0,0.3548082046267417,0.5307334701521379,1.4737009496727935,-0.0150845957069528,0.1600427301363255,0.0108685460305452,-0.287343886475106,-0.8546004984330879,0.0139848379850978,0.3452826312271931,0.5038348255420158,1.4738832572378362,-0.2757354915647432,-0.8631691614354907,0.0552945227193046,0.9502615134809136,0.7521410880253959,0.4928885827046481,0.3071507329413582,10.71954324989838,-0.9307646476763968,0.2007247645185524,-0.9720246902080184
2.02,0.3492313819294416,0.5135137670464891,1.4739710156532442,-0.0193541068153333,0.1580846917140432,0.0107772337545942,-0.271251846696947,-0.8649977369194995,0.0122398134799721,0.3452826312271931,0.5038348255420158,1.4738832572378362,-0.2757354915647432,-0.8631691614354907,0.0552945227193046,0.9619010121741488,0.804601988907952,-0.5198619243205804,-0.0872512252562835,10.784753387675664,-0.935423885718394,0.2065034707408184,-0.9644488526911604
2.04,0.3439704663263231,0.4962484676783539,1.4742132860630743,-0.0304845323429455,0.1533409264520503,0.0103318580977775,-0.2559969196633386,-0.8599251181211343,0.0121395155604767,0.3452826312271931,0.5038348255420158,1.4738832572378362,-0.2757354915647432,-0.8631691614354907,0.0552945227193046,0.803825727298678,0.7627463516804184,0.2536309399182646,-0.0050148959747738,10.23604889942544,-0.9370340188037568,0.2159936509963601,-0.960776332691642
2.06,0.3392269714159663,0.480033564198528,1.474457388280123,-0.0414285756433521,0.1470391720470349,0.0100422267608125,-0.244400249399034,-0.84722858123219,0.0135800389632659,0.3425252763115456,0.4952031339276608,1.4744362024650293,-0.270405248230569,-0.8629113397051527,0.0647850625979114,0.8627860654086147,0.579833513215229,0.6348268444472116,0.0720261701394636,10.378535740417648,-0.9414361095065664,0.2269466022388151,-0.9533232574915932
2.08,0.3344381415262832,0.4632723832447423,1.4747580341808295,-0.0513454246877341,0.1397853013924427,0.0099945263853677,-0.2353451210688512,-0.8297607892344475,0.0164986627136079,0.3370105664802508,0.477939750698951,1.4755420929194152,-0.2597447615622207,-0.8623956962444767,0.083766142355125,0.994531888564336,0.4527564165091438,0.8733895998871255,0.1459311875170977,10.465401621378987,-0.9475628537877756,0.2367140553921594,-0.9439458105698042
2.1,0.3298004784233103,0.446889036127945,1.4751315430151355,-0.0589949306260413,0.1328800000222546,0.0101929927444979,-0.2290276523365184,-0.8098001640465449,0.0207958668867289,0.3314958566489559,0.4606763674702412,1.476647983373801,-0.2490842748938724,-0.8618800527838005,0.1027472221123386,1.0686474310798482,0.3158734366166357,0.9980312593951324,0.2148602086560487,10.55046828577997,-0.9537032498079132,0.2442782735782218,-0.934760709911081
2.12,0.3252629796873188,0.4309221968561126,1.475607336000241,-0.0642619142032326,0.1270944225753244,0.0105697148085547,-0.2251403897921067,-0.7884780171195422,0.0266162036566385,0.3265141711510784,0.4434387664145652,1.4787029278160482,-0.2384237882255241,-0.8613644093231244,0.1217283018695522,1.1220751754907474,0.194363127220587,1.0661073463501314,0.2910168384954838,10.631088391524829,-0.9593687885107302,0.2502946829255091,-0.926136783366845
2.14,0.3210024643417967,0.416153423356996,1.47617785377801,-0.067342073143286,0.1233336713650867,0.0109980308896703,-0.223587228198328,-0.7677006724743666,0.0331896080031682,0.321532485653201,0.4262011653588891,1.4807578722582948,-0.2277633015571757,-0.8608487658624484,0.1407093816267658,1.0923827238470198,0.0776580796889359,1.0388672322587833,0.3286702173264811,10.718690468905152,-0.9633881993616984,0.2545937077325467,-0.9194712761445116
2.16,0.316535051301032,0.4010330177738726,1.4769245319830968,-0.0688934415139298,0.1218608876166397,0.011430224355995,-0.2230632275688416,-0.7456707828996687,0.0412043363042089,0.3168173123220322,0.40897645538973,1.483287343694472,-0.2171028148888275,-0.8603331224017723,0.1596904613839794,1.1724189535662874,0.0262000314743215,1.1014944787348937,0.4007364150520373,10.786392022474502,-0.9664512463177336,0.2575522611484166,-0.9139196237029202
2.18,0.3120884481092813,0.386362269104608,1.477843065738144,-0.0685702681703832,0.122692856172997,0.0118552962038321,-0.2213559524690911,-0.7228394750470928,0.0502752434823342,0.3123686511575722,0.3917646365070878,1.4862913421245794,-0.2064423282204791,-0.8598174789410963,0.178671541141193,1.231325265272633,0.0853637549875205,1.141565392628796,0.4535453589062658,10.898771237259098,-0.9678679457927116,0.2590750868995836,-0.9103568706636432
2.2,0.3079127542567063,0.3728516798391291,1.4788937260361177,-0.0662331886157188,0.1248248633669496,0.0123254085089203,-0.2181059001200533,-0.7007948964877028,0.059894135817919,0.3010206504858267,0.3502202953522534,1.4803568279122608,-0.2035885398810908,-0.6960903074557594,0.0934272069845029,1.2135169692840886,0.1625026174518942,1.1022289279695008,0.4809446167792379,10.898771237259098,-0.968075371594037,0.2590584001777057,-0.9082807786421608
2.22,0.3036000709282323,0.3589683373745395,1.480043242609108,-0.0645966891727477,0.1271802786480891,0.0127734647073199,-0.2133965974793053,-0.688159042005157,0.0536346838847459,0.3010206504858267,0.3502202953522534,1.4803568279122608,-0.2035885398810908,-0.6960903074557594,0.0934272069845029,0.7433422636476615,0.2354651320373976,0.6317927241272892,-0.3129725966586525,10.954236671529545,-0.967409447694494,0.2609427560214327,-0.9050540421198192
2.24,0.2993895756026307,0.3453604079152246,1.4810658343307264,-0.0655501655464115,0.1287369495211467,0.0131094661499713,-0.2079368759622657,-0.6730508347275845,0.0490132282738573,0.3010206504858267,0.3502202953522534,1.4803568279122608,-0.2035885398810908,-0.6960903074557594,0.0934272069845029,0.8357995246306558,0.2729860758519789,0.7554103638786225,-0.2310727805444314,9.858097351259858,-0.9645635963827572,0.2618171940728466,-0.9082321608163688
2.26,0.295495434673956,0.3327323367558444,1.4819837948031702,-0.0676893525613663,0.1295798587476115,0.0133998708442784,-0.2022904880593689,-0.6569217646526796,0.0478321768394096,0.2989847650870159,0.3432593922776958,1.4812910999821058,-0.2000350573634908,-0.6907404739374927,0.1020575996849366,0.8564804147235138,0.2823193951448421,0.8064535037452469,-0.0590525717223868,10.27553038496808,-0.962778590107346,0.2642998563760892,-0.9092932004458564
2.28,0.2915142626859514,0.3197954888804116,1.482951652933815,-0.070365308645091,0.1299429988687997,0.0137294386653966,-0.1961464173442276,-0.6375042646335736,0.0491278868757653,0.294912994289394,0.3293375861285806,1.4831596441217958,-0.1929280923282907,-0.6800408069009594,0.1193183850858041,1.0203771073026782,0.3072035357570654,0.9708750009553012,0.0647855018177843,10.27553038496808,-0.9619592052353584,0.2676156433087979,-0.9085459528227098
2.3000000000000003,0.2876572122100431,0.3072690714161704,1.4839694440249205,-0.0725030813967097,0.1299041989560548,0.0141440428186176,-0.1898885743479206,-0.616253919488972,0.0526940660346136,0.2908412234917722,0.3154157799794654,1.485028188261486,-0.1858211272930905,-0.669341139864426,0.1365791704866716,1.1218905935118215,0.3128921498153469,1.0625172572300778,0.1783089579424163,10.435195938169272,-0.9621935593393852,0.2709039430815261,-0.9061817870906566
2.32,0.2839260269961517,0.2951819679885994,1.4850815797972994,-0.0735963758492389,0.1295689553466628,0.0146711215067857,-0.1835840276006512,-0.5937558652457868,0.0583560683673754,0.2871248009459104,0.3020289571821769,1.4877597716712194,-0.1787141622578904,-0.6586414728278926,0.153839955887539,1.202048277768003,0.3152273373634731,1.1249027121592592,0.2831001166380905,10.56958014403972,-0.9627823740896652,0.2734771497978841,-0.9033993267622888
2.34,0.2804969084343874,0.2841247638158611,1.4862533400202569,-0.0732986995196752,0.1290645712362022,0.0152928588111642,-0.1777207535060128,-0.571514214934057,0.064725197704839,0.2834083784000485,0.2886421343848884,1.4904913550809529,-0.1716071972226903,-0.6479418057913593,0.1711007412884065,1.1933511639658607,0.2931637047319163,1.1120825155864933,0.318456466873181,10.68672893950952,-0.9634830662149232,0.2753076007829522,-0.9003156732372721
2.36,0.2770065620572744,0.2729460842649137,1.4876279653423952,-0.0712059050711263,0.1284031945746231,0.0160912649066512,-0.1716465766071759,-0.5477223042036015,0.0724737780074024,0.2798696299800667,0.2755228032635132,1.493654458125708,-0.1645002321874902,-0.6372421387548259,0.1883615266892739,1.2874307145528268,0.3037088449418454,1.189595536522775,0.3874290151281691,10.745971358505813,-0.9643299087782304,0.2757833857223736,-0.8973229704093687
2.38,0.273637350964813,0.2622333492508251,1.4891718424023055,-0.0672781923358632,0.1276358176531828,0.0170294592610769,-0.1656032587351129,-0.52542989535217,0.0815849619320052,0.276508555685965,0.2626709638180514,1.4972490808054848,-0.1573932671522901,-0.6265424717182926,0.2056223120901414,1.2414576672304591,0.302165893603154,1.1146204425715731,0.4555591962301396,10.87107333754193,-0.9657035785071276,0.2748976285766554,-0.8942306899249811
2.4,0.2705482991554656,0.2524422777838268,1.4908206051440176,-0.0628861435841813,0.1268231115057949,0.0179716708212512,-0.1598934982291333,-0.5065527407860003,0.0915376663817087,0.2653571880280573,0.2359618544832166,1.4932510904989058,-0.1625857039769963,-0.495070047881052,0.1106242684981244,1.1045413702232378,0.2854880252989758,0.9438577283084836,0.497635222485173,10.935788574275648,-0.9673775188090724,0.273517448922682,-0.8907540466688488
2.42,0.2674196341832138,0.2424649705890109,1.492602574892703,-0.0591725995606005,0.1250087549685572,0.0189557059726326,-0.1533403329444031,-0.4918241273182321,0.0852441116381894,0.2653571880280573,0.2359618544832166,1.4932510904989058,-0.1625857039769963,-0.495070047881052,0.1106242684981244,0.8652815455699829,0.3276582642365133,0.7364306733884107,-0.3146777371759647,10.935788574275648,-0.9687979222283756,0.2738569530110105,-0.8857971715326065
2.44,0.2644196924587074,0.2327912633881552,1.4942499951423465,-0.0566527862714471,0.1211655451528235,0.0199713004373697,-0.147112200372537,-0.4761741772338381,0.0800671329216145,0.2653571880280573,0.2359618544832166,1.4932510904989058,-0.1625857039769963,-0.495070047881052,0.1106242684981244,0.8810670825888209,0.3114066285933012,0.782497504219698,-0.2588489358287447,9.841261854460754,-0.9698769262116655,0.2723518866410406,-0.8851165581797462
2.46,0.2615302973518177,0.2234358430029479,1.495831808905602,-0.0546491068542855,0.1156445955470255,0.0210384923799516,-0.1424874867265803,-0.4601357513195783,0.0783747546829572,0.2637313309882874,0.2310111540044061,1.494357333183887,-0.1619821930253729,-0.4889980783868284,0.1164321298113482,0.8388730926322847,0.2312356822978381,0.8019212957129929,-0.0846189119328627,10.027415113659115,-0.9721212783416612,0.2715034355393607,-0.8827210382404445
2.48,0.2588444560613702,0.2148460786059703,1.4973291603490426,-0.0529605273953667,0.1097718089999432,0.0220635651637744,-0.1406320342431868,-0.4448794003083292,0.0793370951064134,0.2604796169087475,0.221109753046785,1.4965698185538494,-0.1607751711221263,-0.4768541393983812,0.1280478524377959,0.7699432595769488,0.0927726241696735,0.7628175505624557,0.0481170211728089,10.207444686946474,-0.9763527305892128,0.2711865781012803,-0.8775461303335584
2.5,0.2560306023993806,0.2061154012777057,1.4989463921486013,-0.0513139770750258,0.1038455409851258,0.0231112895894883,-0.1410115699775418,-0.4290302733957261,0.0824401143080236,0.2572279028292075,0.211208352089164,1.498782303923812,-0.1595681492188796,-0.464710200409934,0.1396635750642436,0.8077245808922341,-0.0189767867177489,0.7924563456301548,0.1551509600805127,10.353432483526376,-0.9818124850294344,0.2714645489475477,-0.8702615502688578
2.52,0.2531845647280597,0.1976995964659919,1.5006444187135393,-0.0497637693518678,0.0989617227673279,0.0240911340231952,-0.1437448478697407,-0.4133938645176836,0.0872842521355279,0.2540365398448299,0.2019141480809653,1.5015755754250968,-0.158361127315633,-0.4525662614214868,0.1512792976906913,0.8298098606445424,-0.1366638946099438,0.7818204439021231,0.2422068913752129,10.470143409616869,-0.9861887499738078,0.2718332780493024,-0.8641237124642343
2.54,0.2504067916386099,0.1899917039603164,1.5023546341973724,-0.0483457249675401,0.0961416693790414,0.0249224662640032,-0.1485606020694019,-0.3988016756612525,0.0925011883626299,0.2508451768604524,0.1926199440727666,1.5043688469263816,-0.1571541054123864,-0.4404223224330396,0.1628950203171389,0.8113875272195094,-0.2407877099830632,0.7296094428215549,0.2608468113550983,10.600089564727568,-0.9893913579220932,0.2723515324598927,-0.8590985149709001
2.56,0.2473739376184352,0.18217643070841,1.5042657714486585,-0.0468402437215749,0.095691637920107,0.0256743271241837,-0.1541693836922948,-0.3835505815667351,0.0983686434753767,0.2476839894236559,0.1836293385392791,1.5074525114933277,-0.1559470835091397,-0.4282783834445924,0.1745107429435866,0.8638306139996744,-0.2804390811446428,0.762554704725868,0.2933727556373416,10.600089564727568,-0.9922016205087928,0.2729358114068865,-0.8545562408347545
2.58,0.2442428611680336,0.1746656379215563,1.5062980368356609,-0.0451992067585552,0.0973243484652677,0.0263384836112531,-0.158433403187117,-0.3683738897493601,0.1045876028107658,0.2445529775344407,0.1749423314805028,1.510826569125935,-0.1547400616058931,-0.4161344444561453,0.1861264655700343,0.8473330100778373,-0.2132009747411123,0.7588345908687538,0.3109479667694564,10.609879564075529,-0.9930403982436732,0.2734562248567968,-0.8522731720415031
2.6,0.2410437186328586,0.1674554553431922,1.5084585160666055,-0.0433706978392049,0.1002932108594422,0.0269580783392269,-0.1610551572873713,-0.3535306990535402,0.1111587674810308,0.2363211910086777,0.1562469434340883,1.5115274169761992,-0.1481044286123127,-0.3390200289836645,0.1140302144082442,0.8221528290385122,-0.1310877050127112,0.7421595347909926,0.3285582335132493,10.618577759834809,-0.9925969456253936,0.273911455946343,-0.8514544021554166
2.62,0.2379506287255509,0.1608694791303074,1.5105163040530047,-0.0415758047711253,0.1040685892057078,0.0275137908007789,-0.1641643614038582,-0.3405291185618118,0.1051130061833373,0.2363211910086777,0.1562469434340883,1.5115274169761992,-0.1481044286123127,-0.3390200289836645,0.1140302144082442,0.7335861830582023,-0.1554602058243481,0.6500790245864196,-0.3022880648846773,10.628816689825726,-0.9862292046908174,0.2744125299044788,-0.8567518294449632
2.64,0.23465136551558,0.1541973892598565,1.512558879544068,-0.0397771408336223,0.1087433691416008,0.0280691274050259,-0.1653903276824862,-0.3273732129951602,0.0995654503676159,0.2363211910086777,0.1562469434340883,1.5115274169761992,-0.1481044286123127,-0.3390200289836645,0.1140302144082442,0.7165127705134281,-0.0612983139313988,0.6577952783325791,-0.2773777907860701,9.859479922456558,-0.9816515542590932,0.2734359680135658,-0.8625102307453847
