t,x,y,z,roll,pitch,yaw,v_x,v_y,v_z,ref_x,ref_y,ref_z,ref_v_x,ref_v_y,ref_v_z,a_com,a_x,a_y,a_z,thrust,wind_x,wind_y,wind_z
0.0,-0.6547579115109481,1.8784161098318275,1.9236068386792355,0.0299875454239203,0.0996747828929897,0.0420841885278121,0.0021312567018728,-0.0076620991648365,-0.0011224544867012,-0.6546978452414028,1.8782580483919111,1.9235737343565809,-0.0355429502463098,-0.1057465487829678,-0.1010819787210923,0.4015903472936749,0.10656283509364,-0.3831049582418255,-0.0561227243350612,10.26060537466492,-0.9393578911097688,0.2512324642998105,-0.8829635356537727
0.02,-0.6546927705670599,1.8785222378765665,1.9234966106584632,0.0360038572358814,0.0982285148676649,0.0424443187104394,0.0045694917738476,0.0145814724489872,-0.0105072155719201,-0.6546978452414028,1.8782580483919111,1.9235737343565809,-0.0355429502463098,-0.1057465487829678,-0.1010819787210923,1.213255134990321,0.1219117535987405,1.112178580691186,-0.4692380542609475,10.261339649772708,-0.9427943619262502,0.2521104256661365,-0.8734322469714259
0.04,-0.6545718913093742,1.8788505129299768,1.9231171387572596,0.049870569169139,0.0936160275445777,0.0431721285732808,0.0070706000332191,0.0162182190184931,-0.0272433110924241,-0.6546978452414028,1.8782580483919111,1.9235737343565809,-0.0355429502463098,-0.1057465487829678,-0.1010819787210923,0.8500461386438372,0.1250554129685747,0.0818373284752981,-0.8368047760251986,9.28561320938843,-0.9392961294171376,0.2388413712209029,-0.8824591695699865
0.06,-0.6544335946665246,1.87912325216726,1.9223717613864368,0.064408706083075,0.0866708654548509,0.0437099231161423,0.0062735428548378,0.0105975276633067,-0.0464709121281684,-0.655053274743866,1.8772005829040812,1.9225629145693697,-0.0430488595998044,-0.125746549080991,-0.1210819790191155,1.0024072438954543,-0.0398528589190644,-0.2810345677593205,-0.961380051787216,9.28561320938843,-0.9375500508868352,0.2222022407847172,-0.8921903982476456
0.08,-0.6543504437062413,1.8792419362792072,1.9212963991135008,0.0777376856484118,0.0793228208680399,0.0440030611182157,0.0023487835520699,0.0018894118445606,-0.0658052052111883,-0.6557641337487922,1.8750856519284225,1.920541274994948,-0.0580606783067937,-0.1657465496770374,-0.1610819796151619,1.078250789145864,-0.1962379651383942,-0.4354057909373068,-0.9667146541509956,9.205939957798364,-0.9373428244083865,0.2041767310292374,-0.901992696062988
0.1,-0.6543718224420537,1.8791584340164973,1.9197574699421251,0.0911042837756692,0.071862263875912,0.0441427633886222,-0.0044267590118657,-0.0100943146846393,-0.0871505752297018,-0.6564749927537183,1.8729707209527628,1.918519635420526,-0.073072497013783,-0.2057465502730839,-0.2010819802112084,1.2699827752666664,-0.3387771281967848,-0.5991863264599967,-1.0672685009256748,9.172909858031744,-0.9379187626082583,0.185648181488089,-0.9117298932303212
0.12,-0.6545524880894016,1.878807009027236,1.9177843917940165,0.1037997881850155,0.0654168839388744,0.0441942798656376,-0.0133899037663898,-0.0247417153050106,-0.1091510270197434,-0.657936442693994,1.8688557899473013,1.914497995816302,-0.0880843157207723,-0.2457465508691303,-0.2410819808072548,1.3954427503396098,-0.448157237726203,-0.7323700310185669,-1.100022589502078,9.144640421771328,-0.938718426779676,0.1672781711643399,-0.9212026691547184
0.14,-0.654934429833237,1.878136345605997,1.9153610461879116,0.1158606679756412,0.0606430709382149,0.0442641054034276,-0.0243928603536763,-0.0418700693315475,-0.1321508823371605,-0.6593978926342697,1.8647408589418395,1.9104763562120777,-0.1030961344277616,-0.2857465514651768,-0.2810819814033014,1.5357725335659356,-0.5501478293643238,-0.8564177013268442,-1.1499927658708553,9.144640421771328,-0.937901891111084,0.149400621433459,-0.9322756497321648
0.16,-0.6555189536474348,1.8771592271399224,1.9126256144678009,0.126766858738249,0.0583366567777139,0.0444745329774255,-0.036570342214409,-0.0603578736797815,-0.1547017915291635,-0.6612346380422202,1.8596259279214769,1.9054547165929523,-0.1181079531347509,-0.3257465520612232,-0.3210819819993478,1.5800581314250948,-0.6088740930366383,-0.9243902174117032,-1.1275454596001515,9.126021632086122,-0.9350326089727836,0.1297446209997057,-0.9468419644548184
0.18,-0.6563845051617966,1.8757286882194275,1.9092755417988,0.1377013390584429,0.0586042927702668,0.044953017775272,-0.04901114172113,-0.0819610382073015,-0.1791728604910365,-0.6634466789178453,1.853510996886213,1.8994330769589256,-0.1331197718417402,-0.3657465526572697,-0.3610819825953942,1.7466420827592788,-0.6220399753360494,-1.0801582263759992,-1.2235534480936476,9.12622127196846,-0.93230725637606,0.1120308054310187,-0.959217200245594
0.2,-0.6574810327015146,1.8738297821451555,1.90543059087028,0.147637152579758,0.0609569555325566,0.0456281613659169,-0.059742565720753,-0.1067496216205606,-0.2041088299807867,-0.658835062247853,1.8716306363090625,1.9003168987742485,-0.0604941041283017,-0.1819610396974177,-0.2791728619811526,1.838096775940768,-0.5365711999811507,-1.2394291706629514,-1.2467984744875094,9.111956452073173,-0.9273612707453676,0.0952321685281204,-0.973012760176099
0.22,-0.65878473559386,1.871236428763514,1.9012834008554804,0.1516824236216245,0.0657265618097747,0.0462424638793687,-0.0697241061307092,-0.1494387395654655,-0.2078627475428201,-0.658835062247853,1.8716306363090625,1.9003168987742485,-0.0604941041283017,-0.1819610396974177,-0.2791728619811526,2.200047634104849,-0.4990770204978068,-2.1344558972452488,-0.1876958781016693,9.120737488906345,-0.9257854872466524,0.0807228045024743,-0.9864641942302028
0.24,-0.6601817148704567,1.8680426181729564,1.897298812787104,0.1489766171429091,0.0725953223038627,0.0466995705988803,-0.076484662385927,-0.1835383009056042,-0.2113393328161035,-0.658835062247853,1.8716306363090625,1.9003168987742485,-0.0604941041283017,-0.1819610396974177,-0.2791728619811526,1.746834171889433,-0.3380278127608924,-1.7049780670069334,-0.1738292636641727,10.609695516010106,-0.9211358653368042,0.0810450441934475,-0.9928048587340282
0.26,-0.6617584246592426,1.86405904935326,1.8930030249910683,0.1431754576962283,0.0808947603355187,0.0470816979836241,-0.0805444705823168,-0.2124028820862829,-0.2181728143414101,-0.6594400032891361,1.8698110259120884,1.897525170154437,-0.0627906966097361,-0.2019610399954409,-0.2991728622791759,1.4969490297636796,-0.2029904098194909,-1.4432290590339334,-0.3416740762653261,10.36578269994061,-0.913380119258023,0.0843879487785092,-1.0013909985915297
0.28,-0.6633862707072025,1.8595493449492555,1.8885301340723848,0.1366975057442106,0.0891698041228348,0.047346443786654,-0.0818636268499695,-0.2369001291290416,-0.2287573162552493,-0.6606498853717021,1.86617180511814,1.8919417129148135,-0.0673838815726048,-0.2419610405914873,-0.3391728628752223,1.3359331632762383,-0.0659578133826332,-1.2248623521379345,-0.5292250956919611,10.10801930285652,-0.9045885776158415,0.0873843120786186,-1.0114360024763425
0.3,-0.6649355292260218,1.8548408755268448,1.8840544063291016,0.1308179441437333,0.0963222849343046,0.0474605275523973,-0.081077924245506,-0.2574937049603871,-0.2418663950237379,-0.6618597674542681,1.862532584324192,1.8863582556751903,-0.0719770665354735,-0.2819610411875338,-0.3791728634712688,1.2212295446214012,0.0392851302231732,-1.0296787915672747,-0.6554539384244329,9.888468443769852,-0.8956885045675954,0.0906880206689874,-1.0211529438234523
0.32,-0.6665342041017471,1.849483845545309,1.879045788516173,0.125328120145784,0.1026996353439214,0.0474261906259338,-0.0787665298889725,-0.2771496556729082,-0.2584706991278287,-0.6632993087849776,1.8568933635004408,1.8787747984057648,-0.0765702514983421,-0.3219610417835802,-0.4191728640673152,1.2917060976336685,0.115569717826678,-0.9827975356260564,-0.8302152052045375,9.70845243590884,-0.8865917951334482,0.0927864986728739,-1.0315067496961516
0.34,-0.6680733700719382,1.843747382468968,1.873687628055046,0.1206861127291727,0.1076974525238795,0.0472363708927295,-0.0752492578789505,-0.2955816274493859,-0.2766002337447875,-0.664738850115687,1.8512541426766904,1.87119134113634,-0.0811634364612109,-0.3619610423796268,-0.4591728646633617,1.304596500252916,0.1758636005010964,-0.9215985888238852,-0.906476730847941,9.490895319674564,-0.8780982243333294,0.093526177266855,-1.041905283077443
0.36,-0.669533176936446,1.83764310764538,1.867953812125129,0.1165889508860399,0.1112607438767703,0.0468803500285164,-0.0709771705825592,-0.313868769639526,-0.2958934438564798,-0.6662932210704683,1.8446149218380383,1.8626078838520133,-0.0857566214240795,-0.4019610429756732,-0.4991728652594081,1.3461967313178036,0.2136043648195668,-0.9143571095070024,-0.9646605055846164,9.490895319674564,-0.8708732463940413,0.0935755832311853,-1.0512348654918666
0.38,-0.6708378446715955,1.8315097941836376,1.862140226020281,0.1128999667365198,0.113427123561436,0.0463924754172649,-0.0666461092956187,-0.3307449248888471,-0.3151097237944832,-0.6679624216493212,1.8369757009844847,1.853024426552785,-0.0903498063869482,-0.4419610435717196,-0.5391728658554545,1.2969465317873898,0.2165530643470262,-0.8438077624660562,-0.96081399690017,9.447935301766847,-0.8642190140670134,0.093324053290477,-1.0603708299780112
0.4,-0.6721233330958181,1.8247153166821009,1.85561590637101,0.1091732309913667,0.1146170303423766,0.0457498985204088,-0.0621949271652312,-0.347734438580386,-0.3363668786269898,-0.6741701501363764,1.8149725479391952,1.8463847398305568,-0.0695573889721008,-0.4307449263789632,-0.4135702714205018,1.37869796312139,0.2225591065193759,-0.8494756845769474,-1.0628577416253282,9.408391453473996,-0.8584173270657343,0.0928465464785181,-1.0689216297127226
0.42,-0.6732964644127415,1.817571201644031,1.8489266243991835,0.1059780542610444,0.1150727176155013,0.0450510235804268,-0.0552226980763913,-0.3660801592016476,-0.3301231015824629,-0.6741701501363764,1.8149725479391952,1.8463847398305568,-0.0695573889721008,-0.4307449263789632,-0.4135702714205018,1.0297599178478558,0.3486114544419907,-0.9172860310630804,0.3121888522263472,9.357992116370951,-0.8611722747093085,0.0906711049928586,-1.0717777175145504
0.44,-0.6743309170680606,1.8100706099902728,1.8423643065842343,0.1036885487581313,0.1150765627613906,0.0443564509476639,-0.0486385246663457,-0.3832999386657245,-0.3266015556893342,-0.6741701501363764,1.8149725479391952,1.8463847398305568,-0.0695573889721008,-0.4307449263789632,-0.4135702714205018,0.9384474276196924,0.3292086705022821,-0.8609889732038439,0.176077294656432,11.09233622879583,-0.8609485018022845,0.0933507047875597,-1.070842590684502
0.46,-0.6751981626508662,1.8026266390330543,1.836140664364079,0.1020841158975662,0.114663188175493,0.0436838566206505,-0.0430417947623217,-0.399453353885548,-0.3286855866279547,-0.6748657240260973,1.8106650986754056,1.842249037116352,-0.0701396449073972,-0.4507449266769864,-0.4332623809457055,0.8611030626988669,0.2798364952012005,-0.8076707609911721,-0.1042015469310236,10.722054124772512,-0.8602930062361845,0.0946052541244706,-1.0711932657262944
0.48,-0.6760041499235149,1.7944663559550609,1.8295018992655665,0.10081120805618,0.1138266581821518,0.0429548841091117,-0.0379260849170569,-0.415712463075844,-0.3352775526431356,-0.6762568718055394,1.8020502001478265,1.833977631687942,-0.07130415677799,-0.4907449272730328,-0.4726465999961129,0.9137602733050476,0.2557854922632392,-0.8129554595147997,-0.329598300759043,10.393410661181406,-0.8596619550239225,0.0947521506596064,-1.072328405411174
0.5,-0.6767156470740846,1.7859870198638044,1.8226911068840057,0.1000039873123815,0.1126409331498743,0.0422141548863608,-0.0335381019466642,-0.431403427105085,-0.3456203440709122,-0.6776480195849814,1.793435301620247,1.825706226259532,-0.0724686686485828,-0.5307449278690793,-0.5120308190465204,0.9649275636464676,0.2193991485196371,-0.7845482014620514,-0.5171395713888333,10.134445170115214,-0.8588717912502173,0.0937806022418298,-1.0743821349565783
0.52,-0.6773170540033988,1.7776459585100703,1.815997422908339,0.0997156829588951,0.1112346756000101,0.0415071050311046,-0.0300271820250291,-0.445855694511782,-0.3584530526422059,-0.6790973929579531,1.7828204030628654,1.8154656098786013,-0.0736331805191757,-0.5707449284651258,-0.5514150380969278,0.9821825201643593,0.1755459960817547,-0.7226133703348486,-0.6416354285646853,9.771508056244784,-0.8578789195894003,0.0918758713543857,-1.0771565433841106
0.54,-0.6778839944278027,1.768572631609021,1.8086738668507676,0.1000263235320302,0.1095292470813787,0.0407727861414076,-0.0269077361152235,-0.4607656245469744,-0.3732884123524592,-0.6805467663309247,1.772205504505484,1.805224993497671,-0.0747976923897685,-0.6107449290611723,-0.5907992571473353,1.0631613872916248,0.1559722954902793,-0.745496501759621,-0.7417679855126619,9.771508056244784,-0.8569551010831287,0.0888458660307513,-1.080501257248116
0.56,-0.6783944956992337,1.7591886759458166,1.8010417752075012,0.1006660340862983,0.1076964628439825,0.0400363726413956,-0.0243522455996118,-0.4768086266565238,-0.3891722737134032,-0.6820252525006611,1.760590605933201,1.7939997716404803,-0.0759622042603613,-0.6507449296572186,-0.6301834761977426,1.1360078126888908,0.1277745257805862,-0.8021501054774727,-0.7941930680471998,9.661342095991133,-0.8561128697604058,0.0852639081291422,-1.0840589289995075
0.58,-0.6788379556645031,1.7499670074646971,1.793488165016349,0.1010333675600587,0.1059585781478746,0.0393091838115487,-0.0225025846795642,-0.4929651312092359,-0.4051422423309045,-0.6835328514671625,1.7479757073460171,1.7817899443070295,-0.0771267161309542,-0.6907449302532651,-0.66956769524815,1.1396203123463269,0.0924830460023779,-0.8078252276356029,-0.7984984308750692,9.661342095991133,-0.8553909432396674,0.0820575456513454,-1.0874096180695314
0.6,-0.6792736118346181,1.739923627481591,1.7851985976345754,0.1007799977741011,0.1042858784132352,0.0385053873837989,-0.0212190565733177,-0.5104321707405663,-0.4230169459781948,-0.6799630848984813,1.7253187509042354,1.773231052899804,-0.0254094880712682,-0.592965132699352,-0.4744917771404939,1.2512493205463062,0.0641764053123267,-0.8733519765665221,-0.8937351823645134,9.62063208125346,-0.854372596562976,0.0792100361926647,-1.091250070805789
0.62,-0.6796582463429635,1.7294561710837284,1.776860370046168,0.098304826528644,0.1030266159304771,0.0375829341498394,-0.0172020345956025,-0.5350001051990281,-0.4081677252502822,-0.6799630848984813,1.7253187509042354,1.773231052899804,-0.0254094880712682,-0.592965132699352,-0.4744917771404939,1.4493267621131778,0.2008510988857568,-1.2283967229230863,0.7424610363956308,9.567383688347036,-0.8649676911687585,0.0782034048022287,-1.0855493274053616
0.64,-0.6799632414766256,1.718539776016023,1.7688450566676672,0.0936441988724229,0.1022699683207636,0.0365609838543154,-0.0135420477285373,-0.5549113732263804,-0.394504374942994,-0.6799630848984813,1.7253187509042354,1.773231052899804,-0.0254094880712682,-0.592965132699352,-0.4744917771404939,1.221209687097003,0.1829993433532588,-0.9955634013676162,0.6831675153644079,11.725741751017267,-0.8680360436481852,0.0840886449860977,-1.0804011922404295
0.66,-0.6801911833825921,1.707835805337431,1.761422869362096,0.0888666858325019,0.1017958452948709,0.0355954229891732,-0.0106408941972087,-0.5706907786711274,-0.3874144006720322,-0.680217179779194,1.7193890995772418,1.768486135128399,-0.0259908687496089,-0.6129651329973752,-0.4883616841024118,0.8770320164694,0.1450576765664327,-0.7889702722373493,0.3544987135480931,11.338450293827009,-0.8697425617153371,0.0899394803418409,-1.077014439083871
0.68,-0.6803768546524769,1.696269873479799,1.7537077836177102,0.0841392331549207,0.1013963326486979,0.0346167399653553,-0.0081094760253597,-0.5850215853218275,-0.3846775004989523,-0.6807253695406194,1.7075297969232548,1.758996299585589,-0.0271536301062905,-0.6529651335934217,-0.5161014980262476,0.7403896267809298,0.1265709085924498,-0.7165403325350039,0.1368450086539963,10.651900415286036,-0.8704506991723407,0.0947527233361067,-1.0753206004354978
0.7000000000000001,-0.6805172598168066,1.6844341294810312,1.7460020144614763,0.0799869547730161,0.1010247759085034,0.0336885415353068,-0.0060849302175988,-0.5978390569636032,-0.3862071958619243,-0.6812335593020448,1.6956704942692675,1.749506464042779,-0.0283163914629721,-0.6929651341894681,-0.5438413119500833,0.6533114359150332,0.1012272903880448,-0.6408735820887856,-0.0764847681486019,10.404494336678,-0.8704042819134964,0.0983998998417729,-1.0750065914971054
0.72,-0.6806224100871437,1.6723554273295629,1.738225043126146,0.0764984325081724,0.1006573966775115,0.0328147427641889,-0.0045379477833538,-0.6094928431805096,-0.3914041118062973,-0.6817998871313042,1.6818111915854783,1.738629637803777,-0.0294791528196537,-0.7329651347855146,-0.5715811258739191,0.6426737569990272,0.0773491217122484,-0.582689310845319,-0.2598457972186496,10.404494336678,-0.8698699819135091,0.1007986444427021,-1.0757256814570928
0.74,-0.6806960328537475,1.6606723086589734,1.7307265663971942,0.0738053256240443,0.1003126749680354,0.0320349945608763,-0.0032940917167124,-0.6198454945822072,-0.3976536545060098,-0.6823662149605637,1.6679518889016889,1.7277528115647758,-0.0306419141763353,-0.7729651353815611,-0.5993209397977549,0.6078267699664162,0.0621928033320687,-0.5176325700848805,-0.3124771349856281,10.136039456107028,-0.8694813022942376,0.102282918935829,-1.076867961917937
0.76,-0.6807499091324168,1.6481593204458111,1.722694209246759,0.0713608677395123,0.0999635059081177,0.0312490291082576,-0.0021724294342841,-0.630865411668068,-0.405298776885851,-0.6829616118237402,1.6530925862029984,1.716182489977678,-0.0318046755330169,-0.8129651359776074,-0.6270607537215906,0.6729498403629679,0.056083114121418,-0.5509958542930404,-0.3822561189920581,10.136039456107028,-0.8689036800039788,0.1032040978513986,-1.0784137842037271
0.78,-0.6807834610614001,1.6354273595425626,1.7144969124350435,0.0690139632532641,0.0996430282171413,0.0304788758377829,-0.0012448466261405,-0.6416805630595523,-0.4140415138637484,-0.6835860777208337,1.6372332834894068,1.703918673042485,-0.0329674368896985,-0.8529651365736539,-0.6548005676454264,0.6968919560293841,0.0463791404071792,-0.5407575695742184,-0.4371368488948701,10.07732266468247,-0.868139740283039,0.1038880120408038,-1.080219872506353
0.8,-0.6807999323505919,1.6231356919267452,1.706537657976008,0.0667770468312543,0.0993771853704384,0.0297563263635858,-0.0005377824277883,-0.6515432915969303,-0.4233337701494147,-0.6808457033927071,1.6033433313895848,1.693794836741856,0.0018828014033358,-0.7416805645496685,-0.4330352081989707,0.6784529844821677,0.0353532099176079,-0.4931364268688953,-0.4646128142833133,10.021207506028077,-0.8671099253698935,0.1045229874057865,-1.0824528038237635
0.8200000000000001,-0.6807765731173272,1.6099625643619042,1.69825169808012,0.0638136902067045,0.0991876198874346,0.0289673731316969,0.0029642195490119,-0.664917110557074,-0.4032194252143238,-0.6808457033927071,1.6033433313895848,1.693794836741856,0.0018828014033358,-0.7416805645496685,-0.4330352081989707,1.2203584756046395,0.175100098840019,-0.668690948007189,1.005717246754545,9.964790773045024,-0.8768968899246683,0.1049031808690588,-1.0759419506835302
0.84,-0.6806809127908856,1.5965483380499388,1.6903972075077196,0.0604813497786013,0.0990734655326219,0.0281677817781307,0.0063827773760277,-0.6757320324014778,-0.3835905295461752,-0.6808457033927071,1.6033433313895848,1.693794836741856,0.0018828014033358,-0.7416805645496685,-0.4330352081989707,1.1335151270144954,0.1709278913507886,-0.5407460922201901,0.9814447834074286,11.662089961139827,-0.8799919474682923,0.1101829554703092,-1.069835431458089
0.86,-0.6805215485463294,1.5829381744911402,1.6828842359710685,0.0575239060047536,0.0989171268230938,0.0274031489957861,0.0093617832023996,-0.6848237541132026,-0.3686612992018023,-0.6808268753786737,1.5959265257440882,1.6894644846598663,0.0025083310092311,-0.7616805648476916,-0.4368339470660151,0.8865886843293644,0.1489502913185933,-0.4545860855862393,0.746461517218644,11.662089961139827,-0.8820592082241003,0.1144090915286416,-1.0653631448587089
0.88,-0.680319038306775,1.569851048698436,1.675988098704855,0.055275506792338,0.0986710296545126,0.0267210308170948,0.0117841977380378,-0.6924462355011274,-0.3579845092529679,-0.680789219350607,1.5810929144530947,1.680803780495887,0.0037593902210216,-0.8016805654437381,-0.444431424800104,0.6670160386063886,0.1211207267819118,-0.3811240693962381,0.5338394974417238,11.368398889265336,-0.8838539996338688,0.1177581051667605,-1.0616864947741778
0.9,-0.680060439995703,1.55592655274255,1.6689201167800995,0.05359804148347,0.0983038424904233,0.0260561753133022,0.0139133852899762,-0.6996859862105752,-0.3494971299502657,-0.6807515633225403,1.5662593031621015,1.6721430763319076,0.0050104494328122,-0.8416805660397846,-0.4520289025341929,0.5678534964984732,0.106459377596919,-0.3619875354723911,0.4243689651351079,11.136449531789369,-0.8854554825972233,0.1200399995017938,-1.0587108860100332
0.92,-0.679763777575497,1.541864380901822,1.6619960107695095,0.0527686921350662,0.0978496565521268,0.0254562550578564,0.0156144783478547,-0.7062305023928598,-0.3434324765997162,-0.680651354333884,1.549425691841306,1.6631024982812237,0.0062615086446028,-0.881680566635831,-0.4596263802682818,0.4541597458881585,0.0850546528939275,-0.3272258091142288,0.3032326675274754,10.959633785609183,-0.8869717166971279,0.1212263888460702,-1.056230799016647
0.94,-0.6794360864819818,1.5276776348581973,1.6551831671521369,0.0530341483684887,0.0973370068548329,0.0249383085069756,0.0170493743781626,-0.7122710645927074,-0.3381456486708159,-0.6805511453452278,1.5325920805205102,1.65406192023054,0.0075125678563933,-0.9216805672318776,-0.4672238580023707,0.4077311242038711,0.0717448015153911,-0.3020281099923805,0.2643413964450142,10.7770771486812,-0.8885695605217264,0.1210639194912211,-1.0542112021205725
0.96,-0.6791000433142432,1.5140794517030656,1.6488052790246983,0.0541465114277443,0.0968200704429454,0.0245106099828554,0.0182325710321827,-0.7188377852337211,-0.3334700978746173,-0.6804196598762768,1.5147584691848133,1.6448314052365038,0.0087636270681839,-0.961680567827924,-0.4748213357364596,0.4073774341658886,0.0591598327010068,-0.3283360320506856,0.233777539809929,10.7770771486812,-0.8902575390323378,0.119899753918917,-1.0523052104465067
0.98,-0.6787240230805353,1.4996227066731165,1.6421845404426636,0.0558684940594197,0.0962681246792229,0.0241030450587417,0.0192862636169493,-0.7265252648142304,-0.3288602376464028,-0.680256897927031,1.4959248578342152,1.6354109532991157,0.0100146862799745,-1.0016805684239702,-0.4824188134705485,0.4512715969557955,0.0526846292383271,-0.3843739790254652,0.2304930114107262,10.756272638753217,-0.8919514425406104,0.1181225441347358,-1.0505290849818618
1.0,-0.6783289860211529,1.4850000052616483,1.6356513005132065,0.0577618949466225,0.0957306241601445,0.0237121290715658,0.0201469519105745,-0.7353322328700955,-0.3246863600530876,-0.6777597098996878,1.4632964434324047,1.6257415285603434,0.0228816530427038,-0.8265252663043465,-0.350667289841475,0.4891950654897059,0.0430344146812639,-0.4403484027932558,0.2086938796657611,10.73686856776385,-0.8935032531035715,0.1162206010457479,-1.0489828958591056
1.02,-0.6779305382289693,1.470875885937233,1.62962525876618,0.0576270085123009,0.0953324051479027,0.0232176502163546,0.021740763144714,-0.7501753553533326,-0.309779234739453,-0.6777597098996878,1.4632964434324047,1.6257415285603434,0.0228816530427038,-0.8265252663043465,-0.350667289841475,1.054847032060634,0.0796905617069727,-0.7421561241618524,0.7453562656817292,10.713251592303097,-0.8988774419109662,0.1155610632602526,-1.0443700438057222
1.04,-0.6774810428431698,1.4557377389828354,1.6235781011122097,0.0547917106277703,0.0950816165014211,0.0225313384406512,0.0231035329132026,-0.7625950750651755,-0.2958615730314646,-0.6777597098996878,1.4632964434324047,1.6257415285603434,0.0228816530427038,-0.8265252663043465,-0.350667289841475,0.9351575891001646,0.0681384884244327,-0.6209859855921485,0.695883085399418,11.47519542448481,-0.9021913598573396,0.11955527134203,-1.0389432600614563
1.06,-0.6770089780357055,1.4403899177665949,1.6177745073152543,0.0508355167426964,0.0949449144867181,0.0217902874679793,0.02403379026342,-0.7713352420438572,-0.2851584465352684,-0.6775308933692608,1.4550311907693612,1.6222348556619286,0.0236007309278547,-0.8465252666023697,-0.3550287002804894,0.692482516650145,0.0465128675108684,-0.4370083489340814,0.5351563248098101,11.281719151545984,-0.9042963379030976,0.124066214863161,-1.0349832159257388
1.08,-0.6765468993674192,1.425675223995044,1.612432982464741,0.0473398009945485,0.0948943598062244,0.0211255928630232,0.0245673553535549,-0.7772572998473565,-0.2776363803386841,-0.6770732603084068,1.4385006854432745,1.6152215098650993,0.0250388866981565,-0.8865252671984162,-0.3637515211585183,0.4794187631893298,0.026678254506746,-0.2961028901749651,0.3761033098292177,11.07439875882028,-0.9056892194664592,0.1282252357319799,-1.0320059287087118
1.1,-0.6760523191658337,1.4100790171815458,1.606942716592149,0.0444469571082989,0.0949217038310292,0.0205017166678278,0.0248619858834851,-0.7821928409926988,-0.2718877594534779,-0.6766156272475526,1.4219701801171871,1.6082081640682695,0.0264770424684583,-0.9265252677944626,-0.3724743420365471,0.3791207447119012,0.0147315264965086,-0.2467770572671168,0.2874310442603084,10.897742379170268,-0.9066172995447664,0.1313334208162369,-1.0298911717945691
1.12,-0.6755541013838081,1.3943917756524586,1.6015468414750045,0.0424965266368308,0.0950355990742512,0.0199636498664162,0.0249506207295186,-0.7864399464222571,-0.2680680264269328,-0.6760860863981835,1.403439674761298,1.6007586772275388,0.0279151982387602,-0.9665252683905092,-0.381197162914576,0.2856401628789042,0.0044317423016731,-0.2123552714779153,0.1909866513272573,10.75983976331736,-0.9071040450621226,0.1332396730341836,-1.02861851900306
1.14,-0.6750801877038501,1.3794172009347372,1.596480016593912,0.0416298513773804,0.0952238722782871,0.0195383494917915,0.0249486977734576,-0.7897857622450133,-0.2654692429008011,-0.6755565455488143,1.3849091694054088,1.593309190386808,0.029353354009062,-1.0065252689865556,-0.3899199837926049,0.2118263618701589,-9.61478030466617e-05,-0.1672907911378085,0.1299391763065843,10.64692082270176,-0.9075150179945526,0.1340461271679759,-1.0277813813152614
1.16,-0.6745811034616647,1.363581745526877,1.5911934157527905,0.0416996894181989,0.0954895963226817,0.0191747603201695,0.0249712875910824,-0.7936329975324374,-0.2633541681499735,-0.6749910508051876,1.3653786640346184,1.5856416330241263,0.0307915097793638,-1.046525269582602,-0.3986428046706338,0.2195180565366442,0.0011294908812388,-0.1923617643712072,0.105753737541378,10.590175758647092,-0.9077688890866672,0.1337901231477913,-1.0273439065278145
1.18,-0.6740811142849784,1.3476650151419831,1.585942943492973,0.0425592164311819,0.0958010993582752,0.0188799258013049,0.0250407662419984,-0.7978884078542524,-0.2617965480303067,-0.6743896021673034,1.3448481586489267,1.577756005139494,0.0322296655496656,-1.0865252701786483,-0.4073656255486626,0.2266027621584378,0.0034739325457996,-0.2127705160907489,0.0778810059833406,10.524194784024983,-0.9078720721576278,0.1327787358206211,-1.0272427106133672
1.2,-0.6736041757861965,1.332459496976833,1.5809796182341995,0.043904837043952,0.0961170531543704,0.0186474526737502,0.0251697156010723,-0.8024963114114263,-0.2607357813716832,-0.6728290759728784,1.3077705947492708,1.5728531160914576,0.051122356223912,-0.8978884093443685,-0.2667970699248511,0.2365091384781392,0.006447467953693,-0.2303951778586943,0.0530383329311767,10.524194784024983,-0.9078965353758148,0.1311110400235823,-1.0273760743496625
1.22,-0.673115890611674,1.3162946575849492,1.575908547927831,0.0440289345830822,0.09745081533105,0.0183673463067841,0.0238662893543291,-0.8133828691780656,-0.2456815546281852,-0.6728290759728784,1.3077705947492708,1.5728531160914576,0.051122356223912,-0.8978884093443685,-0.2667970699248511,0.9311898340721428,-0.0651713123371564,-0.5443278883319635,0.752711337174898,10.500023100610631,-0.9108012353033204,0.1298252664696702,-1.025661661329371
1.24,-0.6726414502418967,1.2999348456944684,1.5711503155915705,0.0420386328840124,0.1004509818674839,0.018024035001102,0.0238652602509857,-0.8218970388251698,-0.2310694825426657,-0.6728290759728784,1.3077705947492708,1.5728531160914576,0.051122356223912,-0.8978884093443685,-0.2667970699248511,0.8455822498006068,-5.145516717031812e-05,-0.4257084823552137,0.7306036042759728,11.462780338550148,-0.911269976010711,0.1329136844547897,-1.0228348347956662
1.26,-0.6721764200760667,1.2842584612844978,1.5668740403312973,0.0393014435271424,0.1041573659178165,0.0176818958207673,0.0252501134643806,-0.8276216415246203,-0.2197754087805229,-0.6723178524106393,1.298791710655827,1.570185145392209,0.0563386742202947,-0.9178884096423916,-0.2677971743037599,0.6368771401022497,0.0692426606697434,-0.2862301349725205,0.5647036881071418,11.12513256362672,-0.9099113130296418,0.1368264567180993,-1.0217217861090642
1.28,-0.6716434934352952,1.2676668064540937,1.5625833289860234,0.0366858106058322,0.1083824253597882,0.0173583884962369,0.0281133228820574,-0.831335848078887,-0.2099954964330219,-0.671295405286161,1.28083394246894,1.564849203993712,0.0667713102130601,-0.9578884102384382,-0.2697973830615777,0.5423098376897537,0.1431604708838414,-0.1857103277133398,0.4889956173750515,11.12513256362672,-0.9073163931226368,0.1402835278880882,-1.0220623590409128
1.3,-0.6710391077321585,1.251013790443402,1.5584670832121883,0.0348928416941933,0.1124996733590636,0.0170954095652666,0.0322847009372977,-0.8339249851292723,-0.2022093038741101,-0.6702729581616829,1.2628761742820525,1.559513262595215,0.0772039462058255,-0.9978884108344848,-0.2717975918193954,0.4602412957076708,0.2085689027620112,-0.1294568525192607,0.3893096279455887,10.98611321340104,-0.9041147555956408,0.1427437739073291,-1.0233561311497517
1.32,-0.6703392459477912,1.234317994683379,1.5544899505641745,0.0341990863900552,0.1161866172432633,0.0169043024670056,0.0375570830856309,-0.8356338910471811,-0.1959622346258915,-0.6687288792375663,1.2429184060653629,1.5540773107588273,0.087636582198591,-1.0378884114305311,-0.2737978005772132,0.4175651061402418,0.263619107416661,-0.0854452958954421,0.3123534624109275,10.868910906408928,-0.9009875890014214,0.1439328862275457,-1.0250481168323229
1.34,-0.6695670877749407,1.2184331265941235,1.5508211980509037,0.0349361248712018,0.1190848758145568,0.0168116941783251,0.043463156086717,-0.8365945197404251,-0.1905414065519585,-0.6671848003134498,1.222960637848673,1.5486413589224393,0.0980692181913564,-1.0778884120265777,-0.2757980093350309,0.4037012595582975,0.2953036500543047,-0.048031434662199,0.2710414036966521,10.783410175384232,-0.8981326372135793,0.1436332956425274,-1.0268556330736285
1.36,-0.6686252112519457,1.2016830895341633,1.547069066163067,0.0371392280365674,0.1213809464680597,0.0168016335430874,0.0504155602932645,-0.8384765144839015,-0.1849659077663216,-0.6653799054895142,1.202002869617082,1.543155401867106,0.1085018541841218,-1.117888412622624,-0.2777982180928486,0.4554229220579791,0.3476202103273759,-0.0940997371738194,0.2787749392818464,10.762002907520582,-0.8959393543864909,0.141894073962535,-1.0283257886442922
1.38,-0.6675377509673005,1.1848749295127838,1.5434280498383142,0.0401954447952396,0.1228122774079381,0.0168321679546845,0.0579164642211717,-0.8424885777151172,-0.179425913065271,-0.6633141947657594,1.1800451013705902,1.537619439592827,0.1189344901768872,-1.1578884132186704,-0.2797984268506664,0.507572045119298,0.3750451963953592,-0.2006031615607861,0.2769997350525272,10.75959761998729,-0.8946108254953449,0.1394504543527345,-1.0291945215669756
1.4,-0.6663634247626483,1.1688120714330164,1.540071781620881,0.0429480283871277,0.1233783657066894,0.0168282037160073,0.0652414439231849,-0.8480653605462817,-0.1741398239424088,-0.6646419277562419,1.142750500627028,1.534456754185051,0.100959034573726,-0.9424885792052332,-0.1996096234466597,0.530797919635426,0.36624898510066,-0.2788391415582236,0.2643044561431107,10.763674819963851,-0.8941114206415527,0.1369303268014112,-1.0294101046677684
1.42,-0.6649907402518512,1.1517172089127177,1.5366922456919865,0.0433728011720913,0.1238412703846062,0.0166552245965162,0.0716796197773316,-0.8604899648740398,-0.1638085250494307,-0.6646419277562419,1.142750500627028,1.534456754185051,0.100959034573726,-0.9424885792052332,-0.1996096234466597,0.86970776391601,0.3219087927073358,-0.621230216387908,0.5165649446489035,10.77082422118201,-0.8948022714891739,0.1363786369197571,-1.0287632377694598
1.44,-0.6634909829616072,1.1344104928206156,1.5335121147711064,0.0407199233729626,0.1248123253880099,0.0163024213580674,0.0780618692071596,-0.869313507479785,-0.154734241258534,-0.6646419277562419,1.142750500627028,1.534456754185051,0.100959034573726,-0.9424885792052332,-0.1996096234466597,0.7087500233115896,0.3191124714913999,-0.4411771302872569,0.453714189544839,11.115593472842193,-0.8949301120812023,0.1395163856803152,-1.027140240819701
1.46,-0.6619456473056416,1.1178424712568271,1.5306377103158502,0.0371755229039669,0.1260297886326557,0.0159207994521273,0.0843409565455142,-0.8740974140191814,-0.1482795191778896,-0.6636323374105046,1.1333256148349755,1.5324606579505842,0.1095675486442369,-0.9624885795032564,-0.2036463655229374,0.5098434483219432,0.3139543669177326,-0.239195326969821,0.3227361040322202,10.982844986390774,-0.8941489953748313,0.1437908085362894,-1.0262190089533063
1.48,-0.6601877045046599,1.1003339196813788,1.527724788752975,0.0338751512494123,0.1274455896606649,0.0155674393545848,0.091167564589175,-0.8766287459744385,-0.1434515624071962,-0.6616131567190301,1.114475843250871,1.528468465481651,0.1267845767852586,-1.002488580099303,-0.2117198496754929,0.4368048346491919,0.3413304021830377,-0.126566597762856,0.2413978385346668,10.832809475066824,-0.892555755113889,0.1475057522446293,-1.026276152339676
1.5,-0.6582903165321723,1.0827878764115697,1.524889118498918,0.0315587548737537,0.1288719946991959,0.0152965804001045,0.0982671768113317,-0.8780563299213157,-0.1404395916691227,-0.6595939760275555,1.0956260716667665,1.5244762730127177,0.1440016049262803,-1.0424885806953494,-0.2197933338280484,0.3921557641976886,0.3549806111078343,-0.0713791973438571,0.1505985369036774,10.707746715176654,-0.8905087590370556,0.1501063088712805,-1.027102027161585
1.52,-0.6562480249652066,1.0652227639719436,1.5220979237769974,0.0304516683438094,0.1302000939738029,0.015120441694742,0.1056364003424102,-0.878626954236521,-0.1388356152176427,-0.6567139439290299,1.0747763000528592,1.5200804063361568,0.161218633067302,-1.0824885812913958,-0.2278668179806038,0.3781659953545756,0.368461176553924,-0.028531215760269,0.0801988225739999,10.604184605727824,-0.8884329672253516,0.1514119741596135,-1.0282908818389418
1.54,-0.6541684913315299,1.0485320537577223,1.5194694693151878,0.0307982513765424,0.1313049763104643,0.0150579430157052,0.1129081039832112,-0.8784902656528634,-0.1379321947011677,-0.6538339118305043,1.0539265284389523,1.5156845396595957,0.1784356612083238,-1.1224885818874424,-0.2359403021331593,0.3664441507178459,0.3635851820400521,0.0068344291828836,0.0451710258237481,10.531019017190374,-0.8862743907280562,0.1512493286966575,-1.0299180813909534
1.56,-0.6518258613154885,1.030957825232482,1.5167177452460925,0.0326366940740877,0.1322103697884148,0.0150984539863571,0.1209770031295831,-0.87905882984837,-0.1373049551340958,-0.6505234540284531,1.032076756810144,1.5110868358792209,0.1956526893493455,-1.1624885824834887,-0.2440137862857148,0.4056594265921674,0.4034449573185966,-0.028428209775333,0.0313619783535959,10.497327245884662,-0.8843554887068764,0.149580051962258,-1.0316167034007226
1.58,-0.6493179105890429,1.0133580184487752,1.5139770420670138,0.0355752961269816,0.132733256700761,0.0152126866936176,0.1293998512777187,-0.8812281031598673,-0.136810539493953,-0.6467825705228765,1.0092269851664348,1.506287294995032,0.2128697174903672,-1.202488583079535,-0.2520872704382702,0.4355874322445007,0.4211424074067785,-0.1084636655748649,0.0247207820071371,10.48210563214434,-0.8828395867627962,0.146966888665655,-1.0331480829754185
1.6,-0.6466389109157936,0.9956889805539826,1.5112458774213005,0.0386102440753663,0.1327948228522288,0.0153241095466811,0.1380190005601597,-0.8855539570787169,-0.1363324876895142,-0.642847918025157,0.9692966132907818,1.5071365150923162,0.177288487866769,-0.9812281046499834,-0.156685520167147,0.4827817312408256,0.4309574641220476,-0.2162926959424771,0.02390259022194,10.484889766695233,-0.8817192803894748,0.1439620656263849,-1.034527013901057
1.62,-0.643916113557224,0.9787472397496252,1.5087556179051154,0.0391261486323016,0.1322759505869313,0.015248901889948,0.1480368147960433,-0.8965451999707633,-0.12577508218371,-0.642847918025157,0.9692966132907818,1.5071365150923162,0.177288487866769,-0.9812281046499834,-0.156685520167147,0.9118975180778536,0.5008907117941802,-0.5495621446023224,0.5278702752902126,10.484889766695233,-0.8851937790713162,0.142645025926581,-1.0322733603907803
1.64,-0.640854560616796,0.9607316790799324,1.5063455018216962,0.0368054956955577,0.1312010942870033,0.0149630966132739,0.1574871077966,-0.9042580700075132,-0.1159076872446696,-0.642847918025157,0.9692966132907818,1.5071365150923162,0.177288487866769,-0.9812281046499834,-0.156685520167147,0.7844773497099334,0.4725146500278374,-0.3856435018375015,0.4933697469520201,11.170635548103746,-0.8865791735108837,0.1460000930450732,-1.0292729948482475
1.66,-0.6376158132066143,0.9425977491780124,1.5041032026373449,0.0333505988657687,0.1299201675566591,0.0146112078739124,0.16586399106903,-0.9085204891656726,-0.1087885723169013,-0.6410750331464893,0.959484332244282,1.5055696598906447,0.1868662151845791,-1.0012281049480067,-0.1606605163017858,0.5895383528544483,0.4188441636214998,-0.213120957907964,0.3559557463884158,11.02815279947572,-0.8877886031507377,0.1501639934741914,-1.0264285811142344
1.68,-0.6342198661425263,0.9244103765517272,1.501977757179777,0.0302955274424041,0.1286371503793868,0.014309447747235,0.1732890064148772,-0.9102157876063252,-0.1041080190240613,-0.6375292633891538,0.9398597701512824,1.5024359494873016,0.2060216698201992,-1.041228105544053,-0.1686105085710633,0.4469688714442548,0.3712507672923582,-0.0847649220326318,0.2340276646419989,10.704751166470489,-0.8886466509003057,0.1540101675729021,-1.0240876378530286
1.7,-0.6308636827623701,0.9071132094171472,1.5000260101015832,0.0282977786011998,0.1275673126701499,0.0141089782961261,0.1796245826187604,-0.9107419376254166,-0.1015733818443319,-0.6339834936318185,0.9202352080582826,1.4993022390839588,0.2251771244558193,-1.0812281061400997,-0.1765605008403409,0.342201495140904,0.3167788101941626,-0.0263075009545643,0.1267318589864695,10.704751166470489,-0.8891052681867762,0.1567459564754036,-1.0224854093111615
1.72,-0.6272065731615637,0.8889022802499416,1.498009138009831,0.0273677915328711,0.1267113446459487,0.0140034874582079,0.1857490281266681,-0.9104506156457428,-0.1003117997141051,-0.629479951142702,0.8986106459354807,1.495771029067152,0.2443325790914394,-1.121228106736146,-0.1845104931096185,0.3129907776056624,0.3062222753953833,0.0145660989836871,0.0630791065113378,10.585307459845351,-0.8890507778920563,0.1581088678812731,-1.0218099861225929
1.74,-0.6234300837681371,0.8707048832442241,1.4960095189599942,0.0280403817545312,0.1261887281969131,0.0140312009072214,0.1916103415631834,-0.909473883940496,-0.0997376346400019,-0.6249764086535857,0.8769860838126786,1.4922398190503452,0.2634880337270596,-1.1612281073321926,-0.1924604853788961,0.2984906428911524,0.2930656718257651,0.0488365852623462,0.0287082537051626,10.500089914177806,-0.8887971896320741,0.157840477735401,-1.0217640498809275
1.76,-0.6195348192093344,0.8525189306614147,1.494017928229319,0.0303286882691433,0.1259179462149806,0.0141866867729969,0.1976374659332258,-0.909324846785403,-0.0994502295612759,-0.6199939797985788,0.8543615216749755,1.4885098592268065,0.2826434883626797,-1.201228107928239,-0.2004104776481736,0.301790663891524,0.3013562185021204,0.0074518577546422,0.0143702539362973,10.46461446878584,-0.8884377138543227,0.156019215911483,-1.0220674937083227
1.78,-0.615720439702529,0.8352256170717113,1.492130799754822,0.0334013816127643,0.1257460031492816,0.0144042267505509,0.2035734583041392,-0.9112750595745897,-0.0992169287527469,-0.6145326645776814,0.8307369595223711,1.4845811495965358,0.3017989429982998,-1.2412281085242851,-0.2083604699174512,0.3126250334582487,0.2967996185456678,-0.097510639459325,0.0116650404264499,10.45081459213452,-0.887926825721126,0.1531831464228036,-1.0227230036134989
1.8,-0.6115820051750758,0.8169602477039485,1.4901490189129598,0.0365781887714651,0.1255503414362089,0.0146321664563313,0.2099507848692707,-0.9151693760061274,-0.0989724620554163,-0.6055417667873221,0.7896618640929818,1.4871699533171847,0.2599915493628703,-1.0069807773766373,-0.0903546587104467,0.3738173302342389,0.318866328256577,-0.1947158215768907,0.0122233348665311,10.451148144832588,-0.8874638613276978,0.1502476821631752,-1.0234972725995477
1.82,-0.607294512366986,0.7985199001567763,1.4882969259542806,0.036690735820905,0.125144766547142,0.014644035627164,0.218510050007877,-0.9278558216159576,-0.0855321947615854,-0.6055417667873221,0.7896618640929818,1.4871699533171847,0.2599915493628703,-1.0069807773766373,-0.0903546587104467,1.0183905278106262,0.4279632569303138,-0.6343222804915116,0.6720133646915455,10.45504345248537,-0.8922643176487661,0.149032290904929,-1.02046130396633
1.84,-0.6028393460966164,0.7798689742785596,1.4867312306497755,0.0327842145702672,0.1244875511812931,0.0143814906154452,0.2265208338068446,-0.935789003091108,-0.0717409023649846,-0.6055417667873221,0.7896618640929818,1.4871699533171847,0.2599915493628703,-1.0069807773766373,-0.0903546587104467,0.8906567399397116,0.4005391899483818,-0.396659073757527,0.6895646198300416,11.254978611205845,-0.8943167022846942,0.1539349920885836,-1.016466278113219
1.86,-0.5984662981971505,0.7620612545494176,1.4854791333480342,0.0281883852636876,0.1238140309945801,0.0140889280917421,0.2333828505843747,-0.938291476681236,-0.0607379596969508,-0.6029418512936934,0.7795920563192154,1.48626640673008,0.2712751675746165,-1.026121920937047,-0.0885822047019867,0.6603302122431446,0.3431008388765047,-0.1251236795063892,0.5501471334016905,11.254978611205845,-0.8959779365239534,0.1601699456165604,-1.0122119856661038
1.88,-0.5937293818503201,0.7432961726019369,1.4843675319258074,0.0240648747365925,0.1231964493609948,0.0138548962979027,0.2399284616747208,-0.9382490401449044,-0.0510915385379972,-0.597742020306436,0.7594524407716826,1.4844593135558712,0.2938424039981089,-1.064404208057866,-0.0850372966850666,0.5828813485212591,0.3272805545173049,0.0021218268165756,0.482321057947678,11.099621861279047,-0.8971741925388886,0.1655797100193922,-1.0086287621213674
1.9,-0.5888673684160386,0.7245480281610256,1.4834279767766296,0.0212501173223189,0.1227875226502574,0.0137364454201501,0.245970630517942,-0.9369516809154564,-0.0433404910701526,-0.5925421893191786,0.7393128252241499,1.4826522203816623,0.3164096404216013,-1.102686495178685,-0.0814923886681465,0.4956553292082297,0.3021084421610615,0.0648679614724034,0.3875523733922293,10.86112223472992,-0.897876517313163,0.1695047607112507,-1.0058713000440365
1.92,-0.5841393222927352,0.7067679577798543,1.482667074598652,0.0198653411205967,0.1226335494300579,0.0137334994225399,0.2514467184005118,-0.9349907657573304,-0.0371402817381322,-0.5862139965107466,0.7172590953205762,1.4810223726082994,0.3389768768450938,-1.140968782299504,-0.0779474806512264,0.4250744714631417,0.2738043941284865,0.0980457579062954,0.3100104666010194,10.7878319882102,-0.8982838239376538,0.17215093973203,-1.0037703293714657
1.94,-0.5790505123995745,0.6880978634807606,1.4819913837685148,0.0199756639464692,0.1227276414642339,0.0138570323892146,0.2571741507059543,-0.932292284296687,-0.0307567300883624,-0.5798858037023145,0.6952053654170025,1.4793925248349364,0.3615441132685862,-1.179251069420323,-0.0744025726343063,0.4495414738156582,0.2863716152721268,0.1349240730321721,0.3191775824884889,10.7878319882102,-0.8985483417700909,0.1731059363046788,-1.0023014261308218
1.96,-0.573843347823875,0.6694755955128844,1.4814441669818466,0.0217243680997915,0.1229763915379914,0.0141072388762343,0.2632767317082519,-0.930204371200884,-0.0242768973554665,-0.5729934299832952,0.6721945783354083,1.4778512997619966,0.3841113496920786,-1.2175333565411424,-0.0708576646173862,0.4571353963311585,0.3051290501148773,0.1043956547901514,0.3239916366447961,10.78075210019142,-0.8988996243215529,0.172649920347151,-1.000876646527172
1.98,-0.5685098946121935,0.6508822962998817,1.4810295570611756,0.0247370610442952,0.1231768538714542,0.0144510477641583,0.2697534040456562,-0.929603675742796,-0.0175112025009328,-0.5655368753536885,0.6482267340757937,1.4763986973894796,0.406678586115571,-1.2558156436619614,-0.0673127566004661,0.46926204423576,0.3238336168702171,0.0300347729043914,0.3382847427266849,10.785070158449344,-0.8993247596928984,0.1712168035378266,-0.9995148231177488
2.0,-0.5633203702990086,0.633204795910735,1.4807641325683938,0.0278342918479047,0.1231979614927987,0.01479391181356,0.2761588889167933,-0.9312331424275528,-0.0107645404429236,-0.5550222244099107,0.6044021125127419,1.4801539969361288,0.342472896063879,-0.9698563054103166,-0.0236752643378312,0.4722362942322402,0.3202742435568562,-0.0814733342378304,0.3373331029004613,10.799753073080865,-0.8999856708063609,0.1693230509048336,-0.9981223597714988
2.02,-0.5577394135755531,0.6143175427547062,1.4806243348092925,0.0232557705614378,0.1235457035545218,0.0146258617370858,0.2816204414796829,-0.954012280427403,-0.0034152429737272,-0.5550222244099107,0.6044021125127419,1.4801539969361288,0.342472896063879,-0.9698563054103166,-0.0236752643378312,1.2275278588530756,0.2730776281444774,-1.138956899992516,0.3674648734598193,10.820248220917165,-0.9003043278399652,0.1742302880449489,-0.9964034353242458
2.04,-0.5520534077543681,0.5951598709855617,1.4806259010203215,0.0105059226758085,0.1247632112119997,0.013926856094966,0.2868049304507529,-0.9593283694457592,0.0031601501445407,-0.5550222244099107,0.6044021125127419,1.4801539969361288,0.342472896063879,-0.9698563054103166,-0.0236752643378312,0.4959221788799121,0.2592244485534994,-0.2658044509178059,0.3287696559134028,10.892121507284171,-0.899549613241742,0.1863433054166847,-0.9947178122470938
2.06,-0.5462627367734858,0.5760165400080758,1.4807279773929616,-0.0030899943642167,0.1267147318302209,0.0131892815377616,0.2921465597947526,-0.9546681577108072,0.0067067290793623,-0.5515974954492718,0.5947035494586387,1.4799172442927504,0.3570167944675236,-0.9779068313438208,-0.0249080767052108,0.3963230992642959,0.2670814671999866,0.2330105867475951,0.1773289467410801,10.583503965896853,-0.8972330441562166,0.1993961505456859,-0.9932637509508512
2.08,-0.5406586547417322,0.5579741564050638,1.4808644768831258,-0.0143540365494654,0.1290424055068021,0.0126075152100254,0.2976102648642714,-0.9451795587463364,0.0074712577497489,-0.5447480375279943,0.5753064233504324,1.4794437390059938,0.3861045912748127,-0.994007883210829,-0.0273737014399702,0.5487943318837396,0.273185253475941,0.4744299482235481,0.0382264335193272,10.583503965896853,-0.893665218940906,0.2115893307088482,-0.9929209711581978
2.1,-0.5346409980861629,0.5392048834261147,1.4810055114999814,-0.0237600912021148,0.1318056326636175,0.0121647352696933,0.3039770390319365,-0.9325980736706976,0.0065118499628706,-0.5378985796067167,0.555909297242226,1.4789702337192372,0.4151923880821018,-1.0101089350778372,-0.0298393261747295,0.7066647778687002,0.3183387083832562,0.6290742537819305,-0.0479703893439167,10.435959786100284,-0.8894138162558413,0.2215741340430643,-0.9934467891282848
2.12,-0.5284875670524419,0.5207049999782866,1.4811144587044496,-0.0306034370181933,0.134706585913979,0.0119025422808158,0.3111487560501085,-0.918434882521034,0.0043901223518126,-0.5295947318450747,0.5357071185406693,1.4783734471957426,0.4442801848893909,-1.026209986944845,-0.0323049509094888,0.8008296269903092,0.3585858509085993,0.7081595574831845,-0.1060863805528968,10.346940546030057,-0.884727399209624,0.2289832076347936,-0.9951516248427096
2.14,-0.5221811756082849,0.5024987519285571,1.4811756017743636,-0.0350435048697961,0.1375500324925847,0.0118186384418748,0.3192144482513804,-0.9035023604858436,0.0018379349908165,-0.5212908840834326,0.5155049398391125,1.477776660672248,0.4733679816966801,-1.0423110388118535,-0.0347705756442481,0.8581218814112809,0.4032846100635923,0.7466261017595233,-0.1276093680498054,10.297447961001126,-0.8801788002084698,0.2338854354936952,-0.9974169520390996
2.16,-0.5160287795314614,0.4854768697194512,1.4811873854609123,-0.0375402081801369,0.1399418589336009,0.0118817652661659,0.3280174606301984,-0.8894242052969608,-0.0004654760770566,-0.5122598414016084,0.4949002348408805,1.4771182335303843,0.5024557785039692,-1.058412090678862,-0.0372362003790075,0.8381425639643466,0.4401506189409016,0.703907759444139,-0.1151705533936616,10.303455137492165,-0.875842380121028,0.2374013355514801,-0.9997359594622656
2.18,-0.5093630602786244,0.4678463032154648,1.4811553180725658,-0.0387665054755402,0.1418806270346501,0.012083011015413,0.3381021023475588,-0.8745263358466899,-0.0026051967108146,-0.5025016037996018,0.4738930035459734,1.476398165770152,0.5315435753112583,-1.07451314254587,-0.0397018251137668,0.905848934860786,0.5042320858680199,0.7448934725135414,-0.1069860316878995,10.303455137492165,-0.8718596245083727,0.2395729628751545,-1.0020854321287191
2.2,-0.5024887509796926,0.450518883889717,1.481084187058347,-0.03846752910855,0.1430851781213677,0.0124356756836939,0.3488005846699974,-0.8591133095020447,-0.0043804183188452,-0.4924579551612465,0.4241199864231303,1.481025058237025,0.3886412941598356,-0.8560340488218343,0.001822822570662,0.942298143983472,0.5349241161219292,0.7706513172322627,-0.0887610804015314,10.355062899594486,-0.8685472689962529,0.2404079161097259,-1.0040836686772494
2.22,-0.495309849268517,0.433315356098344,1.481026775828831,-0.0425017958571359,0.1409387662992698,0.0126391065163931,0.3686353091256467,-0.8595306498839744,-0.00112020267977,-0.4924579551612465,0.4241199864231303,1.481025058237025,0.3886412941598356,-0.8560340488218343,0.001822822570662,1.00526050509208,0.991736222782466,-0.0208670190964876,0.1630107819537634,10.355062899594486,-0.8764945120305402,0.2457034143916453,-0.9934391639328912
2.24,-0.4881424591567619,0.4170801011113209,1.4810343249086588,-0.0511645662956883,0.1336533264326712,0.0127879649580545,0.3840372388950554,-0.8486949973309093,0.0017507828219361,-0.4924579551612465,0.4241199864231303,1.481025058237025,0.3886412941598356,-0.8560340488218343,0.001822822570662,0.9524617638303812,0.7700964884704342,0.5417826276532589,0.1435492750853078,10.663714204368262,-0.8781866531269302,0.2553334422672788,-0.9891388103713632
2.26,-0.4803475344864674,0.4002902161660934,1.481085915729298,-0.0605405398068812,0.1230108367632032,0.0132067408082746,0.3940766423434857,-0.830810668923164,0.0032162258342929,-0.4885715422196481,0.4155596459349119,1.4810432864627316,0.398749132522291,-0.8523355914168632,0.0027084264269574,1.0280884536591477,0.5019701724215148,0.8942164203872616,0.0732721506178433,10.59900177767031,-0.8850310218016618,0.2660230112389796,-0.978693775611232
2.28,-0.4724155724061179,0.3839004359821089,1.4811469001488602,-0.0684053054940271,0.1115329564456843,0.013921378344651,0.3983087690406378,-0.8094615652039433,0.0028661084006769,-0.4807987163364514,0.3984389649584753,1.481079742914145,0.4189648092472017,-0.8449386766069209,0.0044796341395481,1.0883677092464126,0.2116063348576058,1.067455185961036,-0.0175058716808,10.393273978557772,-0.8930970367300188,0.2748992118730504,-0.9672901403484652
2.3000000000000003,-0.4648491654673679,0.3687432039840241,1.4811861194692002,-0.074038532915685,0.1013714108212709,0.014785173933985,0.3978504039699687,-0.7875671027209769,0.0013287472836574,-0.4730258904532547,0.3813182839820386,1.4811161993655582,0.4391804859721125,-0.8375417617969787,0.0062508418521388,1.097657807743559,-0.0229182535334576,1.0947231241483224,-0.0768680558509763,10.393273978557772,-0.9016368647607204,0.2822166368436876,-0.9557348373399808
2.32,-0.4569298304336024,0.3532420465895667,1.481189565864578,-0.0781506766789806,0.0924773940335076,0.0157669578786924,0.3940221879011892,-0.7640167776797322,-0.0008947305878183,-0.4642422807338124,0.364567448746099,1.481241216202601,0.4593961626970232,-0.8301448469870365,0.0080220495647295,1.198141166205467,-0.1914108034389711,1.1775162520622329,-0.1111738935737901,10.326302313572342,-0.9090729522463774,0.2875376529357091,-0.945831135281886
2.34,-0.4491196859363972,0.3382173908733254,1.481146583674692,-0.0805589057620447,0.0862172712583447,0.0167119857920087,0.3871680385685591,-0.7401008526471041,-0.0032470365701731,-0.4554586710143702,0.3478166135101594,1.4813662330396438,0.4796118394219339,-0.8227479321770942,0.0097932572773202,1.2494840702014802,-0.3427074666315088,1.1957962516314036,-0.11761529911774,10.302165560262438,-0.9131439717490042,0.2908705599302714,-0.9402203609172112
2.36,-0.441849086406036,0.3243908213291417,1.481064747894295,-0.0813811062976178,0.0834634990750187,0.0174802090047392,0.3786076990216464,-0.7168126637865162,-0.0052212004171087,-0.4461696693768052,0.3312507011444684,1.4815355300695012,0.4998275161468447,-0.815351017367152,0.0115644649899108,1.2445043957931563,-0.4280169773456327,1.164409443029396,-0.0987081923467818,10.302165560262438,-0.9152180514517146,0.2927978227401118,-0.9370527340711317
2.38,-0.4343661556239298,0.3103183718096806,1.480944625580625,-0.0804693324695236,0.0839902887603264,0.0181484354035318,0.3705081008301056,-0.6918389789330796,-0.0066272513255647,-0.4363752758211174,0.314869711649026,1.4817491072921736,0.5200431928717554,-0.8079541025572097,0.0133356727025015,1.3145963307992614,-0.4049799095770412,1.2486842426718323,-0.0703025454227981,10.328415907718409,-0.9155161535197988,0.2931333815288565,-0.9358119536473706
2.4,-0.4270223673564005,0.2967476791496474,1.4808071369007965,-0.0774346830509865,0.0869915998187893,0.0187789269215174,0.3645845204803506,-0.6669200811480287,-0.006966184109772,-0.4158407505824245,0.2757264228630266,1.4806132630143467,0.404696144156245,-0.6442527651357487,0.0180598078980871,1.2807762747783338,-0.2961790174877493,1.2459448892525429,-0.0169466392103678,10.357604612802788,-0.9129670802222898,0.2917645710096773,-0.9377855204352844
2.42,-0.4197227033733175,0.2835592089779665,1.480677419120545,-0.075817774835862,0.0899306401170079,0.0193297754454885,0.3654255858181954,-0.6519088148662758,-0.0061175766431379,-0.4158407505824245,0.2757264228630266,1.4806132630143467,0.404696144156245,-0.6442527651357487,0.0180598078980871,0.752936984276642,0.042053266892239,0.7505633140876433,0.0424303733317064,10.405226072138248,-0.9125067314817936,0.2917530681204399,-0.9367862015551714
2.44,-0.4127723424161966,0.2713395375937238,1.480582122075863,-0.076908646632366,0.0913023232084781,0.0197882013662052,0.366047373031958,-0.6349120027335842,-0.0039738443054097,-0.4158407505824245,0.2757264228630266,1.4806132630143467,0.404696144156245,-0.6442527651357487,0.0180598078980871,0.8571374311465967,0.0310893606881329,0.8498406066345832,0.1071866168864082,10.405226072138248,-0.9100411623474488,0.294134195070608,-0.937553148427694
2.46,-0.4054483115227513,0.2588472742958639,1.4805355218048533,-0.0796118560497128,0.0917798903546956,0.020248328996548,0.3662534006894769,-0.6149333263105395,-0.0007712386144818,-0.411793789140862,0.2692838952116691,1.4807938610933276,0.4115337528214729,-0.6347355223762825,0.0229972197428175,1.0117393960698895,0.0103013828759435,0.9989338211522314,0.1601302845463974,10.506868036735796,-0.908980303595038,0.2982218404170942,-0.93594523880322
2.48,-0.3981260984332504,0.2467883036438667,1.4805589597777868,-0.0826309119268743,0.0916663218438325,0.0207483253865859,0.365909779009857,-0.5919528344097856,0.0029839643194625,-0.4036998662577371,0.2563988399089542,1.4811550572512893,0.4252089701519287,-0.6157010368573502,0.0328720434322782,1.1643910779184383,-0.0171810839809966,1.1490245950376954,0.1877601466972202,10.571306766015368,-0.9085597194053066,0.3025729432691311,-0.9334066918765488
2.5,-0.3911815352389783,0.2357766890251988,1.480655980364136,-0.0848398768135524,0.0913176205035198,0.0213034899211856,0.3651022918179353,-0.5685566547773951,0.0070615710010973,-0.3956059433746122,0.2435137846062391,1.481516253409251,0.4388841874823845,-0.5966665513384178,0.042746867121739,1.1881289210417294,-0.040374359596082,1.1698089816195243,0.2038803340817377,10.650294435091382,-0.9084371496241342,0.3067845149638307,-0.9302169893694306
2.52,-0.38389223713454,0.2246726756866709,1.4808481221132692,-0.0862161600292974,0.0909399186146418,0.0219683636341509,0.3638650337602909,-0.5431982109665443,0.0119870674424884,-0.3868282596249645,0.2315804535794708,1.4823711907516857,0.4525594048128403,-0.5776320658194855,0.0526216908111997,1.2930989861602258,-0.0618629028822231,1.267922190542542,0.2462748220695541,10.650294435091382,-0.9089304727012864,0.3106433285778517,-0.9257548502121384
2.54,-0.3766307493867258,0.2140856300402666,1.4811453442138125,-0.0863156879515358,0.0907202862140283,0.0227195574260807,0.3623596920807844,-0.5169063979237222,0.0175355503707522,-0.3780505758753169,0.2196471225527024,1.4832261280941206,0.4662346221432961,-0.5585975803005532,0.0624965145006605,1.3456514681149858,-0.075267083975325,1.3145906521411066,0.2774241464131919,10.727450256063094,-0.9095666788053376,0.3135521107520377,-0.9212134700665234
2.56,-0.3693993913736553,0.2040368350828309,1.4815609308727344,-0.0845392427947484,0.0907063833832818,0.0235908536802101,0.3608816702878424,-0.489625626195785,0.0237854874013542,-0.3689310116924078,0.2081896536639074,1.4843279360287918,0.4799098394737519,-0.5395630947816208,0.0723713381901213,1.401326842120281,-0.0739010896470965,1.3640385863968596,0.312496851530103,10.727450256063094,-0.91035263900266,0.3149664011155569,-0.9169563997773076
2.58,-0.3625555678229328,0.1949906529831963,1.482080057008612,-0.0809082019446154,0.0908356052397771,0.0245444388322032,0.3596323662144412,-0.4646770379756782,0.0306159386494011,-0.3594695670762373,0.1972080469130857,1.4856766145556997,0.4935850568042076,-0.5205286092626885,0.082246161879582,1.2948435031850485,-0.0624652036700618,1.247429411005338,0.3415225624023422,10.766122578203069,-0.9110099811254164,0.3148519367602566,-0.9130717956314802
2.6,-0.355374646005605,0.18594774822274,1.4827783815555728,-0.0761246529868655,0.0910628050793125,0.0256070628257713,0.3585447214012225,-0.4412004777954186,0.0389368587035393,-0.3445739495122107,0.1717568010844124,1.483610853941082,0.3620743214790989,-0.4339641410176847,0.0417566344224662,1.2465648395535127,-0.0543822406609356,1.1738280090129782,0.4160460027069103,10.80739384680237,-0.9135861112026076,0.3150460388986638,-0.9054428088741026
2.62,-0.3481486398734893,0.1773875023035589,1.4835550448039965,-0.069901503948294,0.0889297909368072,0.0269362679724059,0.3642557529070906,-0.4168560205097493,0.037917111394223,-0.3445739495122107,0.1717568010844124,1.483610853941082,0.3620743214790989,-0.4339641410176847,0.0417566344224662,1.2513076819568163,0.2855515752934079,1.2172228642834682,-0.0509873654658155,10.231647473749035,-0.9194072010841936,0.3148276459606423,-0.89369718177676
2.64,-0.3408213074370381,0.1692653124846576,1.4843097700767465,-0.0626847030099284,0.0820340037186293,0.0286238819556012,0.3674384746215857,-0.3968530798774586,0.0377850122721928,-0.3445739495122107,0.1717568010844124,1.483610853941082,0.3620743214790989,-0.4339641410176847,0.0417566344224662,1.0127497243012495,0.1591360857247509,1.0001470316145316,-0.0066049561015114,10.231647473749035,-0.9231826338844914,0.313498448141769,-0.8858117726365408
