t,x,y,z,roll,pitch,yaw,v_x,v_y,v_z,ref_x,ref_y,ref_z,ref_v_x,ref_v_y,ref_v_z,a_com,a_x,a_y,a_z,thrust,wind_x,wind_y,wind_z
0.0,1.2415807810463573,-0.531913051891039,2.668660546606955,0.0207953906252529,0.0994495586300609,0.0414593859976503,2.7362122298185037e-05,-0.000725314657534,-0.0004649319833994,1.2415882729364502,-0.5320325379936408,2.668644164064215,-0.0998085805989797,0.0968730758684231,-0.1005249716156127,0.0430984856856399,0.0013681061149092,-0.0362657328767007,-0.0232465991699741,10.25867395345722,-0.940858572814553,0.2599387326114777,-0.8776643039335975
0.02,1.2417438392741689,-0.5321748269643687,2.668544000651941,0.0118849796344378,0.0941898414494219,0.0407742027134476,0.0156222477841203,-0.0208752881373782,-0.0115710564392834,1.2415882729364502,-0.5320325379936408,2.668644164064215,-0.0998085805989797,0.0968730758684231,-0.1005249716156127,1.3897552756450648,0.7797442830911071,-1.0074986739922127,-0.5553062227941971,10.257897851691268,-0.9467857482578032,0.2614048816192543,-0.8771450598246964
0.04,1.2421686472110196,-0.5325933099346661,2.668135978626532,-0.0044438762223792,0.0791020280047562,0.0396561670851302,0.0246672815746033,-0.0191770878745712,-0.0288502386967207,1.2415882729364502,-0.5320325379936408,2.668644164064215,-0.0998085805989797,0.0968730758684231,-0.1005249716156127,0.9788598723633948,0.4522516895241499,0.0849100131403525,-0.8639591128718642,9.642513824122034,-0.9525370147065484,0.2767926475606045,-0.862793339819738
0.06,1.2426584167858612,-0.5328932533379027,2.667357109044546,-0.0212106918146483,0.0580518634488692,0.0389012423434891,0.0228064088519099,-0.010553091528577,-0.0482187966319865,1.2405901871304603,-0.5310638072349566,2.6676389143480588,-0.1198085808970029,0.1168730761664463,-0.1205249719136359,1.06416304760776,-0.0930436361346704,0.4311998172997086,-0.9684278967632916,9.118798078058717,-0.9632482968119688,0.2900610421116683,-0.8458817339064733
0.08,1.2430015849592713,-0.5329834093310627,2.6661784677929603,-0.03730727133792,0.035107843276267,0.0386678731397338,0.0109590503456197,0.0014257609521058,-0.0686954914324175,1.238594015518481,-0.5291263457175881,2.6656284149157465,-0.1598085814930493,0.1568730767624928,-0.1605249725096824,1.3258467485728949,-0.5923679253145091,0.598942624034143,-1.0238347400215508,9.076520540941146,-0.9765944979014158,0.3006881368374655,-0.8281434186392262
0.1,1.2430258985336664,-0.5328215641506854,2.664672634838802,-0.05186875228405,0.0142710538348777,0.0388561864180597,-0.0080781460192988,0.0152787528980324,-0.0888319517174234,1.2365978439065013,-0.5271888842002197,2.6636179154834343,-0.1998085820890958,0.1968730773585392,-0.2005249731057288,1.5490297480197073,-0.951859818245929,0.6926495972963336,-1.006823014250296,9.076520540941146,-0.9918433035781729,0.3099992511760212,-0.8096122666282278
0.12,1.242596716253865,-0.5323415972510601,2.6626664487756564,-0.0664582828802545,-0.0048639926696238,0.039326433940657,-0.0340951883924633,0.0322820792718261,-0.1107949735758855,1.2326016722647193,-0.5232514226530489,2.65960741602132,-0.2398085826851423,0.2368730779545857,-0.2405249737017752,1.9028754102515937,-1.3008521186582276,0.8501663186896845,-1.098151092923101,9.074597969128718,-1.005971208823896,0.3176130697783907,-0.7938604403652922
0.14,1.2415927136449627,-0.5314796078746826,2.660210613012015,-0.07978585430085,-0.0200081816491224,0.0399204282801714,-0.0648642055948311,0.0529666168463257,-0.1337105934858343,1.2286055006229375,-0.5193139611058781,2.655596916559205,-0.2798085832811888,0.2768730785506322,-0.2805249742978217,2.1792820779603823,-1.5384508601183864,1.034226878724977,-1.1457809954974418,9.078467510644714,-1.0176582592320065,0.3237473689299873,-0.7820715802656453
0.16,1.2399342016795405,-0.5301624098159234,2.65728757482886,-0.090958155638517,-0.0305294752995354,0.0405017876282635,-0.0992250192988016,0.0771927868416059,-0.1574281229454634,1.2236093289662544,-0.5143764995438062,2.6505864170821893,-0.3198085838772352,0.3168730791466786,-0.3205249748938681,2.4135523791227107,-1.7180406851985242,1.2113084997640131,-1.1858764729814564,9.0821765677847,-1.0252354418913998,0.3281042060645777,-0.7760131965239043
0.18,1.2376944884289254,-0.5284444959770003,2.654065679170545,-0.0992281890805756,-0.0356072049329792,0.0408741084448152,-0.1346538119484039,0.1018829896030311,-0.1805016502546762,1.21761315729467,-0.5084390379668331,2.6445759175902728,-0.3598085844732816,0.356873079742725,-0.3605249754899146,2.448056945568153,-1.7714396324801185,1.2345101380712555,-1.1536763654606377,9.099694950672983,-1.029203243771936,0.3308014032430073,-0.7761346362028525
0.2,1.2346098680153583,-0.52612502514755,2.6501976161183816,-0.1057198209157885,-0.0355277817438024,0.0409186887145568,-0.1713660599816788,0.1284504900760507,-0.2050062780805689,1.2309617978315053,-0.5233503464968488,2.645040596657811,-0.2346538134385201,0.2018829910931472,-0.2805016517447923,2.5758969418078945,-1.835612401663743,1.3283750236509808,-1.2252313912946344,9.124389545612758,-1.0304252602420385,0.331123546007239,-0.7821074721607565
0.22,1.2307638891420387,-0.5231219159887947,2.646048846117463,-0.10628867410347,-0.0298138011639475,0.0407820793435855,-0.2107092020527451,0.1690807265628257,-0.2071669590154033,1.2309617978315053,-0.5233503464968488,2.645040596657811,-0.2346538134385201,0.2018829910931472,-0.2805016517447923,2.829914966521752,-1.967157103553313,2.0315118243387498,-0.1080340467417201,10.61700574608949,-1.033492026966106,0.3283996979069367,-0.7839319071209179
0.24,1.226428429187466,-0.519590164072194,2.642095756845157,-0.1007908648665806,-0.0196320292513356,0.0405948277782702,-0.2429281565641119,0.1993694945549783,-0.2087305344854063,1.2309617978315053,-0.5233503464968488,2.645040596657811,-0.2346538134385201,0.2018829910931472,-0.2805016517447923,2.2124168145595724,-1.6109477255683429,1.5144383996076305,-0.0781787735001524,10.32418539047194,-1.0308000105761943,0.3239664031476711,-0.7896861079272469
0.26,1.2212676578153103,-0.5153325177212371,2.6378701402690083,-0.0933853140511366,-0.0062157707313024,0.0403145795556882,-0.2708376920303109,0.2244991437355127,-0.2138843988514374,1.22861525969712,-0.5213315165859173,2.642235580140363,-0.2546538137365433,0.2218829913911704,-0.3005016520428156,1.8953916190191369,-1.3954767733099462,1.2564824590267198,-0.2576932183015537,10.32418539047194,-1.0247937233090496,0.3188025599331257,-0.7993422597425799
0.28,1.2156082290705372,-0.5106136599990774,2.6334984832982857,-0.0861689247993613,0.008169505994437,0.0400287694982738,-0.293242112179211,0.2460709970592475,-0.2231991057409435,1.2239221834283498,-0.5172938567640544,2.636625547105467,-0.2946538143325897,0.2618829919872169,-0.340501652638862,1.623319640787501,-1.1202210074450074,1.0785926661867409,-0.4657353444753057,10.013752873640442,-1.0160263670532608,0.3135692858068746,-0.812821880151443
0.3,1.2095531147131158,-0.5054888871465821,2.628894838680876,-0.0798283040138463,0.0221353076547255,0.0398101711698582,-0.3108782551381595,0.2654605847429048,-0.2367082959640146,1.219229107159579,-0.5132561969421914,2.6310155140705715,-0.3346538149286362,0.3018829925832633,-0.3805016532349085,1.4743539852201546,-0.8818071479474221,0.9694793841828656,-0.6754595111535533,9.74046184232884,-1.006136221556727,0.3089634301615142,-0.8274703507074184
0.32,1.2035120550816156,-0.5002754203889314,2.6242373772473364,-0.0747670020163319,0.0341511159849087,0.0397031199381287,-0.324025931975479,0.2825220938110598,-0.2529133411016676,1.2125360308610067,-0.5072185370905261,2.6234054810058733,-0.3746538155246826,0.3418829931793097,-0.4205016538309549,1.3477388339499374,-0.6573838418659772,0.8530754534077478,-0.8102522568826515,9.5115399457909,-0.995156940227474,0.3046670388021396,-0.8431982425009316
0.34,1.1969141304107518,-0.4944473514768051,2.6189798979237437,-0.0704702709953697,0.0449186540022485,0.0397084733852501,-0.3349596684867937,0.2995151757467315,-0.2721146425453143,1.2058429545624338,-0.5011808772388608,2.615795447941175,-0.4146538161207291,0.3818829937753563,-0.4605016544270014,1.3937372464897193,-0.546686825565737,0.8496540967835864,-0.960065072182334,9.323415994280367,-0.984758684264326,0.300954078722232,-0.8578684712642407
0.36,1.190116601196731,-0.488276953862309,2.6133190291521315,-0.0668739795044357,0.0536005771160815,0.0398433971894127,-0.3441941029090127,0.3166460499388603,-0.2931025446856519,1.19814987824896,-0.4941432173722944,2.607185414861576,-0.4546538167167755,0.4218829943714027,-0.5005016550230478,1.4311129112837304,-0.4617217211109498,0.8565437096064416,-1.0493951070168817,9.217068315228971,-0.9755283606018484,0.2978312219786511,-0.8707066051682816
0.38,1.183147434818263,-0.4817668603475823,2.6072214808018632,-0.0635723758098369,0.0603576559341697,0.040105447090037,-0.352282434150374,0.333432553390506,-0.3156258971397427,1.189456801920585,-0.4861055574908268,2.5975753817670757,-0.494653817312822,0.4618829949674491,-0.5405016556190942,1.4615994716177283,-0.4044165620680634,0.8393251725822837,-1.126167622704538,9.14193229961711,-0.9668338584861812,0.2946642177193348,-0.8828693200165387
0.4,1.176383595172653,-0.4752762123434766,2.600999372133741,-0.0605741579415836,0.0652422519363351,0.0404522931767532,-0.3593245209703032,0.3488744884540207,-0.3382216188136489,1.165533313110744,-0.465095232678057,2.591440185944876,-0.4522824356404901,0.4334325548806221,-0.4156258986298588,1.4129853000384158,-0.3521043409964591,0.7720967531757356,-1.129786083695311,9.07911880165193,-0.9598530787558156,0.2916643224101406,-0.8927512941471064
0.42,1.1691555217895009,-0.4681237982885811,2.594256442814868,-0.0577889456236001,0.0685490166237633,0.0409056585041134,-0.3631073063774288,0.3656965242060938,-0.3334588457028051,1.165533313110744,-0.465095232678057,2.591440185944876,-0.4522824356404901,0.4334325548806221,-0.4156258986298588,0.8943913572728714,-0.1891392703562783,0.8411017876036542,0.2381386555421888,9.024196641831622,-0.9653896084685027,0.2887760739675993,-0.8886815611355157
0.44,1.1618599143913209,-0.4606508405476301,2.587606689364589,-0.0558887538134842,0.0695799690534559,0.0414249632310669,-0.3664889283216327,0.3810338708289154,-0.3319382223432018,1.165533313110744,-0.465095232678057,2.591440185944876,-0.4522824356404901,0.4334325548806221,-0.4156258986298588,0.7889579580114974,-0.1690810972101997,0.7668673311410773,0.0760311679801645,10.75036283443751,-0.963633163613092,0.2890198933723792,-0.8888040622234664
0.46,1.1548594947088249,-0.453267865893573,2.581259231083093,-0.0548847353325463,0.0685797025019849,0.0419656637895501,-0.3703565699165753,0.3954209990273909,-0.336278307120711,1.161010488754339,-0.4607609071292508,2.587283926958577,-0.4722824359385134,0.4534325551786454,-0.435625898927882,0.7758615294984442,-0.1933820797471258,0.719356409923777,-0.2170042388754567,10.358731685496425,-0.9630950063078147,0.2894719905157479,-0.8881194352394827
0.48,1.1474027383403134,-0.4452062384081781,2.5744421002467552,-0.0546190233686413,0.0655716146231616,0.0425788726933325,-0.375256879077221,0.4100213685713282,-0.3454008718886162,1.1519648400415292,-0.4520922560316384,2.5789714089859803,-0.5122824365345598,0.4934325557746918,-0.4756258995239285,0.8949930287913765,-0.2450154580322855,0.7300184771968643,-0.4561282383952592,10.021465136525876,-0.964476291861715,0.2901626096768828,-0.8858266831359197
0.5,1.1398342070816367,-0.436855541847039,2.5674028602462124,-0.0552365069664771,0.0607028782376338,0.0432275989329692,-0.3816508848438219,0.4243612814489146,-0.358206675219511,1.142919191328719,-0.4434236049340259,2.570658891013383,-0.5522824371306063,0.5334325563707383,-0.515625900119975,1.013046161373771,-0.3197002883300465,0.7169956438793229,-0.6402901665447408,9.762558524600536,-0.9671361948826848,0.2912688260204957,-0.8824054507110177
0.52,1.1321094925756865,-0.4282188970709339,2.5600749858796976,-0.0567433285289605,0.0546509821098821,0.0438821487062525,-0.3907670716068881,0.4386675740297074,-0.3739239937433072,1.1318735425861073,-0.4327549538066111,2.5603463730109834,-0.5922824377266528,0.5734325569667847,-0.5556259007160215,1.156296858601653,-0.4558093381533123,0.71531462903964,-0.7858659261898132,9.42856079997182,-0.9708335265013014,0.292710689160117,-0.8780750827048902
0.54,1.1245776571458097,-0.4197455848405315,2.5528136818004024,-0.0589287893468081,0.0486058720893285,0.0444778311801744,-0.4017603219740151,0.452734392363329,-0.3896363561159067,1.1208278938434952,-0.4220863026791964,2.550033855008584,-0.6322824383226993,0.6134325575628312,-0.5956259013120679,1.189122852140735,-0.5496625183563475,0.7033409166810778,-0.7856181186299716,9.42856079997182,-0.9761753904432272,0.2946918424527441,-0.8718733439650675
0.56,1.1163976147542254,-0.4105158255337149,2.544840396984746,-0.0613140106620137,0.0426423413144134,0.0450895350561713,-0.4157993236366598,0.4694631016934377,-0.4068852549486551,1.108782245085982,-0.4104176515368805,2.538721336991284,-0.6722824389187456,0.6534325581588776,-0.6356259019081143,1.3914630739597391,-0.7019500831322328,0.8364354665054363,-0.8624449416374191,9.393234370966638,-0.9815538891594692,0.2967599881341368,-0.8654711964175387
0.58,1.1079113104396416,-0.400939265515574,2.5365159003822724,-0.0630787869736775,0.037823270079642,0.045684153268646,-0.4322781302857715,0.4872032709872791,-0.4247127843918563,1.0957365963135677,-0.3977490003796634,2.526408818959081,-0.7122824395147921,0.693432558754924,-0.6756259025041608,1.503400712718644,-0.8239403324555861,0.8870084646920712,-0.8913764721600631,9.363830368556592,-0.9860241936099368,0.2982826669131764,-0.8602568618253671
0.6,1.0990687348287511,-0.3910000765001355,2.5278264140585023,-0.0638328083599593,0.035096469063585,0.0462182161888899,-0.4511759280703638,0.5056305750326201,-0.4433278696829559,1.086297403925353,-0.37657910196621,2.51528026116268,-0.5322781317758876,0.5872032724773952,-0.5247127858819725,1.6149409400049977,-0.9448898892296136,0.9213652022670464,-0.9307542645549782,9.345483417911057,-0.9889416232060536,0.2989871218373723,-0.8570118177404153
0.62,1.0902805415810448,-0.381159137494288,2.5195047421381056,-0.0621500739241898,0.0361417396230613,0.0466550416140288,-0.4722312971342678,0.5286945285730771,-0.4315811638893903,1.086297403925353,-0.37657910196621,2.51528026116268,-0.5322781317758876,0.5872032724773952,-0.5247127858819725,1.6682772673735575,-1.052768453195202,1.1531976770228491,0.5873352896782813,9.319182832740353,-0.9995866326047792,0.2977925064598815,-0.8449619136662911
0.64,1.080633253268376,-0.3703685867678837,2.510964376659478,-0.0578356203745373,0.0410526389004369,0.047053998348203,-0.49089527300698,0.5484965374180942,-0.4234089769048275,1.086297403925353,-0.37657910196621,2.51528026116268,-0.5322781317758876,0.5872032724773952,-0.5247127858819725,1.4206056716995563,-0.9331987936356118,0.9901004422508576,0.4086093492281395,11.21112180786622,-0.9990247512965642,0.2964564207684178,-0.8438576464872716
0.66,1.0706490068313168,-0.359224393755767,2.5025065917608424,-0.0530024481769363,0.0482184318504956,0.0473723826819464,-0.5061880315816673,0.5648164769424618,-0.4227130019290439,1.080974622607594,-0.3707070692414361,2.51003313330386,-0.5522781320739107,0.6072032727754184,-0.5447127861799956,1.118808821995074,-0.7646379287343602,0.8159969762183805,0.0347987487891804,10.740235865127945,-0.9950078764385686,0.2943313405958827,-0.8479074306081966
0.68,1.060393509706235,-0.347776831584379,2.493997303483073,-0.0484654319798008,0.0563663395790612,0.0476399656618514,-0.5183088820869108,0.5791532900831877,-0.4282335354084276,1.0703290599720765,-0.3589630037918881,2.4995388775862204,-0.5922781326699572,0.6472032733714649,-0.5847127867760421,0.9784369140362994,-0.6060425252621793,0.716840657036294,-0.2760266739691874,10.294316194573184,-0.9888559626597148,0.2917234842931536,-0.8552159200484729
0.7000000000000001,1.0504533110300496,-0.3366489475437064,2.485761134479241,-0.0447008344259704,0.0641370714943014,0.0478742904176163,-0.5272642109073233,0.591574690889462,-0.4384573022416278,1.0596834973365583,-0.3472189383423402,2.489044621868581,-0.6322781332660037,0.6872032739675114,-0.6247127873720886,0.9206173479403196,-0.447766441020625,0.6210700403137148,-0.5111883416600099,9.935446912378213,-0.9819431346961648,0.2892003657261766,-0.8636577709113946
0.72,1.0398297359177229,-0.3246899876165769,2.476838749503573,-0.0414162179674545,0.0716942678413645,0.0481164060335269,-0.5344890860813043,0.6037453419463603,-0.4534491283905197,1.0470379346712384,-0.33347487286299,2.476550366121139,-0.6722781338620502,0.7272032745635578,-0.664712787968135,1.030871499881271,-0.361243758699048,0.6085325528449148,-0.7495913074445942,9.64888503323982,-0.9746075659741362,0.2867789341726354,-0.8728791980573712
0.74,1.0290824048321645,-0.3124936561228616,2.4675869247670943,-0.0388402661343942,0.0781401452191634,0.0483626825823341,-0.5398660489897036,0.6154157090453863,-0.4709926458674279,1.0343923720059185,-0.3197308073836398,2.464056110373697,-0.7122781344580966,0.7672032751596043,-0.7047127885641815,1.0872950425332075,-0.2688481454199642,0.5835183549513012,-0.8771758738454122,9.307369383554033,-0.968223582604894,0.2846884823224858,-0.8811219186552053
0.76,1.0187814382005025,-0.300685628996576,2.4584564493476537,-0.0366883714371234,0.083145973963181,0.0486204252778279,-0.5441632391200942,0.6268746500167052,-0.4892421037110366,1.0207468093256973,-0.3049867418893884,2.4505618546113546,-0.752278135054143,0.8072032757556507,-0.7447127891602279,1.0986535882462514,-0.2148595065195324,0.5729470485659416,-0.9124728921804326,9.307369383554033,-0.9620041418382548,0.2825976805624957,-0.8892145848723627
0.78,1.0078564375162935,-0.2880235588544882,2.4484550173291963,-0.0344628210813946,0.0873648106424006,0.048924759329273,-0.5480864079538931,0.6386439127090037,-0.5100187243355055,1.0061012466305748,-0.2892426763802359,2.4360675988341103,-0.7922781356501895,0.8472032763516971,-0.7847127897562743,1.209932604106452,-0.196158441689942,0.5884631346149249,-1.0388310312234472,9.231295297968243,-0.9564254475571586,0.2804067154070183,-0.8966574411724907
0.8,0.996857517480283,-0.275129403898339,2.4380234137228856,-0.0321896742952289,0.0906478725297628,0.0492591802741216,-0.5515973482546765,0.6500755182197201,-0.5321604596920435,0.9804521171185988,-0.2560913632190381,2.422954081112421,-0.6480864094440092,0.7386439141991198,-0.6100187258256217,1.2582376076751869,-0.1755470150391735,0.5715802755358212,-1.107086767826898,9.090453662423895,-0.9516270720120564,0.278114516898803,-0.9032534632248173
0.8200000000000001,0.9858157781260076,-0.2619934570251729,2.4274839412245277,-0.0296295845098836,0.0933242979052732,0.0496254683290598,-0.5523356747921339,0.6626790541298166,-0.5206582835892933,0.9804521171185988,-0.2560913632190381,2.422954081112421,-0.6480864094440092,0.7386439141991198,-0.6100187258256217,0.8539530118977334,-0.0369163268728656,0.6301767955048276,0.5751088051375086,11.065440053263956,-0.9554506541069824,0.2748111424117275,-0.902374208576726
0.84,0.9753227454615117,-0.249304542525774,2.417650689291502,-0.0274110267011653,0.0952794017092834,0.049967272358721,-0.5522259296381334,0.6725316241762321,-0.5150947707950629,0.9804521171185988,-0.2560913632190381,2.422954081112421,-0.6480864094440092,0.7386439141991198,-0.6100187258256217,0.5657690675750919,0.0054872577000208,0.4926285023207744,0.2781756397115198,10.596754275679814,-0.9531895822140856,0.2747501477012827,-0.9027839760794782
0.86,0.9642805119062372,-0.2357515788138839,2.40734630372243,-0.0256744825275239,0.0963988744589006,0.0503000233366235,-0.5520903595244966,0.6823071629737548,-0.5159357677136214,0.9739712530241588,-0.2487049240770469,2.416853893854165,-0.6680864097420324,0.758643914497143,-0.6300187261236448,0.4906292231782764,0.0067785056818425,0.4887769398761343,-0.0420498459279217,10.596754275679814,-0.9509867805975892,0.2745412847335016,-0.9039171437517968
0.88,0.9532381449622046,-0.2220084056746915,2.396963917526095,-0.0245759583689868,0.0964540551193173,0.0506029241255537,-0.552250428113927,0.6915441609662707,-0.5224795048024808,0.9610095248352786,-0.2339320457930644,2.4046535193376526,-0.7080864103380788,0.7986439150931894,-0.6700187267196913,0.5660570840365384,-0.0080034294715203,0.4618498996257936,-0.3271868544429734,10.20053221546732,-0.9496722776509232,0.2744307570797542,-0.9045830127066278
0.9,0.9421892367775326,-0.2080869315529609,2.3863991829431184,-0.0242662365252304,0.0953675328875252,0.0508663038888588,-0.5527282652457106,0.7002290150043865,-0.5336417932541206,0.9480477966463984,-0.2191591675090821,2.39245314482114,-0.7480864109341253,0.8386439156892359,-0.7100187273157378,0.7075515908142298,-0.023891856589181,0.4342427019057904,-0.5581144225819901,9.893559822151474,-0.9494634390210176,0.2746526976687028,-0.9043534512498252
0.92,0.9316807287156824,-0.1947038294044357,2.376124695076913,-0.0248425659116815,0.0931544025568119,0.0510750768420541,-0.5535028253613214,0.7081813357656593,-0.5473143427679579,0.933086068427716,-0.2023862891952974,2.378252770274825,-0.7880864115301718,0.8786439162852824,-0.7500187279117843,0.7917985208864636,-0.0387280057805417,0.3976160380636417,-0.6836274756918614,9.661023503715114,-0.950271919203748,0.2753194037485968,-0.9032755834561916
0.94,0.9205990474060568,-0.1804541983478749,2.3650160804332425,-0.0265162347274532,0.089421047243231,0.0512510572225153,-0.5547429976820673,0.7164686888692359,-0.5628646619114416,0.9181243402090332,-0.1856134108815126,2.3640523957285104,-0.8280864121262183,0.9186439168813288,-0.7900187285078307,0.8832195003405148,-0.0620086160372901,0.4143676551788267,-0.7775159571741852,9.489384129611608,-0.9527100798456756,0.2768430550850168,-0.9002839550443557
0.96,0.9094780464535344,-0.1660231100747569,2.353591020826101,-0.0289639533012859,0.0843179450319565,0.0514135927673367,-0.5575804889840887,0.7263925781631526,-0.5788732102183958,0.9021626119754496,-0.1678405325528267,2.3488520211672945,-0.8680864127222646,0.9586439174773752,-0.8300187291038771,0.9523767039662524,-0.1418745651010744,0.4961944646958371,-0.8004274153477098,9.42746872562293,-0.955890556008038,0.278880963937936,-0.8964500101109838
0.98,0.8982734006866491,-0.1513735109067085,2.3418421528286038,-0.0312257434078622,0.0785482075756206,0.0516170333767985,-0.5629293961393322,0.7379342140533202,-0.5951971741077644,0.8852008837269649,-0.1490676542092397,2.3326516465911777,-0.9080864133183112,0.9986439180734216,-0.8700187296999236,1.034760798250047,-0.2674453577621749,0.5770817945083773,-0.8161981944684316,9.406201378340484,-0.960393889343462,0.2808638468061711,-0.8909685230996377
1.0,0.8875081016447058,-0.1372348243732226,2.330374818162185,-0.0327720591868382,0.0731289423596806,0.0518559987328573,-0.5700800094541666,0.749599760601388,-0.6110596806132844,0.8701269308796824,-0.1144768002040425,2.312082294123215,-0.6629293976294484,0.8379342155434363,-0.6951971755978805,1.047419877223419,-0.3575306657417176,0.583277327403392,-0.7931253252760007,9.391464900414576,-0.965556011765642,0.2824239376831297,-0.8848616746298381
1.02,0.8759765956583384,-0.1220656763987256,2.3182729820305057,-0.0324270895065023,0.0696807331875362,0.052167688862048,-0.5829465929898027,0.7663715803612374,-0.5966989294464441,0.8701269308796824,-0.1144768002040425,2.312082294123215,-0.6629293976294484,0.8379342155434363,-0.6951971755978805,1.2777657101482678,-0.6433291767818039,0.8385909879924713,0.7180375583420162,9.371040304105009,-0.972586374216967,0.2792622970405468,-0.8821607314833743
1.04,0.8641810290754357,-0.1065820918282341,2.3064591402098937,-0.0295598975326316,0.0706544244301336,0.0524982749309181,-0.5953682815457053,0.7808968892694542,-0.5855270748929085,0.8701269308796824,-0.1144768002040425,2.312082294123215,-0.6629293976294484,0.8379342155434363,-0.6951971755978805,1.1069025246428883,-0.6210844277951322,0.7262654454108397,0.5585927276767821,11.417397326024911,-0.9755054358935468,0.2796608758479318,-0.875972353701227
1.06,0.8521662948317612,-0.0908403996492223,2.2947900950628624,-0.0255252322144074,0.0744622196585243,0.052819304846959,-0.6051145072280318,0.792278162178224,-0.5818940887832902,0.8634976369033879,-0.1060974580486081,2.305130322367236,-0.6829293979274715,0.8579342158414595,-0.7151971758959037,0.7709099755279752,-0.4873112841163263,0.569063645438489,0.1816493054809131,10.935608334602875,-0.9745467968485564,0.2784379604992903,-0.875292918459982
1.08,0.840596223332538,-0.0756986080162062,2.2837081041509086,-0.0217474162129637,0.0794299244478525,0.0530878340803743,-0.6120806278379949,0.8010515023074654,-0.5847963967486741,0.8502390489507989,-0.0893387737377394,2.2912263788552782,-0.722929398523518,0.8979342164375059,-0.7551971764919502,0.5786227719806741,-0.3483060304981522,0.4386670064620679,-0.1451153982691966,10.458708047412983,-0.9710159330607928,0.2767873747246793,-0.8780810788556099
1.1,0.8282970906347135,-0.0595934268070832,2.271928477484462,-0.0182959575494584,0.0850869210807237,0.0533294720066897,-0.6172986038428556,0.8090686147584589,-0.5932622489109954,0.83698046099821,-0.0725800894268707,2.277322435343321,-0.7629293991195645,0.9379342170335524,-0.7951971770879966,0.6386940160856744,-0.2608988002430368,0.4008556225496784,-0.4232926081160659,10.06826228542468,-0.9661848675126372,0.2750452225410558,-0.8828378390598135
1.12,0.8159118651833209,-0.0433351146394217,2.259924608958481,-0.0155089105492887,0.0904737837982481,0.0535324865313386,-0.6208451764656064,0.8164472627279286,-0.6066914530476702,0.8217218730158187,-0.0538214050861996,2.2614184918015607,-0.802929399715611,0.9779342176295988,-0.8351971776840431,0.7863939009336984,-0.177328631137541,0.3689323984734816,-0.6714602068337405,9.510536158714784,-0.960798646391305,0.2733163671901526,-0.8886594237859923
1.14,0.803472468361909,-0.0269342862143092,2.2476260418260168,-0.0133890062213437,0.0950927314214271,0.0536993721188828,-0.6229145218219975,0.8234126883277705,-0.6225028975933822,0.8064632850334273,-0.0350627207455286,2.245514548259801,-0.8429294003116574,1.0179342182256452,-0.8751971782800896,0.870059082208033,-0.1034672678195514,0.3482712799920961,-0.7905722272855964,9.510536158714784,-0.955869911101334,0.2716166040757543,-0.8945318167890408
1.16,0.7916226598069672,-0.011218384280474,2.2356334894654624,-0.0116601407863675,0.0986398042341025,0.053844314151891,-0.6243259200340874,0.8304824489436184,-0.6390865345314113,0.7902046970361349,-0.0153040363899564,2.22861060470314,-0.8829294009077038,1.0579342188216916,-0.915197178876136,0.9041440346687704,-0.0705699106044954,0.3534880307923982,-0.8291818469014556,9.396046589175056,-0.9510631516297636,0.2698773925368545,-0.9003974410809109
1.18,0.7791243640826313,0.0054683620411847,2.2226535802455847,-0.0098748073586405,0.1015632262397924,0.0539964241598523,-0.625420880252171,0.83774910417334,-0.6581081727484844,0.7729461090239413,0.0054546479805169,2.210706661131577,-0.9229294015037502,1.097934219417738,-0.9551971794721824,1.019590526348744,-0.054748010904182,0.3633327614860793,-0.9510819108536572,9.23746365993884,-0.9468094331716862,0.2680686667342178,-0.9057152334788336
1.2,0.7666071010462796,0.022298414649773,2.20927722427633,-0.0080319878744984,0.1037343311456954,0.0541506594122644,-0.6262653374634964,0.844780476114532,-0.6785780518126484,0.7478533200700228,0.0473558172498517,2.1897481716081604,-0.7254208817422871,0.8987167544378416,-0.7581081742386006,1.0830157527232,-0.0422228605662711,0.3515685970595983,-1.0234939532081988,9.23746365993884,-0.943057219611514,0.2660447579574103,-0.9106784070127216
1.22,0.7540869252181044,0.0393943133077494,2.1958014842026534,-0.0020193044101688,0.1057128150251467,0.0545862859907041,-0.6253564400199493,0.8621451007338999,-0.6662605569080942,0.7478533200700228,0.0473558172498517,2.1897481716081604,-0.7254208817422871,0.8987167544378416,-0.7581081742386006,1.065454085658042,0.0454448721773581,0.868231230968397,0.6158747452277125,11.242280719712651,-0.9439572433634614,0.256476734696007,-0.9183549537581952
1.24,0.742227311476666,0.0558621054361324,2.1832278663607143,0.0075644419103959,0.1075472369407986,0.0552599740855869,-0.6230457722127299,0.8696583753518162,-0.6580719227699224,0.7478533200700228,0.0473558172498517,2.1897481716081604,-0.7254208817422871,0.8987167544378416,-0.7581081742386006,0.5675434129834834,0.1155333903609667,0.3756637308958144,0.4094317069085862,11.242280719712651,-0.9427896260051516,0.2511714299290165,-0.9174994934682268
1.26,0.7297970109356113,0.0732837667359982,2.1700808815346297,0.0181550070221846,0.1088730676770655,0.0559859295284753,-0.6201536667088773,0.8718709266281114,-0.6574271523220724,0.7405991112525999,0.0563429847942301,2.1821670898657746,-0.7454208820403103,0.910910284490742,-0.7781081745366237,0.1849012325950732,0.144605275192633,0.110627563814758,0.0322385223925025,10.750578710193622,-0.9408971609576964,0.2443425755828983,-0.9188314568575876
1.28,0.7174248269364183,0.0907109089626464,2.1568624231167925,0.0278939402919852,0.1092479133409957,0.0566123586601802,-0.6173360206175993,0.8707767039221666,-0.6644209990959867,0.7260906936177542,0.0743173198829869,2.1670049263810025,-0.7854208826363568,0.9352973445965426,-0.8181081751326702,0.3809538867202023,0.1408823045638996,-0.0547111352972418,-0.3496923386957173,9.873973054656744,-0.9391796075798978,0.2373783489167398,-0.9212167422864804
1.3,0.705721498804599,0.1072247745317124,2.144121807571467,0.0359364541746115,0.1085826395523877,0.0570642976588463,-0.6148201676594057,0.8677368760379985,-0.6763347044944417,0.7115822759829085,0.0922916549717438,2.1518427628962304,-0.8254208832324033,0.9596844047023432,-0.8581081757287167,0.6275078604961671,0.1257926479096782,-0.1519913942084005,-0.5956852699227466,9.584353101980014,-0.9379244485292166,0.2300602622360986,-0.9241087211792915
1.32,0.6934523836367311,0.1245311236481135,2.1304241227080936,0.043041740841742,0.1065671905437615,0.0573572532275686,-0.6123038950088342,0.863174708839203,-0.6929800644325056,0.6950738583182604,0.1114853430657906,2.134680599381656,-0.8654208838284497,0.9840714648081438,-0.8981081763247631,0.8720851521919805,0.1258136325285763,-0.228108359939777,-0.8322679969031965,9.584353101980014,-0.9378693396353462,0.2232259562971877,-0.9262752603412991
1.34,0.6812327050166715,0.1417336891399234,2.116372147032324,0.0487657889082151,0.1028791058269082,0.0574337878483313,-0.6099016808859069,0.8574598938847362,-0.7114229604895316,0.6785654406536122,0.1306790311598375,2.117518435867081,-0.9054208844244962,1.0084585249139444,-0.9381081769208096,0.9728439721076206,0.1201107061463646,-0.2857407477233398,-0.9221448028512992,9.36471080551746,-0.9393969307287624,0.2167669532870959,-0.9274869059786256
1.36,0.6690487142747581,0.1588175149119761,2.1019427670483357,0.0533577636219544,0.0974690554645698,0.0572957103400214,-0.6089769722681458,0.8512682112262333,-0.7306074952072517,0.6610570229740631,0.1504823957565294,2.099356272337606,-0.9454208850205426,1.032845585019745,-0.978108177516856,1.0090074237917852,0.046235430888053,-0.3095841329251447,-0.959226735886004,9.287778650983457,-0.9418062690815776,0.2110084706564292,-0.9279729910152862
1.38,0.6574671321091814,0.1749254232568273,2.087874118195061,0.0568978276453456,0.0914024399266207,0.0570099438414249,-0.6104056369552132,0.8447156054324032,-0.7493318984668185,0.6425486052796128,0.1708954368558663,2.0801941087932296,-0.985420885616589,1.0572326451255456,-1.0181081781129024,0.994460912887336,-0.0714332343533685,-0.3276302896915051,-0.9362201629783408,9.253317536448776,-0.9454712114713304,0.2052581383374316,-0.9276715007685016
1.4,0.6452235347275597,0.191740791906965,2.0726741393126766,0.0599070006098479,0.0847352235072686,0.0565965542552031,-0.6140852992242809,0.8372270448480548,-0.7697052348757506,0.6269468502614207,0.2171612035284475,2.0504075232717205,-0.7104056384453293,0.8265865081346155,-0.8493318999569346,1.1007852770538142,-0.1839831134533842,-0.3744280292174218,-1.0186668204466065,9.229194558502968,-0.9498675870784328,0.2000125672673261,-0.9266425284129196
1.42,0.6328519588628951,0.2085614892945923,2.0573684770727327,0.0681085771464689,0.079835399607782,0.0565981582918958,-0.6229289056482742,0.8419850755816621,-0.7584264881879473,0.6269468502614207,0.2171612035284475,2.0504075232717205,-0.7104056384453293,0.8265865081346155,-0.8493318999569346,0.7550800584906224,-0.4421803211996644,0.2379015366803683,0.5639373343901632,9.193814965123238,-0.9557395874698468,0.1864944410913737,-0.930209372628298
1.44,0.620295624586366,0.2253122798852979,2.042269690195328,0.0809845767743415,0.0788079171430238,0.0571165213750108,-0.6317757834466182,0.8322616503692306,-0.7522184297443946,0.6269468502614207,0.2171612035284475,2.0504075232717205,-0.7104056384453293,0.8265865081346155,-0.8493318999569346,0.7268979197231692,-0.4423438899172016,-0.4861712606215762,0.3104029221776383,11.180807247827032,-0.9584411759924552,0.1768053617568217,-0.9284316531748124
1.46,0.6082237762076524,0.2409939842768217,2.0279620379756125,0.0934346371490067,0.0802874276798194,0.0577853275444565,-0.6382530029031512,0.8186583095047871,-0.7541695914561581,0.6198427938769674,0.2254270686097936,2.041914204272151,-0.7304056387433525,0.822960688675058,-0.8693319002549578,0.7596253790319605,-0.3238609728266506,-0.680167043222174,-0.0975580855881785,10.652887542057217,-0.957356374575078,0.1653454034189784,-0.9315825274740048
1.48,0.5954043908091683,0.2571958478600133,2.0127970918479234,0.1060517964386945,0.0831482307547078,0.0585654195804094,-0.6431636475172309,0.8019770687990762,-0.762525115403123,0.6056346811080608,0.2419587987724859,2.0249275662730124,-0.770405639339399,0.8157090497559429,-0.9093319008510042,0.9646152114132878,-0.245532230703982,-0.8340620352855488,-0.4177761973482408,10.183908186888402,-0.953991163984548,0.1529921014711453,-0.9381352419460162
1.5,0.5825039658150905,0.2730438841696229,1.997402687454757,0.1180640664448752,0.0864076290803234,0.0593436297526621,-0.646525831748902,0.7833891070094069,-0.7765200223713712,0.5914265683391543,0.2584905289351782,2.007940928273874,-0.8104056399354455,0.8084574108368279,-0.9493319014470508,1.1754510063714112,-0.1681092115835558,-0.929398089483463,-0.6997453484124116,9.83437282372779,-0.9495855198915722,0.1406560175454668,-0.9462694561216164
1.52,0.5695501795880634,0.2885009325204072,1.9816843457970448,0.129473383681789,0.089449756653101,0.0600508076898362,-0.6486446364542148,0.7629897416699104,-0.7946599818681087,0.5752184555404454,0.2746596771519148,1.9889542902449329,-0.8504056405314919,0.8012057719177128,-0.9893319020430972,1.3690156775734748,-0.1059402352656391,-1.0199682669748245,-0.9069979748368762,9.567151475549508,-0.9445383017685652,0.1271008481936504,-0.9558524903480397
1.54,0.5572157069205312,0.3027890778187238,1.9663965406777373,0.1397716561712274,0.0917658985792316,0.0606001919255444,-0.6496349802643043,0.7418339301083576,-0.8137144476394755,0.5590103427417364,0.2908288253686514,1.969967652215992,-0.8904056411275384,0.7939541329985977,-1.0293319026391436,1.4244488491363094,-0.0495171905044777,-1.0577905780776389,-0.9527232885683412,9.37121873671822,-0.9401632453346692,0.1136572937090532,-0.9647090846868286
1.56,0.5442157161946931,0.3173657568645366,1.949897379008476,0.1497426010764606,0.0934984633199329,0.0609978708597448,-0.6503267869351813,0.7168960193802733,-0.8352710333911156,0.5418022299281264,0.3068166826124101,1.9499810141721496,-0.9304056417235848,0.7867024940794827,-1.06933190323519,1.648532966928163,-0.0345903335438491,-1.246895536404219,-1.077829287582005,9.298577840979306,-0.9361645006647844,0.1004675104517042,-0.9732086142959938
1.58,0.5312047220442299,0.3314118520005536,1.9329532686274955,0.1582003453190087,0.0946048461052272,0.0611648012571027,-0.6507721269224325,0.689153479159203,-0.8580814952539394,0.5235941170996152,0.3226232488831909,1.9289943761134063,-0.9704056423196312,0.7794508551603676,-1.1093319038312364,1.7959426744869136,-0.0222669993625579,-1.3871270110535128,-1.140523093141188,9.248527772581838,-0.9328784888222504,0.0887082217945074,-0.980826790566416
1.6,0.5181867176290942,0.34488191313975,1.9155435104482168,0.1647018546099275,0.0951623165136668,0.0610705880513021,-0.65107638938214,0.6596854167274931,-0.8817032051056657,0.4986661156981082,0.3658695259585137,1.8900491938647983,-0.7507721284125486,0.6017682866457371,-0.9580814967440556,1.8884149805079125,-0.0152131229853746,-1.4734031215854926,-1.1810854925863146,9.217819199991936,-0.9298867958998512,0.0776370625979977,-0.9883783141740776
1.62,0.5058172883792672,0.3571576648059508,1.8988306827772945,0.1716430010905393,0.0958434859309416,0.0610255857366162,-0.6507486089495279,0.6326249760854255,-0.8765717816828147,0.4986661156981082,0.3658695259585137,1.8900491938647983,-0.7507721284125486,0.6017682866457371,-0.9580814967440556,1.3772312751490363,0.0163890216306028,-1.3530220321033848,0.25657117114255,9.202719644732497,-0.933531557599882,0.0666603652278631,-0.9899498286018776
1.64,0.4928200032239848,0.3694674262976644,1.8813044682279767,0.1800000060212562,0.0968518753377508,0.0610650716044836,-0.6489753846362021,0.5995557039114724,-0.876774339314499,0.4986661156981082,0.3658695259585137,1.8900491938647983,-0.7507721284125486,0.6017682866457371,-0.9580814967440556,1.6558699497352662,0.0886612156662913,-1.6534636086976529,-0.0101278815842154,10.875577367813094,-0.931432139984863,0.0564461496559046,-0.9940601438239548
1.66,0.4798670813679783,0.3810975163493994,1.863711154020108,0.1881722680774261,0.0973641086879197,0.0609612669776956,-0.6464929661340201,0.5648934518560401,-0.8825655800591101,0.4911583944139828,0.3718872088249711,1.8804683788973575,-0.7707721287105718,0.5842912481430439,-0.9780814970420788,1.7615139713725936,0.1241209251091002,-1.7331126027716135,-0.2895620372305563,10.461120046243195,-0.92923744244509,0.0458322865965706,-0.998871712789966
1.68,0.4676116156084036,0.3914928393381418,1.846853290554302,0.1955713230249898,0.0969985393433942,0.0606316908694189,-0.6437700602381227,0.5309149436896208,-0.8916890129381109,0.4761429518457318,0.3839225745578858,1.8613067489624768,-0.8107721293066182,0.5493371711376576,-1.0180814976381252,1.7643626761744384,0.1361452947948704,-1.698925408320967,-0.4561716439500374,10.196910160225343,-0.9274508315157076,0.0343311101819375,-1.0037892206683945
1.7,0.4547699577553027,0.4017262101446011,1.8288929762063124,0.2029521418646811,0.0953389072549498,0.0599487521443682,-0.640587062740408,0.4940474267578174,-0.9040082476796478,0.4611275092774808,0.3959579402908006,1.8421451190275957,-0.8507721299026647,0.5143830941322712,-1.0580814982341715,1.9500697567038203,0.1591498748857334,-1.84337584659017,-0.6159617370768478,10.008399062739954,-0.9264044790869403,0.0224350699034051,-1.0084106069118757
1.72,0.4419950581487074,0.4112097856569507,1.8106650498344128,0.209920058144693,0.0918829755236029,0.058799325586759,-0.6371534445231788,0.4559909407980781,-0.918261060084282,0.4441120666794275,0.406245602173446,1.820983489062912,-0.8907721304987112,0.4794290171268849,-1.098081498830218,2.039134938587445,0.1716809108614603,-1.9028242979869603,-0.7126406202317082,9.79336786510794,-0.927454184146382,0.0107636670994295,-1.0110541079891024
1.74,0.4292852337921802,0.4199166002462326,1.7921494676352172,0.2164904466309089,0.0862426833035721,0.0570754535580617,-0.6344891967789457,0.4164093030340477,-0.932612601670194,0.4270966240813741,0.4165332640560915,1.7998218590982284,-0.9307721310947576,0.4444749401214985,-1.138081499426265,2.109366617030889,0.1332123872116564,-1.9790818882015224,-0.7175770792956004,9.814001399748122,-0.9304260121204988,-0.0002519758934457,-1.0117828672131297
1.76,0.4172342261493884,0.4274309328335707,1.77429670564295,0.2221343099899451,0.0794416042132651,0.0549943236966415,-0.6344881292377401,0.3765891208051893,-0.9458982102505308,0.4090811814684197,0.4259470740136022,1.777660229118644,-0.970772131690804,0.4095208631161122,-1.178081500022311,2.098901087014973,5.337706027730427e-05,-1.9910091114429207,-0.6642804290168391,9.814001399748122,-0.9359014852608448,-0.0111538150208158,-1.0102194237221096
1.78,0.4045221219176378,0.4344891092623699,1.7552309016514651,0.2266723091863234,0.0715779577585012,0.0524587605487819,-0.6370320246966644,0.3316502758034747,-0.9598811789931088,0.3900657388405641,0.4344870320459783,1.7544985991241582,-1.0107721322868504,0.3745667861107258,-1.2180815006183574,2.356636697207473,-0.1271947729462152,-2.246942250085729,-0.6991484371289047,9.898296193622627,-0.9435560507972774,-0.0200606391724251,-1.0061010997143012
1.8,0.3917327021641722,0.440622512910663,1.735890554166452,0.2289452219552873,0.0636061256086898,0.0496686876411025,-0.6420488357731908,0.284657833872557,-0.9732913114826436,0.3726705206828046,0.4510716230525436,1.70723684270181,-0.7370320261867805,0.2316502743133586,-1.056598335462931,2.4562622240892296,-0.2508405538263203,-2.3496220965458865,-0.6705066244767355,9.953688656700251,-0.952090788482654,-0.0267440300491104,-1.0010765473586292
1.82,0.3787732077801717,0.4458059720612263,1.7165580012495718,0.2307533802427478,0.0578675547881532,0.047320226382504,-0.6536222787132024,0.2355943940510361,-0.9593941310392,0.3726705206828046,0.4510716230525436,1.70723684270181,-0.7370320261867805,0.2316502743133586,-1.056598335462931,2.614525450671372,-0.5786721470005807,-2.453171991076045,0.6948590221721784,9.953688656700251,-0.9614914936556658,-0.0342644681714064,-0.9970126039935252
1.84,0.3662390758527216,0.4497934310684796,1.698427095256324,0.2322866517638666,0.0562240924979634,0.0459346213547692,-0.6648223946983867,0.1868803156915159,-0.9498078367100072,0.3726705206828046,0.4510716230525436,1.70723684270181,-0.7370320261867805,0.2316502743133586,-1.056598335462931,2.5447991411234034,-0.5600057992592111,-2.435703917976008,0.4793147164596445,11.700420803157613,-0.966617890158024,-0.0370403164726321,-0.9925530616794608
1.86,0.3528373072808271,0.4529716550141571,1.6794907967129329,0.2321399989591289,0.0572496363664661,0.0449764856138453,-0.6745270173664684,0.1338473307510424,-0.9444327239785127,0.3653002004209368,0.4533881257956772,1.6966708593471806,-0.7570320264848037,0.2116502740153354,-1.0759417667568951,2.709044586982007,-0.4852311334040848,-2.651649247023674,0.268755636574719,11.361440591526843,-0.968299052333114,-0.0382603935404755,-0.9914880928734366
1.88,0.3392617306760747,0.4550761377848326,1.6606188397862784,0.2285695140529121,0.0598476776627407,0.0441244752808165,-0.6823900866074036,0.0801413006356379,-0.9429648743871653,0.3505595598972011,0.4580211312819444,1.675538892637922,-0.7970320270808502,0.1716502734192889,-1.114628629344824,2.7149217811326087,-0.3931534620467636,-2.685301505770228,0.0733924795673746,11.072455355175409,-0.9677200512923496,-0.037174913930812,-0.9934055130840632
1.9,0.3255450731402571,0.4561418705921042,1.6417489961466805,0.2216690337885983,0.0631208633309919,0.043167772182753,-0.6887978585260767,0.0302838951667117,-0.9438035753180308,0.3358189193734656,0.4626541367682115,1.6544069259286631,-0.8370320276768967,0.1316502728232425,-1.1533154919327528,2.513724249150091,-0.3203885959336516,-2.492870273446307,-0.0419350465432843,10.845684942451951,-0.9669790605654526,-0.0329371063286431,-0.9952813316990988
1.92,0.3124069016130926,0.4562685923026831,1.6237899578145922,0.213268400380156,0.066278751570451,0.0421129828520967,-0.6938189770047253,-0.0136435532962255,-0.9463946886701522,0.3190782788199277,0.4652871422246764,1.6313406160900084,-0.8770320282729431,0.091650272227196,-1.1920023545206817,2.214467333042068,-0.2510559239324306,-2.196372423146865,-0.1295556676060627,10.665917164938946,-0.9654535733371864,-0.0270172262536105,-0.9981999902383824
1.94,0.2984839720161836,0.4555396141814031,1.604825092199205,0.2032995232381106,0.0692438334423271,0.0408199961958167,-0.6981898734936492,-0.0563533428656952,-0.9499002824800362,0.3023376382663897,0.4679201476811412,1.6082743062513534,-0.9170320288689896,0.0516502716311495,-1.2306892171086103,2.1537873903574867,-0.2185448244461985,-2.135489478473484,-0.1752796904942011,10.508569834426453,-0.9638834816238334,-0.0201425449612797,-1.0012216759454844
1.96,0.2844760090269931,0.4539791954958245,1.5857795707651163,0.1923662439444822,0.0717264065367902,0.0393392552710972,-0.7023887850450227,-0.0968593714907139,-0.9543967891653564,0.2845969976979506,0.4695531531227049,1.584240824848,-0.957032029465036,0.0116502710351031,-1.2693760796965392,2.048528609489153,-0.2099455775686709,-2.0253014312509388,-0.2248253342660044,10.341840285655962,-0.9623131580339626,-0.0126964850128505,-1.0044701637516016
1.98,0.2710911497260326,0.45177178809254,1.5675923040327138,0.1810373922937734,0.073742960877081,0.0377873078952398,-0.706333205437757,-0.1327416778648353,-0.959685615306582,0.2658563571146103,0.4701861585493674,1.5592401718799485,-0.9970320300610824,-0.0283497295609432,-1.3080629422844678,1.8241916325547032,-0.1972210196367174,-1.7941153187060652,-0.2644413070612861,10.341840285655962,-0.9610867812946968,-0.0047826171950677,-1.0073198979529274
2.0,0.2569210377949537,0.4487491049983637,1.5483291188363564,0.1684893462495956,0.075577763751159,0.0360509706433985,-0.7104682930162621,-0.167046412069966,-0.9663318866386638,0.2357744894541448,0.4451347041992983,1.5196080232673848,-0.8063332069278731,-0.2327416793549514,-0.9869634779597184,1.7593227821993245,-0.2067543789252557,-1.715236710256539,-0.3323135666040866,10.25738077692222,-0.9599607767608956,0.0042355240627751,-1.010021349923142
2.02,0.2427031690516057,0.4450908428716052,1.5293279304939753,0.1582121013909114,0.0769729806219663,0.0344005545125996,-0.7109406543622946,-0.1982015253796133,-0.9316044380058968,0.2357744894541448,0.4451347041992983,1.5196080232673848,-0.8063332069278731,-0.2327416793549514,-0.9869634779597184,2.33284156080072,-0.0236180673016228,-1.557755665482362,1.73637243163835,10.15894662692972,-0.9662497077435334,0.0110228969687269,-1.0065464308855054
2.04,0.2284823288037601,0.440773146238776,1.5110361280908813,0.1502299057341358,0.0777406434019616,0.0328181524074448,-0.7112091451073628,-0.2317829423194356,-0.899508381189894,0.2357744894541448,0.4451347041992983,1.5196080232673848,-0.8063332069278731,-0.2327416793549514,-0.9869634779597184,2.322681916504309,-0.0134245372534091,-1.6790708469911153,1.6048028408001402,12.992062205663387,-0.9667266679297106,0.0180986045251309,-1.004976320958767
2.06,0.2149666493193867,0.4360560916142163,1.4941943740718908,0.1428668274805921,0.0777827628207354,0.0312393340835995,-0.7115956940276932,-0.2626581036776929,-0.8748368262012557,0.227711157384866,0.4428072874057487,1.5097383884877875,-0.8263332072258963,-0.2527416796529746,-0.9924190504903456,1.976177265912419,-0.0193274460165204,-1.5437580679128635,1.2335777494319131,12.499307381471226,-0.9677161411292756,0.0248412693770124,-1.0032522492639102
2.08,0.2007280153205184,0.4304825939902877,1.4769278184489356,0.1349700179265714,0.0769468819393783,0.0294635321616711,-0.7123478258521893,-0.2926814238165552,-0.8532667410710961,0.2115844932463086,0.4381524538186497,1.4899991189285933,-0.8663332078219428,-0.292741680249021,-1.0033301955516,1.8488063899205125,-0.0376065912248035,-1.5011660069431163,1.0785042565079783,12.081290209321196,-0.969910998316334,0.0317299684942561,-1.000313600217038
2.1,0.1864697139365895,0.4243349570034926,1.4600462155736476,0.1269312440301274,0.0750113536680467,0.0275633380387495,-0.7135718966809084,-0.3201930056979773,-0.8358913993562087,0.1954578291077511,0.4334976202315507,1.4702598493693988,-0.9063332084179891,-0.3327416808450675,-1.0142413406128543,1.6281031806376869,-0.0612035414359557,-1.3755790940711057,0.8687670857443708,11.76148781378106,-0.9732652652585596,0.0386151096368225,-0.9963027856563074
2.12,0.1721800875340761,0.4176646848712997,1.4434787607067168,0.1189030053156862,0.0717872966051358,0.0255475061140753,-0.7154799479765444,-0.3451504259587633,-0.8216668316418964,0.1773311649393913,0.4268427866146493,1.4499750225571415,-0.9463332090140356,-0.3727416814411139,-1.025152485674109,1.4394893300050238,-0.095402564781799,-1.2478710130392978,0.7112283857156176,11.48941701556214,-0.9774651141011248,0.0448217783468378,-0.9917453032074794
2.14,0.1585615094582891,0.4108882735881923,1.4279940277665608,0.1114958349109344,0.0673902601924623,0.023545038575372,-0.7181247842173808,-0.3667308103835885,-0.8089786736832644,0.1592045007710315,0.4201879529977479,1.4296901957448849,-0.986333209610082,-0.4127416820371604,-1.0360636307353634,1.2586674531496371,-0.1322418120418222,-1.079019221241262,0.6344078979315992,11.272768772876589,-0.9831006217530616,0.0507787133660281,-0.9860376698491076
2.16,0.1441498961319632,0.4033270267184179,1.4119488532081048,0.1039249079314083,0.0615842285115552,0.0213915300048803,-0.7232428376504063,-0.387998578422757,-0.7962087106727121,0.1400778365877706,0.4125331193659454,1.4091325903060965,-1.0263332102061284,-0.4527416826332068,-1.046974775796618,1.2664758027712713,-0.2559026716512758,-1.063388401958426,0.638498150527611,11.20521022783396,-0.9892267186286408,0.0561146396265535,-0.9801391798183632
2.18,0.1296036589647258,0.3953570215453696,1.3961504124487174,0.096472117294491,0.0554517211326169,0.0192908395087356,-0.7313098241680579,-0.4076419226855085,-0.7842310987457369,0.1199511723896085,0.4038782857192418,1.3883022062407764,-1.0663332108021748,-0.4927416832292532,-1.0578859208578726,1.219016440387663,-0.4033493258825793,-0.9821672131375748,0.5988805963487609,11.158975914167968,-0.996143263229392,0.061493081149179,-0.9731869912929636
2.2,0.1148675219084184,0.3870135191223723,1.380582528454208,0.0891685480527215,0.0497796238247604,0.0173238569988878,-0.7420399580102822,-0.425467905588425,-0.7731230772296794,0.0930381677563229,0.3749749254110942,1.3569388575114305,-0.791019533305736,-0.5076419241756247,-0.7378712430640791,1.179289596248857,-0.536506692111216,-0.8912991451458269,0.5554010758028749,11.105707630780673,-1.0023799713461496,0.0664668312178093,-0.966829887330516
2.22,0.1005528076876444,0.3787724595064906,1.3662527511196718,0.0831806504700835,0.0488767710764839,0.0159724417105111,-0.7634276414821253,-0.4414075482675308,-0.7357985029470817,0.0930381677563229,0.3749749254110942,1.3569388575114305,-0.791019533305736,-0.5076419241756247,-0.7378712430640791,2.293811815737329,-1.0693841735921528,-0.7969821339552874,1.866228714129886,11.047849307951765,-1.0046811808497174,0.0691378607953399,-0.9666594037737152
2.24,0.0850932837833757,0.3697707759793213,1.3519409148956452,0.0778953676718341,0.0548406614890635,0.0152125052224231,-0.7805573363527211,-0.4578306574130436,-0.6975150281350292,0.0930381677563229,0.3749749254110942,1.3569388575114305,-0.791019533305736,-0.5076419241756247,-0.7378712430640791,2.2520931397536605,-0.8564847435297895,-0.821155457275638,1.914173740602626,12.860954275083714,-1.0047304458618576,0.0757467839620411,-0.9632129086114388
2.26,0.0693562273788326,0.3604578121760931,1.3383493398448365,0.0732898561698237,0.0646785781808278,0.014790060559323,-0.7916617005067043,-0.4726504973788963,-0.6635198800601784,0.0851279724232655,0.369898506169338,1.3495601450807897,-0.8029614751332717,-0.5276419244736479,-0.7285992719277475,1.9355907706103503,-0.5552182076991596,-0.7409919982926394,1.6997574037425411,12.860954275083714,-0.9999783755085152,0.0810032572966086,-0.9654997462495528
2.28,0.0542470045148196,0.3513505932732733,1.326028385377327,0.0695258590154946,0.0756835002567892,0.0145337509284735,-0.7977783044903746,-0.4853159170148244,-0.6351194944487687,0.0693075817571508,0.3597456676858255,1.334802720219508,-0.826845358788343,-0.5676419250696944,-0.7100553296550844,1.5846195140505892,-0.3058301991835155,-0.633270981796405,1.4200192805704837,12.18741183262864,-0.9918914887842604,0.0854399912388435,-0.9716960772458102
2.3000000000000003,0.0382582775902124,0.3415172515904487,1.3136092708916602,0.0662496082330727,0.0878876517966905,0.0143362492541208,-0.8003348308226235,-0.4973991726108432,-0.6084508713928429,0.0534871910910361,0.349592829202313,1.3200452953582265,-0.8507292424434142,-0.6076419256657408,-0.6915113873824213,1.4694866011512806,-0.1278263166124449,-0.6041627798009402,1.3334311527962883,12.18741183262864,-0.9817902318627416,0.0886386762673705,-0.9805694020661524
2.32,0.022261472169777,0.3314532112244341,1.3016861844638956,0.0637069379642266,0.0998688735825381,0.0141635580891253,-0.7988983524000937,-0.5085375514656219,-0.585218877960418,0.0364726062421678,0.3374399906889981,1.3062150676105782,-0.8746131260984854,-0.6476419262617873,-0.6729674451097583,1.2902058678900872,0.0718239211264903,-0.5569189427389293,1.161599671621244,11.962062685796807,-0.971383090791317,0.0911408703401468,-0.9896836153548856
2.34,0.0063374823389256,0.3211730933617726,1.2902100144445214,0.0618345998051144,0.1107076079747507,0.013962795938809,-0.7934202258650895,-0.519064031574528,-0.5636026631967481,0.0194580213932995,0.3252871521756834,1.2923848398629296,-0.8984970097535567,-0.6876419268578338,-0.654423502837095,1.2329612671590844,0.2739063267502062,-0.5263240054453056,1.0808107381834964,11.756417299568056,-0.9626816841565304,0.0930403175964452,-0.9970133178014376
2.36,-0.0086601068678572,0.3112089662792305,1.2796966830442034,0.060405476359418,0.1193515782334321,0.0137000381872065,-0.7855088214569641,-0.5292343999555607,-0.5441731397286166,0.0018463394530544,0.3121343136474674,1.2790182106720978,-0.922380893408628,-0.7276419274538801,-0.635879560564432,1.1656898117782988,0.3955702204062716,-0.5085184190516345,0.9714761734065768,11.671661256249536,-0.95431645232564,0.094483090415176,-1.0040958884428517
2.38,-0.0242628863929609,0.3005144254855961,1.269022250952354,0.0590783355019994,0.1264631929470788,0.0133267647773184,-0.7751434721723475,-0.5396430357539239,-0.5243334261524166,-0.0163624395785673,0.2979814751043503,1.2661151800380823,-0.9462647770636992,-0.7676419280499266,-0.6173356182917689,1.234295750378252,0.5182674642308316,-0.5204317899181632,0.991985678809998,11.61889709967545,-0.947461475300213,0.0956940363130369,-1.0097260921175517
2.4,-0.0396421791543422,0.2896141999941618,1.2587379557300766,0.0578829609773824,0.1314371273137551,0.0128513376406697,-0.7633429514392225,-0.5498127064286905,-0.5051233499261764,-0.0630200600015783,0.2735322736978999,1.242805579644733,-0.7832883556112923,-0.63964303724404,-0.4331074518906559,1.2366300172485725,0.5900260366562493,-0.5084835337383298,0.9605038113120136,11.597821025165103,-0.9425276325944436,0.096625003516383,-1.0136648599043578
2.42,-0.0548359843594919,0.2784658775413519,1.2488521986753982,0.0553199953427774,0.136316739055314,0.0122894809407286,-0.7564071539454619,-0.5637257091155996,-0.4842819418717174,-0.0630200600015783,0.2735322736978999,1.242805579644733,-0.7832883556112923,-0.63964303724404,-0.4331074518906559,1.300039634331257,0.3467898746880304,-0.6956501343454546,1.0420704027229444,11.734367595116964,-0.9345500108035956,0.0975676607479197,-1.0215237921058578
2.44,-0.0691118840818834,0.2676602690775405,1.2398671627830506,0.0518393270120089,0.1421351174037691,0.0117548367191436,-0.746432580162897,-0.5729277343373359,-0.4625817641597841,-0.0630200600015783,0.2735322736978999,1.242805579644733,-0.7832883556112923,-0.63964303724404,-0.4331074518906559,1.2797139358610472,0.4987286891282416,-0.4601012610868149,1.0850088855966666,11.836335889842305,-0.9300892427229832,0.1014140160889617,-1.0241925054419367
2.46,-0.0839002217105241,0.2561226446136426,1.2308660173422528,0.0485740374290344,0.1481786233665376,0.0112199183550299,-0.7327451287915363,-0.5804417503195857,-0.438655375491201,-0.0708529435576912,0.2671358433254595,1.2384745051258266,-0.7849173322990812,-0.6596430375420632,-0.4148622570383037,1.4285296951279762,0.6843725685680369,-0.3757007991124883,1.196319433429155,11.836335889842305,-0.9250024225498952,0.1050383123283185,-1.027249166290776
2.48,-0.0983845632597537,0.2444478732077081,1.222351254915051,0.0462088356432617,0.1532364944035217,0.0107094220111187,-0.7163868498661903,-0.5869151231879293,-0.4140554013677955,-0.0865187106699171,0.2543429825805787,1.2298123560880134,-0.7881752856746592,-0.6996430381381097,-0.3783718673335995,1.5121644855671694,0.8179139462673013,-0.3236686434171798,1.2299987061702766,11.911055272507838,-0.920435141219804,0.1076477874026084,-1.0299969847028652
2.5,-0.1118226795011761,0.2332435531264984,1.2147240901995136,0.0449086064466634,0.1566063716511382,0.0102390891026915,-0.699073306428383,-0.5923531470577271,-0.3900533582058839,-0.1021844777821429,0.2415501218356979,1.2211502070502005,-0.7914332390502371,-0.7396430387341562,-0.3418814776288952,1.504517336164327,0.8656771718903666,-0.2719011934898929,1.200102158095581,12.015998480399505,-0.9165298962160726,0.1094006737074732,-1.0322118305835672
2.52,-0.1256016495013081,0.2213444140219731,1.2071982035073776,0.0448067961251912,0.158381035380474,0.0097729553118712,-0.6798335577834534,-0.5974086255734206,-0.3637537169799248,-0.1180131425631477,0.2267572610610148,1.2143125774976224,-0.794691192425815,-0.7796430393302026,-0.3053910879241909,1.6487850978499825,0.961987432246475,-0.2527739257846717,1.3149820612979537,12.015998480399505,-0.9141605902064524,0.1099209651405446,-1.0331703301898605
2.54,-0.1389886026767173,0.2093469776137587,1.2002103089100282,0.0463281851418494,0.1582072927061584,0.0093532223959671,-0.6599176927635514,-0.6022608448447454,-0.3363024089634656,-0.1338418073441524,0.2119644002863316,1.2074749479450446,-0.797949145801393,-0.8196430399262491,-0.2689006982194866,1.7130090653310115,0.9957932509951029,-0.2426109635662421,1.3725654008229586,12.097143477134525,-0.9141115158640338,0.1091479419544448,-1.0321043754198838
2.56,-0.1519720005221947,0.1972361935133781,1.1937862985683572,0.0492600931077996,0.1558267909111648,0.0089428636921835,-0.6396118651627286,-0.608955535240027,-0.3074716179439681,-0.1497519209595466,0.1961715394967473,1.2015495781350842,-0.8012070991769709,-0.8596430405222955,-0.2324103085147823,1.7946866194777231,1.015291380041139,-0.3347345197640794,1.4415395509748767,12.17601358619686,-0.9166986499816098,0.1070342280782865,-1.028756126013867
2.58,-0.1639313822125186,0.1855780174631244,1.1882322103984393,0.0522617437943324,0.1512897121348968,0.0084584938045654,-0.620538627035731,-0.6178817202696364,-0.2785763129737326,-0.1657434834093302,0.1793786786922619,1.1965364680677415,-0.8044650525525489,-0.8996430411183419,-0.1959199188100781,1.7877386841726155,0.9536619063498786,-0.44630925148047,1.4447652485117757,12.26437203615933,-0.9228996973010278,0.1050832388610384,-1.0217331227855853
2.6,-0.1761504231509278,0.1731071715328789,1.1829981220740295,0.0549596233867941,0.144338695062297,0.007799045862932,-0.6028275737177037,-0.6286796949100074,-0.2462233435494123,-0.1949583135643051,0.1546839314496426,1.1743033947497528,-0.5820201088262736,-0.696062919999079,-0.1785763114836164,1.9215828739213296,0.8855526659013679,-0.5398987320185511,1.6176484712160113,12.368764978498804,-0.9307631781848016,0.1035680668422109,-1.0130692967701822
2.62,-0.1882116605235917,0.1602650924233151,1.1782025585035856,0.0519389323018361,0.1403570291852331,0.0069151342692159,-0.6037204688937303,-0.6522391207223689,-0.2348349380526045,-0.1949583135643051,0.1546839314496426,1.1743033947497528,-0.5820201088262736,-0.696062919999079,-0.1785763114836164,1.309140544558967,-0.0446447588013321,-1.177971290618074,0.5694202748403931,12.490429751953345,-0.92468507187629,0.104030134391149,-1.020098838790186
2.64,-0.200258368151242,0.147087241956331,1.1736667184551968,0.0436334924073079,0.142498387525023,0.0060140019346581,-0.6002322949162633,-0.6635133335131587,-0.2192296256377812,-0.1949583135643051,0.1546839314496426,1.1743033947497528,-0.5820201088262736,-0.696062919999079,-0.1785763114836164,0.978265055229568,0.1744086988733517,-0.5637106395394886,0.7802656207411648,11.414099253534005,-0.927003865879091,0.112261640377385,-1.0159296857793465
