t,x,y,z,roll,pitch,yaw,v_x,v_y,v_z,ref_x,ref_y,ref_z,ref_v_x,ref_v_y,ref_v_z,a_com,a_x,a_y,a_z,thrust,wind_x,wind_y,wind_z
0.0,1.2404515559059852,-0.535981110185514,2.666920262139273,0.0208289690896946,0.0994436892788187,0.0414826432212186,6.977482130521976e-05,0.000650476513374,-0.0003497004628043,1.2404606375261142,-0.5360622991341161,2.6669072328365684,-0.0997579158136484,0.0981690471726388,-0.1004123999481148,0.0370903839904969,0.0034887410652609,0.0325238256687034,-0.0174850231402152,10.258231196366978,-0.9409686291524052,0.260223292409761,-0.8771850282514045
0.02,1.240632200191402,-0.5362414984848071,2.6667924944983765,0.0113240549285785,0.0936393033838743,0.0407507866782486,0.0162765170631745,-0.0201787120840147,-0.0121707716014984,1.2404606375261142,-0.5360622991341161,2.6669072328365684,-0.0997579158136484,0.0981690471726388,-0.1004123999481148,1.4459005105694966,0.8103371120934671,-1.041459429869442,-0.591053556934706,10.25746835472546,-0.9468018914381024,0.2614255774224646,-0.8769596656084414
0.04,1.2410428003896865,-0.5366221573625226,2.6663966121773672,-0.0042376298705386,0.0790636532054178,0.0396873313393466,0.0247814694394825,-0.0183417322277352,-0.0288225764502612,1.2404606375261142,-0.5360622991341161,2.6669072328365684,-0.0997579158136484,0.0981690471726388,-0.1004123999481148,0.9394031544509052,0.4252476188154013,0.091848992813975,-0.8325902424381401,9.63599666916025,-0.952594956671993,0.276766789552666,-0.8626043384369917
0.06,1.2415350142604489,-0.5369059650022067,2.665617760995832,-0.0210102231216477,0.0579720611165967,0.0389282203897199,0.0229325909018499,-0.0097682873035245,-0.0482540644179468,1.2394630583679778,-0.5350806086623897,2.665903108837087,-0.1197579161116716,0.118169047470662,-0.120412400246138,1.0659561838482188,-0.0924439268816334,0.4286722462105371,-0.9715743983842788,9.24245495667128,-0.9633170443868464,0.2900583676425468,-0.8456360162043179
0.08,1.2418805323895514,-0.536980848480627,2.6644374057792275,-0.0371161302032002,0.0349771973884222,0.038691251357298,0.0110660897791316,0.0021706956527526,-0.0688279456972508,1.2374679000517048,-0.5331172277189369,2.6638948608381248,-0.1597579167077181,0.1581690480667085,-0.1604124008421844,1.329132944649113,-0.5933250561359122,0.5969491478138614,-1.028694063965202,9.070900976235407,-0.9766718424859848,0.3006752732280918,-0.8278960881610431
0.1,1.2419065282873225,-0.5368052100857065,2.6629283501355343,-0.0516866043415385,0.0140937886770735,0.0388772704435309,-0.0080073851148374,0.0159877014861801,-0.0890341124426704,1.235472741735432,-0.5311538467754842,2.6618866128391625,-0.1997579173037645,0.1981690486627549,-0.2004124014382309,1.5516090593924918,-0.9536737446984564,0.6908502916713735,-1.0103083372709811,9.070900976235407,-0.9919499594307506,0.3099559562021028,-0.8093747786928637
0.12,1.2414782431270168,-0.5363114586746454,2.660917449058096,-0.0662852699283938,-0.0050832434722765,0.039346202276882,-0.0340745886875542,0.0329535108364678,-0.1110603883675707,1.2314775833893563,-0.5271904658022291,2.657878364810398,-0.239757917899811,0.2381690492588014,-0.2404124020342773,1.905580370996988,-1.3033601786358378,0.8482904675143841,-1.1013137962450132,9.070465427442286,-1.006093981966644,0.3175458465279505,-0.7936419558339827
0.14,1.240476856378308,-0.5354361204510667,2.6584559854254,-0.0796161432210001,-0.0203520975461336,0.0399470996721484,-0.0648041342632505,0.0537098827203109,-0.134030380037652,1.2274824250432812,-0.523227084828974,2.653870116781633,-0.2797579184958575,0.2781690498548479,-0.2804124026303238,2.181027545901701,-1.536477278784818,1.0378185941921565,-1.148499583504066,9.075066386933486,-1.0178440688426598,0.3237239316076944,-0.7816810250321875
0.16,1.2388179918701767,-0.5341038068630707,2.655525841925803,-0.0907093839301134,-0.0309452643233551,0.0405383911333658,-0.0993077347207316,0.0779413780109778,-0.1578137788347949,1.2224872666823048,-0.5182637038408177,2.6488618687379675,-0.3197579190919039,0.3181690504508943,-0.3204124032263702,2.4203893627343507,-1.7251800228740553,1.2115747645333443,-1.1891699398571431,9.097262919413424,-1.02547927204699,0.3279749471097608,-0.7756584840896631
0.18,1.236575256544075,-0.5323721972554621,2.652296173458732,-0.0988920280544439,-0.0360496279274455,0.0409180742225601,-0.1348782363113001,0.1025736466953678,-0.1809303413662138,1.2164921083064273,-0.5123003228377603,2.642853620679401,-0.3597579196879503,0.3581690510469407,-0.3604124038224167,2.452745760985843,-1.7785250795284215,1.2316134342194969,-1.1558281265709458,9.097262919413424,-1.0294819497792305,0.3305694330574065,-0.7758271215907538
0.2,1.2334847524025283,-0.5300399370091002,2.648419185694854,-0.1052976096495172,-0.0359609352614866,0.0409676968252291,-0.1717197261078924,0.1290423952975586,-0.2054669141626235,1.22983134472851,-0.5272435149206938,2.643249656390421,-0.2348782378014162,0.2025736481854839,-0.2809303428563299,2.578727121852907,-1.8420744898296173,1.3234374301095426,-1.2268286398204846,9.12300666987312,-1.030713330687404,0.3307982503561265,-0.7818720920725096
0.22,1.229630596190192,-0.5270260847727953,2.644260388131815,-0.1057839055677263,-0.0302162830707702,0.0408359686973031,-0.2111652330727034,0.1695749471290445,-0.2077107120912193,1.22983134472851,-0.5272435149206938,2.643249656390421,-0.2348782378014162,0.2025736481854839,-0.2809303428563299,2.8301371021681145,-1.9722753482405475,2.0266275915742966,-0.1121898964297929,9.112772840882371,-1.0338868667257726,0.3278358403088732,-0.7836997075007471
0.24,1.2250405852619572,-0.5232855896786167,2.640086931164557,-0.0998595831144047,-0.0193722202986875,0.0406425307684064,-0.2450016909556993,0.2010496582174774,-0.2093867080102755,1.22983134472851,-0.5272435149206938,2.643249656390421,-0.2348782378014162,0.2025736481854839,-0.2809303428563299,2.312126879351977,-1.691822894149794,1.573735554421643,-0.0837997959528061,10.61165196307411,-1.031089621808406,0.323509404997977,-0.7895361878515565
0.26,1.2201123187844995,-0.5192228641891011,2.6360574979912865,-0.0927140497272951,-0.0065054828704942,0.0403818172890811,-0.2715340394580043,0.2247715136735625,-0.2145900547273916,1.227482562350496,-0.5252177784388389,2.6404403529618583,-0.2548782380994394,0.2225736484835071,-0.3009303431543532,1.7984484704778754,-1.3266174251152507,1.1860927728042536,-0.2601673358558085,10.319548270037558,-1.024995263018229,0.3182788579253775,-0.7993388023652999
0.28,1.21443861834179,-0.5145015421680479,2.6316714903230944,-0.0854228481795654,0.0079761409212226,0.0401022957871272,-0.2939621010412913,0.2460703978907753,-0.2239237246038699,1.2227849975944676,-0.5211663054751292,2.6348217461047314,-0.2948782386954859,0.2625736490795535,-0.3409303437503996,1.6153775167472686,-1.1214030791643486,1.064944210860641,-0.4666834938239148,10.00880147071348,-1.016224497720671,0.3129392948514307,-0.8129347740220036
0.3,1.2083692264004124,-0.509379460936291,2.6270527819040383,-0.0790717544667329,0.0220177310271893,0.0398880019821058,-0.3115869174089168,0.2652222901294739,-0.2374913855696043,1.2180874328384392,-0.5171148325114195,2.629203139247605,-0.3348782392915324,0.3025736496756,-0.380930344346446,1.4675750001246597,-0.8812408183812764,0.957594611934931,-0.6783830482867195,9.737986522418396,-1.0062644038849051,0.3083078343184762,-0.8276998345915825
0.32,1.2019895116482184,-0.5038894328342236,2.622125183615305,-0.0737881984953922,0.0346793229217941,0.0397812377373465,-0.3253664351280134,0.2830055812047237,-0.2546336218207131,1.2113898680526085,-0.5110633595179076,2.621584532360676,-0.3748782398875788,0.3425736502716464,-0.4209303449424925,1.4141930682608204,-0.688975885954829,0.8891645537624893,-0.8571118125554361,9.319102311097597,-0.9952235753958368,0.3040262388122099,-0.8434882216977364
0.34,1.195703200587816,-0.4983533416024406,2.617105839050251,-0.0697360048062261,0.0448935032803613,0.0397929418826909,-0.3356429556808465,0.29903319326609,-0.2729068699064663,1.2046923032667778,-0.5050118865243955,2.6139659254737477,-0.4148782404836253,0.3825736508676929,-0.460930345538539,1.3194722606651714,-0.513826027641659,0.8013806030683163,-0.9136624042876628,9.220414901797994,-0.9848208454376094,0.3003025709229113,-0.8581692430522811
0.36,1.1888923045927862,-0.4921951643980893,2.6114287161133047,-0.0661537474701207,0.0536034603247021,0.0399302306108803,-0.3448495124286186,0.3159277987800888,-0.2939475466882553,1.196994738466046,-0.4979604135159824,2.605347318571917,-0.4548782410796717,0.4225736514637394,-0.5009303461345854,1.4255687128820724,-0.4603278373886049,0.844730275699937,-1.05203383908945,9.137716576346977,-0.9750421757814448,0.2970108080084961,-0.8717681552165811
0.38,1.181910222004599,-0.48570125183585,2.6053134025219125,-0.0629005204739736,0.0603759323959105,0.0401914096159668,-0.3529208647381797,0.3325499771383832,-0.3165546373947851,1.188297173650413,-0.4899089404926681,2.5957287116551857,-0.4948782416757181,0.4625736520597857,-0.5409303467306318,1.459900760063226,-0.4035676154780537,0.8311089179147219,-1.1303545353264888,9.137716576346977,-0.966794448311766,0.2940475279928773,-0.8832666473491495
0.4,1.1747740564269324,-0.4788800167439627,2.598732538985272,-0.0598030242165669,0.0654909155702828,0.0405562243742298,-0.3603226476521289,0.3486547548768337,-0.3404188698714012,1.16426417876769,-0.4690737529789309,2.589485670652173,-0.4529208662282958,0.4325499786284993,-0.4165546388849012,1.486314105436747,-0.3700891456974581,0.8052388869225213,-1.1932116238308033,9.07439269180668,-0.9598127695982048,0.2910782186825424,-0.8931459716737177
0.42,1.1678939141748552,-0.4720957167444597,2.5923107890114285,-0.0571601237618214,0.068579778359684,0.0409904090910792,-0.3637187935625244,0.3647319005344281,-0.3343714800283457,1.16426417876769,-0.4690737529789309,2.589485670652173,-0.4529208662282958,0.4325499786284993,-0.4165546388849012,0.8754703642244183,-0.1698072955197749,0.8038572828797219,0.3023694921527736,9.020319508004832,-0.965386503157548,0.2881888243017576,-0.8890286336335966
0.44,1.160585415585218,-0.4646426016528259,2.585648185162261,-0.0551843507722487,0.0696490152587089,0.0415118736791835,-0.367098665467688,0.3799058344995137,-0.3326263400968435,1.16426417876769,-0.4690737529789309,2.589485670652173,-0.4529208662282958,0.4325499786284993,-0.4165546388849012,0.7821721668734706,-0.1689935952581822,0.7586966982542798,0.0872569965751079,10.75666632975026,-0.9635880577374396,0.2883919607377839,-0.8891293346431829
0.46,1.1532029667953456,-0.4568884475716042,2.578948430377777,-0.0541350032493747,0.068546737999,0.04208038179347,-0.3711301353467034,0.3948390904882063,-0.3374064909369138,1.159734970105407,-0.4647482531926459,2.5853201242633244,-0.4729208665263191,0.4525499789265226,-0.4365546391829245,0.8094824362873112,-0.2015734939507685,0.7466627994346303,-0.2390075420035137,10.35039703995244,-0.9630055992038422,0.2888034465491743,-0.8885978077392216
0.48,1.1461066502030546,-0.4492489920687637,2.5724500232989858,-0.0538743963511921,0.0656228545002139,0.0426629000788437,-0.3757891873146246,0.4086296618271628,-0.3463803105073237,1.1506765527808411,-0.4560972536200759,2.5769890314856263,-0.5129208671223655,0.492549979522569,-0.4765546397789709,0.8550088607390453,-0.2329525983960606,0.6895285669478279,-0.448690978520494,10.010109045959323,-0.9644004222569148,0.2894598848647338,-0.8863126643172261
0.5,1.1385279047386574,-0.4409287213482519,2.5653898338970005,-0.0544597274799099,0.0607259128142581,0.0433093944491327,-0.3821477763027799,0.4227210208730609,-0.3593206515837567,1.141618135456275,-0.4474462540475059,2.568657938707928,-0.552920867718412,0.5325499801186155,-0.5165546403750174,1.0080308537628258,-0.3179294494077667,0.7045679522949044,-0.6470170538216524,9.757584086113638,-0.9670431340926386,0.2905082487326318,-0.8829719682035649
0.52,1.1307936278928004,-0.4323272450698322,2.5580408001799064,-0.0559856752974637,0.0546335695795171,0.0439577837267167,-0.3912393527284994,0.436786308769686,-0.3750393219134859,1.130559718101907,-0.4367952544451336,2.558326845900428,-0.5929208683144584,0.572549980714662,-0.5565546409710639,1.148439900968216,-0.4545788212859725,0.7032643948312545,-0.7859335164864589,9.56127604705489,-0.9707703751576524,0.2919471801340887,-0.8786330515384093
0.54,1.1228499368776246,-0.4234403718060177,2.550365311614636,-0.0583697650974632,0.0482290176614783,0.0445747441413805,-0.4028604063889213,0.451442543890998,-0.3917174212437507,1.1195013007475385,-0.4261442548427613,2.547995753092928,-0.6329208689105049,0.6125499813107085,-0.5965546415671104,1.253009490566375,-0.5810526830210966,0.7328117560655989,-0.8339049665132381,9.421059710966802,-0.9761500382898376,0.2939667020354521,-0.8724033633277362
0.56,1.1150620087995395,-0.4147033909835696,2.542759528207718,-0.0606495898159858,0.0425758048944789,0.0451484764732163,-0.4163973300779493,0.4673830880112317,-0.408043261489447,1.1074428833782692,-0.4144932552254878,2.536664660270526,-0.6729208695065513,0.6525499819067548,-0.6365546421631567,1.3265390208543442,-0.676846184451399,0.7970272060116856,-0.8162920122848139,9.385874777202844,-0.9815737839650892,0.2960484995643183,-0.8659582384571431
0.58,1.1065636478776044,-0.405171407094985,2.5344111370184743,-0.0624575929597182,0.0377873737027841,0.0457326091759981,-0.4328727420266302,0.4848411902756049,-0.425961582471922,1.0943844659940989,-0.4018422555933132,2.5243335674332235,-0.7129208701025977,0.6925499825028013,-0.6765546427592032,1.497740598687782,-0.8237705974340453,0.8729051132186583,-0.8959160491237517,9.370641859467469,-0.9860127202200968,0.2975819445687975,-0.8608108986442254
0.6,1.0977095564308958,-0.3952822111222887,2.525695502727467,-0.0633434049613169,0.0350743990242166,0.046252717752663,-0.4517334357115075,0.5030201315302477,-0.4446891455476728,1.0849200107762729,-0.3809293475812048,2.5131130578948784,-0.5328727435167464,0.584841191765721,-0.5259615839620382,1.6100631122496003,-0.9430346842438624,0.9089470627321404,-0.93637815378754,9.338698855453003,-0.9889082365089884,0.298357035577002,-0.8576048200001458
0.62,1.0884373514557115,-0.3849643111780518,2.516914355095014,-0.0616381414881307,0.0362753826479353,0.0466997323859445,-0.4737506704251121,0.5271512005867947,-0.4323511097281295,1.0849200107762729,-0.3809293475812048,2.5131130578948784,-0.5328727435167464,0.584841191765721,-0.5259615839620382,1.745919704718782,-1.1008617356802337,1.206553452827347,0.6169017909771618,9.312496506729984,-0.999566982836848,0.2972904110449224,-0.8454849547568448
0.64,1.0792522127682072,-0.3747515389058471,2.5087740591915666,-0.0575124053792971,0.0410250231026576,0.0470751800873422,-0.4915247219268437,0.546061366453787,-0.4251425031837912,1.0849200107762729,-0.3809293475812048,2.5131130578948784,-0.5328727435167464,0.584841191765721,-0.5259615839620382,1.346732423511112,-0.8887025750865779,0.9455082933496172,0.3604303272169151,11.202596091869054,-0.9989309779072107,0.2959759119682378,-0.8444474284598475
0.66,1.0692563209859829,-0.3636570856109457,2.5002881008108435,-0.0526327922404427,0.048196544095813,0.0473968905131979,-0.5067476390706942,0.5622620645058802,-0.4241203910136286,1.0795912833411054,-0.3750809356635476,2.507853442055258,-0.5528727438147696,0.6048411920637442,-0.5459615842600614,1.1127045171922658,-0.7611458571925245,0.8100349026046616,0.051105608508134,10.727518022074946,-0.9948379799409048,0.2936816369620609,-0.8485907597479369
0.68,1.0589899209942732,-0.3522619491641967,2.491749536710985,-0.0480820484958093,0.0563257146303462,0.0476672734535722,-0.5188450404465852,0.5764784793899383,-0.4297525790106835,1.0689338284707703,-0.3633841118282332,2.497334210376017,-0.592872744410816,0.6448411926597907,-0.5859615848561078,0.9749039873742024,-0.6048700687945496,0.7108207442029058,-0.2816093998527447,10.291513478378874,-0.9888173433413816,0.2911837958128493,-0.8557544774515802
0.7000000000000001,1.0490395603911091,-0.3411858725230015,2.483483592545188,-0.0443166464903278,0.0640677352625733,0.0479038363970981,-0.5278003194597697,0.5888042485785447,-0.4400668265907588,1.0582763736004357,-0.3516872879929187,2.4868149786967764,-0.6328727450068625,0.6848411932558371,-0.6259615854521543,0.9199256918874916,-0.4477639506592246,0.6162884594303197,-0.5157123790037688,9.92915938909664,-0.9819137469823632,0.2886425446965821,-0.8642009738675419
0.72,1.0384051062491155,-0.3292833247315634,2.4745281837652597,-0.0410378564626897,0.0715922183483872,0.0481475240663483,-0.5350419837122211,0.6008813450770154,-0.4551364239932299,1.0456189187002982,-0.337990464127802,2.474295746987733,-0.672872745602909,0.7248411938518836,-0.6659615860482008,1.031250123455953,-0.3620832126225715,0.6038548249235332,-0.7534798701235523,9.644110238697069,-0.9745980765919722,0.2862099331908612,-0.8734114424667155
0.74,1.0276457746351737,-0.3171447320473177,2.46524400016591,-0.0384582679820468,0.0780335837193104,0.0483943479509278,-0.5404632200223408,0.6124613134238078,-0.472626736813555,1.032961463800161,-0.3242936402626852,2.4617765152786903,-0.7128727461989555,0.7648411944479301,-0.7059615866442472,1.083278025942213,-0.2710618155059852,0.5789984173396212,-0.8745156410162547,9.305169718138131,-0.967887463113028,0.2839834010840467,-0.8821124532155752
0.76,1.0167883531755832,-0.3047694086155734,2.45558992521003,-0.0362176632526333,0.0832628488469165,0.0486649472661658,-0.5449933590122872,0.6244149894481092,-0.4919130137825908,1.0193040088851226,-0.3095968163826673,2.448257283554746,-0.7528727467950018,0.8048411950439764,-0.7459615872402936,1.1569064451032234,-0.2265069494973182,0.5976838012150709,-0.9643138484517894,9.305169718138131,-0.9619770195173812,0.2820059210662738,-0.8897974792378842
0.78,1.0063957984474263,-0.2927924318089837,2.4460474441585403,-0.0340939860306441,0.0872371631980293,0.0489549298473576,-0.5487277151686388,0.635611658838606,-0.5116017098616317,1.0046465539551832,-0.2938999924877483,2.4337380518159004,-0.7928727473910483,0.8448411956400229,-0.7859615878363401,1.147775647323345,-0.1867178078175824,0.5598334695248397,-0.9844348039520444,9.22797122558768,-0.9564341857479476,0.2797881012779235,-0.8972269699857413
0.8,0.995383869105447,-0.2799606666130444,2.4355838837931225,-0.0318198882913507,0.0905172295074857,0.0492882028771842,-0.5522568423936917,0.6468845154616143,-0.5337904529120009,0.9789594126889944,-0.2610118488670533,2.4204673586654586,-0.648727716658755,0.6520017496468784,-0.6116017113517478,1.2568535650273849,-0.1764563612526415,0.5636428311504127,-1.109437152518461,9.160946675328889,-0.9516254279290814,0.2775028494027055,-0.9038124848157276
0.8200000000000001,0.9843213214306524,-0.2666510261226102,2.4249693686824365,-0.0215864030199063,0.0929362479105072,0.0501956719883352,-0.5534459947853203,0.6791339557785225,-0.5247417456733591,0.9789594126889944,-0.2610118488670533,2.4204673586654586,-0.648727716658755,0.6520017496468784,-0.6116017113517478,1.675798009050458,-0.0594576195814322,1.612472015845412,0.4524353619320909,9.087079741566413,-0.9551817304372976,0.2688367069533159,-0.9034611630651456
0.84,0.9732558322057112,-0.2529310940690111,2.414534878440596,-0.0045580597069012,0.0942952510392547,0.0515872123802526,-0.5531306129102079,0.6903729195626245,-0.5193263445176644,0.9789594126889944,-0.2610118488670533,2.4204673586654586,-0.648727716658755,0.6520017496468784,-0.6116017113517478,0.6239798521278634,0.0157690937556187,0.561948189205097,0.270770057784736,11.065679286236444,-0.9537082204491762,0.2575140282684249,-0.906057280371803
0.86,0.9627482601137932,-0.2397706648722617,2.4046419177658183,0.0119783486801892,0.0944892710543395,0.052910287987102,-0.5530427502744312,0.6939979030512187,-0.5223023184152877,0.9724721355224069,-0.2544918313705845,2.4143513415519413,-0.6687277169567781,0.6552797678085329,-0.631601711649771,0.2345455487463036,0.0043931317888379,0.1812491744297095,-0.1487986948811692,10.54322626638077,-0.9515503475157636,0.2439871740776697,-0.9109302309373846
0.88,0.9516855665739242,-0.2258863498612106,2.394101040096581,0.0287268193201538,0.0935321553059939,0.0541892823151627,-0.5532862492488007,0.6938513517059375,-0.5319215835828435,0.9594975811892316,-0.241451796377647,2.4021193073249063,-0.7087277175528246,0.6618358041318418,-0.6716017122458174,0.481173127395623,-0.0121749487184741,-0.0073275672640593,-0.4809632583777867,9.695128428703356,-0.9504448189639918,0.2300531078819052,-0.9154957327144844
0.9,0.9406149399866038,-0.2120391954672881,2.383304777661924,0.0446512430826484,0.0912182676427472,0.0552938989016141,-0.5538498123356296,0.6905108773548411,-0.5472127677714201,0.9465230268560566,-0.2284117613847094,2.3898872730978717,-0.7487277181488711,0.6683918404551508,-0.7116017128418639,0.7830975132959914,-0.0281781543414461,-0.1670237175548206,-0.7645592094288334,9.695128428703356,-0.9502883496727064,0.2167166131183875,-0.9193349472486796
0.92,0.9300831606300972,-0.1989775645090125,2.372726111856956,0.0588950836353544,0.0876161690196966,0.0561258075804306,-0.5548353022941558,0.6843584530915364,-0.5655717354989603,0.9315484724930791,-0.2150439245756064,2.375655238841034,-0.7887277187449175,0.6749478767784597,-0.7516017134379104,0.9693750703351596,-0.0492744979263104,-0.3076212131652323,-0.91794838637701,9.422022975691108,-0.9513300674452456,0.2026034585953909,-0.9226539887229142
0.94,0.9189691818867664,-0.1853992165208693,2.3611933371666227,0.0723686388127424,0.0822943386396321,0.0566877837799827,-0.5568289148130009,0.6738339636290848,-0.5868159440379738,0.9165739181301016,-0.2016760877665034,2.3614232045841965,-0.828727719340964,0.6815039131017686,-0.7916017140339568,1.1895963241470224,-0.0996806259422555,-0.5262244731225829,-1.0622104269506716,9.223075617831457,-0.9534623303149198,0.1887923113601023,-0.9254142131869192
0.96,0.9077888315334952,-0.1720639729660273,2.3492221054709765,0.0837762570063476,0.0760475243077374,0.056913275126792,-0.5613465829374076,0.6605030441985629,-0.6092294654106075,0.9005993637522232,-0.1881443500493176,2.346191170312458,-0.8687277199370104,0.6880599494250776,-0.8316017146300032,1.3233373327187368,-0.2258834062203341,-0.6665459715260946,-1.1206760686316874,9.141895493271477,-0.956712875433832,0.1767557367917926,-0.9268778720299296
0.98,0.8964936451433547,-0.1590167687504883,2.3367946054347795,0.0931673121942978,0.0697297979812372,0.0568757038917271,-0.5681024118297594,0.6452017788577334,-0.6323809159646311,0.8836248093594434,-0.1744487114240492,2.3299591360258187,-0.9087277205330568,0.6946159857483866,-0.8716017152260497,1.4280752849627727,-0.3377914446175911,-0.7650632670414714,-1.1575725277011784,9.08365096521311,-0.9611430628784676,0.1654482611107399,-0.9273147680920356
1.0,0.8856200241638716,-0.1469202339458109,2.3245541142591204,0.1003380644116487,0.0641823260818967,0.0566685756821716,-0.5762343139131757,0.6292031340853145,-0.6549098232547337,0.8680885245518668,-0.1267566798076016,2.305175559636548,-0.6681024133198755,0.6167725630837934,-0.7323809174547472,1.440170241442272,-0.4065951041708149,-0.7999322386209484,-1.1264453645051298,9.08365096521311,-0.9656493911036906,0.1556116844381602,-0.9274254061620844
1.02,0.8739565050907584,-0.1344806014677341,2.3114748814816024,0.1086216275078091,0.0607274013342004,0.0566673252760591,-0.5898939273503062,0.6143461365839253,-0.6505375379871633,0.8680885245518668,-0.1267566798076016,2.305175559636548,-0.6681024133198755,0.6167725630837934,-0.7323809174547472,1.0325118552214456,-0.6829806718565257,-0.7428498750694568,0.2186142633785193,9.068448295845885,-0.9738470246783384,0.1448485326728631,-0.9249470203021128
1.04,0.8620179176215502,-0.122397741826237,2.2984793186753887,0.1180303083539891,0.0615556203490492,0.0571550934253719,-0.6027059101181617,0.5943904508851715,-0.649402918150472,0.8680885245518668,-0.1267566798076016,2.305175559636548,-0.6681024133198755,0.6167725630837934,-0.7323809174547472,1.1870800903109766,-0.6405991383927723,-0.9977842849376916,0.0567309918345637,10.8199015588807,-0.975843118350606,0.1369419804794646,-0.9245556445888928
1.06,0.8498540859838001,-0.1107567424259538,2.2854370025467263,0.1265968183366217,0.0650696445447644,0.0578794054609167,-0.6127210795018723,0.5709568447085863,-0.6548448768839401,0.8614075004186681,-0.1205889541767637,2.2978517504620006,-0.6881024136178987,0.6110867199290053,-0.7523809177527704,1.3029317241134273,-0.5007584691855305,-1.171680308829259,-0.2720979366734044,10.428921398673992,-0.9738971902624924,0.1282096494571952,-0.9291626869306832
1.08,0.8406153653208567,-0.1023447376118561,2.275551768965749,0.1319250057642675,0.0686300697316394,0.0584588495502671,-0.6185303735030488,0.5520857854097206,-0.6628737197235677,0.8480454521522706,-0.1082535029150878,2.283204132112905,-0.7281024142139452,0.5997150336194293,-0.7923809183488169,1.0657474996415073,-0.2904647000588289,-0.943552964943284,-0.4014421419813785,10.06815268561786,-0.9704340966678006,0.1215437750966905,-0.9351740345053752
1.1,0.8281822937367483,-0.0915637328950727,2.262139901339153,0.1375571079281612,0.0736746929093566,0.0591633346026361,-0.6242349479595568,0.5274671191484117,-0.6779578934541904,0.834683403885873,-0.0959180516534119,2.2685565137638104,-0.7681024148099916,0.5883433473098533,-0.8323809189448633,1.471524035949773,-0.285228722825398,-1.2309333130654465,-0.7542086865311382,9.790288543666977,-0.964945068725682,0.1136887920293046,-0.9442780324788564
1.12,0.8156545017775445,-0.0812835280791231,2.248386800288131,0.1416734791219389,0.0783452662034515,0.0596988373468055,-0.6282301881260348,0.502175770709167,-0.6965494064765302,0.8193213555896732,-0.0841511847072149,2.251908895384913,-0.8081024154060381,0.5769716610002772,-0.8723809195409098,1.5821335328623145,-0.1997620083239004,-1.2645674219622371,-0.9295756511169871,9.550015003091175,-0.9593558229971414,0.1067960332371723,-0.9535283280149458
1.14,0.8036929124100061,-0.0719891867633332,2.2349652262655724,0.14421172900043,0.082040793878308,0.059987917484131,-0.6307184836171212,0.4777998728037922,-0.7152835237570957,0.8039593072934733,-0.0723843177610178,2.235261277006016,-0.8481024160020846,0.5655999746907012,-0.9123809201369564,1.5421925653320645,-0.1244147745543211,-1.2187948952687375,-0.9367058640282756,9.353579058138166,-0.954167299026921,0.1004004691372706,-0.962647868090721
1.16,0.7910564229107285,-0.0627091446807657,2.220445091568485,0.1454791323513684,0.0850377240198223,0.0600389552908556,-0.6328076247672318,0.451666917141233,-0.7357610890039576,0.7875972589823723,-0.0609017429725601,2.2176136586122173,-0.8881024165981309,0.5542282883811251,-0.9523809207330028,1.66329985333813,-0.1044570575055303,-1.3066477831279593,-1.0238782623430975,9.327291211581723,-0.949634045465328,0.0951058094451672,-0.97098803742585
1.18,0.7783829524538768,-0.053963701753209,2.2055091500441177,0.1448520898118362,0.0872071756038526,0.0598064103374392,-0.6344859676596001,0.42452339369962,-0.7567770069076409,0.7702352106563702,-0.0497034603418419,2.198966040203518,-0.9281024171941774,0.5428566020715492,-0.9923809213290492,1.7184706173107178,-0.0839171446184117,-1.3571761720806486,-1.0507958951841645,9.327291211581723,-0.9456147229573126,0.0912444648030373,-0.9787433663686196
1.2,0.7663144918374937,-0.0461644912123967,2.1909279095175904,0.142005728730941,0.088601513970266,0.0593027121945538,-0.6358557375661729,0.3983359750519803,-0.776977490700717,0.7466586540708968,-0.032737532068228,2.167670299698736,-0.6627479365255907,0.3918903498739937,-0.7919693847729554,1.655080595090485,-0.0684884953286391,-1.3093709323819869,-1.010024189653802,9.316723035805808,-0.9412686292644272,0.0889472506920827,-0.9870458993472638
1.22,0.7535230205685276,-0.0384850505891925,2.1754924148707278,0.1381085901228965,0.0922795039812479,0.0589900905116986,-0.6426579476891872,0.3708050130581548,-0.7637970629110782,0.7466586540708968,-0.032737532068228,2.167670299698736,-0.6627479365255907,0.3918903498739937,-0.7919693847729554,1.5636076934296748,-0.3401105061507148,-1.3765480996912771,0.6590213894819397,11.542314584839914,-0.9399293060415812,0.0873227433935871,-0.993433991930828
1.24,0.7406381592203969,-0.0313600121967364,2.1603601376525714,0.1342377429954651,0.0999506822807932,0.0591884607512378,-0.6449252150634397,0.3434037815081817,-0.7504322037887485,0.7466586540708968,-0.032737532068228,2.167670299698736,-0.6627479365255907,0.3918903498739937,-0.7919693847729554,1.528551153185026,-0.1133633687126267,-1.3700615774986546,0.6682429561164827,11.542314584839914,-0.9341692443016048,0.0900474074456342,-0.9992132793919238
1.26,0.7277512672108337,-0.0247743511978246,2.145447458905817,0.1297721055365477,0.1095368847267057,0.0595440465139579,-0.6432292672419739,0.3170442126747977,-0.741441633946335,0.740031174705641,-0.0288186285694881,2.159750605851006,-0.6684003302987889,0.3853637411088684,-0.7990078603460183,1.3951106176450292,0.0847973910732879,-1.3179784416691986,0.4495284921206766,10.992443885019384,-0.9258572277832186,0.0931567140845652,-1.0070929069640242
1.28,0.7155708454127028,-0.0189899152179723,2.131413957994795,0.1248658058207042,0.1193549716813483,0.059862534052603,-0.6387011662632144,0.2936056853817235,-0.736181953378295,0.7267762159751291,-0.0209808215720082,2.143911218155547,-0.6797051178451851,0.3723105235786179,-0.8130848114921441,1.222223895016627,0.2264050489379776,-1.1719263646537108,0.2629840284020024,10.992443885019384,-0.9149689238268526,0.0965976396328405,-1.0174941343799822
1.3,0.7028697782800483,-0.0133597606142242,2.1167231976835037,0.1191775278150104,0.1298188984471878,0.0601008113186419,-0.6313455662587916,0.2710025608853074,-0.7332820063245998,0.7135212572446172,-0.0131430145745283,2.128071830460088,-0.6910099053915814,0.3592573060483673,-0.8271617626382699,1.197305079480357,0.3677800002211406,-1.1301562248208052,0.1449973526847559,10.63093917236256,-0.9027561643713968,0.1002121967560006,-1.02908465384168
1.32,0.690340372500265,-0.0081615412612244,2.1020632682834304,0.1131162599812737,0.1400713997415941,0.060206043800586,-0.6216879092289936,0.2503197590664492,-0.7328479474973373,0.6997010591367856,-0.005957868453561,2.111528595207323,-0.7023146929379777,0.3462040885181167,-0.8412387137843957,1.1415308115080522,0.4828828514898964,-1.0341400909429088,0.0217029413631275,10.50692698340754,-0.8903951551960387,0.1037570898550974,-1.0406824535162529
1.34,0.6786383074499387,-0.0035888459338748,2.0881388598517843,0.1071896935690382,0.1494397175509374,0.0601766621994997,-0.6103751993305939,0.232321041210806,-0.73290845636294,0.685880861028954,0.0012272776674063,2.094985359954557,-0.7136194804843738,0.3331508709878662,-0.8553156649305215,1.0629380403099895,0.565635494919986,-0.8999358927821596,-0.0030254432801357,10.50692698340754,-0.8778251957937964,0.1078998630383903,-1.0520452104075422
1.36,0.6665797747038964,0.0008724559725841,2.0734772300582365,0.1008997946875348,0.1586352731579061,0.0599950586027161,-0.5958683842555758,0.2150060305738617,-0.7332782958330412,0.6717780432324624,0.0080860933501173,2.0780902009231386,-0.7249242680307701,0.3200976534576156,-0.8693926160766473,1.1295951246042883,0.7253407537509082,-0.865750531847212,-0.0184919735050581,10.49575545598418,-0.8658079731885261,0.1123750420135379,-1.0624419343703184
1.38,0.6548435942473172,0.0050046976104133,2.05880345962781,0.0946150338244526,0.166551151676269,0.059614654878817,-0.5783724806370354,0.1993118910111237,-0.7341130236271982,0.657392605747311,0.0146185785945721,2.060843118113067,-0.7362290555771663,0.3070444359273651,-0.883469567222773,1.175913932367386,0.8747951809270182,-0.7847069781369023,-0.0417363897078526,10.492497127359456,-0.8553301466439246,0.1167651388772992,-1.0712236380154605
1.4,0.6434834808320419,0.0088402966290246,2.044108124801602,0.0883990991936889,0.1725120349173357,0.058996419837366,-0.558619274805044,0.185232461979086,-0.735392220025005,0.6259249702154654,0.0149702921609695,2.0220978084464507,-0.5727634130144632,0.1917931850991893,-0.7230471866313581,1.2145532161389292,0.987660291599568,-0.7039714516018869,-0.0639598198903412,10.482749916494868,-0.8452853035566467,0.1211625896743275,-1.0796717918529928
1.42,0.6330510084875426,0.0122047891233742,2.0302658026411526,0.0820383430547598,0.1775895355036375,0.0582802168148172,-0.5402362847181876,0.1702492422142204,-0.7216059879224338,0.6259249702154654,0.0149702921609695,2.0220978084464507,-0.5727634130144632,0.1917931850991893,-0.7230471866313581,1.3715788298906522,0.91914950434282,-0.7491609882432776,0.6893116051285619,11.501704918898213,-0.8369308415942419,0.1251288163272738,-1.08771709629783
1.44,0.6224770703103589,0.015471114355331,2.0159882008972243,0.0749854590925194,0.183068713581557,0.0574680150552886,-0.5179673919733192,0.1574588675290779,-0.7069739218496741,0.6259249702154654,0.0149702921609695,2.0220978084464507,-0.5727634130144632,0.1917931850991893,-0.7230471866313581,1.477831710840576,1.1134446372434217,-0.6395187342571259,0.7316033036379843,11.501704918898213,-0.8299079062874096,0.1322479852350262,-1.091574152607374
1.46,0.6123778816092283,0.0185055434518542,2.0019915619862005,0.0680049855855448,0.187500105696702,0.0565414645770188,-0.4931403369669732,0.1468515843498617,-0.6934246573390334,0.6201973360853208,0.0168882240119614,2.0148673365801373,-0.5716415994899487,0.1902894439168024,-0.7208340192321901,1.5103639342154611,1.241352750317301,-0.5303641589608082,0.6774632255320379,11.448970510993604,-0.8229032444821638,0.1390997747028297,-1.095523669248664
1.48,0.602793449469756,0.0213492612861453,1.988258079918195,0.0612882824622547,0.1901263336596579,0.0554828336839385,-0.4667372846966192,0.1381998763918759,-0.6805968990583223,0.6087420678250316,0.0207240877139452,2.00040639284751,-0.5693979724409199,0.1872819615520287,-0.716407684433854,1.530134473085348,1.3201526135177,-0.4325853978992891,0.6413879140355516,11.395342845629784,-0.817395232420517,0.1452438759871178,-1.098500172890577
1.5,0.5941872482696539,0.0239076877160408,1.9754450287694876,0.0552853699428069,0.1905186220472264,0.0543646540756161,-0.4406743354753093,0.1316123769175787,-0.6687783814297222,0.5972867995647423,0.0245599514159289,1.985945449114883,-0.567154345391891,0.1842744791872549,-0.7119813496355181,1.468289677119244,1.303147461065493,-0.3293749737148604,0.5909258814300045,11.346169402721898,-0.813957873615438,0.151359739940574,-1.0998244191365458
1.52,0.5856688539843113,0.0264813758706022,1.962199420023842,0.0494646738903363,0.1882416856135372,0.0530819647920047,-0.4126371778971454,0.1261713237774019,-0.656393306859156,0.5859437126569045,0.028245440999674,1.9717058221221724,-0.5649107183428621,0.1812669968224812,-0.7075550148371821,1.5565003505103263,1.401857878908194,-0.2720526570088422,0.6192537285283128,11.345454034782051,-0.8131289475848807,0.1569398077621963,-1.099273895251197
1.54,0.5777145682553343,0.0289607952956473,1.9492091196743235,0.0442423583368406,0.1825976939141344,0.0517016639845057,-0.3848129416321247,0.1220067926556786,-0.6431965578057695,0.5746006257490667,0.0319309305834191,1.957466195129462,-0.5626670912938333,0.1782595144577075,-0.703128680038846,1.5537741380052248,1.3912118132510336,-0.2082265560861655,0.6598374526693263,11.345454034782051,-0.8141385721443762,0.1612168967786635,-1.0980555535720893
1.56,0.5702874307675146,0.0313666729529513,1.9364951750573804,0.0396413263626858,0.1740547567834161,0.0502789618200847,-0.3598775420619407,0.1187359045809748,-0.6287959425927869,0.5633136295174546,0.0355412331080449,1.94333722650671,-0.5604234642448044,0.1752520320929337,-0.69870234524051,1.4490087810589325,1.2467699785092017,-0.1635444037351864,0.7200307606491263,11.38949605025573,-0.8186082345066963,0.1651487661593703,-1.0942862758291192
1.58,0.5636607762260774,0.0335988416909814,1.9246940275751423,0.0358476613555795,0.1641039838627692,0.0489414904915273,-0.3393818083384713,0.1163255559169953,-0.6140991163582827,0.5520827239620681,0.0390763485735513,1.9293189162539164,-0.5581798371957756,0.1722445497281599,-0.6942760104421739,1.266769101802416,1.0247866861734705,-0.1205174331989765,0.7348413117252095,11.439253136909429,-0.826204483791192,0.168867010891536,-1.0876853790008696
1.6,0.5570672744702843,0.0359045180309127,1.912582352166932,0.0324362603153643,0.1525192936365125,0.0475843098111468,-0.3215060909246151,0.1143312746492568,-0.5977702944291113,0.5466916858091538,0.0394151194868312,1.8939890717572283,-0.3955645467320164,0.1136268620268707,-0.5681551409096743,1.21464897854224,0.8937858706928092,-0.0997140633869256,0.81644109645857,11.477365184208791,-0.8363697993240742,0.172447354586235,-1.0784475582405195
1.62,0.5508560053094931,0.0381819403135119,1.900834435211174,0.029730183976031,0.1385617485743211,0.0462497282713999,-0.3011966041890239,0.1133627886544079,-0.5775725325886593,0.5466916858091538,0.0394151194868312,1.8939890717572283,-0.3955645467320164,0.1136268620268707,-0.5681551409096743,1.4329713883649202,1.0154743367795591,-0.0484242997424444,1.009888092022604,11.503417905028073,-0.8527465705595915,0.1759835031775634,-1.0629873492336108
1.64,0.5452800622262277,0.0403262703523702,1.8900641846984865,0.0277641626409714,0.1223270240403618,0.0449784721775015,-0.2875365019272827,0.1122945242253195,-0.5570904524104566,0.5466916858091538,0.0394151194868312,1.8939890717572283,-0.3955645467320164,0.1136268620268707,-0.5681551409096743,1.2321274194639988,0.6830051130870624,-0.0534132214544215,1.0241040089101316,11.738633297334673,-0.8688523186813177,0.1786603378334358,-1.047952346100041
1.66,0.5396227933441681,0.0425600465576291,1.879160358544846,0.0261388779227739,0.1038274022361176,0.0436737121077127,-0.2796299071347711,0.1111080478576208,-0.534272664072161,0.5427360403418336,0.0405513881070999,1.888307520348132,-0.4068010944107255,0.1130871232488458,-0.5589663458199526,1.20889767147114,0.3953297396255772,-0.0593238183849355,1.140889416914781,11.753794376760196,-0.8888650621529594,0.1811686218375824,-1.0286209821728505
1.68,0.5340548190876272,0.0447712744251111,1.8687227839144824,0.0249643791744917,0.0852357847340311,0.0424334500870001,-0.2781655090290925,0.1100545673215476,-0.5105659324835696,0.5348247494071934,0.0428239253476373,1.876944417529938,-0.4292741897681436,0.112007645692796,-0.5405887556405093,1.188763439109435,0.0732199052839333,-0.0526740268036562,1.185336579429569,11.799352962349984,-0.9100671449752644,0.183371559059603,-1.0072615576806974
1.7,0.5284508974275736,0.0469627773064892,1.8587653063573668,0.0243171977931117,0.0677013873435656,0.0412814964389684,-0.2827076439792332,0.1091081759801843,-0.4863333628032428,0.526913458472553,0.0450964625881747,1.8655813147117448,-0.4517472851255616,0.1109281681367462,-0.5222111654610659,1.2336369804243397,-0.2271067475070387,-0.0473195670681686,1.2116284840163416,11.82766603793334,-0.9300834110932252,0.1851176774897093,-0.9861195431012492
1.72,0.5229918180121078,0.0490268084471788,1.8497567707042744,0.024230584772955,0.0528040659759887,0.0402794917492341,-0.2919216839401807,0.1081695843592241,-0.4631195581587525,0.5178785127700418,0.0473150259509097,1.8551370914025236,-0.4742203804829796,0.1098486905806964,-0.5038335752816225,1.2496601665107103,-0.4607019980473747,-0.0469295810480094,1.160690232224512,11.845277385946249,-0.9500442837619192,0.1865333183649915,-0.9639902026711196
1.74,0.5170131415839557,0.0511779407901565,1.8407532700468137,0.0246878709844015,0.0394966115867568,0.0393242054265071,-0.305688054167572,0.1069580739697404,-0.4384187880375901,0.5088435670675305,0.0495335893136446,1.844692868093302,-0.4966934758403977,0.1087692130246465,-0.4854559851021792,1.4151932299512493,-0.6883185113695622,-0.0605755194741833,1.2350385060581195,11.863885075724284,-0.9685304597556872,0.1877505519740731,-0.942162481932112
1.76,0.5107169073495796,0.0533006565517935,1.8322430849995903,0.0256436822713003,0.0291057938145171,0.0384732312066342,-0.3232174649581637,0.1053438107785518,-0.4137972899923722,0.4992467939810839,0.0517251657374783,1.8347080845385668,-0.5191665711978158,0.1076897354685967,-0.4670783949227358,1.513360709073032,-0.8764705395295863,-0.0807131595594298,1.231074902260898,11.863885075724284,-0.9836892491344048,0.1885466024007271,-0.923334992514039
1.78,0.5043797381742993,0.0552816165670162,1.824611640210148,0.0268893441435239,0.0223927288937995,0.0377656176497707,-0.3430187418263521,0.1032425831341571,-0.3907202481269485,0.4890881935107017,0.0538897552224107,1.8251827407383177,-0.5416396665552339,0.1066102579125469,-0.4487008047432925,1.5240206564239347,-0.9900638434094194,-0.1050613822197343,1.153852093271182,11.854104093994463,-0.9963280701142208,0.1890003328384388,-0.9068422006857292
1.8,0.4972753123952615,0.0573166039394933,1.8170493143246031,0.0283731967339066,0.01945060074033,0.0371435296109101,-0.3661861522058651,0.1003518108422567,-0.3666931247076189,0.4872288010829816,0.060443745723724,1.8050756278038005,-0.3777625761132803,0.0720274015599317,-0.3520660287677891,1.6751030773836617,-1.1583705189756488,-0.1445386145950231,1.2013561709664833,11.854104093994463,-1.0066463233486351,0.1894848608204746,-0.8925066756736605
1.82,0.4896413706362341,0.0593622664601019,1.809907210611845,0.0322445029378548,0.022830935349284,0.0368791657315049,-0.3952607228446447,0.1030441745108559,-0.348969165463975,0.4872288010829816,0.060443745723724,1.8050756278038005,-0.3777625761132803,0.0720274015599317,-0.3520660287677891,1.7078628539959877,-1.4537285319389803,0.1346181834299624,0.8861979621821947,11.833180485341472,-1.007396941898485,0.1879455632370973,-0.8893608826281615
1.84,0.4814942614235239,0.0613983046900457,1.803108829578368,0.0383003019231021,0.0323982820618382,0.0370076758793213,-0.4171601548320608,0.1000278787902486,-0.331644692877002,0.4872288010829816,0.060443745723724,1.8050756278038005,-0.3777625761132803,0.0720274015599317,-0.3520660287677891,1.4042974325818585,-1.094971599370809,-0.1508147860303642,0.8662236293486503,11.458767529089528,-1.0087661422758627,0.1852554327567781,-0.885901759349443
1.86,0.4734108806674215,0.0632422641594008,1.796969828859727,0.0441131515007182,0.0442603100021361,0.0373088886386363,-0.4321004949631417,0.0942077200092569,-0.3154016276173569,0.4834511753218488,0.0611640197393234,1.8015549675161229,-0.3847113429706659,0.0657843652450866,-0.3443351848959572,1.1411892705610092,-0.7470170065540432,-0.291007939049584,0.8121532629822514,11.358966090634569,-1.0054154605046923,0.1819786428341624,-0.888406519021136
1.88,0.4646479886117831,0.0650451788319744,1.7908381085639795,0.0496257983797385,0.0579346917562159,0.0377182519176989,-0.4428863667428492,0.0864131487944872,-0.2986389901115137,0.4758959237995832,0.062604567770522,1.7945136469407668,-0.3986088766854372,0.0532982926153964,-0.3288734971522934,1.070135957043204,-0.5392935889853762,-0.3897285607384858,0.8381318752921613,11.290859770712814,-0.998926093954676,0.1787271661996371,-0.8949189129563229
1.9,0.4557151198186281,0.0666788872571655,1.785034489725256,0.0542887520191473,0.0718588476187569,0.0381590049947775,-0.4494229897003342,0.0774357835705974,-0.2825979004151571,0.4683406722773176,0.0640451158017206,1.787472326365411,-0.4125064104002084,0.0408122199857063,-0.3134118094086296,0.9754961362019624,-0.3268311478742458,-0.4488682611944919,0.8020544848178296,11.2507020533385,-0.9905635226393446,0.1757843341723839,-0.903646343546816
1.92,0.4466989169914352,0.0681241035108508,1.7795434312517926,0.0580224669668809,0.085250791417112,0.0385706013322724,-0.4515626530064459,0.0677175838926224,-0.2673278941210114,0.4600905440693134,0.0648613602014348,1.7812040901772386,-0.4264039441149797,0.0283261473560161,-0.2979501216649658,0.9113103975426868,-0.106983165305588,-0.4859099838987496,0.7635003147072855,11.20557324102083,-0.9822401728854872,0.1735413235048883,-0.9121996872755468
1.94,0.4381362079119482,0.0693131817883545,1.774601044869404,0.0607719469271445,0.096657115933546,0.0388746308562242,-0.4495561576702127,0.0580977103500019,-0.2537143691772295,0.4518404158613093,0.0656776046011489,1.7749358539890658,-0.440301477829751,0.0158400747263259,-0.282488433921302,0.8394880164500687,0.100324766811663,-0.4809936771310245,0.6806762471890965,11.122984769339382,-0.9736901210544135,0.1716889655700564,-0.920790448475955
1.96,0.429196111359948,0.0703643056481661,1.7696708500461529,0.0628803381939631,0.1066566518221247,0.0390499969575978,-0.4444424710769027,0.0476560515666356,-0.2400673663712348,0.4432428493104358,0.0661816971851208,1.769054159994485,-0.4541990115445223,0.0033540020966358,-0.2670267461776383,0.8964077117998175,0.2556843296654953,-0.5220829391683165,0.6823501402997312,11.100646517163112,-0.9656894104459688,0.170160044361633,-0.928769928108215
1.98,0.4203850368404659,0.0712010366269905,1.7650064706050292,0.0641049416982944,0.1142722880331582,0.0390335600349708,-0.4369968891112904,0.0366899161946133,-0.2270744740356936,0.4342978444166931,0.0663736379533504,1.7635590081934955,-0.4680965452592935,-0.0091320705330543,-0.2515650584339745,0.9280464253569656,0.3722790982806173,-0.5483067686011148,0.649644616777062,11.100646517163112,-0.959331708364706,0.1691557824954922,-0.934995904213562
2.0,0.4121666792612903,0.0717878189458695,1.7608126517270588,0.064249380210151,0.119257357494184,0.0388116551812215,-0.4285939064755709,0.0257695949385139,-0.215038258451661,0.3985351923849013,0.0730355324367212,1.7536527469032446,-0.3998754553465943,0.0184708624493435,-0.2288641639146267,0.91478688651774,0.420149131785974,-0.5460160628049697,0.6018107792016294,11.082455696569014,-0.9542965398796834,0.1688226827001196,-0.9397472857830116
2.02,0.4036069687595496,0.0721305658461719,1.7565470766705218,0.0614565584782356,0.1248183225644281,0.0383924758030088,-0.4276328026987542,0.009847954544748,-0.2125912880590353,0.3985351923849013,0.0730355324367212,1.7536527469032446,-0.3998754553465943,0.0184708624493435,-0.2288641639146267,0.8068612293954176,0.048055188840837,-0.7960820196882916,0.1223485196312837,11.080304904686272,-0.9404808600145518,0.1685544091795884,-0.9545531922352244
2.04,0.3950892506447785,0.0722123014503175,1.7523104691210525,0.0557550812894312,0.132653046840135,0.0378887150330369,-0.4237475819311091,-0.0002716747076706,-0.2111338016778791,0.3985351923849013,0.0730355324367212,1.7536527469032446,-0.3998754553465943,0.0184708624493435,-0.2288641639146267,0.5468685929247651,0.194261038382254,-0.5059814626209357,0.0728743190578098,10.471840423157118,-0.9345012045739494,0.1731251623643906,-0.9596909788275956
2.06,0.3866843301819965,0.0721392019117869,1.748106245309158,0.0496861587969598,0.141441882606466,0.0373742010108963,-0.4166088057791935,-0.0064334178993169,-0.2093955131950561,0.3945364378314354,0.0732202410612146,1.7513641052640982,-0.3924511685936551,0.0148270517002896,-0.2292221018904134,0.4794550316673954,0.3569388075957774,-0.3080871595823163,0.0869144241411518,10.445925802378952,-0.9262706008215836,0.1775377961952806,-0.9670192161100132
2.08,0.3788583904881974,0.0719795609751865,1.7441455222932545,0.0444736585817021,0.1500117026180169,0.0368978034352891,-0.4072795764156234,-0.0101490202991695,-0.2076558122168849,0.3865389287245035,0.0735896583102015,1.7467868219858058,-0.3776025950877766,0.0075394302021816,-0.2299379778419866,0.509575267270055,0.4664614681785056,-0.1857801199926311,0.0869850489085596,10.459908194278796,-0.9160916503217256,0.1816495967977424,-0.9760585170441286
2.1,0.3708367992138388,0.0717495232924581,1.7400119574922632,0.0398559339254322,0.1588924545114104,0.0364179107322535,-0.3951074983366071,-0.0127348322960153,-0.2058307720046092,0.3785414196175716,0.0739590755591884,1.7422095387075132,-0.3627540215818982,0.0002518087040737,-0.2306538537935599,0.6288415544100241,0.608603903950819,-0.1292905998422913,0.0912520106137834,10.475921353641752,-0.9050734149937916,0.1849866035335088,-0.9857661845954996
2.12,0.363081794279596,0.0714789782879493,1.7359147954219267,0.0362088128664443,0.1674332016655003,0.0359677349558173,-0.380765322103071,-0.0143738870836381,-0.2040356539090004,0.3712863391859337,0.0739641117332698,1.737596461631642,-0.3479054480760197,-0.0070358127940341,-0.2313697297451331,0.7273358383302317,0.7171088116768004,-0.0819527393811372,0.0897559047804419,10.494299887005582,-0.8941949334664177,0.1873881534819478,-0.9952508204706864
2.14,0.3560085412517823,0.0711978240472849,1.7320516608439085,0.0335667229678232,0.17482464907339,0.0355576244147857,-0.3644150277279818,-0.0153112131394516,-0.2027481820712286,0.3640312587542957,0.0739691479073513,1.7329833845557707,-0.3330568745701412,-0.014323434292142,-0.2320856056967064,0.8213834214604603,0.8175147187544612,-0.046866302790675,0.0643735918885918,10.512852125224526,-0.8832458902265619,0.1893111779621744,-1.0045438262523851
2.16,0.3489242029100985,0.0708845675062536,1.728008071953468,0.031490344987192,0.1812438925191431,0.0351237372355056,-0.3448057764485635,-0.0160561562652696,-0.20171806978879,0.3571473926603047,0.0737919935439801,1.7283524105811103,-0.3182083010642628,-0.0216110557902499,-0.2328014816482796,0.98252074700042,0.9804625639709186,-0.0372471562909028,0.0515056141219272,10.509983811993152,-0.8728096690066528,0.1905075815763826,-1.013375398875296
2.18,0.3422526522779111,0.0705601465962863,1.7239837296667202,0.0300329092944799,0.1858337640332349,0.0346767238118871,-0.3233514049129127,-0.016392472608124,-0.2007853331930618,0.3506347409039607,0.0734326486431562,1.7237035397076603,-0.3033597275583844,-0.0288986772883578,-0.2335173575998529,1.0738635437396378,1.0727185767825358,-0.0168158171427186,0.0466368297864103,10.517064092751752,-0.8641051399865375,0.1911450184234232,-1.020650232099395
2.2,0.336023935663317,0.0702346247983993,1.7199798652690443,0.029304278946548,0.1883469417779814,0.0342248387022059,-0.3007766042073717,-0.0162380621891254,-0.1996621553590429,0.3260850820322655,0.0697405229658801,1.713944463007067,-0.3024404005186199,-0.0118687585351217,-0.1933188334993701,1.1301625966196436,1.128740035277051,0.00772052094993,0.0561588917009456,10.535084069932054,-0.8564315535228286,0.1911475792283296,-1.0270840954715057
2.22,0.3305900717976751,0.0698585135487465,1.7161951615258804,0.0270044752287753,0.1869351945889363,0.0335838071452754,-0.2726505705645046,-0.0221302157900637,-0.1987259094493908,0.3260850820322655,0.0697405229658801,1.713944463007067,-0.3024404005186199,-0.0118687585351217,-0.1933188334993701,1.4375915613797303,1.4063016821433572,-0.2946076800469143,0.0468122954826039,10.56270771160871,-0.8570559043790469,0.1929336816133708,-1.0261270567687164
2.24,0.3254263439852691,0.0693968940047456,1.7122439349421263,0.0227100510427649,0.1798636195770588,0.0326625343074496,-0.246016333230404,-0.023446159684688,-0.1963075144043497,0.3260850820322655,0.0697405229658801,1.713944463007067,-0.3024404005186199,-0.0118687585351217,-0.1933188334993701,1.3388081838867696,1.3317118667050292,-0.0657971947312163,0.1209197522520577,10.618010169202536,-0.8556403759903041,0.1959476826900067,-1.0270501741583298
2.26,0.3207408637986874,0.0689389818647032,1.7083589363186014,0.0183510621102317,0.1691871130020951,0.0317175229793773,-0.2244572784831077,-0.0222636999979025,-0.1921997755162577,0.3230606780270793,0.0696218353805288,1.7120112746720733,-0.2982581996397613,-0.0109640157205212,-0.1918255335606317,1.0989364987119747,1.0779527373648137,0.059122984339277,0.2053869444045966,10.722567600632829,-0.8604935042916997,0.1996999171316144,-1.0220756428292928
2.28,0.3164321770564405,0.0685203134734475,1.7045717470578514,0.0146010738826517,0.1568096639542154,0.0308556183345863,-0.2079697350624309,-0.0197935836046602,-0.1866740019201933,0.3170118700167069,0.0693844602098264,1.708144898002086,-0.2898937978820442,-0.0091545300913203,-0.188838933683155,0.8781724444547168,0.8243771710338382,0.123505819662114,0.2762886798032229,10.722567600632829,-0.8684891997459226,0.2030697003422542,-1.0141662247393086
2.3000000000000003,0.3125978317899828,0.0681752829435868,1.70108550029608,0.0117486336736514,0.1448657151055955,0.0301449236744599,-0.1967509488660851,-0.0167968452517626,-0.1805424562007144,0.3109630620063345,0.069147085039124,1.7042785213320986,-0.2815293961243271,-0.0073450444621193,-0.1858523338056784,0.6565772182026772,0.5609393098172905,0.1498369176448825,0.3065772859739427,10.769382029897317,-0.8790386477066464,0.2063412885130426,-1.0034542338538714
2.32,0.3087494982397351,0.0678764570139814,1.6975477887189343,0.00945051211911,0.1331536575834665,0.0295088471878292,-0.1889411079824782,-0.0133378896778093,-0.1735088097007326,0.3053324740838479,0.0690001841498816,1.700561474655985,-0.2731649943666099,-0.0055355588329184,-0.1828657339282017,0.5532408412629792,0.3904920441803475,0.1729477786976626,0.3516823249990919,10.815231458786002,-0.8907406450339348,0.2096345359227592,-0.9906787333259482
2.34,0.3050189947733279,0.0676509267807245,1.694154009126797,0.0078444260323736,0.1230944519255595,0.0289780609433338,-0.1845686502422984,-0.0095079381559314,-0.1661977071518913,0.2997018861613614,0.0688532832606392,1.6968444279798711,-0.2648005926088928,-0.0037260732037175,-0.179879134050725,0.4670094641151988,0.2186228870089901,0.1914975760938931,0.3655551274420632,10.815254906490736,-0.9016627435970408,0.2123783053887547,-0.9783247905119128
2.36,0.3013481548399057,0.067506494245252,1.690907098045511,0.0069868199492118,0.1150983945411885,0.028545075784975,-0.1827633224061453,-0.0052218412028388,-0.1588389364500477,0.2942804082828178,0.0687516195121268,1.6932020463006947,-0.2564361908511757,-0.0019165875745165,-0.1768925341732483,0.435262397668381,0.0902663918076557,0.2143048476546325,0.3679385350921799,10.806931984539917,-0.91042521836214,0.2143216259289889,-0.9680416607964568
2.38,0.2978722776526563,0.0674520445344005,1.68795798747929,0.0070203307291062,0.1097448935588822,0.0282261859829395,-0.1832576453776988,-0.0008266932094122,-0.1519485141252153,0.2890680404482171,0.0686951929043445,1.6896343296184548,-0.2480717890934585,-0.0001071019453156,-0.1739059342957716,0.4093885712220002,-0.0247161485776789,0.2197573996713293,0.3445211162416209,10.79812466005751,-0.9171503025071926,0.2154958641542997,-0.9597139448152014
2.4,0.2941838113191329,0.0674844286920725,1.6849935907859224,0.0080553172103799,0.1070041392608555,0.0279920543199125,-0.1855463194851469,0.0037481037623392,-0.1448549028516296,0.2887093953837714,0.0674107098739299,1.6803605617730293,-0.2047288477512035,-0.0102078356543208,-0.1418109775622361,0.4372817095522964,-0.114433705372402,0.2287398485875744,0.3546805636792841,10.79812466005751,-0.9217596914834216,0.2155850568293824,-0.9537997847135662
2.42,0.2905087326643424,0.0676458347851736,1.6821641983218971,0.0113928532067072,0.1053357829447246,0.0279325033998228,-0.1816724597604306,0.0112834149548127,-0.1384738963510124,0.2887093953837714,0.0674107098739299,1.6803605617730293,-0.2047288477512035,-0.0102078356543208,-0.1418109775622361,0.5303417480623106,0.1936929862358133,0.3767655596236748,0.3190503250308632,10.782632110751363,-0.9293985741984366,0.213760314835535,-0.9453008117036537
2.44,0.2869187011271465,0.067908574029808,1.6794579350337522,0.0165304016328905,0.1021402020910962,0.027973878274682,-0.1776849932300753,0.0142217496625051,-0.1324553699484411,0.2887093953837714,0.0674107098739299,1.6803605617730293,-0.2047288477512035,-0.0102078356543208,-0.1418109775622361,0.3897318316598636,0.1993733265177641,0.1469167353846224,0.3009263201285625,10.692399931438558,-0.9326391635893132,0.2103173505471987,-0.9416841223056596
2.46,0.2835720469097983,0.0681813440574771,1.67699781961858,0.0214703358835977,0.0978042131453332,0.0279784636892345,-0.1749438310313167,0.0143080937923043,-0.1267878206502406,0.2866621069062594,0.0673086315173867,1.678942451997407,-0.2090230882259044,-0.0120840641433025,-0.1397834702496402,0.3148116125406877,0.137058109937932,0.0043172064899604,0.2833774649100257,10.669529618985507,-0.9375095743278622,0.206570607453439,-0.9365087655890022
2.48,0.2800875256131034,0.0684520078804774,1.67452503845751,0.0261412059805735,0.0922070273099061,0.0279006678584717,-0.173951018148989,0.0127569692464611,-0.1207724910529491,0.2825675299512353,0.0671044748043003,1.6761062324461622,-0.2176115691753063,-0.015836521121266,-0.1357284556244486,0.314546717277753,0.0496406441163832,-0.0775562272921604,0.3007664798645754,10.661677702866657,-0.9431682528835456,0.2032613660765887,-0.9304368541524072
2.5,0.2765952009047983,0.0686784244520735,1.6721726110675033,0.0300712782453829,0.0862938572206146,0.0277400430378248,-0.1755322023771778,0.0100220576976583,-0.1147560123568162,0.2784729529962112,0.0669003180912138,1.6732700128949174,-0.2262000501247081,-0.0195889780992294,-0.1316734409992569,0.3397716168408884,-0.0790592114094379,-0.1367455774401401,0.3008239348066439,10.660350651108274,-0.9497786055789508,0.2005259292880311,-0.9233298197775504
2.52,0.2730449254269356,0.0688405472458284,1.6699399925035874,0.0332056139934665,0.0808350732445956,0.0275208107170968,-0.179560786483495,0.0064714962976021,-0.1087849417210953,0.273948951993717,0.0665085385292292,1.6706365440749322,-0.23478853107411,-0.0233414350771929,-0.1276184263740652,0.4015272739615869,-0.2014292053158603,-0.1775280700028106,0.2985535317860457,10.656857416181085,-0.9559590256639168,0.1986459241678808,-0.9163939348413256
2.54,0.2695748651083628,0.0689235899762963,1.6679285178182486,0.0355108779940606,0.0767500119758436,0.0272942285453231,-0.1856082679725206,0.002580960233226,-0.1032321680870257,0.2694249509912229,0.0661167589672447,1.668003075254947,-0.2433770120235118,-0.0270938920551563,-0.1235634117488735,0.454262034126607,-0.3023740744512809,-0.1945268032188047,0.2776386817034799,10.648991572626985,-0.9616112893829132,0.1971233465223688,-0.9100079017281788
2.56,0.2657765771630534,0.0689277004923114,1.6659237726019256,0.0373079724884424,0.0743874669165924,0.0270804066359883,-0.1939974478933141,-0.0018823735423125,-0.097531696115758,0.2646862379649937,0.065631167980811,1.6654709818005915,-0.2519654929729137,-0.0308463490331198,-0.1195083971236818,0.5540646822134497,-0.4194589960396733,-0.2231666887769326,0.2850235985633824,10.648991572626985,-0.9659271230039588,0.195878616221516,-0.9052872919671592
2.58,0.2618048749327737,0.0688375322712008,1.664030800356726,0.03843496668798,0.0744286129744316,0.0269159440857297,-0.2024909682550203,-0.0068613812123409,-0.0920444280803206,0.2597328129150294,0.0650517655699282,1.6630402637118662,-0.2605539739223155,-0.0345988060110832,-0.1154533824984901,0.5635612566652629,-0.4246760180853112,-0.2489503835014159,0.2743634017718703,10.622015778470995,-0.9693655037520772,0.1946608924069228,-0.9022041415870158
2.6,0.2576752713756308,0.0686420856647368,1.6622447065942945,0.0386784234267199,0.0763351024071747,0.0267719695049554,-0.2098030332499793,-0.0123117399761227,-0.0868213614665163,0.2516803265200227,0.0684944632105837,1.65942857895271,-0.2037087932440188,-0.0162226184998622,-0.0953330126088115,0.5254834202824014,-0.3656032497479519,-0.2725179381890913,0.2611533306902176,10.598585234867642,-0.9706869257780276,0.1943441923010491,-0.9009961187562048
2.62,0.2535914865061296,0.0683410215229368,1.6606256525617795,0.0375358493723115,0.0805199292070004,0.0266402091809071,-0.2191449549926284,-0.0188058332207398,-0.0838334171858141,0.2516803265200227,0.0684944632105837,1.65942857895271,-0.2037087932440188,-0.0162226184998622,-0.0953330126088115,0.5881593320269223,-0.4670960871324542,-0.3247046622308552,0.1493972140351095,10.495958086675271,-0.9672598989628536,0.1949804209396258,-0.9046870375764612
2.64,0.2491352261132912,0.0679042367684541,1.6589767431949474,0.0347382627414501,0.0875442822116373,0.0264897166085394,-0.2255624149262256,-0.0241955050523514,-0.0812209515742633,0.2516803265200227,0.0684944632105837,1.65942857895271,-0.2037087932440188,-0.0162226184998622,-0.0953330126088115,0.4389115258891267,-0.3208729966798593,-0.2694835915805826,0.1306232805775381,10.44540523174146,-0.9642748179289772,0.1970244219301032,-0.9078505369486268
