t,x,y,z,roll,pitch,yaw,v_x,v_y,v_z,ref_x,ref_y,ref_z,ref_v_x,ref_v_y,ref_v_z,a_com,a_x,a_y,a_z,thrust,wind_x,wind_y,wind_z
0.0,-0.3111286616545464,0.8699047042852781,1.9499031438334653,0.0334203206498927,0.0997327355685017,0.0423552271803879,0.0011682569712674,-0.0003443330791081,-0.0006960514369305,-0.3110989324317518,0.8699916027599753,1.9498846409565191,-0.0171786009081379,-0.0979746923609878,-0.1006211337587559,0.0701405236496048,0.0584128485633735,-0.0172166539554091,-0.0348025718465296,10.256913139483911,-0.939792060973884,0.2496964187147883,-0.8817527693013645
0.02,-0.3111098188553208,0.8701168431206295,1.9497985848243848,0.0409809936314578,0.0992715060107588,0.0428474781932624,0.0008081456157582,0.0177245822157844,-0.010406947973647,-0.3110989324317518,0.8699916027599753,1.9498846409565191,-0.0171786009081379,-0.0979746923609878,-0.1006211337587559,1.0258129601311117,-0.0180055677754611,0.9034457647446296,-0.4855448268358212,10.258073740074906,-0.939650682859887,0.2487545216780492,-0.8767983916212285
0.04,-0.3110985350786275,0.870483419984812,1.9494199529771896,0.0549293912183218,0.0979011516389824,0.0437110825666849,0.0002809470545302,0.0172982692682697,-0.027238324461755,-0.3110989324317518,0.8699916027599753,1.9498846409565191,-0.0171786009081379,-0.0979746923609878,-0.1006211337587559,0.8422513216620898,-0.0263599280614014,-0.021315647375735,-0.8415688244054007,9.612976797303418,-0.9338132519513802,0.2335578160133606,-0.8899258760263533
0.06,-0.3111044299864267,0.8707652924380996,1.948673527375408,0.0692996370336461,0.0958952409338694,0.0445129058921171,-0.0008921564390186,0.0105546727351059,-0.0465932829109408,-0.3112707184408331,0.8690118558363654,1.948878429618932,-0.0208164463498369,-0.117974692659011,-0.1206211340567791,1.0264826868710246,-0.0586551746774418,-0.3371798266581871,-0.96774792245929,9.29361074647477,-0.9288049059273926,0.2167289013366208,-0.90383679947513
0.08,-0.3111390717904322,0.8708747287469233,1.947594636825755,0.0824463086056974,0.0937087059866279,0.0451594413109655,-0.0027373601329638,0.0010243464520437,-0.0660578217485177,-0.3116142904589959,0.8670523619891457,1.9468660069437564,-0.028092137233235,-0.1579746932550574,-0.1606211346528256,1.0875432955672584,-0.0922601846972616,-0.4765163141531112,-0.9732269418788474,9.21717614689078,-0.9236548260960744,0.1980150095641292,-0.9192164085380694
0.1,-0.3112216838848187,0.8707660176684023,1.946049236195888,0.0956266109259664,0.0914541025095016,0.0457321988339669,-0.0054885095838653,-0.0116971988511705,-0.0875409489289026,-0.3119578624771587,0.865092868141926,1.9448535842685808,-0.035367828116633,-0.1979746938511039,-0.200621135248872,1.2559172859423506,-0.1375574725450724,-0.6360772651607134,-1.074156359019244,9.187845474378264,-0.9190968533028556,0.1795213763975791,-0.933614976517881
0.12,-0.3113679734098796,0.8703757009663793,1.9440667750632927,0.1081426549750088,0.0896150241362066,0.0462344728954564,-0.0090487788351656,-0.0269841878809037,-0.1096984447886549,-0.3126652190394913,0.8611333742649039,1.940841161563604,-0.0426435190000311,-0.2379746944471503,-0.2406211358449184,1.3576838489794678,-0.1780134625650182,-0.7643494514866633,-1.1078747929876156,9.160423734094364,-0.9147879204966206,0.1619178692731952,-0.9472174621254048
0.14,-0.3115927721463609,0.8696541908932519,1.9416319312488768,0.120028854591957,0.0885557225003419,0.0467214557495968,-0.0131752667961258,-0.0446714597172496,-0.1327475259964321,-0.313372575601824,0.8571738803878818,1.9368287388586265,-0.0499192098834292,-0.2779746950431968,-0.280621136440965,1.467248813619771,-0.2063243980480076,-0.8843635918172946,-1.1524540603888584,9.160423734094364,-0.9097319007059838,0.1428489258669097,-0.9625163388583204
0.16,-0.3118808163713302,0.8686193583824228,1.9388854774110715,0.1307680666947051,0.088310118303552,0.0471939586339154,-0.0168423408302613,-0.0635966024593917,-0.1552636627184508,-0.3142618244362416,0.8522143864959586,1.931816316138748,-0.0571949007668272,-0.3179746956392432,-0.3206211370370114,1.4820466192624688,-0.1833537017067769,-0.9462571371071044,-1.125806836100937,9.14405926501422,-0.9039942772983872,0.1233911934914266,-0.9787062836904296
0.18,-0.3122538471668258,0.8671197764154871,1.9355247199533596,0.1415188833433657,0.088655578279905,0.0476944023540081,-0.0201882052844783,-0.0856066015765306,-0.1796999557719514,-0.3153329655427442,0.8462548925891341,1.925803893403968,-0.0644705916502253,-0.3579746962352896,-0.3606211376330578,1.6528515422437409,-0.1672932227108507,-1.1004999558569448,-1.221814652675025,9.141410755622928,-0.8987444374901129,0.1060342517040204,-0.9920845560060244
0.2,-0.312686574551324,0.8651310614568685,1.931667071248143,0.1508519480343092,0.0894301647384064,0.0481228965861963,-0.0228616076844347,-0.1117796434103969,-0.2048254292530519,-0.3132632574310497,0.8628394463366605,1.9265397221647615,-0.0469390511190912,-0.1856066030666467,-0.2796999572620675,1.8189726612011612,-0.133670119997821,-1.308652091693315,-1.2562736740550264,9.132089781974171,-0.8933456712174944,0.0903100895148561,-1.004988459794914
0.22,-0.3130954943642587,0.862572544034196,1.9277362141921208,0.1536064906390152,0.0898126440578132,0.0480175797331423,-0.0203149568337882,-0.1534234363593527,-0.2072719735273267,-0.3132632574310497,0.8628394463366605,1.9265397221647615,-0.0469390511190912,-0.1856066030666467,-0.2796999572620675,2.089662951660257,0.1273325425323261,-2.082189647447788,-0.122327213713741,9.145222063199071,-0.8961525625331732,0.0767255845507353,-1.013764065078129
0.24,-0.3134772004017118,0.8591196097660342,1.9235544110616127,0.1498556996834872,0.0891644287824321,0.0472566922269343,-0.0181179476149517,-0.1885175101998092,-0.2108481520426423,-0.3132632574310497,0.8628394463366605,1.9265397221647615,-0.0469390511190912,-0.1856066030666467,-0.2796999572620675,1.7672081944414957,0.1098504609418285,-1.754703692022823,-0.1788089257657818,10.617878619757905,-0.8969491091513018,0.0783926221590461,-1.0143758791988144
0.26,-0.3138243915644861,0.8550423441595404,1.919266806249447,0.1434288407880479,0.0873625844930224,0.0461296655270168,-0.0168246863561781,-0.2169208853624622,-0.2178368353079368,-0.3137326479422407,0.8609833803059941,1.923742722592141,-0.0522892202860137,-0.20560660336467,-0.2996999575600907,1.46395520687662,0.0646630629386751,-1.420168758132652,-0.3494341632647238,10.116434349377414,-0.8976165111699768,0.0819230425808308,-1.0155105677600331
0.28,-0.314157387774149,0.8504451133541902,1.9147995706190055,0.1364835524617096,0.0844120008228965,0.0448114304430677,-0.0166600766541777,-0.2411969837216647,-0.2284952162846025,-0.3146714289646225,0.8572712482446612,1.9181487234469,-0.0629895586198589,-0.2456066039607164,-0.3396999581561372,1.3256669386986075,0.008230485100023,-1.213804917960125,-0.532919048833283,10.116434349377414,-0.8986171681157278,0.0851489919003972,-1.0168484286133652
0.3,-0.3144841707251877,0.8456556839491858,1.9103290218722293,0.1302571820894652,0.080680544984387,0.0434767143785844,-0.017860284831674,-0.2617503807607256,-0.2415506040989766,-0.3156102099870043,0.8535591161833282,1.9125547243016583,-0.073689896953704,-0.2856066045567629,-0.3796999587521836,1.2189398882823512,-0.0600104088748157,-1.027669851953046,-0.6527693907187077,9.898002735622867,-0.9011490800085012,0.0886468204761063,-1.0165389386923267
0.32,-0.3148700269791568,0.8402125865814724,1.905328460997896,0.1244709292208739,0.0760594826694087,0.0420587606084194,-0.0208271799708233,-0.281512375457583,-0.257954536041909,-0.3170840079260784,0.847846984092193,1.9049607251266147,-0.0843902352875492,-0.3256066051528093,-0.41969995934823,1.2926986156425688,-0.1483447569574646,-0.9880997348428704,-0.8201965971466191,9.7157822782292,-0.9039089105478944,0.0910195191506748,-1.016528198496552
0.34,-0.3153353972462165,0.8343863748936049,1.8999836024808656,0.1195749154210339,0.0711710434717222,0.0406927961196239,-0.0257299754291894,-0.3001887672494017,-0.2757722358970585,-0.3185578058651525,0.8421348520010578,1.897366725951571,-0.0950905736213943,-0.3656066057488558,-0.4596999599442766,1.313692735951106,-0.245139772918305,-0.933819589590934,-0.8908849927574736,9.490201881575558,-0.906598041239512,0.0917974748974932,-1.0173551453599614
0.36,-0.3158896183237407,0.8285052384969332,1.894564287660876,0.1154585562643204,0.0668892578559056,0.0394932907664785,-0.032468630514529,-0.3178867561924439,-0.2937852737890928,-0.3202991122625727,0.8354227198950213,1.888772726761626,-0.1057909119552394,-0.4056066063449022,-0.499699960540323,1.3068070047706724,-0.33693275426698,-0.8848994471521071,-0.9006518946017145,9.490201881575558,-0.9089510121153946,0.0917412943054854,-1.0191606488331562
0.38,-0.3166322190213475,0.8219568261622773,1.8884789128844928,0.1113963083839521,0.0634924017845393,0.0383912702853101,-0.0415704325237008,-0.3359368785746902,-0.3138550770630037,-0.322307927118339,0.8277105877740837,1.87917872755678,-0.1164912502890846,-0.4456066069409486,-0.5396999611363694,1.4242951952472158,-0.4550901004585925,-0.9025061191123174,-1.003490163695547,9.442690591138671,-0.9103077370975712,0.0914348819688042,-1.021958861074458
0.4,-0.3175761735544889,0.8150533106582243,1.881981445079466,0.1075006020901634,0.0619879031418257,0.0375188019375748,-0.0523977441059317,-0.3534029867469901,-0.3349226236203226,-0.3187107406475326,0.8051599822335428,1.8727861590313424,-0.0666457545407745,-0.4359368800648063,-0.4138550785531198,1.4715103879432772,-0.5413655791115406,-0.8733054086149938,-1.0533773278659453,9.38847631448334,-0.9102786889003246,0.0910106049487472,-1.0260478796178587
0.42,-0.3187334472886059,0.807793067210367,1.8753264931839229,0.1041762449732272,0.063059242183401,0.0369609015782263,-0.0623952990458972,-0.3720099346566113,-0.3281041292917231,-0.3187107406475326,0.8051599822335428,1.8727861590313424,-0.0666457545407745,-0.4359368800648063,-0.4138550785531198,1.1097989459786497,-0.499877746998275,-0.9303473954810598,0.3409247164299744,9.34497271260352,-0.9167219029940834,0.0893832004882164,-1.024937683612451
0.44,-0.3200025099068413,0.8005604860231986,1.8691328600314987,0.1019066065956617,0.0661881433204665,0.0367033614677229,-0.0704089399250361,-0.3885855089914302,-0.3243629039466711,-0.3187107406475326,0.8051599822335428,1.8727861590313424,-0.0666457545407745,-0.4359368800648063,-0.4138550785531198,0.9393679680393784,-0.4006820439569465,-0.8287787167409438,0.1870612672526,11.097631624450514,-0.916860792331414,0.0927238228957541,-1.022898179974084
0.46,-0.3214831529601864,0.7926089780170188,1.8626327394464024,0.1001572743372381,0.0707684041135999,0.03659487260793,-0.0770102093305081,-0.4057014812463811,-0.3261014403590207,-0.3193771981929403,0.8008006134328948,1.8686476082458117,-0.0716608189441892,-0.4559368803628296,-0.4338550788511431,0.9213519588801796,-0.3300634702735998,-0.8557986127475492,-0.0869268206174778,10.345966947058514,-0.914005172514618,0.094455133807192,-1.0247631247107805
0.48,-0.3230773184154852,0.7843215467643742,1.8560401646898208,0.0987694068602145,0.0758881484788801,0.0365521158645145,-0.0818996649479172,-0.4221802344273525,-0.3330495557819253,-0.3207101132837558,0.7920818758315986,1.860370506674749,-0.0816909477510187,-0.495936880958876,-0.4738550794471895,0.927001066024186,-0.2444727808704569,-0.8239376590485653,-0.3474057711452316,10.345966947058514,-0.909776157028654,0.0949842756884168,-1.0288415651254446
0.5,-0.3246673749543058,0.7761502921120815,1.8496109094028048,0.097743267474134,0.0807200767244885,0.0365170935112567,-0.0851301950453653,-0.4371292453388729,-0.3433718457340491,-0.3220430283745713,0.7833631382303025,1.8520934051036864,-0.0917210765578481,-0.5359368815549225,-0.513855080043236,0.9225764491344204,-0.1615265048724057,-0.74745054557602,-0.5161144976061904,10.070152238772607,-0.9041758239586666,0.0945444530818332,-1.0349701343423576
0.52,-0.3263946128729657,0.7672508187509544,1.8425991163256148,0.0971043875999898,0.0853966630831146,0.0364602944596133,-0.0873391642362079,-0.4520368438468771,-0.3574231970180037,-0.3238774499057283,0.772644400599204,1.8418163035028217,-0.1017512053646776,-0.5759368821509689,-0.5538550806392825,1.030238456701936,-0.1104484595421291,-0.7453799254002136,-0.7025675641977286,9.857415828277226,-0.8978444213129867,0.0930997472049915,-1.0423912980403027
0.54,-0.3281538422571625,0.7580575594786109,1.8352865708078323,0.0970616846539508,0.0893912270314512,0.0363698778870422,-0.0884481657590232,-0.4665984124687911,-0.3731419206038486,-0.3257118714368852,0.7619256629681056,1.8315392019019567,-0.111781334171507,-0.6159368827470154,-0.5938550812353289,1.0727854355327913,-0.0554500761407658,-0.7280784310956995,-0.7859361792922431,9.68178216319302,-0.8915946442435463,0.0905471416814791,-1.05033730015509
0.56,-0.3299271132663691,0.7485629826226586,1.8276472566448103,0.0973000678096364,0.0926127057927398,0.0362162457879741,-0.0888229981044232,-0.482047743435606,-0.3900151016834352,-0.3277970461882129,0.750206925322106,1.8202621002861912,-0.1218114629783365,-0.6559368833430618,-0.6338550818313753,1.1440351462628475,-0.0187416172699982,-0.7724665483407445,-0.8436590539793287,9.567453807090716,-0.8859361094922817,0.0875904644905242,-1.0579195597424718
0.58,-0.3316138138365082,0.7392501440891505,1.8200669713457571,0.0973289686319584,0.0949770044793849,0.0359813643735521,-0.0887213640833169,-0.497362923918746,-0.4070713834812459,-0.3301329741597114,0.7374881876612053,1.8079849986555243,-0.1318415917851659,-0.6959368839391082,-0.6738550824274218,1.146169524406981,0.0050817010553164,-0.7657590241570006,-0.8528140898905384,9.567453807090716,-0.8804020958577896,0.0844853006006558,-1.0656857403614437
0.6,-0.3333847220536745,0.7291300544563663,1.8117256816222096,0.0968380399237554,0.0968018108629288,0.03562491728302,-0.0883850535371093,-0.5137537870015239,-0.4262164433276656,-0.3360498820406741,0.7143819978932131,1.799713402171695,-0.1057742492282658,-0.5973629254088622,-0.5070713849713621,1.2602646685367822,0.0168155273103785,-0.8195431541388909,-0.9572529923209838,9.522792430828304,-0.8753808077017332,0.0818739021933155,-1.0729879118792574
0.62,-0.3351245859191012,0.7186229998905168,1.803284333044788,0.0946357892590259,0.0982396055730783,0.0351033551681216,-0.0854726220065302,-0.5358133087907543,-0.415380953936179,-0.3360498820406741,0.7143819978932131,1.799713402171695,-0.1057742492282658,-0.5973629254088622,-0.5070713849713621,1.237449584167838,0.145621576528955,-1.1029760894615217,0.5417744695743298,9.46678211696053,-0.8828618440318138,0.0815074400003646,-1.0685905670447802
0.64,-0.3368024874130503,0.7077135175934511,1.7950631991839254,0.0908972306000143,0.0994538280103696,0.0344471963694889,-0.0824904238918817,-0.5537325874122349,-0.407419833124216,-0.3360498820406741,0.7143819978932131,1.799713402171695,-0.1057742492282658,-0.5973629254088622,-0.5070713849713621,0.9916822783683468,0.1491099057324273,-0.8959639310740286,0.3980560405981492,10.97542385023371,-0.8805271928083305,0.0849908856896644,-1.0700166885733722
0.66,-0.3383442912956716,0.6970439904301731,1.7873380072240876,0.0872289299109036,0.100264013084351,0.0337812072981053,-0.0799834626881549,-0.5684079790337601,-0.4061347764633433,-0.3371076245329567,0.7084083686391245,1.7946426883219813,-0.1091848262572556,-0.6173629257068853,-0.5270713852693852,0.7471668895631298,0.12534806018634,-0.7337695810762601,0.0642528330436376,10.97542385023371,-0.8792150373964105,0.0889762163433405,-1.0701404687125475
0.68,-0.3399204157442229,0.6855312163209208,1.77917934221666,0.0836748060405389,0.1007086973265499,0.033065185872171,-0.0778092134090559,-0.5820777697500072,-0.4100373943001639,-0.339223109517522,0.6964611101309472,1.784501260622554,-0.1160059803152352,-0.6573629263029318,-0.5670713858654317,0.7190635648778395,0.1087124639549456,-0.6834895358123594,-0.1951308918410332,10.575831119735994,-0.8779314213696118,0.0919696616520629,-1.0710748100800769
0.7000000000000001,-0.3414585532337301,0.6737579103429087,1.7708933340073592,0.0806089046403923,0.1007661381802138,0.0323519481383481,-0.0761613794313106,-0.5945864452046292,-0.418555305781986,-0.3413385945020873,0.68451385162277,1.774359832923127,-0.1228271343732148,-0.6973629268989783,-0.6070713864614782,0.7611457390990091,0.0823916988872686,-0.6254337727310988,-0.4258955740911035,10.258814303728286,-0.8763216878999822,0.0938313975293651,-1.0731207405012582
0.72,-0.3429696943437502,0.6617448107055625,1.7623934419895564,0.0780823469407472,0.1005088164657437,0.0316532759062919,-0.0750687166581294,-0.6061983824869304,-0.4310031274810048,-0.3437951371895517,0.6705665930847904,1.7622184051938974,-0.1296482884311944,-0.7373629274950247,-0.6470713870575246,0.8529057164108959,0.0546331386590562,-0.5805968641150572,-0.6223910849509379,9.8063307396269,-0.8743970754187277,0.094609959651635,-1.0761724626983469
0.74,-0.3444629910397819,0.6495054597254172,1.753625819305314,0.0760906815336062,0.1000303299811228,0.0309772856201848,-0.0743445715417102,-0.6172732406163199,-0.4451460723716822,-0.3462516798770159,0.6566193345468109,1.7500769774646678,-0.136469442489174,-0.7773629280910712,-0.6870713876535711,0.8988878669173349,0.0362072558209629,-0.5537429064694788,-0.7071472445338706,9.8063307396269,-0.8727092750491459,0.0944630649106959,-1.0794901553727791
0.76,-0.3458717815334958,0.6376679689528627,1.7450221029741364,0.0744059837899074,0.0994676921600543,0.030343760968977,-0.0740041617968789,-0.6281493603376287,-0.4597995522628572,-0.3488787514159297,0.6416720759939302,1.7369355497205372,-0.1432905965471536,-0.8173629286871176,-0.7270713882496175,0.912592915690902,0.0170204872415632,-0.5438059860654376,-0.7326739945587524,9.722679363768291,-0.8709247965114486,0.0938809441995635,-1.0832840266818415
0.78,-0.3473514186954458,0.6249866069955657,1.735651423698204,0.0726162531658503,0.0988595384490939,0.0296775796623376,-0.0739987742143784,-0.6393346988206261,-0.4765584443773479,-0.351676351806293,0.6257248174261483,1.7227941219615053,-0.1501117506051331,-0.857362929283164,-0.767071388845664,1.0074377039182192,0.000269379125025,-0.5592669241498704,-0.8379446057245332,9.66066543808938,-0.8691265370459247,0.0932585198524416,-1.0871912364543914
0.8,-0.3488344074410037,0.6120844328116368,1.7259324536901408,0.0707394472148045,0.0983087809739951,0.0290131598203495,-0.0743144183792572,-0.6502237471421577,-0.4945454254444952,-0.3510513574061647,0.5930198720545344,1.7118235014793368,-0.073982494206466,-0.7393347003107422,-0.576558445867464,1.051430564156984,-0.0157822082439411,-0.5444524160765796,-0.8993490533573678,9.588760307382472,-0.8681199863551922,0.0930045913110446,-1.090072398621357
0.8200000000000001,-0.3503336571468015,0.5989326487625647,1.7161550846746416,0.0683224182729686,0.0990871118147802,0.0284075062635155,-0.0752697983990655,-0.6641656331275732,-0.4806424445100635,-0.3510513574061647,0.5930198720545344,1.7118235014793368,-0.073982494206466,-0.7393347003107422,-0.576558445867464,0.9856239326890172,-0.0477690009904108,-0.6970942992707729,0.6951490467215882,9.526738857173768,-0.8733772456805463,0.0918434418964486,-1.0888056521557492
0.84,-0.3517663154732012,0.5862058287438372,1.7071247408696064,0.0658918826613117,0.1018880529428205,0.0279633576401555,-0.0752131239569589,-0.67485142999706,-0.4707986590268617,-0.3510513574061647,0.5930198720545344,1.7118235014793368,-0.073982494206466,-0.7393347003107422,-0.576558445867464,0.7264461084065658,0.0028337221053283,-0.5342898434743448,0.4921892741600875,11.122715312220862,-0.8705307375402467,0.0949769929784011,-1.0897061630748903
0.86,-0.3532567059267243,0.5726034798536977,1.6977530459235537,0.0637537940396695,0.1060793934477152,0.0276033237336058,-0.0736296692788187,-0.6848477935870573,-0.4671997010207157,-0.3517911823482293,0.585626525051427,1.7060579170206622,-0.0739792382048835,-0.7593347006087654,-0.5965584461654871,0.5370919671507599,0.0791727339070097,-0.4998181794998613,0.1799479003073034,11.122715312220862,-0.8659840042435998,0.0975564705690795,-1.0921654483316705
0.88,-0.3546999137323241,0.5588108485254544,1.6883893015286997,0.0621087272001376,0.1107490755448449,0.0273041327299923,-0.0706234412760037,-0.6939455528597993,-0.4696007060298069,-0.3532708322323587,0.5708398310452122,1.6945267481033128,-0.0739727262017185,-0.7993347012048119,-0.6365584467615336,0.4938913231758426,0.1503114001407492,-0.4548879636371017,-0.1200502504545619,10.693757227344577,-0.8603779940679488,0.099127607273664,-1.0961508214047604
0.9,-0.3560697443239244,0.5448462338111281,1.6789215743359986,0.0610673039217688,0.1153067343329664,0.0270377591085261,-0.0664111536441212,-0.7021403225380802,-0.477049810447633,-0.354750482116488,0.5560531370389973,1.6829955791859637,-0.0739662141985536,-0.8393347018008583,-0.6765584473575801,0.5924246234785042,0.2106143815941256,-0.4097384839140461,-0.3724552208913045,10.354952753356883,-0.8540620857416764,0.0994346991834044,-1.1015792182490869
0.92,-0.3572833430803974,0.5314355418680649,1.6697531976766324,0.0608271851622384,0.1191889982688663,0.0268098147432062,-0.0615046931895152,-0.7092016444243568,-0.487685032240824,-0.3562298064004591,0.5392664430029801,1.669464410238812,-0.0739597021953886,-0.8793347023969048,-0.7165584479536266,0.6838193540047445,0.2453230227303013,-0.3530660943138308,-0.5317610896595493,9.898305063994483,-0.8470467046075816,0.0984628504636389,-1.1082738495368032
0.94,-0.3584514270670794,0.5171792019248644,1.6598659755595198,0.0616154508405139,0.122601695345669,0.0266040365742717,-0.0555281601190411,-0.7161615775375209,-0.5005598777976421,-0.3577091306844301,0.5224797489669629,1.6559332412916603,-0.0739531901922236,-0.9193347029929512,-0.756558448549673,0.7904449136310921,0.2988266535237021,-0.3479966556582003,-0.6437422778409058,9.898305063994483,-0.8413905486747826,0.09636598884147,-1.1139135778182685
0.96,-0.3594921374810653,0.5027733128385261,1.6497085038589854,0.063328815113154,0.1252060030838582,0.0264167353446003,-0.0488405197127093,-0.7241276466490801,-0.5145950862658103,-0.3591882921683221,0.5046930549160447,1.6414020723296077,-0.0739466781890586,-0.9593347035889976,-0.7965584491457194,0.8734555913718245,0.3343820203165922,-0.3983034555779641,-0.7017604234084096,9.816022114468067,-0.8360920095040903,0.0929436836109992,-1.1197868903527304
0.98,-0.3603937597375889,0.4881960226354545,1.639258716700296,0.0654577176896115,0.1269354819273652,0.0262056757212301,-0.0417117698571167,-0.7332416261427868,-0.529694160974677,-0.3606672908521349,0.4859063608502251,1.6258709033526535,-0.0739401661858937,-0.999334704185044,-0.8365584497417659,0.9511384675472538,0.3564374927796296,-0.4556989746853312,-0.7549537354433367,9.724152233861789,-0.8316574558924693,0.0890624273083107,-1.1251814433815268
1.0,-0.3611509713583016,0.4734212721993536,1.6284965053190172,0.0674210438069816,0.1278251916058571,0.0259285167309059,-0.0344396181311359,-0.7436887010751019,-0.5457759038456081,-0.3624793482304448,0.4515339413283152,1.6127740086515625,-0.0318487089580378,-0.8332416276329029,-0.6263529421455221,1.0254852743138678,0.3636075862990376,-0.5223537466157557,-0.8040871435465557,9.724152233861789,-0.8278590405867732,0.0849646269799469,-1.1303402334163817
1.02,-0.3617073963958541,0.4591200665866991,1.6182850149471104,0.0674127778842227,0.1283938430438506,0.0255154604426174,-0.0244534265679803,-0.7604971660725188,-0.5282634034715268,-0.3624793482304448,0.4515339413283152,1.6127740086515625,-0.0318487089580378,-0.8332416276329029,-0.6263529421455221,1.312379696255653,0.4993095781577836,-0.8404232498708475,0.8756250187040682,11.870431430422286,-0.8306703595642922,0.0802292285738036,-1.1328511005246185
1.04,-0.3620882495951996,0.4437481477798461,1.6078696542599331,0.0648854362831235,0.1290519098823909,0.0249111327687093,-0.014191544175391,-0.7755888816287735,-0.5146224617002271,-0.3624793482304448,0.4515339413283152,1.6127740086515625,-0.0318487089580378,-0.8332416276329029,-0.6263529421455221,1.139233734883036,0.5130941196294605,-0.754585777812733,0.6820470885649854,11.870431430422286,-0.828538094794381,0.0834152735926181,-1.133320645579862
1.06,-0.362268144693858,0.4281072648668339,1.5976509644265873,0.0609248203960609,0.1295105054593437,0.0241998097943629,-0.0043667040751882,-0.7873279214857445,-0.5081969896281829,-0.3627978353200252,0.4432015250519862,1.606510479230107,-0.0298760967782221,-0.8532416279309261,-0.6456846983796911,0.830089198680971,0.4912420050101418,-0.58695199284855,0.3212736036022068,10.926043211736214,-0.8276397316396038,0.0885874035543432,-1.1320954300864523
1.08,-0.3622581174211004,0.4122658934970222,1.5874890813815827,0.0568742841561163,0.1295469809977127,0.023465889476039,0.0048185596294541,-0.7962037281940175,-0.5082764814239551,-0.3634348094991859,0.4265366924993281,1.5939834203871968,-0.0259308724185905,-0.8932416285269725,-0.6843482108480291,0.6386613597831816,0.4592631852321208,-0.4437903354136518,-0.0039745897886078,10.559237612331344,-0.8265082141297002,0.0931222996687097,-1.1317705368074142
1.1,-0.3620853900549886,0.3970698261319494,1.577786122952958,0.0534857560729934,0.1291492354514176,0.0227871244778717,0.0128448742580305,-0.8030373595600355,-0.5130766801977118,-0.3640717836783467,0.4098718599466701,1.5814563615442865,-0.021985648058959,-0.933241629123019,-0.7230117233163671,0.5791419351745725,0.4013157314288187,-0.3416815683009,-0.2400099386878351,10.559237612331344,-0.826439766311435,0.0971830755697381,-1.1308089174540303
1.12,-0.3617470677775686,0.3809453746191229,1.56743417330641,0.0506215746531238,0.1283331780803963,0.0221131794608184,0.0204928338855249,-0.8091506170448823,-0.5220467885024269,-0.3645114966395258,0.3912070273642097,1.5669961270779589,-0.0180404236993275,-0.9732416297190656,-0.7616752357847051,0.6639390908399251,0.3823979813747184,-0.3056628742423406,-0.4485054152357559,10.04176292979173,-0.8262141801662765,0.0999015315110141,-1.1308091209795532
1.14,-0.3612617657519384,0.3647050905631458,1.5568794686860192,0.0485307094615874,0.12718340214539,0.0214891739746017,0.0276076348223204,-0.8147016709689395,-0.5330462366690636,-0.364951209600705,0.3725421947817492,1.5525358926116315,-0.0140951993396959,-1.013241630315112,-0.8003387482530432,0.7113762225583327,0.3557400468397795,-0.2775526962028596,-0.5499724083318336,10.04176292979173,-0.8257673839766859,0.1011118645512741,-1.1319800296113347
1.16,-0.3606379078496857,0.3483487762507885,1.5460880949440523,0.0468951969877415,0.125698875517345,0.0208929059599443,0.0343696067435236,-0.8206398872384931,-0.5455345071009856,-0.3652922919528934,0.3528773621843877,1.5371090703335957,-0.0101499749800644,-1.0532416309111583,-0.8390022607213812,0.7696485806976265,0.3380985960601563,-0.2969108134776799,-0.6244135215961011,9.942128551403584,-0.8255028046384884,0.1015829260736822,-1.133341951474366
1.18,-0.3598832722922632,0.3318740807453841,1.535033271023296,0.0454059327629986,0.1238488050962543,0.020302075017288,0.0406957872902024,-0.8264840874887643,-0.5593202130399733,-0.365534743696091,0.332212529572125,1.5207156602438514,-0.0062047506204328,-1.0932416315072049,-0.8776657731897192,0.8127436943936985,0.3163090273339414,-0.2922100125135607,-0.6892852969493823,9.86885862417057,-0.8254593315128571,0.1017975335086544,-1.1348264610808727
1.2,-0.3590543651249424,0.3161171075542731,1.5242635341782989,0.0440538294198206,0.1217486146082993,0.0197415920177483,0.0461818083262698,-0.8318055357361835,-0.57364253553688,-0.3578484829277531,0.2905498763709459,1.5070672603712971,0.0967431337331403,-0.9264840889788803,-0.614568808814147,0.8117006220946504,0.2743010518033686,-0.2660724123709601,-0.7161161248453396,9.798839067940207,-0.8258716041506875,0.1019565052146254,-1.135988665966801
1.22,-0.3581216958565777,0.2993831376824829,1.512990082844423,0.0419447372016255,0.122161653376409,0.0192291407414178,0.0472919618963942,-0.8409402605530316,-0.5510209369205348,-0.3578484829277531,0.2905498763709459,1.5070672603712971,0.0967431337331403,-0.9264840889788803,-0.614568808814147,1.221077764095959,0.0555076785062211,-0.4567362408424036,1.1310799308172637,9.728574203910284,-0.8228309608730237,0.0969387941059591,-1.1470591766740492
1.24,-0.3571333957171549,0.2824939258438337,1.502191299609444,0.0393249909837441,0.127140712745045,0.0188765043791969,0.0519972031238975,-0.8474102548852455,-0.530525063596592,-0.3578484829277531,0.2905498763709459,1.5070672603712971,0.0967431337331403,-0.9264840889788803,-0.614568808814147,1.1000919790851402,0.2352620613751632,-0.3234997166106923,1.024793666197138,12.341367261373309,-0.8213910722964917,0.102441537654482,-1.1433948366974256
1.26,-0.3560160409430026,0.2654971581054077,1.4917271259299298,0.0370592192319553,0.1344548522501865,0.0186363534358971,0.0599218044377712,-0.8520596177377749,-0.5169083505902946,-0.3568810515904217,0.2812850354811571,1.5009215722831557,0.1079526030217278,-0.9464840892769038,-0.6256185279689818,0.821326296325339,0.3962300656936868,-0.232468142626474,0.6808356503148705,11.815809436602647,-0.8151410682712874,0.1066454697328929,-1.1447142353648985
1.28,-0.3547823507323386,0.2492755745672557,1.4819887832922682,0.0355397598787415,0.1423880145651918,0.018484657467867,0.0698452577924899,-0.8553894957059794,-0.5088793234107043,-0.3549461889157589,0.2627553537015795,1.4886301961068726,0.130371541598903,-0.9864840898729502,-0.6477179662786512,0.6595989145249793,0.4961726677359373,-0.1664938984102248,0.4014513589795154,11.386852479371557,-0.8068439432587975,0.1100422506842526,-1.1478469788610897
1.3,-0.3532545838053458,0.232141604868794,1.4718632992057734,0.0348756223445073,0.1510065219300469,0.0184000568959063,0.0826715602528861,-0.8579114845633139,-0.5042868922122645,-0.3530113262410961,0.2442256719220019,1.4763388199305898,0.1527904801760781,-1.0264840904689967,-0.6698174045883207,0.6927569684140454,0.6413151230198095,-0.1260994428667228,0.2296215599219886,11.07451739084172,-0.7972661948788693,0.1119208989719119,-1.1526655130051755
1.32,-0.3514413869124314,0.2149651635528859,1.461794705188022,0.0355255149496899,0.1591674183729733,0.0183999840937963,0.0981874815647651,-0.859731523181454,-0.5029544577421862,-0.3499555166375745,0.2236959901126219,1.4629424718388233,0.1752094187532533,-1.066484091065043,-0.6919168428979903,0.7839511087194682,0.7757960655939471,-0.0910019309070031,0.0666217235039179,10.84645533965704,-0.7879334411062983,0.112068763834557,-1.1579481484360856
1.34,-0.3494060784199006,0.1986172263876523,1.452242664804657,0.0376562483943658,0.1658283725948728,0.0184833620784829,0.115308317564775,-0.8612385547806469,-0.5026095249256678,-0.346899707034053,0.203166308303242,1.4495461237470568,0.1976283573304284,-1.1064840916610896,-0.7140162812076597,0.8595247934587382,0.8560418000004982,-0.0753515799596482,0.0172466408259186,10.675547526900118,-0.7781884895581758,0.1098480786176487,-1.1644885315951718
1.36,-0.3468909913225369,0.181354223650036,1.4421903547687238,0.0410262560684786,0.1712468527833844,0.0186118900696434,0.1353218000807495,-0.8653033636017766,-0.5026782119248341,-0.343283423966102,0.1816366264789609,1.4355972896975489,0.2200472959076035,-1.146484092257136,-0.7361157195173292,1.0211107568151,1.0006741257987215,-0.2032404410564847,-0.0034343499583144,10.652921400446758,-0.7694391546638863,0.1060761371654314,-1.170802555791842
1.38,-0.3439579213832664,0.1639837789925394,1.432133283870377,0.0443335648660488,0.1746773990934532,0.0186724675188618,0.1568208849563652,-0.8715007028586461,-0.5030335916453366,-0.3391066674337217,0.1591069446397787,1.421095969690299,0.2424662344847787,-1.1864840928531823,-0.7582151578269987,1.118865451137232,1.074954243780786,-0.3098669628434747,-0.017768986025124,10.652921400446758,-0.7632485811477483,0.1024832645894028,-1.1753719568326648
1.4,-0.3407659885351426,0.147355217052739,1.4225688624199613,0.0469508609711723,0.1759783337765312,0.0186152544007578,0.1779183548287664,-0.8784409850770752,-0.5037227610187902,-0.3361168771354481,0.1204087438496071,1.4069816042881105,0.2294873139395767,-0.9192418067760064,-0.5092812941656772,1.1110194718293922,1.054873493620058,-0.3470141109214564,-0.0344584686726823,10.648949365627232,-0.7590697723485627,0.0992315390029975,-1.1786297182739545
1.42,-0.3369211103493589,0.1294578678580819,1.4127324873804306,0.0414975534915217,0.1752076149155384,0.0178909515083675,0.2055496803219545,-0.9074443420092436,-0.4782932657910552,-0.3361168771354481,0.1204087438496071,1.4069816042881105,0.2294873139395767,-0.9192418067760064,-0.5092812941656772,2.3724165366681813,1.3815662746594084,-1.4501678466084134,1.2714747613867483,10.648949365627232,-0.7606915843170908,0.1010172615052223,-1.181687648766277
1.44,-0.3325232678406913,0.1111679760848118,1.4034409835499364,0.0275951002079866,0.1720407673398899,0.0165318851712119,0.2326219008852799,-0.918631678794018,-0.452358387769579,-0.3361168771354481,0.1204087438496071,1.4069816042881105,0.2294873139395767,-0.9192418067760064,-0.5092812941656772,1.956194985523014,1.3536110281662683,-0.559366839238723,1.2967439010738102,12.613038013720145,-0.7661540680258292,0.1183318816283858,-1.172903608206043
1.46,-0.327605784010638,0.0927765840926831,1.394609993100783,0.0123584585696195,0.1663205261634371,0.0151223505371993,0.2572874667180131,-0.9195437996640756,-0.431957446035534,-0.3338220039960524,0.111216325781847,1.4018887913464535,0.244020599736219,-0.9287900275594784,-0.5105308346697454,1.6011094012952305,1.2332782916366594,-0.0456060435028826,1.0200470867022498,12.294906776942298,-0.773618851714,0.1383673275024451,-1.1616899256280513
1.48,-0.3225170926060404,0.0753523767790334,1.3865511185103785,-0.0009768444339148,0.1591435657355017,0.0139791717070517,0.2767715864602282,-0.9146624733162096,-0.4173211727901886,-0.3292322577172608,0.0928314896463269,1.39170316546314,0.2730871713295036,-0.9478864691264226,-0.5130299156778817,1.2426571968525368,0.9742059871107572,0.2440663173932988,0.7318136622672694,11.532847690493329,-0.782123755476931,0.1564519931893725,-1.1503634973904255
1.5,-0.3168033114968901,0.0571510980389596,1.3783300359448727,-0.0129518766140368,0.1507735533728699,0.0130722741254458,0.2932298169094827,-0.9058727589364995,-0.4057071992614475,-0.3246425114384693,0.0744466535108068,1.3815175395798265,0.3021537429227883,-0.9669829106933668,-0.5155289966860179,1.098882170121015,0.8229115224627215,0.439485718985505,0.5806986764370581,11.532847690493329,-0.791221082734169,0.1714050284841583,-1.1395654453542328
1.52,-0.3108001486869136,0.0391546134986627,1.3703044652897465,-0.0225551707514984,0.1424210148779707,0.012469056090369,0.3060041157563585,-0.8944902618031426,-0.3975487714309644,-0.3185994365800135,0.0551069952969394,1.371206959646106,0.3312203145160728,-0.9860793522603108,-0.5180280776941542,0.9477656575933888,0.6387149423437904,0.5691248566678464,0.4079213915241519,11.270488766706876,-0.7997425320369235,0.1830577405828732,-1.1296062204351067
1.54,-0.3045745707825034,0.0214073181660644,1.3624221476751162,-0.0297263956752278,0.1347488423168023,0.0121299310499133,0.3158051753952347,-0.8813416757422863,-0.3910472413119921,-0.3125563617215577,0.0357673370830721,1.3608963797123856,0.3602868861093575,-1.005175793827255,-0.5205271587022905,0.8820657278973872,0.4900529819438115,0.6574293030428169,0.3250765059486182,11.051937844312306,-0.8077956499670412,0.1922103097020128,-1.1207245480858905
1.56,-0.2984982767699489,0.004796242627286,1.3550464229619474,-0.0346382197078682,0.1283945623997747,0.0119876758858667,0.3232324131834471,-0.8682392334431748,-0.3856431109178047,-0.3057866225732699,0.0159502678300311,1.350523322753462,0.3893534577026421,-1.024272235394199,-0.5230262397104267,0.8000663733115788,0.3713618894106207,0.6551221149555753,0.2702065197093706,10.96220661319785,-0.8148117977272025,0.1989629288822677,-1.1130397770286888
1.58,-0.2919684182730596,-0.0124179377499,1.3473883121108312,-0.0382138152840566,0.1228898540463628,0.011964705869177,0.3292105519952881,-0.8541233566127999,-0.3804576041533158,-0.2982902191351498,-0.0043442124621833,1.3400877887693348,0.4184200292959267,-1.0433686769611432,-0.5255253207185631,0.8091439963759725,0.2989069405920475,0.7057938415187426,0.2592753382244406,10.908420126852434,-0.8202141665360233,0.2038680810408996,-1.1069489744700949
1.6,-0.2853381062514606,-0.029346381820512,1.339828473773346,-0.0403975127358367,0.1189621867165009,0.0120195310276426,0.3334087245332168,-0.8396803395368827,-0.3757922997291751,-0.2755078906732952,-0.05512410558054,1.3283654319031657,0.4165000268998253,-0.8464123097718044,-0.3230923952891038,0.7873856429402342,0.2099086268964378,0.722150853795861,0.2332652212070352,10.873861405927528,-0.8236225030651502,0.2070863976739777,-1.1027879036974215
1.62,-0.2786368753216577,-0.0461161366522402,1.3325186563631524,-0.0457794108838766,0.1176346702649141,0.0117784849498949,0.3367220885276132,-0.8358217282477439,-0.3546635624877252,-0.2755078906732952,-0.05512410558054,1.3283654319031657,0.4165000268998253,-0.8464123097718044,-0.3230923952891038,1.0866126258449516,0.1656681997198178,0.192930564456939,1.0564368620724962,11.977453880463145,-0.8252977965778996,0.211484840213799,-1.1019061734174604
1.64,-0.2721989219736502,-0.0618697298582109,1.325987819106081,-0.0538451553874359,0.119060689851614,0.011250430749427,0.3410895608055376,-0.8223172205670917,-0.3339481374450568,-0.2755078906732952,-0.05512410558054,1.3283654319031657,0.4165000268998253,-0.8464123097718044,-0.3230923952891038,1.2555629977162095,0.2183736138962194,0.6752253840326128,1.0357712521334188,11.977453880463145,-0.8281305633355992,0.2226898700048702,-1.0932284164276935
1.66,-0.2653137801312403,-0.0781167188837251,1.3195276391465895,-0.0619272552172914,0.1223829147750243,0.0106388734673433,0.3474533446215081,-0.8031188456464515,-0.3132016580172074,-0.2713428904042969,-0.063588228678258,1.3251345079502743,0.4339579218807327,-0.8448701004036052,-0.3116193535162614,1.448699203337302,0.3181891907985262,0.9599187460320068,1.0373239713924731,11.894118647387586,-0.8274674210133478,0.2338034220771185,-1.087000865368824
1.68,-0.2582804849326132,-0.0939441315795617,1.3134717451613485,-0.0683979840428506,0.1267609124246723,0.0100793937643205,0.3557931440055071,-0.7809908177196864,-0.2934047060547928,-0.2630128898663004,-0.0805164748736941,1.3186726600444925,0.4688737118425476,-0.841785681667207,-0.2886732699705766,1.5420126302135122,0.416989969199949,1.106401396338258,0.9898475981207272,11.82638672358371,-0.8251308824717729,0.2430944549899157,-1.082341920874672
1.7,-0.2510583853949508,-0.1093109693847803,1.3078079215584475,-0.0729541772039298,0.1314867517885543,0.0096356960057677,0.3661679238726726,-0.757298977821919,-0.273941934973998,-0.2546828893283039,-0.0974447210691302,1.3122108121387104,0.5037895018043625,-0.8387012629308088,-0.2657271864248918,1.6184396754104002,0.5187389933582753,1.1845919948883676,0.973138554039743,11.775866961333122,-0.8216664566214611,0.2509839957339261,-1.0787256416274569
1.72,-0.2439866888425741,-0.1234622412109127,1.3027888247063428,-0.0755256718792759,0.1357894857672917,0.0093619527670974,0.3777899634332712,-0.7339829944307934,-0.2553271298142905,-0.2446070992922166,-0.1142187463277464,1.3068962684102126,0.5387052917661774,-0.8356168441944106,-0.2427811028792069,1.6009511674136367,0.5811019780299298,1.1657991695562808,0.9307402579853712,11.763197129058426,-0.8181557356895615,0.2572286056223057,-1.0752136777580772
1.74,-0.2362874031067858,-0.1378750604671212,1.2978986522289049,-0.076458877716854,0.1397553855272537,0.0092594095439254,0.3916124093191663,-0.708725464451608,-0.2345967805969974,-0.2345313092561294,-0.1309927715863626,1.3015817246817147,0.5736210817279923,-0.8325324254580124,-0.2198350193335221,1.7739434951463902,0.6911222942947576,1.26287649895927,1.036517460864658,11.866909762927207,-0.8151503389863666,0.2615953846813423,-1.0718628653471742
1.76,-0.2282931039903677,-0.1517713111743316,1.2934344372394546,-0.0751450579270254,0.1427685652183995,0.009411913632671,0.4071404819954816,-0.6824200696298905,-0.212791214027241,-0.2235826244709967,-0.1476896863765688,1.2968408330418588,0.6085368716898072,-0.8294480067216141,-0.1968889357878373,1.87655107257666,0.7764036338157615,1.3152697410858727,1.0902783284878204,11.866909762927207,-0.8135316888365968,0.2638963578547585,-1.0678606089522975
1.78,-0.2203979288271037,-0.1644841176835844,1.289609186394988,-0.0714099128746985,0.1443768078126484,0.0098492835195573,0.4230424560314013,-0.6579450628371384,-0.1908865200865256,-0.2117610449368188,-0.1643094906983651,1.2926735934906453,0.6434526616516221,-0.8263635879852159,-0.1739428522421525,1.824633081184231,0.7950987017959876,1.2237503396376082,1.0952346970357698,12.011043482420064,-0.81252973263832,0.2638483956294621,-1.06384015345321
1.8,-0.2117558464695625,-0.1774013974106122,1.2860469381002646,-0.0659968873831585,0.1446351158994535,0.0105351412190586,0.4402264279641766,-0.6354904147166051,-0.1663910596447216,-0.1992458060255337,-0.1973813708254413,1.2800648603906617,0.5150570891505076,-0.6012455223710682,-0.1038073005664335,1.8705130952892053,0.8591985966387661,1.1227324060266664,1.2247730220901962,12.011043482420064,-0.8140936864206078,0.2623863824796652,-1.0579264570717566
1.82,-0.2027482486891537,-0.1900778783720305,1.282906988671316,-0.0657831494056005,0.1424110743254469,0.0110374277428956,0.4595909939065958,-0.6314453224392957,-0.1493732259733325,-0.1992458060255337,-0.1973813708254413,1.2800648603906617,0.5150570891505076,-0.6012455223710682,-0.1038073005664335,1.304756537191243,0.96822829712096,0.2022546138654657,0.8508916835694547,11.481147566334585,-0.8198692302835318,0.266646335526948,-1.046353259230357
1.84,-0.1933644091899885,-0.2025605164025582,1.2801095482105245,-0.0721215931951927,0.1366304653541205,0.0113692780321977,0.4772084314547304,-0.6158094705864419,-0.1311781375193151,-0.1992458060255337,-0.1973813708254413,1.2800648603906617,0.5150570891505076,-0.6012455223710682,-0.1038073005664335,1.488216392847774,0.8808718774067276,0.7817925926426939,0.9097544227008744,11.481147566334585,-0.826439258989776,0.275452342736832,-1.0353602133390591
1.86,-0.184164363583901,-0.214047943273868,1.2778048994876203,-0.0790132442074886,0.1291544673749856,0.01185029241288,0.4899741607667194,-0.5941541884659473,-0.1122902540868992,-0.1940952351340286,-0.203393826049152,1.2790267873849974,0.5334600157743289,-0.5899056142778542,-0.0863914566624152,1.5721539596535388,0.6382864655994525,1.0827641060247306,0.9443941716207938,11.616746077525022,-0.8351074450511203,0.2862673698130853,-1.0209309025977666
1.88,-0.1742607017729405,-0.2256562058487367,1.2757815017639642,-0.0853477841724032,0.1207140953027702,0.0125622491381788,0.4994135270074559,-0.5679314020129201,-0.0909303487327228,-0.1837940933510184,-0.2154187364965734,1.2769506413736686,0.5702658690219714,-0.5672257980914261,-0.0515597688543783,1.7556919726472444,0.4719683120368245,1.3111393226513557,1.067995267708817,11.722957992992631,-0.8456626121272631,0.2967127749899715,-1.0035126618180077
1.9,-0.164207885633054,-0.2367132786888377,1.27419815602956,-0.0900272772746219,0.1128871910121691,0.0134217414597926,0.5052817982304401,-0.5395316222248913,-0.0683943880064809,-0.1734929515680083,-0.2274436469439947,1.27487449536234,0.6070717222696139,-0.544545981904998,-0.0167280810463415,1.83633713204422,0.2934135611492056,1.419988989401444,1.1267980363120975,11.817769189230605,-0.8572435673023107,0.3058909930794672,-0.9837925705792342
1.92,-0.1545788509278202,-0.2466802226030946,1.2731221284002574,-0.0928362902537326,0.1068180329492853,0.0142864459401223,0.5079148672710629,-0.5114972078663595,-0.0459247542975066,-0.161351517122616,-0.2383345665820947,1.2745399337414134,0.6438775755172564,-0.5218661657185699,0.0181036067616952,1.8012120086305825,0.1316534520311441,1.4017207179265856,1.1234816854487115,11.878904768951545,-0.867782181978381,0.3137766484791975,-0.9647663568364652
1.94,-0.1444180367249117,-0.2565928102425701,1.2724609329913557,-0.0941767845934172,0.1027723853328077,0.015130881282359,0.5078713023393517,-0.4814583031609026,-0.0212874923108893,-0.1492100826772237,-0.2492254862201947,1.2742053721204865,0.680683428764899,-0.4991863495321418,0.052935294569732,1.9425063526305493,-0.0021782465855602,1.5019452352728446,1.231863099330868,12.013237067795671,-0.876545975885565,0.3202787463450511,-0.947093131461184
1.96,-0.1342733904363882,-0.2658875398537292,1.2723017122561229,-0.0933878568664007,0.1018180065868647,0.0158579143455131,0.5069917943408544,-0.4499321316301952,0.0042252921568306,-0.1361485019006404,-0.2595494104536339,1.274741602694761,0.7174892820125415,-0.4765065333457138,0.0877669823777688,2.028284494960792,-0.0439753999248671,1.5763085765353706,1.2756392233859992,12.013237067795671,-0.887080675587808,0.326360505669592,-0.9247666772314188
1.98,-0.1241295439383359,-0.2745449459039764,1.2726665129817345,-0.0898764888672062,0.1032416424293511,0.016572200534356,0.5077169430459456,-0.4182059719199328,0.0311112699251457,-0.122166774792866,-0.2693063392824125,1.2761486254642356,0.754295135260184,-0.4538267171592858,0.1225986701858056,2.079621871377048,0.0362574352545608,1.5863079855131217,1.344298888415757,12.08379275995685,-0.8951612494809884,0.330672919775985,-0.9051235107913518
2.0,-0.1144601775147682,-0.2822111620264711,1.273529166518282,-0.0847436060568024,0.105902461176825,0.0172799302178931,0.5102531479125909,-0.3908985347677172,0.058447310079163,-0.0987436967860386,-0.295455244499973,1.2742220764779917,0.5753727895225005,-0.323815080427566,0.1311112714152619,1.9360962981279128,0.1268102433322648,1.365371857610781,1.366802007700861,12.08379275995685,-0.9035553369967732,0.3344912841855573,-0.8840352502443808
2.02,-0.1041530285056189,-0.2898665230278524,1.2748410120816065,-0.0819838789062683,0.1069477622632858,0.0180100152246642,0.5202656297411717,-0.3749272218129223,0.0702970486884746,-0.0987436967860386,-0.295455244499973,1.2742220764779917,0.5753727895225005,-0.323815080427566,0.1311112714152619,1.1132710080845878,0.5006240914290416,0.7985656477397435,0.59248693046558,12.148583405248246,-0.9073109735744794,0.3395197160388147,-0.8694573922380477
2.04,-0.0936491719332082,-0.2971589204718389,1.2763926645912254,-0.0831739024823855,0.1036419420557281,0.0188446663884774,0.5291659723082185,-0.3547027529700597,0.0844141458385091,-0.0987436967860386,-0.295455244499973,1.2742220764779917,0.5753727895225005,-0.323815080427566,0.1311112714152619,1.311046976399222,0.4450171283523374,1.0112234421431276,0.7058548575017288,10.87000328119575,-0.9150351670595804,0.3464508456147491,-0.8514403762686061
2.06,-0.0835403262391174,-0.3036801731622453,1.2781653620867008,-0.0861266064462361,0.0978460385931231,0.0197663094630355,0.5340683303322058,-0.3323374213428328,0.101502967185703,-0.0929899688908136,-0.2986933953042486,1.275533189192144,0.5889039588178114,-0.3049369021290927,0.1511112717132851,1.4285210779224622,0.2451179011993653,1.118266581361349,0.8544410673596937,11.132539980774707,-0.9270326440467828,0.3565111372914115,-0.825159816758343
2.08,-0.0728427645149979,-0.3100456977872763,1.2804111823373971,-0.0895485209528579,0.0907215946371893,0.0208534246052815,0.5351185319948812,-0.30533806895927,0.1223559334174293,-0.0814825131003636,-0.3051696969128,1.2781554146204492,0.6159662974084334,-0.2671805455321459,0.1911112723093316,1.7065419371682602,0.0525100831337721,1.3499676191781385,1.042648311586314,11.346310219443694,-0.9412100541581984,0.3666220847443453,-0.7958755093749191
2.1,-0.062164885626348,-0.315846702607611,1.28309780600512,-0.0923030615076415,0.083980760872129,0.0220035721942248,0.5324158587894161,-0.2762517274615365,0.1454082054179259,-0.0699750573099136,-0.3116459985213513,1.2807776400487545,0.6430286359990554,-0.2294241889351992,0.231111272905378,1.860595972103556,-0.1351336602732566,1.454317074886674,1.1526136000248293,11.515923424310133,-0.9559032252841106,0.3763563361256589,-0.7651556439871104
2.12,-0.0515801742044919,-0.321051032375631,1.2862661736985903,-0.0939456410833478,0.0789061213097077,0.0231168958624033,0.5260767346570945,-0.2459289067801085,0.1703586548942242,-0.0571144845899325,-0.3162344823000553,1.285399865506862,0.6700909745896773,-0.1916678323382525,0.2711112735014244,1.988833123914834,-0.3169562066160813,1.5161410340714,1.247522473814916,11.63316765244599,-0.9688116042739164,0.3849814933196644,-0.7367843747386992
2.14,-0.0416732439297973,-0.325424689613702,1.289746960028492,-0.094252890061732,0.0768290625488213,0.024028927643299,0.5172383455089387,-0.2161880883918955,0.1948681045625895,-0.0442539118699514,-0.3208229660787592,1.2900220909649696,0.6971533131802993,-0.1539114757413057,0.3111112740974709,1.976958854011028,-0.4419194574077911,1.4870409194106509,1.225472483418263,11.739585511687435,-0.9812971387484356,0.392762556989114,-0.7092888844629479
2.16,-0.0314222148285035,-0.3294055705819344,1.2939258271128593,-0.0927115138166386,0.0777555739673821,0.0248442153359899,0.5086513742633543,-0.1836721746551959,0.2218570049117585,-0.0307167806852047,-0.3244675409425396,1.2956443164379785,0.7242156517709212,-0.116155119144359,0.3511112746935174,2.156050476775972,-0.4293485622792192,1.6257956868349812,1.3494450174584491,11.775790246775614,-0.9929262414311764,0.3990460622990874,-0.6844279752355032
2.18,-0.0213245544841086,-0.3327332124402533,1.2986599142650042,-0.0887490123323134,0.0809870670290843,0.0256355302785768,0.5018900774270333,-0.1516222335216751,0.2503462396615344,-0.0165030910356925,-0.3271682068913962,1.3022665419258883,0.7512779903615431,-0.0783987625474123,0.3911112752895638,2.170570407864503,-0.3380648418160492,1.6024970566760388,1.4244617374887956,11.814542186467406,-1.0018089771694585,0.4037956009545835,-0.66471090782484
2.2,-0.01183447694201,-0.3353307617156053,1.3037014334101331,-0.0837148012941338,0.0853248031643531,0.026390588366839,0.4976279987527627,-0.1238117733310103,0.2789970834961804,0.003769949387243,-0.340314324116337,1.311177226248081,0.548925600185994,-0.0516222320315589,0.3503462411516505,2.007771067053897,-0.2131039337135265,1.3905230095332386,1.432542191732303,11.85479350521564,-1.0104587082860723,0.4079581098895793,-0.6463383780202138
2.22,-0.0018573512198923,-0.3375330197955454,1.3093818544933185,-0.0779198108593248,0.0881676772153539,0.0273908794862657,0.5002412647821344,-0.0982385393028033,0.2863814760007266,0.003769949387243,-0.340314324116337,1.311177226248081,0.548925600185994,-0.0516222320315589,0.3503462411516505,1.3373001819551509,0.1306633014685809,1.2786617014103523,0.3692196252273072,11.904234247261227,-1.013856274834979,0.4118547287931482,-0.6343512373639417
2.24,0.0081704852823152,-0.3392559893623329,1.315212157398889,-0.0724431670875436,0.0869433566059484,0.0286980484813689,0.5021106264617967,-0.0752426303165239,0.2964283837491243,0.003769949387243,-0.340314324116337,1.311177226248081,0.548925600185994,-0.0516222320315589,0.3503462411516505,1.2582196732878643,0.093468083983117,1.1497954493139693,0.5023453874198835,10.310740269822418,-1.0171830566918325,0.4122434529565411,-0.6277358835336991
2.26,0.01771251574779,-0.3404781498789084,1.320980041693243,-0.0680163414624604,0.0830882513889865,0.0300739151249667,0.5018997880393878,-0.054423875567729,0.3102260180280238,0.0092592053891029,-0.3408305464366526,1.3146806886595974,0.5583327047377862,-0.0316222317335357,0.3703462414496737,1.2488391748190544,-0.0105419211204438,1.040937737439742,0.6898817139449759,10.84592315865848,-1.023627280074853,0.4135816665733741,-0.615574827985264
2.28,0.0277164821413386,-0.3413447136143343,1.327368654223197,-0.0642405416674857,0.0776047581483741,0.0315430716362522,0.4982099396649669,-0.0332215800925617,0.3280705803790313,0.0202377173928228,-0.3418629910772838,1.3216876134826303,0.5771469138413704,0.0083777688625106,0.4103462420457202,1.3978382595471426,-0.1844924187210439,1.0601147737583665,0.8922281175503782,10.84592315865848,-1.0320575702721058,0.4155426112729155,-0.6001416851210721
2.3000000000000003,0.0376085499794734,-0.3417912875349811,1.334140554645911,-0.0612846207210442,0.0722121626834632,0.0329368744284452,0.4909472536236974,-0.0124094629976109,0.3483311071936962,0.0312162293965427,-0.342895435717915,1.3286945383056634,0.5959611229449547,0.0483777694585571,0.4503462426417666,1.4969801045068627,-0.3631343020634781,1.0406058547475412,1.0130263407332445,11.034544963073133,-1.0407300926172869,0.4178178023684898,-0.5842867108368377
2.32,0.0473185641026488,-0.3418245180862033,1.3413367465293018,-0.0589835973177789,0.0683870510388397,0.0341835153817934,0.4802122288495359,0.0081106922826007,0.370355792104912,0.0431354518554418,-0.3419278803287438,1.3377014631584987,0.6147753320485391,0.0883777700546035,0.490346243237813,1.5979708031314226,-0.536751238708072,1.0260077640105816,1.1012342455607893,11.166406289468796,-1.0480267058633017,0.4200627976047482,-0.5709181488288843
2.34,0.0563167039716528,-0.3414788021706797,1.3485874587808049,-0.0572853597087596,0.0675169497021285,0.0351728368487918,0.4678564509486005,0.0273357419864008,0.3918014666061161,0.0550546743143409,-0.3409603249395727,1.346708388011334,0.6335895411521233,0.12837777065065,0.5303462438338595,1.566991335699105,-0.6177888950467697,0.9612524851900084,1.072283725060205,11.276857114301492,-1.054465329706317,0.4222725400901399,-0.5598889202040885
2.36,0.0655468723990231,-0.3407142801083105,1.3566674179149651,-0.0556927571938378,0.0694188272964224,0.0360473338654327,0.456120051918482,0.0480585094800349,0.415123717425226,0.0674442520008296,-0.3389927695355004,1.3567153128790703,0.6524037502557076,0.1683777712466964,0.5703462444299059,1.6666609868677984,-0.5868199515059291,1.0361383746817043,1.166112540955494,11.291384720028873,-1.0590740351468717,0.4242147150650728,-0.5527675905592335
2.38,0.0745630459680244,-0.3395323235836996,1.3652225692604525,-0.0539533116080243,0.0733528261159176,0.0368307469332691,0.4463752009320238,0.0689765679245027,0.4392813529947638,0.0803041849149079,-0.3360252141165269,1.3677222377617082,0.6712179593592918,0.2083777718427429,0.6103462450259524,1.670418095975555,-0.4872425493229082,1.0459029222233878,1.207881778476888,11.34700618397892,-1.062445406963664,0.4261907954852981,-0.5479583616152282
2.4,0.0834090605307461,-0.337932961956816,1.374271562956552,-0.0519236332363679,0.0784569236417992,0.0375859081248019,0.4392879558181926,0.0887182649129186,0.4631688076797316,0.0968818060146256,-0.3360834951874745,1.3871866369101906,0.4681082558232525,0.1689765694146188,0.5392813544848799,1.5894764347202075,-0.3543622556915593,0.9870848494207948,1.1943727342483916,11.34700618397892,-1.0648995283100249,0.4281292147142032,-0.5446782107929906
2.42,0.0917624619492869,-0.3360150668757785,1.383114382961187,-0.0488872657041743,0.0810283830268938,0.0385099166097335,0.4403181025686563,0.1103365704600412,0.4651416066532617,0.0968818060146256,-0.3360834951874745,1.3871866369101906,0.4681082558232525,0.1689765694146188,0.5392813544848799,1.0866281250342802,0.051507337523185,1.080915277356132,0.0986399486765071,11.388006935793785,-1.0629306662526432,0.4289388353967394,-0.546831033504447
2.44,0.1005756510253158,-0.3336163226917938,1.3924577956693156,-0.0451289130603918,0.0788293208873883,0.039762148119528,0.4405500142051734,0.1284231602873436,0.4694822286036421,0.0968818060146256,-0.3360834951874745,1.3871866369101906,0.4681082558232525,0.1689765694146188,0.5392813544848799,0.9300799878294794,0.0115955818258545,0.9043294913651196,0.2170310975190159,9.881217136990928,-1.064106731516169,0.429208485058509,-0.5438614114225254
2.46,0.1093564413324551,-0.3308744622799757,1.4019404264378703,-0.0419101712771176,0.073294610120335,0.0411130682018055,0.4370529079839356,0.1449981522540822,0.4785478700828018,0.1015628885728582,-0.3343937294933283,1.3925794504550395,0.4724548668014982,0.188976569712642,0.5592813547829031,0.9606585840567008,-0.1748553110618889,0.8287495983369294,0.4532820739579862,10.167842880074204,-1.0676445707137152,0.4297446750810919,-0.5366665822301989
2.48,0.1175914012432137,-0.3279708796356831,1.4111479465873973,-0.0395827489424899,0.0668844740061504,0.0423768754563469,0.4297587247749374,0.1599914375851447,0.4902122843006313,0.1109250536893232,-0.331014198105036,1.403365077544737,0.4811480887579897,0.2289765703086885,0.5992813553789496,1.017426008059294,-0.3647091604499108,0.7496642665531252,0.5832207108914744,10.58324573828395,-1.0727381404630232,0.4307055510061123,-0.5265700149375484
2.5,0.1260724129822684,-0.3246118544130408,1.4211046843257602,-0.0379487723558817,0.0605268537810292,0.0436215780331799,0.4185302196333066,0.1752151992539992,0.5049626951684542,0.1202872188057883,-0.3276346667167436,1.4141507046344346,0.4898413107144811,0.268976570904735,0.639281355974996,1.199392416846233,-0.5614252570815409,0.7611880834427237,0.737520543391143,10.58324573828395,-1.078130537068973,0.4320064202786082,-0.515966163139122
2.52,0.1342920495480406,-0.3209532379348994,1.4313773202230629,-0.0372474561446397,0.0559733321078798,0.0447272474599774,0.4037953396025254,0.1899489727770326,0.521637963685704,0.1300840450200779,-0.3222551352986489,1.4269363317539343,0.4985345326709726,0.3089765715007814,0.6792813565710425,1.3344149952993811,-0.7367440015390581,0.7366886761516713,0.8337634258624937,10.734885176537318,-1.0825134666670555,0.4335655474910032,-0.5071758816089932
2.54,0.1421844812227886,-0.317003353464899,1.441992604788639,-0.0375946869410797,0.0547149415659382,0.0456383775767841,0.3865731450422666,0.2044425856010648,0.5390783081138504,0.1398808712343675,-0.3168756038805542,1.4397219588734345,0.5072277546274642,0.3489765720968279,0.719281357167089,1.4237577145855398,-0.8611097280129432,0.7246806412016096,0.8720172214073174,10.860743586863464,-1.086016891688355,0.4354269395623064,-0.5007682979393067
2.56,0.1497427625817391,-0.3127495966433256,1.4529651600539977,-0.0386536338180942,0.0567534871528864,0.0463785448583178,0.3705456652695985,0.2202033208802338,0.5573369968694407,0.1498950279975694,-0.3104960724475583,1.4535075860078357,0.5159209765839556,0.3889765726928743,0.7592813577631353,1.4479818709818553,-0.8013739886334026,0.7880367639584481,0.9129344377795168,10.930664189622805,-1.08885958737354,0.4378616257496006,-0.4961113721691873
2.58,0.1566473672558554,-0.3084025649583108,1.463738328589573,-0.0397580792384495,0.0608695581828006,0.0469899813691802,0.3573779510947235,0.2365112348459182,0.5757870878387127,0.1601265153096836,-0.3031165409996613,1.4682932131571378,0.5246141985404471,0.4289765732889207,0.7992813583591818,1.3961935855011127,-0.65838570874375,0.8153956982842228,0.9225045484635984,10.930664189622805,-1.0903384851837756,0.4403556570329799,-0.4942278204507321
2.6,0.1636726893621124,-0.3034801170404983,1.4754710796443966,-0.0405168647642158,0.0665321821713731,0.0476059976960058,0.34613728433714,0.2548239868889558,0.5965827924510614,0.1745162648105916,-0.2965770032160149,1.4925276829815086,0.3383672247322567,0.3365112363360344,0.6619617323685322,1.495134447858186,-0.5620333378791753,0.9156376021518794,1.0397852306174349,10.983891604284509,-1.089907947479266,0.4422976930998333,-0.4960164534992384
2.62,0.1705815324845922,-0.2981402052424582,1.4873626133116722,-0.0388857792409623,0.0694856883353217,0.04849621129969,0.3453462127495176,0.2777037226153063,0.5901606935690883,0.1745162648105916,-0.2965770032160149,1.4925276829815086,0.3383672247322567,0.3365112363360344,0.6619617323685322,1.188856020734029,-0.0395535793811213,1.1439867863175217,-0.3211049440986546,11.059988122534378,-1.085660278948455,0.4431678517406086,-0.5015324704202955
2.64,0.1774777970178849,-0.2923868927272542,1.4991209599978816,-0.0345961100362969,0.0661817933663132,0.0498033489121682,0.3435065180246583,0.2958779686299242,0.5861680377456507,0.1745162648105916,-0.2965770032160149,1.4925276829815086,0.3383672247322567,0.3365112363360344,0.6619617323685322,0.9349184394974788,-0.0919847362429643,0.908712300730896,-0.1996327911718776,9.6442122008566,-1.087175759250389,0.4435457265715529,-0.4976264873282331
