t,x,y,z,roll,pitch,yaw,v_x,v_y,v_z,ref_x,ref_y,ref_z,ref_v_x,ref_v_y,ref_v_z,a_com,a_x,a_y,a_z,thrust,wind_x,wind_y,wind_z
0.0,2.3015212254471145,-2.506789633098105,2.5807113428299657,0.0212066804690112,0.09945664745801,0.0415332904697933,-0.0002626745780259,0.0031344208353165,5.8679368191950736e-05,2.3015208901995163,-2.50680211794747,2.58071045101136,-0.1000772285914727,0.1005164421514595,-0.0646205985050012,0.1572977683810173,-0.0131337289012989,0.1567210417658293,0.0029339684095975,10.257225868215755,-0.9412410824847792,0.2604226506191126,-0.876368825835081
0.02,2.3016956570263627,-2.5069898182376646,2.5806520160057573,0.0129019416754253,0.093837604611234,0.0408796152642327,0.0169880463607624,-0.0185215506757869,-0.0060608832793685,2.3015208901995163,-2.50680211794747,2.58071045101136,-0.1000772285914727,0.1005164421514595,-0.0646205985050012,1.4177601366196422,0.8625360469394208,-1.082798575555176,-0.305978132378026,10.256470744908256,-0.9493500238184176,0.2596915206940929,-0.8755987856898965
0.04,2.3021301349214944,-2.507350674824947,2.5804404967480234,-0.002521378199994,0.0788857004363804,0.0397965205411264,0.0264244486473003,-0.0176639566438854,-0.0157851857134032,2.3015208901995163,-2.50680211794747,2.58071045101136,-0.1000772285914727,0.1005164421514595,-0.0646205985050012,0.6788652544237006,0.4718201143268934,0.0428797015950728,-0.4862151217017323,9.629673923544942,-0.9569498200915678,0.2765946648085615,-0.8568898614266564
0.06,2.3026627411916114,-2.507624630159177,2.5800114881784757,-0.0193416905462122,0.0572305024264392,0.0390024371072511,0.0252259357807264,-0.0093805836265961,-0.0266039692809391,2.3005201179136017,-2.505796953525955,2.5800642450263096,-0.1200772288894959,0.1205164424494827,-0.0775433533887674,0.6839166241510813,-0.0599256433286914,0.4141686508644648,-0.5409391783767958,9.629673923544942,-0.9705196465260796,0.2914756249214356,-0.8340035120900787
0.08,2.303058509003008,-2.507691937781782,2.579364438799771,-0.0355243239808756,0.0335076225428463,0.0387421669486478,0.0136041529476352,0.0025748546113161,-0.0375794266536806,2.298518573341772,-2.503786624682926,2.578771833056209,-0.1600772294855424,0.1605164430455292,-0.1033888631562997,0.9980718964845864,-0.5810891416545614,0.5977719118956162,-0.5487728686370744,9.554729393543312,-0.9876192896295676,0.3043254028874529,-0.8082141889475375
0.1,2.3031222871093378,-2.5074892852952573,2.578497477556547,-0.0509201596981558,0.0108652836226246,0.0389397588185898,-0.007005339130838,0.0174232163730006,-0.0486029467321048,2.2965170287699426,-2.501776295839897,2.5774794210861094,-0.2000772300815888,0.2005164436415757,-0.1292343729238321,1.384506234780046,-1.0304746039236634,0.7424180880842233,-0.5511760039212114,9.554729393543312,-1.0047450231212414,0.3147777105045711,-0.7832951670322914
0.12,2.3027313993337124,-2.506987502470278,2.57746867591522,-0.0645683690737626,-0.0077563276145552,0.0394068566741261,-0.0331640679122892,0.0347371111071882,-0.05916738968221,2.29251548416831,-2.4977659669670658,2.574894733627633,-0.2400772306776353,0.2405164442376221,-0.1550798826913644,1.6550358736097546,-1.3079364390725607,0.865694736709381,-0.5282221475052598,9.586329531021876,-1.0215053118864923,0.3239622722554903,-0.7592344269010495
0.14,2.3017338314208176,-2.5060644656336324,2.576164947328432,-0.0773181197798841,-0.0232837127357447,0.0400398524558252,-0.0652770547310472,0.0565572581733975,-0.0706577791475675,2.288513939566679,-2.493755638094234,2.572310046169156,-0.2800772312736818,0.2805164448336686,-0.1809253924588968,2.0244701717229163,-1.605649340937898,1.0910073533104678,-0.574519473267875,9.630306814689902,-1.0356412896694789,0.3309950407843868,-0.7396823850732989
0.16,2.3000462053057134,-2.504665303434349,2.574627708261606,-0.0876038773326862,-0.0338518347998249,0.0406591767686989,-0.1016595882755153,0.0816583756640892,-0.0824548839275898,2.283512394950146,-2.488745309206501,2.569079220966491,-0.3200772318697282,0.3205164454297151,-0.2067709022264291,2.2874256969280315,-1.8191266772234047,1.2550558745345812,-0.5898552390011143,9.703602299422528,-1.0450681359622571,0.3357891138128197,-0.7273233053968647
0.18,2.2977374691282413,-2.502855312725369,2.5729475014903507,-0.094907469044502,-0.0384977617267432,0.0410407973452558,-0.1392336884888372,0.1070205730656001,-0.0937521590269341,2.277510850318712,-2.482734980303868,2.565202258019638,-0.3600772324657746,0.3605164460257615,-0.2326164119939615,2.335959379218863,-1.878705010666096,1.2681098700755455,-0.5648637549672166,9.703602299422528,-1.0511914070151902,0.3384235630491803,-0.7217083097087237
0.2,2.2945427291868645,-2.50042634270019,2.5709501338299927,-0.1003148905696114,-0.0376817427600182,0.0410886850336828,-0.1776798874299472,0.1341891115114702,-0.1052706629107524,2.2907757847037997,-2.497504284072089,2.568259893539004,-0.2392336899789533,0.2070205745557162,-0.1425697079277768,2.4232806410038767,-1.9223099470554992,1.358426922293504,-0.575925194190914,9.747800682573596,-1.054254304230976,0.3386590571592719,-0.7229940034721613
0.22,2.290559606917156,-2.4973151252124546,2.56881592167298,-0.0997340487554298,-0.0311046781113285,0.0409781599181861,-0.2179606486642319,0.1741014008928685,-0.1067415127382017,2.2907757847037997,-2.497504284072089,2.568259893539004,-0.2392336899789533,0.2070205745557162,-0.1425697079277768,2.836236048221675,-2.0140380617142366,1.9956144690699145,-0.0735424913724629,10.493721563159852,-1.0552689126560149,0.3365950263992133,-0.7256714076888133
0.24,2.286082526755853,-2.493704515346978,2.5667882081406264,-0.0932558854670342,-0.0201514617155847,0.0408558481648366,-0.2505403354690306,0.2028197968605954,-0.1064811780620274,2.2907757847037997,-2.497504284072089,2.568259893539004,-0.2392336899789533,0.2070205745557162,-0.1425697079277768,2.171549005549696,-1.6289843402399362,1.4359197983863468,0.0130167338087107,10.357082356877072,-1.0516034963002374,0.330900808089301,-0.7364343807509495
0.26,2.2807686811081034,-2.4893951069378897,2.5646502160466262,-0.0851511877975028,-0.0061344460443867,0.0406769617072322,-0.2785122023914073,0.2263774039895255,-0.1073832007554697,2.28838344780401,-2.495434078326532,2.5668341964597263,-0.2592336902769765,0.2270205748537394,-0.1523332177079453,1.8290706914329848,-1.3985933461188342,1.177880356446506,-0.0451011346721118,10.357082356877072,-1.0449125208574284,0.3247200253398531,-0.7505024321797407
0.28,2.2749577115872985,-2.484654493182761,2.562472798277111,-0.0775493554181108,0.0085515800631998,0.0405159518689185,-0.3007315742129581,0.2465141323355823,-0.1104216872911463,2.283598774004431,-2.4912936668354178,2.5639828023011706,-0.299233690873023,0.2670205754497858,-0.1718602372682824,1.5070009232368609,-1.1109685910775406,1.006836417302838,-0.1519243267838317,10.02342363175103,-1.036878344318847,0.3193270593792282,-0.7649327325547381
0.3,2.2687569739635083,-2.4795351517277364,2.5602081954767697,-0.0710989705572037,0.0224617603647384,0.0404317444003777,-0.3180056722582072,0.2646260802654992,-0.1159141441867413,2.278814100204852,-2.487153255344303,2.5611314081426158,-0.3392336914690694,0.3070205760458323,-0.1913872568286195,1.2812144666710437,-0.8637049022624521,0.9055973964958456,-0.2746228447797476,10.02342363175103,-1.028699847276961,0.3151369156657057,-0.7782280528805705
0.32,2.2625847564821657,-2.4743483724846405,2.557934101721018,-0.0661245494734286,0.0340861194622199,0.0404512902782206,-0.3307692610899366,0.2806659162320654,-0.1232344653191176,2.2720294263754703,-2.4810128438233865,2.557303663006043,-0.3792336920651158,0.3470205766418787,-0.2109142763889565,1.0883159458320364,-0.63817944158647,0.8019917983283081,-0.3660160566188147,9.879304147378209,-1.0199524836513458,0.3114868213753391,-0.7917058240443478
0.34,2.255855253217179,-2.4685669834482926,2.5553746512042603,-0.0620398333712852,0.0441278465849444,0.0405818034608899,-0.3414355954371279,0.2967860880670312,-0.132428927207634,2.265244752546089,-2.47487243230247,2.5534759178694704,-0.4192336926611624,0.3870205772379252,-0.2304412959492936,1.070243848165315,-0.5333167173595665,0.8060085917482918,-0.4597230944258221,9.758274427065771,-1.0119674526896487,0.3085739623900622,-0.803620451200671
0.36,2.2489291321630165,-2.462459313141946,2.552617293189475,-0.0587244364508877,0.0518403698456894,0.040829371146454,-0.3506333694938572,0.313168984023315,-0.1429157366912667,2.2574600787018064,-2.467732020766652,2.5491599972438896,-0.4592336932572088,0.4270205778339717,-0.2499683155096307,1.075838627140556,-0.459888702836464,0.8191447978141891,-0.5243404741816351,9.68373081412392,-1.004957983031334,0.3063588392484958,-0.8135123687440213
0.38,2.241829210268328,-2.45602565947916,2.549639084484982,-0.0557454467954851,0.0574708188335364,0.0411894599784217,-0.3589657460309755,0.3293235192875633,-0.1543990813272687,2.248675404842623,-2.459591609215933,2.5443559011293004,-0.4992336938532552,0.4670205784300181,-0.2694953350699677,1.075017107293368,-0.4166188268559162,0.8077267632124185,-0.5741672318001003,9.629355966922958,-0.9995154462275588,0.3044045789062627,-0.8212487757033393
0.4,2.2349335648995377,-2.44961826784563,2.5465898061579324,-0.0530713810988364,0.0612219489321376,0.0416152639113986,-0.3665336157042761,0.3442635386188985,-0.1660153222445011,2.223880922966779,-2.4395594835147816,2.5419191304186186,-0.4589657475210916,0.4293235207776795,-0.2067506156938764,1.019085229580817,-0.3783934836650321,0.7470009665667576,-0.5808120458616173,9.58930625802077,-0.9949566442080148,0.3023734083247402,-0.8279354588962226
0.42,2.227540219447448,-2.4425673669803127,2.5432750958405768,-0.0504551405660833,0.0634575729100395,0.0421398919125705,-0.3724615585714464,0.3600511246889342,-0.1641323613388678,2.223880922966779,-2.4395594835147816,2.5419191304186186,-0.4589657475210916,0.4293235207776795,-0.2067506156938764,0.8484307902347786,-0.2963971433585149,0.789379303501786,0.0941480452816626,9.557389873978536,-0.9982144723170372,0.299964694842023,-0.826460116269741
0.44,2.220032660616842,-2.435218708880704,2.539998671796301,-0.0485031318366248,0.0637278880820053,0.0427114328770465,-0.3781135926607247,0.3741878593936267,-0.1638536141529554,2.223880922966779,-2.4395594835147816,2.5419191304186186,-0.4589657475210916,0.4293235207776795,-0.2067506156938764,0.7613646587721202,-0.2826017044639112,0.7068367352346255,0.013937359295621,10.417512416183854,-0.9986407753341204,0.3004638428373736,-0.8239808851880618
0.46,2.212791218202106,-2.427979148172263,2.53685820763375,-0.0474978094824645,0.0621963123139238,0.0432739282345055,-0.3839922366844923,0.3872672783987137,-0.1667168413961483,2.219291265491568,-2.4352662483070047,2.53985162426168,-0.4789657478191149,0.4493235210757027,-0.2172209225671979,0.7311424746842619,-0.2939322011883793,0.6539709502543484,-0.1431613621596453,10.210782045094676,-1.000070955810134,0.301468233675991,-0.820197290533848
0.48,2.205039143223316,-2.42009470119473,2.5334710164001093,-0.0473761725119368,0.0588580761269618,0.0438752217761216,-0.391052451581338,0.4005545787054327,-0.1719438990272407,2.210111950541146,-2.4266797778914517,2.5357166119478025,-0.5189657484151613,0.4893235216717492,-0.238161536313841,0.7964312828319536,-0.3530107448422886,0.664365015335952,-0.2613528815546218,10.03573267997126,-1.00280329167596,0.3026681140709874,-0.8153747271261836
0.5,2.197131147102728,-2.41194664042422,2.529959191331614,-0.0483453119017178,0.053975442869292,0.0444714057782708,-0.3996475650790719,0.4137019188445042,-0.1789638969760974,2.2009326355907244,-2.418093307475897,2.531581599633925,-0.5589657490112078,0.5293235222677957,-0.2591021500604841,0.8602454591180915,-0.4297556748866921,0.6573670069535742,-0.350999897442833,9.90570009151179,-1.0063486817311966,0.3044708477724233,-0.8094887434036506
0.52,2.189024796339362,-2.403532970016625,2.5262955612007403,-0.050377603642604,0.0482113055003102,0.0450425758426759,-0.4108047315705195,0.4270941788334564,-0.1870950435608517,2.1897533206105,-2.407506837030541,2.526399556632715,-0.5989657496072542,0.5693235228638421,-0.2800427638071271,0.961704913827953,-0.55785832457238,0.669612999447608,-0.4065573292377167,9.81319909290778,-1.0105521682548946,0.3066385264672802,-0.8029689418706061
0.54,2.18109283356189,-2.3952803211693223,2.522660792786421,-0.0530146633847611,0.0426983692225955,0.0455515406625527,-0.4237004283173488,0.4411534831960468,-0.1951025187353774,2.178574005630276,-2.396920366585185,2.5212175136315054,-0.6389657502033007,0.6093235234598886,-0.3009833775537702,1.0345079656735157,-0.6447848373414639,0.7029652181295226,-0.4003737587262815,9.752750874425146,-1.0160141336547357,0.3092181792019576,-0.7949937476912148
0.56,2.1724521170815843,-2.3862819719890864,2.5186681259475163,-0.0555925095230309,0.0376023493395903,0.0460792289903727,-0.4398697019056284,0.4578474572386145,-0.203741739732513,2.1663946906351508,-2.3853338961249286,2.51551195528663,-0.6789657507993471,0.649323524055935,-0.3219239913004132,1.239728112474576,-0.8084636794139843,0.8346987021283808,-0.4319610498567827,9.747115671762003,-1.0208392308505818,0.3117388808221942,-0.7876125667852227
0.58,2.163457581953113,-2.3769373523808373,2.514500457302164,-0.0573515622407195,0.0342869094317318,0.0465737550418973,-0.4588215838559825,0.4755157881003768,-0.2125761792125425,2.153215375625124,-2.3727474256497705,2.509282881598088,-0.7189657513953935,0.6893235246519814,-0.3428646050470563,1.368750402581823,-0.9475940975177012,0.8834165430881169,-0.4417219740014716,9.753903689695107,-1.0242407001185638,0.3135051638000174,-0.7824113554181206
0.6,2.1545430251510727,-2.3677265763994524,2.5103739208059577,-0.057997163701597,0.0336948526043563,0.0469680211585435,-0.4782765753225652,0.4929772260494099,-0.2213168607496023,2.140516502760314,-2.3531615629758185,2.5038716483415366,-0.5588215853460986,0.575515789590493,-0.2577706486048421,1.3782217001856436,-0.9727495733291376,0.8730718974516577,-0.4370340768529948,9.753903689695107,-1.0271779285239282,0.3138956832183696,-0.7794257967900864
0.62,2.14474811066869,-2.3576193080011443,2.506001918497704,-0.0559671048051434,0.0364142399946025,0.0473734834345415,-0.4997504376089869,0.5164174303928158,-0.2145222086039007,2.140516502760314,-2.3531615629758185,2.5038716483415366,-0.5588215853460986,0.575515789590493,-0.2577706486048421,1.6253747559700789,-1.0736931143210864,1.172010217170294,0.3397326072850828,9.737577633658477,-1.032973926410278,0.3124346347993951,-0.7740024333193227
0.64,2.1345581386923214,-2.3470874249403124,2.5017756329592475,-0.0511553842575424,0.0421800324119939,0.0478072101419251,-0.5177248234830849,0.5349719210593341,-0.2086354877681735,2.140516502760314,-2.3531615629758185,2.5038716483415366,-0.5588215853460986,0.575515789590493,-0.2577706486048421,1.3247652184846472,-0.8987192937048971,0.9277245333259132,0.2943360417863611,10.767080772220652,-1.03294128010319,0.3107954172638982,-0.7737411330956346
0.66,2.1240454631969308,-2.336229064644729,2.497622815757334,-0.0460268815885544,0.0494580557543427,0.048205062982155,-0.532322189066434,0.5499080657193006,-0.2069090718388033,2.1349282869068533,-2.347406405079913,2.5012939418554883,-0.5788215856441218,0.5955157898885162,-0.266809542483302,1.0477977038037622,-0.729868279167456,0.7468072329983255,0.0863207964685086,10.525846418399851,-1.0299106011481671,0.3088611374015162,-0.777593412269132
0.68,2.113817962585591,-2.325657169521135,2.493674940915048,-0.041679399477764,0.0567359154877545,0.0485511824613456,-0.5433526288956001,0.562297973359351,-0.2087451758432918,2.1237518551999317,-2.3358960892881035,2.4961385288833915,-0.6188215862401683,0.6355157904845626,-0.2848873302402219,0.8344933973212915,-0.5515219914583036,0.6194953820025217,-0.0918052002244276,10.26582598789446,-1.0251935174340965,0.3065898400639545,-0.7842467042184617
0.7000000000000001,2.1028524962952115,-2.3142862930603867,2.4894514036198623,-0.0379390363298802,0.0639710614569845,0.0488928897866121,-0.5524655746526523,0.5742547449904423,-0.2136639222563104,2.112575423493009,-2.3243857734962936,2.4909831159112947,-0.6588215868362147,0.6755157910806091,-0.3029651179971417,0.7908922721910793,-0.4556472878526119,0.5978385815545606,-0.2459373206509296,10.049851545275487,-1.0197001029133663,0.3044116061576062,-0.7921574404689534
0.72,2.091726300043589,-2.3026824440648204,2.4851011037969184,-0.0350752529081712,0.070214248797455,0.0492212120845107,-0.5596290649084802,0.5856525091807586,-0.2212441916359349,2.099398991756285,-2.310875457674681,2.484923813551352,-0.6988215874322612,0.7155157916766556,-0.3210429057540616,0.7724718523206375,-0.3581745127913927,0.5698882095158175,-0.3790134689812235,9.877861386570656,-1.0142969460187867,0.3025336382087821,-0.7999806471859053
0.74,2.080473719844904,-2.2908547995922204,2.480581969344445,-0.0330105270416719,0.0751193605221101,0.0495427155160013,-0.5653183252798899,0.5967198431463412,-0.2303077453239529,2.0862225600195607,-2.2973651418530694,2.478864511191409,-0.7388215880283077,0.755515792272702,-0.3391206935109815,0.769742765693539,-0.2844630185704855,0.5533666982791285,-0.4531776844009003,9.74115240430001,-1.009190575296821,0.3007490064520655,-0.8076185174783336
0.76,2.0696828077338654,-2.279406586732988,2.47611203781055,-0.0313940089275155,0.0785709517749199,0.0498605051700476,-0.5703116825365742,0.6077540177052277,-0.239769043018171,2.072046128267935,-2.282854826016556,2.472353264137543,-0.778821588624354,0.7955157928687484,-0.3571984812679013,0.7684444985610168,-0.249667862834213,0.5517087279443278,-0.4730648847109039,9.678620924903951,-1.0046730306474183,0.2992442499933623,-0.8142210517814643
0.78,2.058223673495418,-2.2671301223065643,2.471205139396275,-0.0297502061298048,0.0811702092177504,0.050216794322394,-0.5753518300001144,0.6192455750161704,-0.2504617577318645,2.056869696501409,-2.2673445101651413,2.4653900723897544,-0.8188215892204005,0.8355157934647949,-0.3752762690248212,0.8243074727208095,-0.25200737317701,0.5745778655471323,-0.5346357356846743,9.641064647652456,-1.0009192267890166,0.2976939983536998,-0.819899748110675
0.8,2.046664341224309,-2.254625640091231,2.466077858141188,-0.0280539170669465,0.0829443496549956,0.0505925280335274,-0.5803432278833609,0.6305349838048079,-0.2617591731260832,2.0294560819954124,-2.236167843555756,2.458682051509681,-0.6753518314902305,0.7192455765062865,-0.29727616588516,0.8366546453217333,-0.249569894162327,0.5644704394318745,-0.5648707697109373,9.607237760689712,-0.9978074206116276,0.2960246385390742,-0.82485763510317
0.8200000000000001,2.035005559759221,-2.241881236719193,2.460864235146927,-0.0258150940506141,0.0844350043993533,0.0510039402779689,-0.5851819909305607,0.6430307032643707,-0.2582672097834355,2.0294560819954124,-2.236167843555756,2.458682051509681,-0.6753518314902305,0.7192455765062865,-0.29727616588516,0.6923699167089792,-0.2419381523599884,0.6247859729781424,0.1745981671323893,9.581595272364211,-1.0014083689596944,0.2950464269309702,-0.8214017618431704
0.84,2.023851420108714,-2.2295702768009846,2.4559765455056404,-0.0236619413033183,0.085710656653891,0.0513901285625142,-0.5887330536926972,0.6523984626562941,-0.2564890041050068,2.0294560819954124,-2.236167843555756,2.458682051509681,-0.6753518314902305,0.7192455765062865,-0.29727616588516,0.5087410397255098,-0.1775531381068285,0.4683879695961679,0.0889102839214311,10.289328689902504,-1.001003778907413,0.2948511774797993,-0.8207234504696422
0.86,2.012040994335652,-2.216427026715696,2.4508354574353124,-0.0220217794021258,0.0865225189512536,0.0517545122992631,-0.5921682951909103,0.6615128879660802,-0.2578625340495088,2.02270256368051,-2.228975387790693,2.4557092898508297,-0.6953518317882537,0.7392455768043097,-0.3066390475158191,0.4918338575859701,-0.1717620749106529,0.4557212654893061,-0.068676497225098,10.097596529147268,-0.9999955318757936,0.2945903338210465,-0.8212123423072968
0.88,2.000162164202706,-2.2031073224419013,2.4456373391353976,-0.0211818315105514,0.0866688418518836,0.0520661915107612,-0.5956119404766905,0.6700553310512034,-0.2619886155516456,2.0091955270507054,-2.2145904762605677,2.4497637665331267,-0.7353518323843001,0.7792455774003562,-0.3253648107771373,0.5046200929390368,-0.1721822642890114,0.4271221542561598,-0.206304075106839,10.097596529147268,-0.9991530546976513,0.294493840928058,-0.8218426152749593
0.9,1.9888121889223849,-2.1903005529039707,2.4406008585389487,-0.0213248997298715,0.0861636959279909,0.0523005220695716,-0.5990340701102372,0.6777155858406435,-0.267952784190825,1.995688490420901,-2.200205564730441,2.443818243215424,-0.7753518329803466,0.8192455779964026,-0.3440905740384555,0.5146886977205491,-0.1711064816773355,0.3830127394720051,-0.2982084319589712,9.949779194761504,-0.9986798430905937,0.2947439263391403,-0.8222800102412177
0.92,1.976792276808526,-2.176664510136745,2.435162175620589,-0.0226422024582376,0.0849431971399536,0.0524731042127703,-0.6028366925565,0.6855959033632898,-0.2756658232912223,1.980181453761294,-2.183820653170513,2.4369364317346545,-0.8153518335763931,0.8592455785924491,-0.3628163372997737,0.5832030390241559,-0.1901311223131363,0.3940158761323142,-0.3856519550198639,9.761176272599188,-0.9987496571345096,0.2955975466037813,-0.8221536865814857
0.94,1.964694135066611,-2.162866590100196,2.429564091438513,-0.0252180105987406,0.0829329565315748,0.0525735649888883,-0.6068905191945559,0.6941157025046856,-0.2837551708003941,1.964674417101687,-2.1674357416105856,2.4300546202538853,-0.8553518341724395,0.8992455791884956,-0.381542100561092,0.6214057268509946,-0.2026913319027989,0.4259899570697889,-0.404467375458592,9.761176272599188,-0.9996620324861892,0.2972860445525545,-0.8208561445667457
0.96,1.9525033426895464,-2.148867361640229,2.423804643802029,-0.0280926724106337,0.0802718628543999,0.0526726563882044,-0.6120770200867599,0.7053271972145645,-0.2917804888631598,1.9481673804271789,-2.1500508300357564,2.4227046646915835,-0.8953518347684859,0.939245579784542,-0.4002678638224102,0.7365513137980081,-0.259325044610198,0.5605747354939461,-0.4012659031382842,9.747514723466338,-1.0009494745008325,0.2993120122645763,-0.818691895935064
0.98,1.9408134223980724,-2.135346017663636,2.4181856285329246,-0.0302629173636332,0.0775108211420981,0.0528156148462046,-0.6182501066023487,0.7172017329659979,-0.2992841634796826,1.9306603437377696,-2.131665918446026,2.414886565047748,-0.9353518353645324,0.9792455803805884,-0.4189936270837284,0.7671647951901568,-0.3086543257794394,0.593726787571669,-0.3751837308261396,9.75607767402198,-1.0028862803173602,0.3011758414445332,-0.8156651139082214
1.0,1.928367843401679,-2.120864824387104,2.412115744159503,-0.0317370178806614,0.0748064806523846,0.0530166836709385,-0.6260830791113504,0.7301777400863151,-0.3073099513666484,1.909900917067955,-2.0994859310153355,2.4032214203589404,-0.7182501080924648,0.817201734456114,-0.3294543340699641,0.8575335129309327,-0.3916486254500861,0.6488003560158606,-0.4012893943482892,9.760225051718407,-1.005067189758469,0.3025311350071458,-0.8124441392917893
1.02,1.91572403812446,-2.106071429681412,2.406039331337239,-0.0307855217654532,0.0739454170911936,0.0533222554597327,-0.6377292370864759,0.748094775218908,-0.2990615271712948,1.909900917067955,-2.0994859310153355,2.4032214203589404,-0.7182501080924648,0.817201734456114,-0.3294543340699641,1.145305248864512,-0.5823078987562735,0.8958517566296453,0.4124212097676771,9.760225051718407,-1.0114056754218663,0.3030915893963859,-0.8042391656301102
1.04,1.9028630969225029,-2.09094784189352,2.400137939157923,-0.026863003048205,0.0757633526029194,0.0537415071107956,-0.6474421763135509,0.7627136726114149,-0.2915372613016267,1.909900917067955,-2.0994859310153355,2.4032214203589404,-0.7182501080924648,0.817201734456114,-0.3294543340699641,0.9548140215232372,-0.4856469613537528,0.730944869625344,0.3762132934834072,10.815809901568173,-1.0130749625827276,0.3026066691371523,-0.8006413684679833
1.06,1.890486716308388,-2.076351826044589,2.3946377267619434,-0.0224045631045612,0.0787863917410597,0.054151224057627,-0.6546786650278734,0.7729006004567311,-0.2877932209094406,1.9027184159870305,-2.0913139136707746,2.399926877018241,-0.738250108390488,0.8372017347541372,-0.3354883681880204,0.6522233250515451,-0.3618244357161237,0.5093463922658137,0.1872020196093032,10.619543124539632,-1.0126756393527263,0.3009593672882695,-0.8004808915881866
1.08,1.8773303466182696,-2.060802868051933,2.3888935337898283,-0.01814071726972,0.0824317563407293,0.054541670940425,-0.6604545117434648,0.7815232879053143,-0.2869703157772483,1.8883534138251807,-2.074969878981652,2.3933377903368416,-0.7782501089865345,0.8772017353501836,-0.347556436424133,0.5205485495478552,-0.2887923357795696,0.4311343724291594,0.0411452566096148,10.38904763579194,-1.010792547043706,0.2989539435636908,-0.8028432541761079
1.1,1.8640744297876808,-2.045093352726335,2.3831353101520443,-0.0147032030711066,0.0858839059647252,0.0548767186578534,-0.6647916635820467,0.7891156300235714,-0.289015460327516,1.873988411663332,-2.05862584429253,2.3867487036554422,-0.8182501095825809,0.91720173594623,-0.3596245046602456,0.448990983047166,-0.2168575919290927,0.379617105912855,-0.1022572275133831,10.19687660971158,-1.0084649056661332,0.2972383158193944,-0.8059106235256552
1.12,1.851412095056068,-2.030035235748529,2.3776034032882,-0.0122726531427835,0.0885641254506484,0.0551414473502377,-0.6679025728656491,0.7957632333549586,-0.2931886912112742,1.85762340947168,-2.0402818095736053,2.379556213562237,-0.8582501101786274,0.9572017365422766,-0.3716925728963582,0.4221499811424452,-0.1555454641801235,0.3323801665693571,-0.2086615441879102,9.920965872839588,-1.0058862263174924,0.2956479000246676,-0.8094844000625432
1.14,1.838027168006982,-2.0140517143826586,2.3716847137574995,-0.0105499434209345,0.0905138660904458,0.0553648787438523,-0.6704608308412587,0.8023526487825772,-0.2985040975116942,1.8412584072800289,-2.0219377748546807,2.372363723469032,-0.8982501107746739,0.997201737138323,-0.3837606411324707,0.4422064667269498,-0.12791289878048,0.3294707713809297,-0.2657703150210022,9.920965872839588,-1.0039189219170606,0.2944279580277845,-0.8123801678730734
1.16,1.824590632591036,-1.997930428889856,2.365653950803916,-0.009419116944902,0.0915972206342817,0.0555462790172682,-0.6731097190442741,0.8094322581005634,-0.3043242878834793,1.823893405073476,-2.002593740120855,2.3648695316699246,-0.9382501113707202,1.0372017377343694,-0.3958287093685834,0.4770012913274224,-0.1324444101507671,0.3539804658993117,-0.2910095185892553,9.874969504005094,-1.0024559796368655,0.2936188035813624,-0.8144477675123214
1.18,1.8110988960232703,-1.981665353184511,2.359503325507588,-0.0085282481378861,0.0920478777682157,0.0557060500464831,-0.6759777037100413,0.8166645125866139,-0.3104463602575184,1.8055284028520215,-1.982249705372128,2.357073638164914,-0.9782501119667668,1.0772017383304158,-0.4078967776046959,0.4950015432982116,-0.1433992332883604,0.3616127243025235,-0.30610361870195,9.84138981279648,-1.0017678761358058,0.2930314512283842,-0.8155010600377023
1.2,1.7982258992822124,-1.9660789955044489,2.35354451211633,-0.007743423375837,0.0920838159543192,0.0558464933506551,-0.6789603806021937,0.8235793903815904,-0.3164902170988006,1.7773000108377683,-1.9408321275551803,2.3439810074947123,-0.7759777052001574,0.91666451407673,-0.34532304212178,0.4828045719552418,-0.1491338446076184,0.3457438897488285,-0.3021928420641112,9.84138981279648,-1.001440333838481,0.2924291442442753,-0.8161536825728793
1.22,1.7845926368463785,-1.9495088888599024,2.3472442389062733,-0.0061532199173234,0.0927169500433437,0.0560319042602694,-0.6840542320305597,0.8328381896961596,-0.3126916363846235,1.7773000108377683,-1.9408321275551803,2.3439810074947123,-0.7759777052001574,0.91666451407673,-0.34532304212178,0.5614755171952102,-0.2546925714183023,0.4629399657284594,0.1899290357088523,9.829657244371448,-1.00306909182488,0.2914379540223255,-0.8149621789573122
1.24,1.770874083517871,-1.932783144610262,2.341019919104733,-0.0039783285538398,0.0943664573198269,0.0562406769894739,-0.6874250680025128,0.8392548326598971,-0.3101088718834056,1.7773000108377683,-1.9408321275551803,2.3439810074947123,-0.7759777052001574,0.91666451407673,-0.34532304212178,0.3847288478352179,-0.1685417985976545,0.3208321481868725,0.1291382250608957,10.47083362790636,-1.0032676775189215,0.291069146836367,-0.8139938916701905
1.26,1.7571015413464794,-1.9159425851848824,2.334814352261372,-0.0022916751050294,0.0961394751203826,0.0564053081839664,-0.6896483734049694,0.8446247653615712,-0.3105686279728501,1.7695402337857669,-1.931665482414413,2.3405277770734947,-0.7959777054981806,0.9366645143747532,-0.3522983784946323,0.2915074604314731,-0.1111652701228316,0.2684966350837037,-0.0229878044722242,10.308913189665873,-1.0022159508870847,0.2905803306171927,-0.8148543890863649
1.28,1.7439845924692818,-1.8998513975346751,2.328888356786205,-0.0014043882100223,0.0974889835255349,0.0565037958865516,-0.6910109872672654,0.8490320249017186,-0.3131956245792986,1.7540206796817637,-1.9133321921328783,2.333621316231059,-0.8359777060942271,0.9766645149707996,-0.3662490512403369,0.2654324978324693,-0.0681306931147984,0.2203629770073711,-0.1313498303224247,10.142132623472207,-1.0009756664160547,0.2902306817019786,-0.816148645637197
1.3,1.7301542668722356,-1.8828287237433827,2.3225794383434875,-0.001539955132057,0.0982692678002093,0.0565246569069204,-0.6920015282818489,0.8531018371845873,-0.3176331058649879,1.7385011255777605,-1.894998901851344,2.3267148553886234,-0.8759777066902735,1.016664515566846,-0.3801997239860416,0.3051056525214026,-0.0495270507291756,0.2034906141434367,-0.2218740642844663,9.922412568612344,-0.9999371476774292,0.2903688520758062,-0.8172595591996694
1.32,1.7163063662705074,-1.865727164844732,2.3161678118983438,-0.0030524607387854,0.098227353448807,0.0564432627857152,-0.692863008781758,0.8570325660797806,-0.3233017975167707,1.720981571443955,-1.8746656115400069,2.3191108609089026,-0.91597770728632,1.0566645161628925,-0.3941503967317463,0.3475875549491902,-0.0430740249954542,0.1965364447596651,-0.2834345825891371,9.922412568612344,-0.999395963971856,0.2912291968102395,-0.8176826577841747
1.34,1.7031349028157463,-1.8494025488954269,2.3099698932973767,-0.0057768738625794,0.0973724257872797,0.0562757889661062,-0.693658190039215,0.8615350679403558,-0.328825947012712,1.7034620173101496,-1.85433232122867,2.311506866429182,-0.9559777078823664,1.096664516758939,-0.4081010694774509,0.3585424099398968,-0.0397590628728516,0.2251250930287607,-0.2762074747970688,9.862480257555944,-0.999543511455656,0.2929204746355812,-0.8172046560663713
1.36,1.6892473899539298,-1.8320950883382747,2.303333876855752,-0.0090153234262021,0.0956284294201582,0.0560807737924096,-0.6951341396907255,0.8690102862722311,-0.3344711935093353,1.684942463161443,-1.832999030902432,2.303554105130818,-0.9959777084784128,1.1366645173549854,-0.4220517422231555,0.4741469299980629,-0.0737974825755216,0.3737609165937627,-0.2822623248311645,9.856193962478756,-1.0006761434903326,0.2953294162510529,-0.8148687912279774
1.38,1.6753217722932818,-1.814620490753196,2.2965887754920207,-0.0117339659442771,0.0932111718091802,0.0559326017791122,-0.6974424964593688,0.8779556203038794,-0.3397313186252001,1.665422908997835,-1.8106657405612925,2.295252577013812,-1.0359777090744593,1.1766645179510318,-0.4360024149688602,0.5315459249765223,-0.1154178384321691,0.4472667015824161,-0.2630062557932383,9.867208185702111,-1.0027378726231913,0.2976136858396701,-0.8112227024995623
1.4,1.6613389888928676,-1.7969581841050926,2.289741825022619,-0.0136014380815486,0.0903946176710195,0.0558518629981935,-0.700804429515953,0.8875887449507529,-0.3446890639096241,1.6404496474703134,-1.7707227097380025,2.279602209560761,-0.797442497949485,0.9779556217939956,-0.3775152803683165,0.567183662150947,-0.1680966528292082,0.4816562323436746,-0.2478872642212026,9.888472586292664,-1.0052495044561864,0.299378976312243,-0.8070562575409193
1.42,1.6479427510623674,-1.7799501028753535,2.283249002306404,-0.0129902703511169,0.0891160834179883,0.0559198893524837,-0.7089152040421105,0.9014896797397732,-0.3384854836640811,1.6404496474703134,-1.7707227097380025,2.279602209560761,-0.797442497949485,0.9779556217939956,-0.3775152803683165,0.862416748570052,-0.4055387263078747,0.6950467394510218,0.3101790122771536,9.90183469938802,-1.008938125497982,0.2994616342583573,-0.8025769493622413
1.44,1.6336916618588848,-1.7617986382974398,2.2765318647399284,-0.0095197186896248,0.0903217690253199,0.0561459348703342,-0.715474093055625,0.9124883476134282,-0.3336960690545453,1.6404496474703134,-1.7707227097380025,2.279602209560761,-0.797442497949485,0.9779556217939956,-0.3775152803683165,0.6836084632093958,-0.3279444506757267,0.5499333936827444,0.2394707304767901,10.616214180790848,-1.0107741109280453,0.298856286177251,-0.7991703597968273
1.46,1.619330921133302,-1.7434687596894851,2.2698715017855298,-0.0051960961716874,0.0928193230035434,0.056413260465559,-0.7201056230042547,0.9198335566971796,-0.3325654285129993,1.6324752224908186,-1.7609431535200624,2.2758270567570777,-0.8174424982475081,0.9979556220920188,-0.3850720727169398,0.4378399084804465,-0.2315764974314849,0.3672604541875734,0.0565320270772995,10.430746016098055,-1.010166082885662,0.2972829783039045,-0.7993726851348729
1.48,1.605618625208041,-1.725941488036894,2.263534487889621,-0.0014667335009253,0.0955673638824817,0.0566369853260468,-0.7230016157172167,0.9249026006940646,-0.3345452546895558,1.6165263725318288,-1.7413840410841823,2.2682767511497115,-0.8574424988435546,1.0379556226880653,-0.4001856574141863,0.3082275641683503,-0.1447996356480962,0.2534521998442451,-0.0989913088278254,10.214920607923888,-1.0082237575572983,0.2951632486064672,-0.8019039344246162
1.5,1.5911384966994289,-1.7073987942074136,2.2567976139980046,0.0016524318858453,0.0982372149407403,0.0568142339602516,-0.7248272238660278,0.9292393731412664,-0.3391562123540935,1.6005775225728391,-1.7218249286483025,2.2607264455423453,-0.8974424994396011,1.0779556232841117,-0.4152992421114329,0.3293985843775435,-0.0912804074405582,0.2168386223600826,-0.2305478832268837,10.032837260625456,-1.0057485902944752,0.2929727986604833,-0.8055887088220662
1.52,1.576631347718591,-1.6887744217121412,2.2499462668415595,0.0038750529850648,0.1002652848811029,0.0569231146936829,-0.7258180993494946,0.933133523089256,-0.3458313473549582,1.582628672584047,-1.7002658161826203,2.2524204607001166,-0.9374425000356476,1.117955623880158,-0.4304128268086794,0.3895627848015445,-0.0495437741733384,0.1947074973994877,-0.3337567500432375,9.890775434501847,-1.0034092932448846,0.291142803750233,-0.8091154955806199
1.54,1.5621110386264412,-1.6700770914179184,2.242949053707453,0.0051886538928009,0.1014021385222538,0.0569581136903202,-0.7262650540074915,0.9365587916146224,-0.3535528289245629,1.564679822595255,-1.678706703716938,2.244114475857888,-0.977442500631694,1.1579556244762046,-0.445526411505926,0.4229465408503618,-0.0223477328998467,0.1712634262683143,-0.3860740784802335,9.785571975352468,-1.0018685070270554,0.289908564924681,-0.8115259575025788
1.56,1.5483058832615253,-1.65224585252423,2.236154774611576,0.0057911271231198,0.1017211681204127,0.0569350444047452,-0.7269526195056066,0.940239474357518,-0.3612485893144984,1.5457309725915618,-1.6561475912363546,2.2354306513982283,-1.0174425012277404,1.197955625072251,-0.4606399962031725,0.4279161709591823,-0.0343782749057552,0.1840341371447784,-0.3847880194967734,9.740603412965356,-1.0008198948514166,0.2890735682968683,-0.8131847675583646
1.58,1.533756372965293,-1.6333991271021773,2.2288422482780867,0.0059885063399597,0.1014823014685217,0.0568693881671274,-0.7280185417335113,0.9442307265995812,-0.3696106955207286,1.5257821225729675,-1.63258847874087,2.2263689873211376,-1.0574425018237867,1.2379556256682973,-0.4757535809004191,0.4663451105672514,-0.0532961113952346,0.1995626121031712,-0.4181053103115145,9.724181497399512,-1.0003455628211844,0.2885297934773742,-0.8140892040440942
1.6,1.519181227183779,-1.614469923266341,2.2213611644628157,0.0058940646067792,0.1008491098312779,0.0567739692461208,-0.7294916003374772,0.9484719068972556,-0.3780823388571145,1.4973554458786174,-1.5861875907721985,2.21036171350205,-0.8280185432236274,1.0442307280896974,-0.4009484745360313,0.4793908968342768,-0.0736529301982924,0.2120590148837087,-0.4235821668192946,9.711204189805358,-1.0002703545152427,0.288151371738774,-0.8145109586486048
1.62,1.5045537486980467,-1.5954258476623535,2.2138364945855544,0.0066294434283557,0.1009438991159651,0.0567333637174675,-0.7330045588140862,0.9554657167873868,-0.3732883422233726,1.4973554458786174,-1.5861875907721985,2.21036171350205,-0.8280185432236274,1.0442307280896974,-0.4009484745360313,0.4589026524275255,-0.175647923830452,0.349690494506566,0.2396998316870985,9.707085526562878,-1.000973947796766,0.2852595885666763,-0.8173225548381133
1.64,1.4906079093198117,-1.5772266116653175,2.2067816956786865,0.0082573541835857,0.1021791388053589,0.0567592738300583,-0.7347094313995852,0.9599251151530166,-0.3696350210720415,1.4973554458786174,-1.5861875907721985,2.21036171350205,-0.8280185432236274,1.0442307280896974,-0.4009484745360313,0.3005810196558121,-0.0852436292749503,0.2229699182814903,0.182666057566555,10.384916496202097,-1.0014076033348376,0.2853050296461122,-0.8157129869599248
1.66,1.4759067051140486,-1.5579908890774326,2.1994024367480995,0.0099886131322603,0.1037442450293025,0.0567828799270396,-0.7352775720431081,0.9634344606621188,-0.3686135326118024,1.489075260446381,-1.5757452834913013,2.20635222875669,-0.8480185435216506,1.0642307283877206,-0.4072160303390919,0.1849441021463021,-0.028407032176142,0.1754672754551156,0.0510744230119541,10.384916496202097,-1.0007684195373905,0.2850801908449426,-0.8155338755951602
1.68,1.4612037443747938,-1.538695441598647,2.1920163427677064,0.011233525592549,0.1049973223702486,0.0567625838483744,-0.7350048769550618,0.9659867996183632,-0.3701470160569228,1.4725148895819085,-1.5548606689295077,2.198333259265969,-0.8880185441176971,1.1042307289837672,-0.4197511419452129,0.14950224275128,0.013634754402314,0.1276169478122146,-0.0766741722560193,10.212392938729865,-0.999827018641352,0.2847883924471661,-0.8160196044427365
1.7,1.446512305856699,-1.5193580787613807,2.184576914050949,0.0115415356339075,0.105560286753581,0.0566625247206937,-0.7342549115429232,0.9677729831000764,-0.3737080771682109,1.455954518717436,-1.5339760543677134,2.190314289775249,-0.9280185447137436,1.1442307295798135,-0.432286253551334,0.2026946952196722,0.0374982706069282,0.0893091740856666,-0.1780530555644061,10.07255368391452,-0.9990973198724736,0.2847192740937642,-0.8165354067079682
1.72,1.4325712604123069,-1.500958660588059,2.1774313389058344,0.0106683165784079,0.1052867710940111,0.0564721041878244,-0.7333658666280973,0.969083289801828,-0.3782733136367305,1.437394147823161,-1.5110914397761173,2.1816685647042218,-0.96801854530979,1.18423073017586,-0.4448213651574551,0.2416024033755384,0.0444522457412943,0.0655153350875792,-0.228261823425982,9.97043612899506,-0.998843784897294,0.2852072762922528,-0.8165392810837336
1.74,1.417915760226488,-1.4815638166382576,2.169813490823709,0.0082919770789026,0.103992038725785,0.0561587904635608,-0.7322940936175029,0.9705404877424118,-0.383269025108441,1.418833776928886,-1.4882068251845209,2.1730228396331954,-1.0080185459058366,1.2242307307719065,-0.4573564767635761,0.26565605739781,0.0535886505297233,0.0728598970291816,-0.2497855735855231,9.90445312081647,-0.999390607119493,0.2864068492926045,-0.8157033987723091
1.76,1.4032763272562976,-1.4621117430919313,2.1621002519862147,0.0050731952013887,0.1015755363547779,0.0557840240881687,-0.7318231283034264,0.9747340643816004,-0.3877948877285879,1.39927340601971,-1.4643222105780234,2.1640637367720155,-1.048018546501883,1.2642307313679528,-0.4698915883696972,0.3093999265200842,0.023548265703821,0.2096788319594256,-0.2262931310073435,9.895211856694004,-1.0009222280129622,0.2884253309614158,-0.8130940037104275
1.78,1.3893689569275758,-1.44353503936675,2.1546950025280167,0.0022997512029672,0.0983810181458933,0.0554534324154954,-0.7322382521280477,0.9803741272935516,-0.3914691288806493,1.378713035095633,-1.4394375959566248,2.154791256120683,-1.0880185470979291,1.3042307319639992,-0.4824266999758182,0.3372042611090423,-0.0207561912310638,0.2820031455975647,-0.1837120576030693,9.952246981985809,-1.0038145445098985,0.2907674564407612,-0.8083610340698677
1.8,1.3747091901783808,-1.4238576789768624,2.1468288230697143,4.868731739573428e-06,0.0942930007455813,0.0551584673456583,-0.7338559006644984,0.986955902878313,-0.3949286257207536,1.3527570443211734,-1.3945163330020725,2.135121546083984,-0.8322382536181638,1.0803741287836677,-0.4374872785843903,0.3804756070444429,-0.0808824268225316,0.3290887792380736,-0.1729748420052163,9.952246981985809,-1.0076195716320169,0.2928930185154099,-0.8023351955204193
1.82,1.3599508198773589,-1.4039942944767114,2.138976929222907,0.0001121046379691,0.0915557591218207,0.0550353725041745,-0.7421774977797364,0.9985187347370302,-0.3896400734923034,1.3527570443211734,-1.3945163330020725,2.135121546083984,-0.8322382536181638,1.0803741287836677,-0.4374872785843903,0.7597974134832743,-0.4160798557619027,0.5781415929358602,0.2644276114225102,9.969878404413066,-1.011050888857663,0.2926162679504578,-0.7985335305247642
1.84,1.345024567804881,-1.3839326503206215,2.131225113630012,0.0031424249698815,0.0922274791158755,0.0551097077744732,-0.7495854771355626,1.0067848452232957,-0.3858412752965749,1.3527570443211734,-1.3945163330020725,2.135121546083984,-0.8322382536181638,1.0803741287836677,-0.4374872785843903,0.5865952787897384,-0.3703989677913077,0.4133055243132733,0.189939909786424,10.55692792908485,-1.0132647397371772,0.2919638007626486,-0.7951539422785115
1.86,1.3307302214889232,-1.3647546247493705,2.1238970709404623,0.006953851405294,0.0947011097768685,0.0552479692283048,-0.7545056840840362,1.0114143178254844,-0.3857177943156092,1.3444346617849918,-1.383712591714236,2.13074667329814,-0.852238253916187,1.1003741290816909,-0.4466909085251385,0.3378450108514413,-0.2460103474236807,0.2314736301094355,0.0061740490482825,10.374790856100844,-1.012643773886761,0.2901981829885272,-0.7957105994766865
1.88,1.3156041931131464,-1.3444965624388598,2.116152715495074,0.0106057973761581,0.0981359698601616,0.0553766326248413,-0.7576943747910564,1.0142369034971557,-0.3888784744749881,1.3277898967126285,-1.3621051091385623,2.1219969277264523,-0.8922382545122335,1.1403741296777374,-0.465098168406635,0.265163333479819,-0.1594345353510107,0.1411292835835631,-0.1580340079689407,10.149626386451018,-1.0101918950080304,0.2879245912692348,-0.7991943421764478
1.9,1.300432400594124,-1.3241933476954408,2.108311040910317,0.0134035209268278,0.101579714993817,0.0554488611695743,-0.7592845926122735,1.016169993099171,-0.3951274854491992,1.3111451316402651,-1.3404976265628892,2.1132471821547645,-0.93223825510828,1.1803741302737838,-0.4835054282881314,0.3365849309020948,-0.0795108910608577,0.0966544801007662,-0.312450548710555,9.956209918284912,-1.0071112188277067,0.2858672856594563,-0.8036110573023623
1.92,1.2860018241998763,-1.3048735796744988,2.100724613723463,0.0152234542026877,0.1043514775583924,0.0554529211935257,-0.7596708499389152,1.0175977944967425,-0.403134992759989,1.2925003665380994,-1.3168901439574134,2.103577073589002,-0.9722382557043264,1.2203741308698302,-0.5019126881696279,0.4071485751100072,-0.0193128663320829,0.0713900698785741,-0.4003753655394904,9.80117757989865,-1.0037736823381669,0.2837846313912379,-0.8086870143957177
1.94,1.270812605040752,-1.2845120221034596,2.092561843563732,0.0161870365429589,0.1064177293253941,0.0553757418555923,-0.7592616183477539,1.0185691107615171,-0.4127757085801408,1.273855601435934,-1.293282661351938,2.093906965023239,-1.012238256300373,1.2603741314658767,-0.5203199480511244,0.4849080513518685,0.0204615795580676,0.0485658132387323,-0.4820357910075928,9.690348036569048,-1.0008787722456485,0.2821227020526046,-0.8132295981986614
1.96,1.2556327031822765,-1.2641262764376198,2.084199008501246,0.0162383345950412,0.1075618560938672,0.0552164451328677,-0.7588203428216131,1.019989247684019,-0.4230274135176108,1.254210836318867,-1.268675178731561,2.0837766749604394,-1.0522382568964193,1.300374132061923,-0.5387272079326207,0.5179502077747707,0.0220637763070352,0.071006846125099,-0.5125852468735009,9.631230640235117,-0.9985541942437676,0.2810509973528433,-0.8168593469215072
1.98,1.2404601132780948,-1.2437078278309806,2.075628734713848,0.0156715118256566,0.1079741717865576,0.0549987533168786,-0.7585260719097865,1.0217874434354968,-0.4334913296953603,1.2335660711868992,-1.243067696096283,2.073186203400602,-1.0922382574924656,1.3403741326579697,-0.5571344678141172,0.5310688399472033,0.0147135455913327,0.089909787573883,-0.523195808887475,9.601010228118868,-0.9969744546078309,0.2804212223833623,-0.8194542525190486
2.0,1.226049348919824,-1.2242725927360578,2.067292372194961,0.0147517621019207,0.1078456040112676,0.0547550607640492,-0.7584650509544737,1.0239250377878046,-0.4434999940960811,1.2025338096826057,-1.1926184556592057,2.05395416822908,-0.8585260733999026,1.1217874449256129,-0.4638752797947094,0.5117284344705243,0.0030510477656398,0.1068797176153935,-0.5004332200360395,9.601010228118868,-0.9958511789902196,0.2800842563981895,-0.8214199714888063
2.02,1.2108683858211948,-1.2037366002093937,2.0584673387384407,0.01462108044419,0.1081112219276035,0.054560247777512,-0.7594657443419062,1.0293007109466588,-0.4376536511561026,1.2025338096826057,-1.1926184556592057,2.05395416822908,-0.8585260733999026,1.1217874449256129,-0.4638752797947094,0.4002467205934111,-0.0500346693716236,0.2687836579427061,0.2923171469989244,10.62548865921599,-0.9961558221613896,0.2766718321997966,-0.8257669722356763
2.04,1.1956835938922543,-1.183113917747214,2.049769555747021,0.0156460100680315,0.1091612576393255,0.0544530326944835,-0.7589122504192608,1.0327064328402398,-0.432506615614158,1.2025338096826057,-1.1926184556592057,2.05395416822908,-0.8585260733999026,1.1217874449256129,-0.4638752797947094,0.3098276618092047,0.0276746961322682,0.1702860946790507,0.2573517770972311,10.62548865921599,-0.9965519508855952,0.2772668514627977,-0.8238231464217718
2.06,1.181278262141406,-1.1634696067187933,2.04157287768448,0.0168522648599153,0.1101139640738204,0.0543626881400838,-0.757495878171327,1.0350002812849712,-0.4305524541572958,1.1939485489486064,-1.1814005812099495,2.0493154154311326,-0.8785260736979258,1.141787445223636,-0.4699520698145792,0.1664827170579548,0.0708186123966891,0.114692422236573,0.0977080728431084,10.464632292070746,-0.9962368874280482,0.2774771197860754,-0.8229095509198159
2.08,1.1661497965683876,-1.142754072930438,2.032959753301174,0.0178831459493859,0.1105971259279672,0.0542379800302818,-0.755479847278192,1.036481411377541,-0.4309694730473918,1.1767780274806083,-1.1589648323114372,2.040037909835238,-0.9185260742939724,1.1817874458196826,-0.4821056498543188,0.1268072520391407,0.1008015446567534,0.0740565046284835,-0.0208509445047966,10.284276945373676,-0.9958274420827206,0.2773968690888956,-0.822482846373824
2.1,1.1510642311926929,-1.1220166726460792,2.0243166399144137,0.0182347473184011,0.1102579937985666,0.0540472803008735,-0.7532543785614976,1.0372628465550375,-0.4333932150418237,1.1596075060126103,-1.136529083412925,2.030760404239344,-0.9585260748900188,1.221787446415729,-0.4942592298940584,0.1690996540592799,0.1112734358347189,0.0390717588748312,-0.1211870997215952,10.140030488609227,-0.9957534561068369,0.2773935352778687,-0.8219736361199506
2.12,1.1367760137159315,-1.1023073381245625,2.016046199254937,0.0175914442328291,0.1089394338700767,0.0537781357710294,-0.750974968253371,1.037525516604093,-0.437042770083997,1.14043698451481,-1.1120933344846105,2.020875219641463,-0.9985260754860652,1.2617874470117754,-0.506412809933798,0.2155455805236872,0.1139705154063308,0.0131335024527889,-0.1824777521086645,10.032079022980724,-0.996373141926932,0.2776653259035355,-0.820935874371619
2.14,1.1217834112220757,-1.0815566562826953,2.007263912963609,0.0156253662481968,0.1062168561298121,0.0533852259864957,-0.7484933510736136,1.0376787272743988,-0.4409818149152568,1.1212664630170095,-1.0876575855562958,2.010990035043582,-1.0385260760821116,1.301787447607822,-0.5185663899735377,0.2329054074030766,0.1240808589878683,0.0076605335152746,-0.196952241562992,9.960097038636375,-0.9981549161449436,0.2785991762140604,-0.8185918310542171
2.16,1.1068324010729451,-1.0607829146271688,1.9984086987685248,0.0127107608605999,0.1019874082509862,0.0529158459892223,-0.7468942212907045,1.0399423327837432,-0.4442981773553651,1.101095941504308,-1.06222183661308,2.000801010944707,-1.078526076678158,1.3417874482038683,-0.5307199700132773,0.2160982750896088,0.0799564891454551,0.1131802754672173,-0.1658181220054122,9.955603602405972,-1.0010509703789925,0.2803243745892237,-0.8144259097169612
2.18,1.091896901494262,-1.03994178180565,1.989497025709884,0.0099413497781565,0.0964973969404602,0.0524602318141679,-0.7470414729649538,1.043963998846677,-0.4466872983523342,1.0799254199767052,-1.0357860876549632,1.990308147344839,-1.1185260772742045,1.3817874487999149,-0.5428735500530169,0.2340052356010496,-0.0073625837124668,0.2010833031466874,-0.119456049848457,9.986039335060012,-1.0056197143009444,0.2826750749379536,-0.8074275536930181
2.2,1.077681454719711,-1.0200599326835444,1.9809940551869327,0.0078327838622034,0.0907677584731351,0.0520770571400366,-0.7494797458157242,1.0485113568457265,-0.4482301069623636,1.054544827846014,-0.987743581863316,1.9671626607922676,-0.8470414744550699,1.143964000336793,-0.473270602981064,0.2692763342437703,-0.1219136425385181,0.2273678999524797,-0.0771404305014711,10.029062899407108,-1.011162325920726,0.2846941901821793,-0.7993047523714732
2.22,1.0625965835005815,-0.9989875571539596,1.9721140674768247,0.007892230817664,0.0866051220187718,0.0518571819779267,-0.7591718133121883,1.057975876478962,-0.4391490973283475,1.054544827846014,-0.987743581863316,1.9671626607922676,-0.8470414744550699,1.143964000336793,-0.473270602981064,0.8154416598031539,-0.4846033748232059,0.4732259816617734,0.4540504817008045,10.064947333606142,-1.0159865292010584,0.2838818751026173,-0.7945022770809322
2.24,1.0473095388399505,-0.977757171986074,1.963420888507121,0.0107823844499864,0.0865758654301742,0.0518625386897239,-0.7685204023621987,1.0643482089621414,-0.4307649477734934,1.054544827846014,-0.987743581863316,1.9671626607922676,-0.8470414744550699,1.143964000336793,-0.473270602981064,0.7040893094279999,-0.4674294525005174,0.3186166241589738,0.4192074777427085,10.796798010424029,-1.019396613230552,0.2832579271896579,-0.789808461585547
2.26,1.0318639574289237,-0.9564359072933776,1.9548583744466392,0.0146436223122379,0.0891896937459981,0.0519628354475956,-0.7752657021413226,1.0673257471677506,-0.4258941125226202,1.0460744131014634,-0.9763039418599482,1.9624299547624569,-0.8670414747530931,1.1639640006348162,-0.47858726390681,0.4418422764891916,-0.3372649889561985,0.1488769102804599,0.2435417625436559,10.633625712327555,-1.0195945560140265,0.2816938710536464,-0.7893790179689826
2.28,1.0170894838632274,-0.9361482762722853,1.946782744956684,0.0179235219561895,0.0928728009730343,0.052054339190449,-0.7794467957147079,1.0682371941638065,-0.4244134169645705,1.029133583612362,-0.9534246618532124,1.9529645427028357,-0.9070414753491396,1.2039640012308628,-0.4892205857583019,0.2264107905536467,-0.2090546786692626,0.0455723498027915,0.0740347779024874,10.413588109468948,-1.0175639755936308,0.2796800250944535,-0.7923453353303572
2.3000000000000003,1.0014731778450532,-0.9147837049912152,1.9382856931898815,0.0205124671990307,0.0970302221286174,0.052103073389589,-0.7818479956875474,1.0683540538051122,-0.4254915248843015,1.0121927541232607,-0.9305453818464764,1.943499130643214,-0.947041475945186,1.2439640018269091,-0.4998539076097938,0.1317358547616898,-0.1200599986419748,0.0058429820652849,-0.0539053959865504,10.219801090289366,-1.0144789077183376,0.2777966857314711,-0.7968160785195365
2.32,0.9858263346098726,-0.8934214826398615,1.9297433513773183,0.02209104161588,0.1007682779532736,0.0520779382713262,-0.7826717757611882,1.0680042594362806,-0.4287794692540726,0.993251924604357,-0.9056661018099385,1.9335020524910185,-0.9870414765412324,1.2839640024229555,-0.5104872294612858,0.170378606997059,-0.0411890036820405,-0.0174897184415767,-0.1643972184885545,10.068356026341462,-1.0111665037353073,0.2763351127581802,-0.8014930148124928
2.34,0.9701771055978384,-0.8720728519506731,1.92112137997319,0.0224434171307306,0.1036043201912007,0.051949102777585,-0.782277317565914,1.0670749436907845,-0.4332519508809042,0.9743110950854532,-0.8807868217734001,1.9235049743388224,-1.027041477137279,1.323964003019002,-0.5211205513127777,0.2292505012262367,0.0197229097637086,-0.0464657872748186,-0.2236240813415779,9.954512837614857,-1.0083791573088572,0.2754212699425203,-0.8055234615666387
2.36,0.955320571684471,-0.8518022721019124,1.9128439279799316,0.0217295076294359,0.1053758034626178,0.05173257675286,-0.781645529070855,1.0667761035046102,-0.4378382681005072,0.9543702655516484,-0.8549075417219608,1.913242063140339,-1.0670414777333252,1.3639640036150484,-0.5317538731642697,0.2319631856469309,0.031589424752948,-0.0149420093087049,-0.2293158609801532,9.904745193485724,-1.0060339598552392,0.2751578846965708,-0.8088100641693253
2.38,0.939695684721399,-0.8304652184225624,1.9040355865317429,0.0201279604343298,0.1063962321160449,0.0514271406963285,-0.7809244628205273,1.0670020273973968,-0.4427588324760254,0.9334294360029424,-0.8280282616556204,1.9027133188955687,-1.1070414783293716,1.4039640042110948,-0.5423871950157616,0.2489122933701361,0.0360533125163875,0.0112961946393319,-0.2460282187759094,9.89156839118823,-1.004462380073051,0.2755779094107547,-0.8108749151977328
2.4,0.9240845995702516,-0.8091143790521064,1.895130439066812,0.0179127402746437,0.1066749341608493,0.0510660990364696,-0.7802999934282095,1.0681591519395357,-0.4475098083902962,0.9006494615803726,-0.7771151170526925,1.8818976449079412,-0.8809244643106434,1.167002028887513,-0.4774767052148636,0.2464785556896546,0.0312234696158875,0.0578562271069449,-0.2375487957135408,9.901255866697284,-1.003596790089022,0.2764254258443076,-0.8119046129466901
2.42,0.90924143917409,-0.7887552100477261,1.8866726146856632,0.0171141307859129,0.1073180361674274,0.0508227236840801,-0.7819130542618352,1.0741881340892554,-0.4425547326406021,0.9006494615803726,-0.7771151170526925,1.8818976449079412,-0.8809244643106434,1.167002028887513,-0.4774767052148636,0.3984449983994752,-0.0806530416812834,0.3014491074859848,0.2477537874847085,9.901255866697284,-1.003462523536719,0.2751573969758639,-0.8143576244272058
2.44,0.8936030904480605,-0.7672323178214256,1.877861200713848,0.017992560534947,0.1087814713989938,0.0506998180459468,-0.7817425719410618,1.077748566048072,-0.4389850292777454,0.9006494615803726,-0.7771151170526925,1.8818976449079412,-0.8809244643106434,1.167002028887513,-0.4774767052148636,0.2522326408984789,0.0085241160386717,0.178021597940825,0.1784851681428334,10.499638471902472,-1.003435291395787,0.2756294907898305,-0.8132115413077768
2.46,0.877980642125476,-0.7456502088306348,1.869089012854313,0.0195258125210088,0.1101412670816042,0.0506205524091757,-0.7805336778651926,1.0803058595434063,-0.4384023141964929,0.8918402169372662,-0.7654450967638174,1.877122877855793,-0.9009244646086666,1.187002029185536,-0.4844202797626312,0.1444016254571814,0.0604447037934607,0.12786467476672,0.0291357540626258,10.353126908618831,-1.0026708988310895,0.2754570062431259,-0.8131693672113981
2.48,0.8631680598543944,-0.7251097150395811,1.860743113349676,0.0211587016749896,0.1109142919764332,0.0505468110877918,-0.7788180086140732,1.0817782916863017,-0.4401367087458983,0.8742217276510533,-0.7421050561860671,1.8675733437514956,-0.9409244652047132,1.227002029781583,-0.4983074288581665,0.1424754526898798,0.0857834625559661,0.0736216071447581,-0.0867197274702719,10.188655169507,-1.001818968917168,0.2747111978278337,-0.8136427466185001
2.5,0.8476135592358187,-0.7034686925911358,1.8519034720416807,0.0225974290667641,0.1109388570457567,0.0504313255295873,-0.7768058164511978,1.082287135091247,-0.4438154649951576,0.8566032383648404,-0.7187650156083168,1.8580238096471984,-0.9809244658007596,1.267002030377629,-0.5121945779537018,0.2111935513489822,0.1006096081437701,0.0254421702472806,-0.1839378124629642,10.056143301048904,-1.0012640447684868,0.2737948023306312,-0.8140660009848737
2.52,0.8321000204450087,-0.6818270643691378,1.8429749957749224,0.0232883327449168,0.1100042011720569,0.050240230438434,-0.7747035681091988,1.081926758927597,-0.4488967653522205,0.8369847490488252,-0.6934249750007643,1.847779918088124,-1.020924466396806,1.3070020309736754,-0.5260817270492371,0.2755400714481119,0.1051124170999506,-0.0180188081825072,-0.2540650178531445,9.951830463279292,-1.0013317771317962,0.2729998608747947,-0.8140551173609147
2.54,0.8166308678064568,-0.6602006321113572,1.8339387734820316,0.0228021914413485,0.1078439673573936,0.0499391967332076,-0.7724347635980473,1.080920408404345,-0.4544560856482954,0.8173662597328101,-0.6680849343932117,1.83753602652905,-1.0609244669928526,1.347002031569722,-0.5399688761447724,0.3044103211120711,0.1134402255575761,-0.0503175261626021,-0.277966014803746,9.858869029811103,-1.002284645942814,0.2726552942359765,-0.8131908017943064
2.56,0.8019709000988947,-0.6396663083487879,1.8252535899152416,0.0213180629401374,0.1045689461287588,0.0495600691942552,-0.770953005155917,1.0806923095486511,-0.45948440797558,0.7967477704018937,-0.6417448937707579,1.826944956242588,-1.100924467588899,1.3870020321657683,-0.5538560252403076,0.2623531141222721,0.0740879221065138,-0.0114049427846874,-0.2514161163642281,9.858869029811103,-1.004340161425168,0.273102254012693,-0.8106929127636004
2.58,0.7865587336111672,-0.6180480383519807,1.8160123553722296,0.0189939604320177,0.0999850463527368,0.0490972173040637,-0.7705041910818289,1.0812787629314,-0.4643430278513638,0.7751292810560763,-0.6144048531334031,1.816006707228737,-1.1409244681849453,1.4270020327618147,-0.567743174335843,0.2457211261806688,0.0224407037044072,0.0293226691374437,-0.2429309937891893,9.871261962734934,-1.007578454253875,0.2742116045482017,-0.8064735355045992
2.6,0.7711372194191571,-0.5964001798448028,1.8066820093639204,0.0164937405557846,0.0945694921723947,0.0486261630872598,-0.7719205066558008,1.0834775316986691,-0.4684355304107296,0.7480335240570758,-0.5639841002054108,1.7927952039796615,-0.870504192571945,1.181278764421516,-0.4862442460719553,0.2428431134261909,-0.0708157786985963,0.109938438363466,-0.2046251279682914,9.890389813190268,-1.011595471631768,0.2756868427911269,-0.8009001227740485
2.62,0.7564031148860145,-0.5757450758087789,1.7978560821587262,0.0158446837716204,0.0906579779890465,0.0483332888918853,-0.77922865017736,1.0901786744039734,-0.459748033393051,0.7480335240570758,-0.5639841002054108,1.7927952039796615,-0.870504192571945,1.181278764421516,-0.4862442460719553,0.6591412589891724,-0.3654071760779587,0.3350571352652043,0.4343748508839312,9.926197185334786,-1.015991066393596,0.2743033056457956,-0.7979040001392531
2.64,0.7407315397756178,-0.5538951621154711,1.7887572621920649,0.0175157221541087,0.0900761529904484,0.0482455460197715,-0.7871127279021172,1.0943485543011993,-0.450743686138875,0.7480335240570758,-0.5639841002054108,1.7927952039796615,-0.870504192571945,1.181278764421516,-0.4862442460719553,0.6336892957141658,-0.3942038862378594,0.2084939948612918,0.4502173627087963,10.806912894305242,-1.019620217887917,0.2743437671916721,-0.7927650450232799
