t,x,y,z,roll,pitch,yaw,v_x,v_y,v_z,ref_x,ref_y,ref_z,ref_v_x,ref_v_y,ref_v_z,a_com,a_x,a_y,a_z,thrust,wind_x,wind_y,wind_z
0.0,1.3202693470862077,-1.0033018702852117,2.651913256815913,0.0217767391844816,0.0994424881543161,0.0415494362489328,-0.0001592161333504,0.0044246683056855,-0.0005287186595638,1.3202717894556515,-1.0032672079940053,2.651894304442581,-0.0999806953391216,0.1019434820933163,-0.1005911765628176,0.2229494495027296,-0.0079608066675229,0.2212334152842762,-0.0264359329781923,10.257270234566022,-0.9411144722890136,0.2600258690755981,-0.876513699091297
0.02,1.3204302991112953,-1.003484140928026,2.651796200277225,0.0137837366087452,0.0942100775592242,0.0409186816532381,0.0155999274402864,-0.0180229979608379,-0.011499285580233,1.3202717894556515,-1.0032672079940053,2.651894304442581,-0.0999806953391216,0.1019434820933163,-0.1005911765628176,1.4769915923496295,0.7879571786818435,-1.1223833133261742,-0.5485283460334595,10.256457776840762,-0.946744314467644,0.2600851085518229,-0.8773693238454099
0.04,1.3208558615668171,-1.0038565904201135,2.651391437273613,-0.0024729191170707,0.0791196139810348,0.0397734393919301,0.0247493192333729,-0.0172288773060596,-0.0286014021463834,1.3202717894556515,-1.0032672079940053,2.651894304442581,-0.0999806953391216,0.1019434820933163,-0.1005911765628176,0.9705982547376922,0.4574695896543277,0.0397060327389175,-0.8551058283075208,9.659961361971456,-0.9522397188917276,0.2747954630556743,-0.8635184062796593
0.06,1.3213247274532414,-1.0041134888873655,2.650664733699969,-0.0184842132716904,0.0591772977945036,0.0389980794313215,0.0232408021206193,-0.0095552059374022,-0.0469909579455918,1.3192719825022603,-1.002247773173072,2.650888392676953,-0.1199806956371448,0.1219434823913395,-0.1205911768608408,0.9991704292134316,-0.075425855637679,0.38368356843287,-0.9194777899604192,9.123353748052068,-0.9626546384880644,0.2882073435611547,-0.8468134056332243
0.08,1.321684085719625,-1.0041889994736368,2.649511417533854,-0.0347122021372398,0.0361580225634464,0.0386904403193568,0.0119978209769848,0.0019248190100419,-0.0674450673447419,1.3172723685954777,-1.0002089035312058,2.6488765691456964,-0.1599806962331913,0.1619434829873859,-0.1605911774568873,1.3005442986519744,-0.5621490571817277,0.5740012473722097,-1.022705469957503,9.071296539685136,-0.9767985971688526,0.2994652502169749,-0.8280247469656805
0.1,1.3217265118947257,-1.0040058848187776,2.6479402143624235,-0.0501503532140575,0.0139797653431478,0.038840183167109,-0.0076818315964819,0.0161155809603348,-0.0887195848742211,1.315272754688695,-0.9981700338893394,2.64686474561444,-0.1999806968292378,0.2019434835834324,-0.2005911780529337,1.613436972935694,-0.9839826286733409,0.7095380975146407,-1.0637258764739637,9.071296539685136,-0.9921440656797924,0.3088038179923943,-0.8093943922310531
0.12,1.3213003941981956,-1.0035126041583269,2.6459369812495224,-0.0648259745931874,-0.0052442202198032,0.0392758257394247,-0.0340118592759097,0.0328018970474992,-0.1105897091672261,1.3112731407521103,-0.9941311642176708,2.642852922053381,-0.2399806974252842,0.2419434841794789,-0.2405911786489802,1.9039471097903973,-1.3165013839713882,0.8343158043582227,-1.09350621465025,9.084165409222804,-1.0055850282925138,0.3160824389804726,-0.7944184623069632
0.14,1.3203616588979967,-1.0027008126517325,2.643620678235145,-0.0777349921633619,-0.0197629436106406,0.0398033101132415,-0.0633603061171645,0.0518071615984754,-0.1321604321785022,1.3072735268155258,-0.990092294546002,2.6388410984923225,-0.2799806980213307,0.2819434847755254,-0.2805911792450267,2.054158893486423,-1.4674223420627397,0.9502632275488117,-1.0785361505638031,9.084165409222804,-1.0174965631043411,0.3223726476121098,-0.7823532727325909
0.16,1.318738045579523,-1.0014164255086375,2.6407294302779647,-0.0894610884114411,-0.0306093321933264,0.040352373522279,-0.0974267210258518,0.0753803017424534,-0.1558565963047067,1.30227391286404,-0.9850534248594324,2.6338292749163625,-0.3199806986173771,0.3219434853715718,-0.3205911798410731,2.386274164505454,-1.7033207454343662,1.1786570071988998,-1.184808206310224,9.090297654374808,-1.0258317969141255,0.3271545881089546,-0.7756244938474742
0.18,1.3164021568371935,-0.9996360253895292,2.637357003031328,-0.0987470144524729,-0.0363126143490443,0.0407327034967347,-0.1344895499594533,0.1010955668576089,-0.180201417398286,1.296274298897653,-0.9790145551579612,2.6278174513255017,-0.3599806992134235,0.3619434859676182,-0.3605911804371195,2.5630052977815514,-1.853141446680072,1.285763255757772,-1.2172410546789665,9.09161628296306,-1.029573531411559,0.3302877408785581,-0.7752435714342819
0.2,1.3134857717873554,-0.9974548474039336,2.6337000375353505,-0.1052447418157917,-0.0364365043058411,0.040774701898907,-0.1699571376827056,0.1266929190820533,-0.2034054286311298,1.3096776793392209,-0.9945812470466489,2.628346932161413,-0.2344895514495694,0.201095568347725,-0.2802014188884021,2.4756819045986163,-1.773379386162617,1.2798676112222211,-1.160200561642191,9.125701829479569,-1.0311964790658033,0.3308093365532291,-0.7807182934835718
0.22,1.3096637648097775,-0.9944849457832924,2.629582531062227,-0.1060414221033913,-0.0308841493947999,0.0406440479239715,-0.209679604183662,0.1674536683922674,-0.2056552618707096,1.3096776793392209,-0.9945812470466489,2.628346932161413,-0.2344895514495694,0.201095568347725,-0.2802014188884021,2.847970671748412,-1.9861233250478212,2.038037465510703,-0.1124916619789875,9.125701829479569,-1.0344689748863565,0.3279242137160181,-0.7826396200380225
0.24,1.305101548444369,-0.9907850240939028,2.6254542175827584,-0.1003685858143593,-0.0201893856386449,0.0404475096113819,-0.2437526082234391,0.1991907332937662,-0.2071304006274269,1.3096776793392209,-0.9945812470466489,2.628346932161413,-0.2344895514495694,0.201095568347725,-0.2802014188884021,2.329370584089283,-1.703650201988853,1.5868532450749386,-0.0737569378358643,10.322639067547245,-1.0317001879046048,0.3235108762863872,-0.788490641492783
0.26,1.299922180068386,-0.986530410455737,2.62125494823489,-0.0929492162653543,-0.0066755720376444,0.0401671995952334,-0.271852350808342,0.2243458053289416,-0.2126029274692227,1.307332783824725,-0.9925702913631717,2.6255449179725296,-0.2544895517475926,0.2210955686457482,-0.3002014191864254,1.905466958823248,-1.4049871292451444,1.2577536017587725,-0.2736263420897902,10.322639067547245,-1.0258587169416948,0.3186392247345557,-0.7978297116095154
0.28,1.2945359191807748,-0.9820619789588207,2.6171268690660594,-0.0860449426324093,0.0071021419261256,0.0398955729181856,-0.2933366846974823,0.2447728768792748,-0.2216360937514084,1.3026429927957337,-0.9885483799962173,2.6199408895947616,-0.294489552343639,0.2610955692417946,-0.3402014197824718,1.5495482792285875,-1.0742166944570168,1.021353577516658,-0.451658314109285,10.011417912963225,-1.0171572423427029,0.3133254451147194,-0.8113507001569669
0.3,1.288475709042911,-0.976963922782361,2.6125586208755296,-0.0796458413524786,0.0212416312702694,0.0396720543142191,-0.3112085495860998,0.2640226528298298,-0.2349161827758231,1.2979532017667423,-0.9845264686292626,2.614336861216993,-0.3344895529396855,0.3010955698378411,-0.3802014203785183,1.4716641882915622,-0.8935932444308708,0.9624887975277524,-0.6640044512207385,9.742054487210224,-1.0067635922156934,0.3084240786851009,-0.8268406798428837
0.32,1.2821019203194837,-0.9714970795278433,2.607682799502738,-0.0743607981990938,0.0340038087421118,0.0395544726858247,-0.3251406947295067,0.2818899125976623,-0.2520359155658074,1.2912634107079486,-0.9785045572325058,2.6067328328094237,-0.3744895535357319,0.3410955704338875,-0.4202014209745647,1.4198845822008077,-0.6966072571703452,0.8933629883916244,-0.8559866394992135,9.510513419110794,-0.9956591852526524,0.3041838094096206,-0.842726077114373
0.34,1.2754826111874942,-0.9656822411020036,2.6024417164028644,-0.0701189636424469,0.0448039937463859,0.0395606287391183,-0.3360632285528478,0.2988922070338641,-0.2712679232426983,1.2845736196491548,-0.972482645835749,2.599128804401853,-0.4144895541317784,0.3810955710299341,-0.4602014215706112,1.3948565163676478,-0.5461266911670565,0.8501147218100885,-0.9616003838445408,9.319173915270769,-0.9857732824687978,0.3006777918670986,-0.8566942107312213
0.36,1.2690087383024318,-0.9598406780643692,2.5970897260153305,-0.0666925175870319,0.0531187521511608,0.0396901596695483,-0.3448501058277995,0.3151394563341317,-0.2911675479090332,1.27688382857546,-0.965460734424091,2.590524775979381,-0.4544895547278249,0.4210955716259805,-0.5002014221666576,1.3575505367491072,-0.4393438637475877,0.8123624650133804,-0.9949812333167468,9.220411662305196,-0.9760071024497584,0.2973823690955746,-0.8702879259771551
0.38,1.2620252390560651,-0.953362361581212,2.591031501235177,-0.0634048379781898,0.0600027752290264,0.0399476145502387,-0.3530118561683207,0.3317819785131278,-0.3136977036303588,1.268194037486864,-0.957438822997532,2.5809207475420086,-0.4944895553238713,0.4610955722220269,-0.540201422762704,1.4587628576353289,-0.4080875170260567,0.8321261089498072,-1.1265077860662802,9.146496718196431,-0.967254231197995,0.2942452479374871,-0.8825025899735531
0.4,1.254886414747069,-0.9465559708391418,2.5845083802376823,-0.0603102107883244,0.0652194376864015,0.0403081943935316,-0.3604617148314146,0.3479462785673296,-0.3375502787063054,1.244374646247649,-0.9367732626555556,2.5753466160536598,-0.4530118576584368,0.4317819800032439,-0.4136977051204749,1.488061094256558,-0.3724929331546944,0.8082150027100887,-1.1926287537973284,9.017049372235306,-0.9602028408523564,0.2912794880243988,-0.892484607686013
0.42,1.2476396192759729,-0.939418842385195,2.577812245597596,-0.0575432912820458,0.0684838128006625,0.040766712666162,-0.364054795584855,0.365009771288839,-0.330878952906015,1.244374646247649,-0.9367732626555556,2.5753466160536598,-0.4530118576584368,0.4317819800032439,-0.4136977051204749,0.9335143291500222,-0.1796540376720196,0.8531746360754683,0.333566290014517,10.769422101408054,-0.9662226596304668,0.2885666781673843,-0.8877252011728272
0.44,1.2406920229591556,-0.9323391492840924,2.5715436527374687,-0.0556382508914105,0.0694878386654589,0.0412689812548856,-0.3672802107255829,0.3796212266280727,-0.3294090826107266,1.244374646247649,-0.9367732626555556,2.5753466160536598,-0.4530118576584368,0.4317819800032439,-0.4136977051204749,0.7517620112865351,-0.1612707570363969,0.7305727669616874,0.0734935147644194,10.769422101408054,-0.964365269320167,0.2887782409835819,-0.8878261238579942
0.46,1.233305232771461,-0.9245890502739164,2.5649157052632394,-0.0544662379067222,0.06845639304807,0.0418476743439581,-0.3713473037990639,0.3946516156375327,-0.3337197815246839,1.2398445276710646,-0.9324554428555232,2.5712096390024546,-0.47301185795646,0.4517819803012672,-0.4336977054184981,0.8078303735482544,-0.203354653674051,0.7515194504729983,-0.215534945697865,10.357017001461829,-0.9638684754013056,0.2891442443984964,-0.8871417083355874
0.48,1.225828197406521,-0.9165428557609387,2.5581494255064854,-0.0540993351934723,0.0654058261403801,0.0424715324433634,-0.3762965993199417,0.4092453804730396,-0.3428724235653685,1.2307842905178958,-0.9238198032554582,2.562935684900045,-0.5130118585525064,0.4917819808973136,-0.4736977060145446,0.8961645420233447,-0.2474647760438875,0.7296882417753447,-0.4576321020342278,9.759858053453172,-0.9651761163187096,0.2897361091144453,-0.884985870880416
0.5,1.2182380976080995,-0.9082087543587768,2.551157200990311,-0.0545781613548069,0.0605019352689719,0.0431313206230371,-0.3827759094742764,0.4235051383531448,-0.3558705191277226,1.2217240533647271,-0.9151841636553932,2.554661730797636,-0.5530118591485529,0.5317819814933601,-0.513697706610591,1.0176844342960372,-0.3239655077167364,0.7129878940052597,-0.6499047781177075,9.567414021906188,-0.9676452040810312,0.2906626568059468,-0.8818392458294939
0.52,1.210489903184342,-0.8995906929213132,2.5438760972910512,-0.0559237411381563,0.0544465378221198,0.0437947364877461,-0.3919812285536161,0.4376680179701513,-0.3715823844747252,1.210663816181756,-0.904548524025526,2.544387776665424,-0.5930118597445994,0.5717819820894066,-0.5536977072066375,1.15345976423174,-0.4602659539669845,0.7081439808503287,-0.7855932673501292,9.427722351783814,-0.971563152960332,0.2920226119764616,-0.8773067597855183
0.54,1.202934321816027,-0.8911389497954291,2.536659360749876,-0.0579842511171919,0.0484199696428751,0.044394073592276,-0.4030361376645011,0.4514196389900249,-0.3872840670052971,1.1996035789987851,-0.893912884395659,2.5341138225332123,-0.6330118603406458,0.611781982685453,-0.5936977078026839,1.1809539898055097,-0.5527454555442485,0.687581050993677,-0.7850841265285929,9.427722351783814,-0.9768698164852204,0.2938636982344706,-0.8712266921319047
0.56,1.194728173970356,-0.8819395045736479,2.5287331085753606,-0.0603639938110808,0.0424933185295646,0.044999472093361,-0.4171338745380203,0.4678012615063208,-0.4045379720515188,1.187543341800913,-0.8822772447508905,2.5228398683860997,-0.6730118609366922,0.6517819832814994,-0.6336977083987303,1.3827517678215369,-0.7048868436759642,0.819081125814794,-0.8626952523110881,9.392174460183014,-0.9822344247205812,0.2959192474850031,-0.8648466309288871
0.58,1.1862144793908775,-0.872399116986368,2.520455348913728,-0.0621888925578468,0.0377353711654191,0.0455828569357177,-0.4336785968200881,0.4852662287125969,-0.4223868679211258,1.1744831045881394,-0.869641605091221,2.510565914224085,-0.7130118615327387,0.6917819838775459,-0.6736977089947768,1.497778353655108,-0.8272361141033857,0.873248360313808,-0.8924447934803487,9.361720615564082,-0.9866504293806694,0.297470344673219,-0.8597054274117548
0.6,1.1773448768171637,-0.8625027418539665,2.511812888985129,-0.0631054233019446,0.035050159631074,0.0461021181281743,-0.4525530855725638,0.5033924887191517,-0.4409898266175195,1.1645305495498732,-0.8481358055507381,2.499336005517672,-0.5336785983102041,0.5852662302027131,-0.5223868694112419,1.605364210819688,-0.9437244376237884,0.9063130003277352,-0.9301479348196834,9.34285576424736,-0.9894617391373788,0.2982606215702593,-0.8566049809774368
0.62,1.168531014564639,-0.8527064598558103,2.5035359625251528,-0.0616142533275269,0.0361298194294393,0.0465256352470891,-0.4735575216397251,0.5262498412800132,-0.4292092863834625,1.1645305495498732,-0.8481358055507381,2.499336005517672,-0.5336785983102041,0.5852662302027131,-0.5223868694112419,1.6601400760155938,-1.0502218033580646,1.142867628043076,0.5890270117028501,11.21060502023829,-1.0002080203382135,0.2972384256435305,-0.8443650928620265
0.64,1.158857536835903,-0.8419640731891855,2.495043234887828,-0.0574664958285649,0.0410454260955879,0.0469167892216143,-0.4921935482469254,0.5461343579654475,-0.4210191774951744,1.1645305495498732,-0.8481358055507381,2.499336005517672,-0.5336785983102041,0.5852662302027131,-0.5223868694112419,1.4228258634840103,-0.9318013303600132,0.994225834271717,0.4095054444144042,11.21060502023829,-0.9996598885828863,0.2960489610169342,-0.8431873516717717
0.66,1.1488480691843583,-0.8308664864777117,2.486640741835508,-0.0527148219933328,0.0481841553359971,0.0472354295215974,-0.5074450129584415,0.5624844223233654,-0.4199174245739989,1.1591937635667713,-0.842283143248711,2.494112136823559,-0.5536785986082273,0.6052662305007362,-0.5423868697092651,1.119314120180294,-0.762573235575803,0.817503217895893,0.0550876460587768,10.740340949315396,-0.995535885409329,0.2938955944315672,-0.8472941090153019
0.68,1.1385673018799234,-0.8194656868387522,2.47818697135057,-0.0482265907388229,0.056295628087638,0.0475057800481673,-0.5195805331026422,0.5768030378642804,-0.4254783970265752,1.1485201916005672,-0.8305778186446567,2.4836643994353342,-0.5936785992042738,0.6452662310967827,-0.5823868703053116,0.9787977508111017,-0.6067760072100359,0.7159307770457535,-0.2780486226288153,9.932181245771062,-0.9894976929379318,0.2914403428508123,-0.8545009155313142
0.7000000000000001,1.128602697716118,-0.8083827932841899,2.470002812056318,-0.0444957543554682,0.0640299134270241,0.0477432956840674,-0.5285617878695645,0.5891898305731376,-0.4357353596092305,1.137846619634363,-0.8188724940406025,2.473216662047109,-0.6336785998003203,0.6852662316928292,-0.622386870901358,0.921006042627508,-0.4490627383461176,0.619339635442856,-0.5128481291327674,9.932181245771062,-0.9825884705633028,0.2889319774298552,-0.8629694070852322
0.72,1.117952771939484,-0.7964719457272632,2.4611345840397245,-0.0412431758029089,0.0715505685448968,0.0479884599076516,-0.5358260656910219,0.6013217628615092,-0.450753164751566,1.1251730476383566,-0.8051671694067459,2.4607689246290825,-0.6736786003963667,0.7252662322888757,-0.6623868714974045,1.0313680048970255,-0.3632138910728666,0.6065966144185808,-0.7508902571167736,9.646297948258509,-0.9752958433825404,0.2865365445015123,-0.8721512383528792
0.74,1.107177444636952,-0.7843237884605185,2.4519384151879025,-0.038678059475294,0.0779922688053357,0.0482375742632629,-0.5412770545331174,0.6129708621658898,-0.4682117721430908,1.1124994756423503,-0.7914618447728893,2.448321187211055,-0.7136786009924132,0.7652662328849221,-0.702386872093451,1.084225260279634,-0.2725494421047747,0.5824549652190314,-0.8729303695762414,9.415960912688206,-0.9689329814356016,0.2844509017743974,-0.8803883597503747
0.76,1.096303543864505,-0.7719377688111496,2.442373005681964,-0.0364457818474185,0.0832246644612877,0.0485110850289261,-0.545826042537751,0.6249727009609101,-0.4874629409297506,1.0988259036314427,-0.7767565201241315,2.434873449778127,-0.7536786015884596,0.8052662334809685,-0.7423868726894973,1.156876101815162,-0.2274494002316829,0.6000919397510129,-0.9625584393329888,9.305623971527892,-0.9626740501719984,0.2823808607632043,-0.8885333620372899
0.78,1.085894985508906,-0.7599496800084194,2.4329153302830075,-0.0343283036908388,0.0872019264226413,0.0488042360090993,-0.5495785993645874,0.6362203299976276,-0.50712656345172,1.0841523316056338,-0.7610511954604726,2.420425712330297,-0.793678602184506,0.845266234077015,-0.7823868732855438,1.1480950443808533,-0.1876278413418197,0.562381451835875,-0.9831811260984702,9.228686796557668,-0.957137605188379,0.2801828111913677,-0.8959539581703031
0.8,1.0748658457052274,-0.7471051998833471,2.422541471897101,-0.0320587105066078,0.0904849400461312,0.0491412711759344,-0.5531260151251818,0.6475444654975343,-0.5292970459729999,1.0584160555406763,-0.7281386635085381,2.4075590021104216,-0.6495786008547035,0.7362203314877437,-0.6071265649418361,1.2573290128533745,-0.1773707880297181,0.566206774995337,-1.1085241260639922,9.161172847207126,-0.9523089729256036,0.2778973100393997,-0.9025847005895352
0.8200000000000001,1.063790623988291,-0.7340217930322009,2.4120256289304085,-0.0295373367010437,0.0931464352592399,0.0495081149448695,-0.5540349937511038,0.6600710490585824,-0.5195516840919999,1.0584160555406763,-0.7281386635085381,2.4075590021104216,-0.6495786008547035,0.7362203314877437,-0.6071265649418361,0.7948484384553287,-0.0454489312960992,0.6263291780524038,0.4872680940499974,9.086909360250502,-0.9560542188971844,0.2745161446300173,-0.9018344718754812
0.84,1.0527111302433714,-0.7207120127710894,2.4017033248129294,-0.0272275441003483,0.0951683065362239,0.0498695950920137,-0.5539487912959795,0.6704484975151688,-0.5133544020844636,1.0584160555406763,-0.7281386635085381,2.4075590021104216,-0.6495786008547035,0.7362203314877437,-0.6071265649418361,0.6043698611225379,0.0043101227562125,0.5188724228293196,0.3098641003768165,11.066682270666206,-0.9539428989352192,0.274496448733563,-0.9021642349353252
0.86,1.041633973571391,-0.7072001623582534,2.3914302826880105,-0.0254842476402425,0.0962309865382774,0.0502063161072318,-0.5538793287001953,0.6803122490943059,-0.51424775769515,1.0519202695321297,-0.7207764601936606,2.401487736461003,-0.6695786011527267,0.7562203317857669,-0.6271265652398593,0.4952183975638617,0.0034731297892109,0.4931875789568551,-0.0446677805343187,10.61798693286346,-0.9517642831823152,0.2742974442980569,-0.9032311937351528
0.88,1.0311093936890212,-0.6941866738082818,2.381600338131216,-0.0243633024778381,0.0962677456758438,0.0505017891456736,-0.5540812693113886,0.6890930010917239,-0.5204253358776257,1.0389286975150354,-0.7060520535639058,2.3893452051621664,-0.7095786017487732,0.7962203323818133,-0.6671265658359058,0.5369004978839427,-0.0100970305596637,0.4390375998709006,-0.3088789091237887,10.21626512640978,-0.9504177729157092,0.2741021333240416,-0.9039630668835268
0.9,1.0200234999262103,-0.6803158767322558,2.3710787166290768,-0.0239697351564044,0.0952077949476264,0.0507722347851651,-0.5545934026714484,0.6976284036496905,-0.5314004544638556,1.0259371254979412,-0.6913276469341508,2.3772026738633296,-0.7495786023448197,0.8362203329778598,-0.7071265664319523,0.695644674720575,-0.025606668002992,0.4267701278983293,-0.5487559293114952,9.909533887695034,-0.950214755128338,0.274268794203297,-0.9037434950623496
0.92,1.0089237325190834,-0.6662776055014296,2.3603024963800983,-0.0245671327087991,0.0928805034384074,0.0509936921656412,-0.5554673247052048,0.7058828613268814,-0.5456617439201578,1.0109455534510448,-0.6746032402745936,2.3630601425346907,-0.7895786029408661,0.8762203335739063,-0.7471265670279987,0.8250517987103214,-0.0436961016878179,0.4127228838595453,-0.7130644728151059,9.669824784132288,-0.9509840978249176,0.2748818226144984,-0.902740982861286
0.94,0.9983588939938208,-0.6527884757694625,2.349789924058564,-0.026151937304766,0.0893527085856305,0.0511612895389762,-0.5567027813112001,0.7137318983085272,-0.5601988726683549,0.9959539814041484,-0.6578788336150364,2.348917611206052,-0.8295786035369126,0.9162203341699529,-0.7871265676240452,0.8283445038240447,-0.0617728302997666,0.3924518490822926,-0.7268564374098563,9.49582474003182,-0.9533480606787,0.2762777220013784,-0.8999824350280138
0.96,0.9871987487900498,-0.6384144302151187,2.338419275675529,-0.0285958552201332,0.0843240051495391,0.0513219199073315,-0.5595146870331018,0.7234353897199969,-0.5761250414443672,0.9799624093423508,-0.6401544269405781,2.3337750798625114,-0.869578604132959,0.9562203347659992,-0.8271265682200916,0.9430103541893868,-0.1405952860950854,0.4851745705734822,-0.7963084388006136,9.408410555106457,-0.9564572688312076,0.2783357719365617,-0.8961862753209362
0.98,0.9759559664572908,-0.623825470598439,2.326725692456943,-0.0309227054947636,0.0785989504163733,0.0515193628361497,-0.5648147152688001,0.7348522168513213,-0.5924202177531577,0.9629708372656522,-0.6214300202512186,2.31763254850407,-0.9095786047290054,0.9962203353620456,-0.867126568816138,1.0295229623232212,-0.2650014117849153,0.5708413565662207,-0.8147588154395258,9.408410555106457,-0.960836240792408,0.280345225038886,-0.8908541662003773
1.0,0.9651552509864748,-0.6097463181232033,2.315311434249109,-0.0325565256171428,0.0732016707989094,0.0517519768858435,-0.5719261842089746,0.7464169264401379,-0.6082510160560444,0.9477152306938508,-0.5870828597558729,2.297104681569285,-0.6648147167589162,0.8348522183414374,-0.6674142006642676,1.0427483796048462,-0.3555734470087224,0.5782354794408306,-0.7915399151443347,9.392399907301296,-0.9659618693225002,0.2819793008237551,-0.8847635114553088
1.02,0.9535955425327984,-0.5946386115500155,2.303293892526814,-0.0322794104377496,0.0695480446107686,0.052067145959629,-0.5839111356839315,0.7634095313839979,-0.5909318788321584,0.9477152306938508,-0.5870828597558729,2.297104681569285,-0.6648147167589162,0.8348522183414374,-0.6674142006642676,1.3530892420817646,-0.5992475737478464,0.8496302471930006,0.8659568611943003,9.372353463687432,-0.9742058535883208,0.2790137173456478,-0.8805269895220936
1.04,0.9417858918648654,-0.5792092880061682,2.2916363834021896,-0.0293262417687868,0.0699746956350365,0.0524228237517256,-0.595885217360509,0.7783477480666998,-0.5758208313001755,0.9477152306938508,-0.5870828597558729,2.297104681569285,-0.6648147167589162,0.8348522183414374,-0.6674142006642676,1.219500622355878,-0.5987040838288771,0.746910834135095,0.7555523765991445,11.61738954097109,-0.9779378577575732,0.279606925619006,-0.8730844652472667
1.06,0.9297638919020496,-0.5635171453657427,2.280208776521392,-0.0251162648567921,0.0730824846720736,0.0527778533039361,-0.6053813659417958,0.789842314312851,-0.567653173563732,0.9410670835262616,-0.5787343375724585,2.2904305395626423,-0.6848147170569394,0.8548522186394606,-0.6824129972464896,0.8500184173956438,-0.4748074290643389,0.5747283123075597,0.4083828868221728,11.171483708155392,-0.9778534533011306,0.2784652087665902,-0.8711918662644933
1.08,0.918189690456082,-0.5484218885083686,2.269444426108012,-0.0211830072458245,0.0773056290854538,0.0530777087178752,-0.6122870725394755,0.7985882412789232,-0.5658270563010878,0.9277707891910832,-0.5620372932056298,2.2770822555493573,-0.7248147176529859,0.8948522192355071,-0.7124105904109336,0.5646120933128181,-0.345285329883982,0.4372963483036118,0.0913058631322127,10.71857454401379,-0.97529997199137,0.2766108636437732,-0.8731349912680408
1.1,0.905885618720872,-0.5323669450672196,2.258100272087143,-0.0176064002370739,0.0821446759338378,0.0533477892421548,-0.6176116017745743,0.8065149202932088,-0.5689133639819823,0.9144744948559048,-0.5453402488388011,2.263733971536072,-0.7648147182490324,0.9348522198315536,-0.7424081835753775,0.5017672440287587,-0.2662264617549426,0.3963339507142782,-0.1543153840447286,10.047515363400636,-0.9715915723852364,0.2749231882625617,-0.8765677045909767
1.12,0.8934923721631538,-0.516161823039589,2.2466432343715157,-0.0147645392937442,0.0866935464762228,0.053571916728263,-0.6213942420847406,0.8137514994672976,-0.5766269254832314,0.8991782004909243,-0.5266432044421699,2.248885807864564,-0.8048147188450788,0.9748522204276,-0.7724057767398215,0.5616392901420404,-0.1891320155083142,0.361828958704441,-0.3856780750624511,9.8116035911753,-0.9673368679151148,0.273389724037928,-0.8809392501493265
1.14,0.8810378809315519,-0.4998163807004239,2.235009752377244,-0.0126200068252541,0.0905095149580014,0.0537545938973908,-0.6238784139153478,0.8205864955404057,-0.5863416115873047,0.8838819061259436,-0.5079461600455389,2.2340376441930565,-0.8448147194411253,1.0148522210236466,-0.8024033699042655,0.6067606758518166,-0.1242085915303614,0.3417498036554056,-0.4857343052036666,9.8116035911753,-0.963751001170862,0.2719855782634142,-0.8850546459609334
1.16,0.8691646948767314,-0.4841556202293416,2.2237649750574358,-0.0109041617036601,0.0933420077806319,0.0539092420884049,-0.6258148152482275,0.8275232891434374,-0.596836573827776,0.8675856117460619,-0.4882491156340067,2.218439540692438,-0.8848147200371717,1.054852221619693,-0.8324009630687095,0.6364216134803204,-0.0968200666439822,0.3468396801515838,-0.5247481120235653,9.648198509300528,-0.9603899197433188,0.2706322820266729,-0.8889902675457809
1.18,0.8566298005846882,-0.4675294710798856,2.211700344555857,-0.0091654946148835,0.0955771500758877,0.0540666140221826,-0.6275762486838476,0.8346644743773511,-0.609133948960787,0.8502893173512789,-0.4675520712075733,2.202091497362708,-0.924814720633218,1.0948522222157393,-0.8623985562331534,0.7164576216622744,-0.0880716717810092,0.3570592616956858,-0.6148687566505495,9.648198509300528,-0.9575824949777908,0.2692564777439333,-0.8923646752086618
1.2,0.8440611925819752,-0.4507625968764387,2.1993774438662745,-0.0074041385758765,0.0971442309585965,0.0542212148241384,-0.6292087790715448,0.8415819445552085,-0.6225892307118261,0.8252509881504958,-0.425796247361018,2.181243647107818,-0.6696939151369707,0.8680583528670839,-0.652818457612282,0.7608566818530089,-0.0816265193848586,0.3458735088928688,-0.672764087551958,9.581646267977703,-0.955354877689185,0.2678250268943433,-0.895208795600198
1.22,0.831395142173109,-0.4336461247291842,2.1870671908385826,0.0013974283668426,0.1007838853612555,0.0548494702368652,-0.6365704372621029,0.8658448690480289,-0.6061427280861279,0.8252509881504958,-0.425796247361018,2.181243647107818,-0.6696939151369707,0.8680583528670839,-0.652818457612282,1.5111013904401116,-0.3680829095279059,1.2131462246410207,0.8223251312849122,9.523773066464855,-0.9540310362194864,0.2577710762665588,-0.9035265019265551
1.24,0.8192680564617738,-0.4171034501688451,2.1756876046303533,0.0160370037991154,0.1077369889721823,0.0559298621111147,-0.6390455417540651,0.8732338011842448,-0.5926988774957705,0.8252509881504958,-0.425796247361018,2.181243647107818,-0.6696939151369707,0.8680583528670839,-0.652818457612282,0.7769484845464116,-0.1237552245981099,0.3694466068107915,0.6721925295178677,11.067639561622856,-0.950414744588814,0.2478279874839924,-0.9073618797993146
1.26,0.8064930328230855,-0.3996319115081725,2.163915134596345,0.0323256253783756,0.1168355559335519,0.0572577847250688,-0.6379145907764779,0.8730875909954083,-0.5856129591122176,0.8185540489991261,-0.4171156638323472,2.174715462531695,-0.6781174484275954,0.8747371285650304,-0.6615553593425809,0.3588546602435283,0.0565475488793598,-0.0073105094418213,0.3542959191776496,11.067639561622856,-0.9424548199891664,0.2361389655384279,-0.9166687159013648
1.28,0.7937720874494661,-0.3822196106138554,2.1522114082532102,0.0477129032207662,0.1266837882885058,0.0586703622727092,-0.6339102968579768,0.8680117734895885,-0.5854215654942303,0.8051601706963867,-0.3997544967750056,2.1616590933794493,-0.6949645150088446,0.8880946799609235,-0.6790291628031789,0.3233996160137585,0.200214695925055,-0.2537908752909934,0.0095696808993628,10.618378290133478,-0.9324469712046716,0.2244203692510563,-0.9288024789681434
1.3,0.7811566200769509,-0.364951669694487,2.140446737566115,0.0613037375392497,0.1366826769815466,0.060081802401762,-0.6275377670809807,0.8592561221725086,-0.5910756687929316,0.7917662923936473,-0.3823933297176639,2.148602724227204,-0.7118115815900938,0.9014522313568166,-0.696502966263777,0.6108179963323154,0.3186264888498047,-0.4377825658539946,-0.2827051649350653,10.249843940426215,-0.9204055414378036,0.2122054419834275,-0.9435380274797046
1.32,0.7693105502602553,-0.3487340019547635,2.129125507315964,0.0722742581111947,0.1460210218514916,0.0613672610273256,-0.6195126290747899,0.8486114237799067,-0.600376330059015,0.7775300607618454,-0.3643642850905275,2.1346726649019283,-0.7286586481713431,0.9148097827527096,-0.713976769724375,0.8127341875950186,0.4012569003095434,-0.5322349196300924,-0.465033063304171,9.977776764593727,-0.907420943800854,0.2007062288355663,-0.9591854801789635
1.34,0.7570375205688894,-0.3318977294338081,2.1169981929630213,0.0817997102715383,0.1551968965233861,0.062600398643425,-0.6080260490986951,0.8357859889238541,-0.6119535643338747,0.7632938291300435,-0.3463352404633912,2.1207426055766527,-0.7455057147525923,0.9281673341486028,-0.731450573184973,1.037383309400456,0.5743289988047406,-0.6412717428026293,-0.5788617137429841,9.788726257933376,-0.8946646846117507,0.1901604099908036,-0.9745119923487692
1.36,0.7450258877753185,-0.3153309973667912,2.1046264926272142,0.0893795571880744,0.1629749259308337,0.0636240854847217,-0.5937125879294222,0.8218502489261635,-0.624659883249444,0.7486364208337104,-0.3279722570513576,2.106375701164862,-0.7623527813338415,0.941524885544496,-0.7489243766455709,1.1837763305536972,0.715673058463645,-0.69678699988453,-0.6353159457784641,9.73116715933611,-0.8821852414476352,0.1807301962973825,-0.9891852747887048
1.38,0.7333235506678784,-0.2990521366251824,2.0919939268861927,0.0952932161706304,0.1688910569582182,0.0643773451253713,-0.57732911347787,0.8070306022326859,-0.6379746758401297,0.7335578358728461,-0.3092753348544266,2.0915719516665567,-0.7791998479150908,0.954882436940389,-0.7663981801061689,1.289693631213578,0.8191737225776097,-0.7409823346738842,-0.6657396295342843,9.71052065598542,-0.8712983389989302,0.1727592849425315,-1.0019067683459029
1.4,0.722524061870267,-0.2838688979949856,2.079743953145628,0.0995298359363482,0.1725770115643481,0.0648029354330774,-0.5604312146367049,0.7922195109114183,-0.6508275694853689,0.7044570949939849,-0.2587006065135481,2.060095193094186,-0.6045928740445814,0.7743164811890038,-0.6466501495823167,1.294318630041505,0.8448949420582552,-0.7405545660633783,-0.6426446822619614,9.727513879942308,-0.8613717108939609,0.1654005465231351,-1.0136308415171285
1.42,0.7115077639063,-0.2680649638922042,2.066746507210513,0.1074286547958477,0.1750592656135396,0.0653317896046457,-0.5418548990176062,0.7865225930435519,-0.6476702913491906,0.7044570949939849,-0.2587006065135481,2.060095193094186,-0.6045928740445814,0.7743164811890038,-0.6466501495823167,0.9842545153601966,0.9288157809549336,-0.2848458933933206,0.1578639068089138,9.727513879942308,-0.854535391926711,0.1531595203518541,-1.0249665914204154
1.44,0.7008851192615356,-0.2525007720695881,2.053820282914925,0.1186694961309896,0.1765458005322635,0.0659596741396134,-0.5213771515060199,0.7696858202875637,-0.6453380732561731,0.7044570949939849,-0.2587006065135481,2.060095193094186,-0.6045928740445814,0.7743164811890038,-0.6466501495823167,1.3306523787398994,1.0238873755793132,-0.841838637799408,0.1166109046508767,10.724017901819934,-0.8492304761318374,0.1419938725972451,-1.0311063728422585
1.46,0.6906867388162753,-0.2373223551984176,2.040917042644488,0.1299281313054563,0.176397923785722,0.0663484230660303,-0.4996325057971777,0.7486964643003692,-0.6451392032028099,0.698411166253539,-0.2509574417016581,2.053628691598363,-0.6100456261579237,0.7677736569802673,-0.6483852443307541,1.5111437978054685,1.0872322854421106,-1.0494677993597268,0.0099435026681582,10.631372728164934,-0.8445416509680602,0.1292426132465078,-1.037396557934715
1.48,0.6814118962027166,-0.2233306182017149,2.02864925383356,0.1396747760427168,0.1741291602854109,0.0663082707111741,-0.477903441798086,0.7252451593536237,-0.6462057435841858,0.6863193087726475,-0.235471112077878,2.0406956886067165,-0.6209511303846083,0.7546880085627945,-0.6518554338276289,1.5994166392524016,1.0864531999545846,-1.172565247337276,-0.053327019068794,10.552051370237676,-0.8423233785041678,0.1166959026669864,-1.041980825860611
1.5,0.6720987884698795,-0.2091146737177979,2.015708175269439,0.1482572834247744,0.1688343003987475,0.0656469413359898,-0.4549862340850564,0.6977245017710961,-0.6477957040314588,0.6742274512917559,-0.2199847824540979,2.02776268561507,-0.6318566346112928,0.7416023601453217,-0.6553256233245037,1.7924236227526995,1.1458603856514786,-1.3760328791263765,-0.0794980223636498,10.517373357501128,-0.8423814464258853,0.1049325011048048,-1.0450181775838103
1.52,0.6632232193203953,-0.1954769537837304,2.0027391520457205,0.1547103909910019,0.1607583332270465,0.0643146557649869,-0.4343096059976305,0.6678683741784583,-0.6489147680576965,0.66159031859953,-0.2051527352511915,2.01465617314858,-0.6427621388379774,0.7285167117278488,-0.6587958128213786,1.816702788149741,1.0338314043712964,-1.4928063796318891,-0.0559532013118868,10.518329767784962,-0.8456582600100843,0.0949306766939636,-1.0453698759832928
1.54,0.6547314252340852,-0.1824545826017793,1.9897650746683453,0.1590441382285658,0.1507036970856404,0.0624252346076634,-0.4164549477851502,0.6363656451840201,-0.6483146313032712,0.6489531859073042,-0.1903206880482851,2.0015496606820897,-0.653667643064662,0.715431063310376,-0.6622660023182534,1.8107808523572964,0.8927329106240167,-1.5751364497219145,0.0300068377212692,10.55562281188122,-0.8517900645790595,0.087310958561582,-1.043105192341435
1.56,0.646964305660339,-0.1706805687340457,1.9774694063735487,0.1612367516598887,0.1400186354445414,0.0602402235114822,-0.4024670955506738,0.6051235667678883,-0.6458787296268815,0.6360434156094112,-0.1758157820558155,1.988356393478178,-0.6645731472913465,0.7023454148929031,-0.6657361918151281,1.7158533524680304,0.6993926117238175,-1.56210392080659,0.1217950838194814,10.655422016940063,-0.8602929619087202,0.0812810261709809,-1.038804902507608
1.58,0.6390409670479572,-0.1589374656434644,1.9645939564664725,0.1615094985583512,0.1282547975906612,0.0576646193518529,-0.3910143638541975,0.5710471437760416,-0.6416589812785828,0.6228610077058512,-0.1616380172737827,1.975076371536844,-0.6754786515180311,0.6892597664754303,-0.6692063813120029,1.809816249895068,0.5726365848238157,-1.7038211495923328,0.2109874174149373,10.765050105811495,-0.8699678774997598,0.0771009627154614,-1.0335091519740822
1.6,0.6313122567693544,-0.1478949266062886,1.951818997555045,0.1590147029161218,0.1165289141533602,0.0548888487406306,-0.3827960756359756,0.5352394860708224,-0.6359024123718575,0.6194902488552473,-0.1303851084546624,1.9325110074025431,-0.4695473874500074,0.5311045551189009,-0.6178646133691513,1.859345783568636,0.4109144109110951,-1.7903828852609605,0.2878284453362634,10.861638218861115,-0.8807878213421564,0.0758478644347261,-1.0267973061386773
1.62,0.6237433684369211,-0.1375291578424414,1.9391891101310883,0.154488651209073,0.1043355243699005,0.0519304261466144,-0.3749660826387434,0.5035362083699887,-0.6271790270882125,0.6194902488552473,-0.1303851084546624,1.9325110074025431,-0.4695473874500074,0.5311045551189009,-0.6178646133691513,1.6900473796019737,0.3914996498616097,-1.585163885041685,0.4361692641822512,10.95582940519671,-0.8932212831098927,0.0773621938505773,-1.0175438180640004
1.64,0.6166665574481711,-0.1282616756191524,1.9273762286183715,0.1495512109764164,0.0918360038581429,0.048987570107162,-0.3708491677101787,0.4739816082339154,-0.6166332430900794,0.6194902488552473,-0.1303851084546624,1.9325110074025431,-0.4695473874500074,0.5311045551189009,-0.6178646133691513,1.5824324139339256,0.2058457464282376,-1.4777300068036625,0.5272891999066553,11.068544117273632,-0.9069212900036048,0.0797265585720437,-1.0067393546578405
1.66,0.6092602390939671,-0.119103243891789,1.9151804565097628,0.1437561624356071,0.0783565473940586,0.0458743991684174,-0.3704723823908678,0.4437714070777678,-0.6033368482223411,0.6147947749807472,-0.1250740629034734,1.926332361268852,-0.4852539921691694,0.5231160373874727,-0.613105739787265,1.6504486795645643,0.0188392659655423,-1.5105100578073791,0.664819743386913,11.18085715660527,-0.9220854818969986,0.0831658455072506,-0.993783493212445
1.68,0.6018184873800294,-0.1105387018581719,1.903271889887488,0.1374207279600635,0.0651343723597479,0.0428500824683755,-0.3741370013217194,0.4145692444831009,-0.5880403712507692,0.6054038272317471,-0.1144519718010953,1.9139750690014683,-0.5166672016074935,0.5071390019246165,-0.6035879926234925,1.6584465169666671,-0.1832309465425813,-1.4601081297333451,0.7648238485785941,11.295948251409754,-0.9377053377628668,0.0877257367536568,-0.9790884975674308
1.7,0.5946433297932809,-0.1029320859881542,1.8922590117896283,0.1309486490715261,0.0533070893311064,0.0401371220708643,-0.3812359507605949,0.3880013480041162,-0.571902010924268,0.596012879482747,-0.1038298806987173,1.9016177767340856,-0.5480804110458174,0.4911619664617601,-0.5940702454597199,1.594282660385034,-0.3549474719437728,-1.3283948239492387,0.8069180163250644,11.474056297569405,-0.9542509642737405,0.0935597960540947,-0.9622942151598022
1.72,0.5869094621041288,-0.0954518879065382,1.881011293070334,0.1238630767650763,0.0420007024330585,0.0375095974847898,-0.3920607512469231,0.3617450328334826,-0.5536154699586594,0.5850512712618307,-0.0940066413694821,1.8897363718248912,-0.5794936204841413,0.4751849309989038,-0.5845524982959472,1.6889108712387189,-0.5412400243164084,-1.3128157585316769,0.9143270482804278,11.474056297569405,-0.9702003073070118,0.0999161902205379,-0.9451587262889348
1.74,0.578925210675071,-0.088479318685315,1.870140022255247,0.1166403923354667,0.0321654494312022,0.0351504615176904,-0.4060276566048342,0.337138977858853,-0.5343425681191345,0.5740896630409142,-0.0841834020402469,1.8778549669156968,-0.6109068299224654,0.4592078955360475,-0.5750347511321747,1.7117075772509351,-0.6983452678955587,-1.2303027487314822,0.9636450919762451,11.575546696869424,-0.9849984340015138,0.1064596327663697,-0.9284932757479888
1.76,0.5706267791724234,-0.0819834652099084,1.8596614443831208,0.1092876003836022,0.0242507830972923,0.033092780926483,-0.4231888390792854,0.3140656431109958,-0.514410462971586,0.5623427245840398,-0.0747595885975831,1.8662115056855968,-0.6423200393607893,0.4432308600731912,-0.5655170039684021,1.7494097403988964,-0.8580591237225599,-1.1536667373928582,0.9966052573774252,11.575546696869424,-0.9974828800054762,0.1128118337206081,-0.9137482037250756
1.78,0.5623966961962861,-0.0762223889205198,1.8500796566120192,0.1022448872923431,0.0190863017513515,0.0314585161952233,-0.4423524279762365,0.2938215324477896,-0.4951467481586116,0.5498104558912073,-0.0657352010414907,1.8548059881345909,-0.6737332487991132,0.4272538246103349,-0.5559992568046296,1.694223911080745,-0.958179444847554,-1.0122055331603124,0.9631857406487172,11.6063976961168,-1.008418717583753,0.1195737599452555,-0.9001292636237178
1.8,0.5533155926614723,-0.0705527984366269,1.8403911067665009,0.0949149135537483,0.0169179105906742,0.0301274160780763,-0.4645864176276087,0.2744641159839781,-0.4746602308778069,0.5402790747974743,-0.0615313122981303,1.8253223192040888,-0.4596724182982303,0.2678613403634771,-0.4406501543852466,1.7949632713982446,-1.1116994825686093,-0.9678708231905752,1.0243258640402346,11.630294203477206,-1.0173278540138986,0.1265451847045587,-0.8882014344436475
1.82,0.543715325657149,-0.0652253462724937,1.8311107599797805,0.0886391490059837,0.0205400743410441,0.0294346442731905,-0.4936136589707567,0.2590219803734003,-0.4543393304095944,0.5402790747974743,-0.0615313122981303,1.8253223192040888,-0.4596724182982303,0.2678613403634771,-0.4406501543852466,1.932601412635207,-1.4513620671574023,-0.7721067805288889,1.0160450234106275,11.62736944875178,-1.0199197415217962,0.1324792845129434,-0.8835238989799674
1.84,0.5335989993908684,-0.0602087426202644,1.8222412746827836,0.0834423035823393,0.0302744722736103,0.0293402216387518,-0.5157342463696909,0.2434913710802174,-0.4335388723647488,0.5402790747974743,-0.0615313122981303,1.8253223192040888,-0.4596724182982303,0.2678613403634771,-0.4406501543852466,1.7052707019464384,-1.1060293699467063,-0.7765304646591406,1.040022902242277,11.691054480611456,-1.02006731722692,0.1380029794795847,-0.8813945816973147
1.86,0.5236401718678667,-0.0557237200431882,1.814203874195373,0.0788977438750246,0.0422576903825475,0.0294673615099826,-0.5309266210865853,0.2295185316277028,-0.4135050924668833,0.535682350614492,-0.0588526988944955,1.820915817660236,-0.4631364163626291,0.2626693019466146,-0.4297508356305736,1.438228796906461,-0.7596187358447193,-0.6986419726257326,1.0016889948932766,11.603194126828384,-1.0159852676107926,0.1432070304279443,-0.8842839893150771
1.88,0.512897823115327,-0.05127738171807,1.8061567359222936,0.0743894064774907,0.0560333426315704,0.0296635842849593,-0.5419876592495418,0.2159824143274747,-0.3922501024969203,0.5264889022485273,-0.053495472087226,1.8121028145725315,-0.4700644124914266,0.2522852251128897,-0.4079521981212276,1.375997488579778,-0.553051908147828,-0.6768058650114025,1.06274949849815,11.558610166764993,-1.0102171069181871,0.1483132040371686,-0.8889297232534755
1.9,0.5019800040655357,-0.0470888185631138,1.798531584582893,0.0701523783108611,0.070038373672929,0.029846342605534,-0.5487919899139154,0.2036597542043743,-0.3713313853760775,0.5172954538825627,-0.0481382452799564,1.8032898114848264,-0.4769924086202242,0.2419011482791647,-0.3861535606118816,1.260693850902575,-0.340216533218679,-0.6161330061550243,1.0459358560421377,11.506670289057183,-1.0026474903175897,0.1526367107536672,-0.89581926110401
1.92,0.4915177412177178,-0.0433264239097987,1.7916711296328296,0.0664007195923085,0.0830770530085285,0.0299782463778832,-0.5518092989426034,0.1930632075922068,-0.3518823387271736,0.5077556057101582,-0.0433002223143732,1.7955667402725888,-0.4839204047490217,0.2315170714454397,-0.3643549231025356,1.1176497320601848,-0.150865451434401,-0.5298273306083706,0.9724523324451978,11.506670289057183,-0.9938571183895322,0.1568488869340495,-0.903896885659732
1.94,0.4804771481232435,-0.03957201358676,1.7848456313376944,0.0627856893204246,0.0962634685705252,0.0300663231174814,-0.55172167426829,0.182995729866298,-0.3317242923775886,0.4982157575377537,-0.0384621993487899,1.7878436690603512,-0.4908484008778192,0.2211329946117147,-0.3425562855931895,1.1266195214858867,0.0043812337156723,-0.503373886295444,1.007902317479248,11.47966537102002,-0.9846684343024272,0.1607283913505551,-0.9122576714725572
1.96,0.4694706182924416,-0.0360100499325702,1.7784175426448214,0.0594958666962107,0.1087739533134276,0.0301022441797832,-0.5486015583422262,0.1737708467225976,-0.3121396375110872,0.4885027094621293,-0.0338837783040497,1.780665563785847,-0.4977763970066168,0.2107489177779897,-0.3207576480838435,1.0936090465140889,0.156005796303188,-0.4612441571850201,0.9792327433250704,11.46780696240512,-0.9748689885408552,0.1643167650668189,-0.9210073747310562
1.98,0.4585561249084094,-0.0326235813082606,1.772375527028071,0.056495251422484,0.120562505658763,0.030089332694631,-0.5426952652700898,0.1653924054521414,-0.2930852626669271,0.4786164614832849,-0.0295649591801526,1.7740324244490768,-0.5047043931354143,0.2003648409442648,-0.2989590105744976,1.0818407654065954,0.2953146536068207,-0.4189220635228072,0.9527187422080058,11.44413029821044,-0.9656627367804363,0.1675421231273906,-0.9289808277817204
2.0,0.4483213511181703,-0.029553726882605,1.766984103154485,0.0539221436767127,0.1310893581776649,0.0300396099203104,-0.534693744658066,0.1581843713725449,-0.2754174061710702,0.4314213616449049,-0.0243539610356536,1.7577212638947246,-0.4788496084578988,0.1608077172245177,-0.2742665731567009,1.034569041383249,0.400076030601193,-0.3604017039798249,0.8833928247928474,11.427544308467075,-0.9561116013208866,0.1706827509520603,-0.9370645983624594
2.02,0.4377164965008726,-0.0264907899677502,1.7615236846824769,0.0503900344352776,0.1415531399168119,0.029878179159611,-0.5260620866037747,0.149149469162189,-0.2723155733824616,0.4314213616449049,-0.0243539610356536,1.7577212638947246,-0.4788496084578988,0.1608077172245177,-0.2742665731567009,0.6437319810398435,0.4315829027145612,-0.4517451105177969,0.1550916394304297,10.422782231210476,-0.9412557526304208,0.1735199440139491,-0.9504952951461108
2.04,0.4273037253515754,-0.0235729710445648,1.7560955045211684,0.046075506253929,0.1514470181559002,0.029606173798591,-0.5153890810430847,0.1432664105830776,-0.2706125719825011,0.4314213616449049,-0.0243539610356536,1.7577212638947246,-0.4788496084578988,0.1608077172245177,-0.2742665731567009,0.6152715654734178,0.5336502780345032,-0.2941529289555683,0.0851500699980217,10.422782231210476,-0.9304222033960124,0.1762646878464605,-0.9608092600961822
2.06,0.4176317911636945,-0.0208900256257313,1.7509848389788112,0.0421655673340663,0.1602858892436779,0.0293104852900729,-0.5030421544997307,0.1394283111096745,-0.2674815633496122,0.4266328655603259,-0.0227458838634084,1.7549785981631576,-0.4660804770954606,0.159890779578993,-0.2705028352546556,0.6651706880454489,0.6173463271677004,-0.1919049736701567,0.1565504316444477,10.452268753550925,-0.9195510975921176,0.1791765821532875,-0.9707970162795448
2.08,0.4077268271902595,-0.0181328494741182,1.7456829920175525,0.0385716010330714,0.1689955467651771,0.0289908635553758,-0.4878728624083804,0.1364645625067868,-0.2628426287865933,0.4170558733911679,-0.019529729518918,1.7494932667000236,-0.4405422143705842,0.1580569042879435,-0.2629753594505651,0.8068626621268787,0.7584646045675103,-0.148187430144385,0.2319467281509418,10.566158827862637,-0.9088736337026256,0.1818687086410497,-0.9801865799478032
2.1,0.398147306188728,-0.0154264715044728,1.7404862919660915,0.0356004118643236,0.1771130860935192,0.0286788332492386,-0.4706249696676652,0.1342667379674237,-0.2570489347894504,0.40747888122201,-0.0163135751744277,1.7440079352368896,-0.4150039516457078,0.156223028996894,-0.2554478836464746,0.9163611826588564,0.8623946370357627,-0.1098912269681562,0.2896846998571484,10.75734837166874,-0.898383926068968,0.1842205415262996,-0.9890592115466166
2.12,0.3889335227292937,-0.0127576665726798,1.7354169179167307,0.033259263898129,0.1846669790497118,0.0283844761415031,-0.451426362221011,0.1326118174069651,-0.250235462906141,0.3991788021890958,-0.0131891145944898,1.73889897756396,-0.3894656889208314,0.1543891537058445,-0.2479204078423841,1.0219450683094489,0.9599303723327096,-0.0827460280229258,0.3406735941654693,10.75734837166874,-0.8883869112558512,0.1860513949516463,-0.9972809693786314
2.14,0.3805523143421233,-0.0102492495851938,1.7307294784646414,0.0315584907342825,0.1913545160453953,0.0281244387302088,-0.4316101395697753,0.1314206230939103,-0.2435659325267928,0.3908787231561816,-0.0100646540145519,1.7337900198910303,-0.363927426195955,0.1525552784147951,-0.2403929320382936,1.047120169244976,0.9908111325617864,-0.0595597156527433,0.3334765189674113,10.835050679659616,-0.8775732018425184,0.1875663648214583,-1.0059763014783372
2.16,0.3721531676515666,-0.0076298546673078,1.7259344806885506,0.0302941777323505,0.1979158114295206,0.0278759353258117,-0.4091729207042496,0.13056806804816,-0.2363024339161386,0.3832171006913894,-0.0069860403168903,1.7288692491132034,-0.3383891634710785,0.1507214031237456,-0.2328654562342031,1.1799513258949612,1.1218609432762845,-0.0426277522875148,0.3631749305327073,10.8672792125044,-0.8669266456508475,0.1886788027676255,-1.0143438631908868
2.18,0.3642190483470227,-0.0050223521742738,1.72128783304746,0.0296916169740751,0.2040195479975134,0.0276674046377963,-0.3851980944696213,0.1301928428971941,-0.2287429646785736,0.3761939347947191,-0.0039532735015049,1.7241366652304786,-0.3128509007462022,0.1488875278326961,-0.2253379804301126,1.257058731770548,1.198741311731416,-0.0187612575482956,0.3779734618782504,10.905856303115796,-0.8563920647277012,0.1892551748454185,-1.0224803475827473
2.2,0.3567837192575989,-0.0024187447739394,1.716796371899373,0.0299069588317165,0.2095787158181535,0.0275114790192467,-0.3594222738028638,0.1301007768593099,-0.2208259277855088,0.3449591436235417,0.0014872899705858,1.7098506848135313,-0.3475818899992252,0.126114404857325,-0.2190956800441623,1.348221866354273,1.2887910333378716,-0.0046033018942098,0.3958518446532388,10.945674277429134,-0.846802108300844,0.1891961588704209,-1.0297446475290195
2.22,0.3502833149891854,5.3162513272679015e-05,1.7125799150649443,0.0307751428730905,0.211301738763471,0.0273147087491981,-0.3265241822145305,0.1300602268421935,-0.2234063109199087,0.3449591436235417,0.0014872899705858,1.7098506848135313,-0.3475818899992252,0.126114404857325,-0.2190956800441623,1.6499579173258851,1.6449045794166643,-0.0020275008558168,-0.1290191567199963,10.988095204011188,-0.843040661107841,0.1892411430851294,-1.0314702300990968
2.24,0.344109835543741,0.0026519493306044,1.7080966688534065,0.032300388930648,0.2066286618475354,0.0269560282645188,-0.2933812454035772,0.1297200059170936,-0.2245626103610468,0.3449591436235417,0.0014872899705858,1.7098506848135313,-0.3475818899992252,0.126114404857325,-0.2190956800441623,1.6582423218051547,1.6571468405476686,-0.0170110462549971,-0.0578149720569035,10.419374295809575,-0.8368388020973399,0.1861721025101927,-1.0377230003461255
2.26,0.3385526921319021,0.0052355753239168,1.7036210755392611,0.0344254553792652,0.1973412027868623,0.026482788444175,-0.2646062809778655,0.1284603925195795,-0.2227591824804714,0.3414833247235494,0.0027484340191591,1.7076597280130896,-0.340058649105146,0.1252987172493512,-0.21716622311728,1.4429462530986796,1.438748221285585,-0.0629806698757021,0.0901713940287707,10.533135071094875,-0.8380024869550119,0.1832434721907,-1.03747666793741
2.28,0.3335222216305549,0.007775886199502,1.6992111941922503,0.0367003320821716,0.1854490568838082,0.0259107301249196,-0.240451484276695,0.1255742072998204,-0.2182527984593516,0.3345316869235649,0.0052707221163056,1.7032778144122065,-0.3250121673169876,0.1236673420334035,-0.2133073092635155,1.2370244194673703,1.2077398350585216,-0.1443092609879556,0.2253192010559915,10.667237997983648,-0.843663115682082,0.1806494045420132,-1.0332979992475682
2.3000000000000003,0.3291453623645463,0.0101242715755847,1.6951247345877023,0.0386284795538708,0.1732477572220011,0.0252970492054012,-0.2218503639927811,0.1218080077958345,-0.2120745115435975,0.3275800491235804,0.0077930102134521,1.6988959008113231,-0.3099656855288292,0.1220359668174559,-0.2094483954097509,0.9979443418019796,0.9300560141956944,-0.1883099751992946,0.3089143457877044,10.781056609911502,-0.8526568892421031,0.1789168854682341,-1.0254628907457088
2.32,0.3248753175270596,0.0125121351908372,1.6909647313109684,0.0402959426866902,0.1606562967270426,0.0246180666849799,-0.2064786852909753,0.1172107483244547,-0.2041637791384179,0.3213807354130038,0.0102337295498012,1.694706932903128,-0.2949192037406707,0.1204045916015083,-0.2055894815559864,0.8944313667703895,0.768583935090289,-0.2298629735689908,0.395536620258978,10.867335311543684,-0.8630352399246034,0.1779112459454468,-1.015875545845641
2.34,0.3208717370828483,0.0148014061335038,1.6869698657386492,0.0415142704141463,0.1492003382440899,0.0239433092533192,-0.1948857107893803,0.1119614354797251,-0.1956846950339864,0.3151814217024272,0.0126744488861503,1.6905179649949331,-0.2798727219525123,0.1187732163855607,-0.2017305677022219,0.7646031820272845,0.5796487250797524,-0.2624656422364805,0.4239542052215758,10.9273891789353,-0.873240379757206,0.1773445078216694,-1.0062066359980566
2.36,0.3170680995294482,0.0169786861601885,1.683146880554887,0.0420807587946004,0.1393981759954311,0.023291425773088,-0.1862065885762895,0.1060716780735355,-0.1870165154678358,0.3093582700365546,0.0150743838421007,1.6864254699330825,-0.2648262401643539,0.117141841169613,-0.1978716538484573,0.6803560495883071,0.4339561106545403,-0.2944878703094823,0.4334089783075298,10.937641399809763,-0.8821794651982754,0.1773143146740766,-0.9975236812575576
2.38,0.3135918665717695,0.0189333732095522,1.679675956107809,0.0418000897122304,0.1318724476677101,0.0227000468446382,-0.1801809323015223,0.1000844972023859,-0.1787565441575273,0.3039112804153859,0.0174335344176525,1.6824294477175754,-0.2497797583761955,0.1155104659536654,-0.1940127399946928,0.5924145389265457,0.3012828137383599,-0.2993590435574803,0.4129985655154253,10.924816251524136,-0.8901937428155471,0.1781523549920081,-0.9892743037428536
2.4,0.3100363715225908,0.0208685396449826,1.6761921649711533,0.0405372616972354,0.126033512515988,0.0221167709460395,-0.1758285973792064,0.0938384826769903,-0.1700444346459526,0.3045828199566934,0.0239375980696715,1.6707381288999326,-0.2102636852296601,0.0938492692822709,-0.1673288874101265,0.5784815659749512,0.2176167461157938,-0.312300726269777,0.4356054755787347,10.924816251524136,-0.8961144895372241,0.1799629286076791,-0.982588657917744
2.42,0.306649655244325,0.0226877397690856,1.6728605388934894,0.0383301657240477,0.1193693254831511,0.0214645709770415,-0.1632456459533565,0.0884996179317232,-0.1636303111054746,0.3045828199566934,0.0239375980696715,1.6707381288999326,-0.2102636852296601,0.0938492692822709,-0.1673288874101265,0.7549422563118112,0.6291475712924932,-0.2669432372633569,0.3207061770238995,10.92061858404668,-0.9085210152926668,0.1821808558612629,-0.9703443653711064
2.44,0.3034841159087114,0.0244158760192771,1.6696549406743673,0.0355953286859206,0.109086536656273,0.0206801018554792,-0.1546442622331589,0.0847321961658341,-0.1571786180363833,0.3045828199566934,0.0239375980696715,1.6707381288999326,-0.2102636852296601,0.0938492692822709,-0.1673288874101265,0.5696525522674687,0.4300691860098807,-0.1883710882944547,0.3225846534545662,10.736579172039455,-0.916029732016898,0.1855640198097225,-0.961150795471058
2.46,0.3005841969238307,0.0260010954764229,1.6667349285642208,0.0331180424998595,0.0977744399626035,0.0199374857254207,-0.1514426158186582,0.0822984330253935,-0.1504767448878181,0.3024801831043968,0.0248760907624942,1.6690648400258312,-0.2162802358152876,0.0926022236982479,-0.1650433560606464,0.3907967709907293,0.160082320725037,-0.1216881570220269,0.335093657428262,10.726300608238487,-0.9275028989135689,0.1895215863797252,-0.9472474332092689
2.48,0.2975476041809259,0.0276269165621458,1.66380349286719,0.0308705678722511,0.0857322507438849,0.0192275363656719,-0.1527555814935307,0.0803818635681712,-0.1429844045623543,0.2982749093998036,0.0267530761481396,1.6657182622776288,-0.2283133369865427,0.0901081325302019,-0.1604722933616861,0.3922125727852209,-0.0656482837436245,-0.0958284728611182,0.3746170162731863,10.752045017500675,-0.9403014997775908,0.1929394085872821,-0.932034463168593
2.5,0.2944380709278321,0.0292194704118725,1.661024065285132,0.0290606008216271,0.0747141920530138,0.0186255769681115,-0.1582883729276189,0.078891706764685,-0.1353097904852268,0.2940696356952104,0.0286300615337851,1.6623716845294263,-0.2403464381577978,0.0876140413621559,-0.1559012306627258,0.4788842490230288,-0.2766395717044109,-0.07450784017431,0.3837307038563761,10.752045017500675,-0.9522912536068971,0.1956091468685492,-0.9177647202948368
2.52,0.2913489283949734,0.0307083454161199,1.6585259462528663,0.0277510892676016,0.0658978392021984,0.0181652036713432,-0.1666313294449158,0.0778681844100146,-0.1280139394636107,0.2892627069320544,0.0303823423610282,1.6592536599161718,-0.252379539329053,0.0851199501941099,-0.1513301679637655,0.5565113736250904,-0.4171478258648456,-0.0511761177335194,0.3647925510808059,10.75373156636124,-0.9640027402069392,0.1978231024963486,-0.9037489974555086
2.54,0.2879002472252564,0.0322585957680204,1.656044849881124,0.0268964659051358,0.0587972504922214,0.0178061215394506,-0.1779467436183301,0.0771926702849839,-0.1204778954275206,0.2844557781688984,0.0321346231882713,1.6561356353029173,-0.2644126405003081,0.0826258590260639,-0.1467591052648052,0.6806006115243166,-0.5657707086707139,-0.033775706251532,0.376802201804504,10.748128609830928,-0.9736615458722524,0.1995360678303693,-0.8918238310170623
2.56,0.2841960204948546,0.0337980918028317,1.6537111325035805,0.0266838478813266,0.054608250666181,0.0175917494531924,-0.1920357774111095,0.0767576262988455,-0.1132794377201671,0.2793480218764611,0.0338245517363133,1.6531318872571368,-0.2764457416715632,0.0801317678580179,-0.1421880425658449,0.7913721151400802,-0.7044516896389726,-0.0217521993069201,0.3599228853676757,10.738308183650588,-0.9801080517024036,0.2005490706410412,-0.8836040049976247
2.58,0.2801952739005329,0.0353292443654449,1.6515176020317424,0.0271642955844139,0.0539960162823528,0.0175378920335218,-0.2069354296952716,0.0763387731413973,-0.1064189215785715,0.2739394380547424,0.0354521280051541,1.6502424157788302,-0.2884788428428183,0.0776376766899719,-0.1376169798668846,0.8204293965441697,-0.7449826142081006,-0.0209426578724143,0.343025807079779,10.729431826169275,-0.9855117188639893,0.2003097043313282,-0.8777178766904506
2.6,0.2761321034950242,0.0367741390235358,1.6495575493396888,0.028244744729744,0.0561883672484038,0.0176204959944095,-0.2196850710336534,0.0757263273088901,-0.1002208875153575,0.2698485024157693,0.0391461830225148,1.6461966559528138,-0.2086408728325969,0.0566718685578239,-0.0902707771993134,0.709478805891852,-0.6374820669190914,-0.0306222916253574,0.3099017031607004,10.694389518180287,-0.987966818238756,0.1993867160065563,-0.8754742536048509
2.62,0.2715620145543832,0.0383145220851176,1.647627089424477,0.0311466627131172,0.0622085622243283,0.0179579725572877,-0.2360828201866699,0.0776467155284461,-0.0931001930621492,0.2698485024157693,0.0391461830225148,1.6461966559528138,-0.2086408728325969,0.0566718685578239,-0.0902707771993134,0.8989971603056017,-0.8198874576508253,0.096019410977801,0.3560347226604143,10.72147445524024,-0.9846277194751648,0.1978719020844247,-0.8787826476802839
2.64,0.2667156257697593,0.0398516319032151,1.6458371042899926,0.035511667385343,0.0720720397708688,0.0185595177538113,-0.2471066505575462,0.0757005042171506,-0.086276487225953,0.2698485024157693,0.0391461830225148,1.6461966559528138,-0.2086408728325969,0.0566718685578239,-0.0902707771993134,0.6555065519371408,-0.5511915185438171,-0.0973105655647746,0.3411852918098083,10.660154279601556,-0.9812594187485636,0.193854302093609,-0.8846501857296288
