t,x,y,z,roll,pitch,yaw,v_x,v_y,v_z,ref_x,ref_y,ref_z,ref_v_x,ref_v_y,ref_v_z,a_com,a_x,a_y,a_z,thrust,wind_x,wind_y,wind_z
0.0,0.7023649105944133,2.392773966543852,1.8255270154730323,0.0270305559390324,0.099534085540663,0.0419210173065254,0.0003701863576544,0.0061798607035808,-0.0001907431892622,0.7023789497685616,2.3929379843244205,1.825520675883734,-0.0995605197035303,-0.0942952608068515,-0.1002043423021723,0.3096937972389287,0.0185093178827238,0.3089930351790445,-0.00953715946311,10.255384181476984,-0.9408239849125236,0.256053200723785,-0.8777094503589168
0.02,0.7025346091849362,2.393106604730209,1.8254273705105493,0.0359101835993974,0.0937195490936488,0.0423462500742116,0.0161471073299777,0.0234655507389745,-0.0103365269105775,0.7023789497685616,2.3929379843244205,1.825520675883734,-0.0995605197035303,-0.0942952608068515,-0.1002043423021723,1.2753854737748385,0.7888460486161631,0.8642845017696809,-0.5072891860657683,10.2547939946935,-0.9529371179950584,0.2526908085013148,-0.8633963605276641
0.04,0.7029493073909951,2.393572170986213,1.8250588946151696,0.0494728344436876,0.078233280051848,0.0425788200163676,0.0252877440469965,0.0240468764213237,-0.0278480367238305,0.7023789497685616,2.3929379843244205,1.825520675883734,-0.0995605197035303,-0.0942952608068515,-0.1002043423021723,0.988106971791424,0.4570318358509425,0.0290662841174602,-0.875575490662649,9.629786742237684,-0.9558368721260074,0.2419566863624134,-0.8607940299122949
0.06,0.7034587141817522,2.394001068240823,1.8242905022244424,0.0640041860262173,0.0558448654226877,0.0422088651757683,0.0240844808353367,0.0184083618793089,-0.0481329860060408,0.7013833445715263,2.391995031716352,1.8245186324607123,-0.1195605200015535,-0.1142952611048747,-0.1202043426001956,1.0544191007124373,-0.0601631605829912,-0.2819257271007367,-1.0142474641105153,9.180850489036402,-0.9659525514033804,0.2274189389372182,-0.8549306982308167
0.08,0.7038406111173425,2.394276748081432,1.8231082936085568,0.0779626521763914,0.0311269807433002,0.0412484924662937,0.0133616908624964,0.0090918158276065,-0.0691333254408964,0.6993921341774557,2.390109126500215,1.822514545614669,-0.1595605205976,-0.1542952617009212,-0.160204343196242,1.2676656810002092,-0.5361394986420168,-0.4658273025851236,-1.05001697174278,9.074672052806818,-0.9806086782755716,0.2107283769670829,-0.8471591498247706
0.1,0.7039095865067229,2.394332925379772,1.8214995531034448,0.0912646998832527,0.0071263823879737,0.0398990681551584,-0.0063059023142776,-0.0033278791747044,-0.0907701956590801,0.6974009237833851,2.3882232212840777,1.8205104587686256,-0.1995605211936464,-0.1942952622969676,-0.2002043437922885,1.5884089509286037,-0.9833796588387056,-0.6209847501155451,-1.0818435109091848,9.057644843677735,-0.9953207850073524,0.193449767099149,-0.840889596078923
0.12,0.7035417259179761,2.394128992741312,1.81956468743455,0.1033176668143443,-0.0129869196651351,0.0384895345423117,-0.0315081680687979,-0.0177751910462138,-0.1118872208118692,0.6934097133595122,2.3843373160381383,1.81650637189278,-0.2395605217896929,-0.2342952628930141,-0.2402043443883349,1.7956946920186976,-1.2601132877260135,-0.7223655935754735,-1.0558512576394534,9.073648630707794,-1.0109271735558794,0.1747913183368714,-0.8350751641433058
0.14,0.7025890234394648,2.393591179917316,1.8170849314028672,0.1154144353618771,-0.0302309009726535,0.0370836386410431,-0.0625270944762812,-0.0355312391957012,-0.1350572443164207,0.6894185029356392,2.380451410792199,1.812502285016934,-0.2795605223857394,-0.2742952634890606,-0.2802043449843814,2.1297306347055045,-1.5509463203741622,-0.8878024074743712,-1.1585011752275731,9.105530684038513,-1.0248408031693896,0.1556358225733559,-0.83212261499603
0.16,0.7009754251815493,2.3926716086234947,1.8141350904293705,0.1269198138476517,-0.0428563564526465,0.035946086403085,-0.0971980818540488,-0.055806805891545,-0.1588062260094159,0.6844272924968652,2.3755655055313585,1.8074981981261875,-0.3195605229817858,-0.314295264085107,-0.3202043455804279,2.333018485803934,-1.7335493688883812,-1.013778334792188,-1.187449084649761,9.11346772044044,-1.0356776669536776,0.1361550452531091,-0.8334379415248859
0.18,0.6986395129391659,2.391316142427799,1.810705969423538,0.1376819387907393,-0.0503857821317528,0.035255188730397,-0.1347282820308992,-0.0788918755710865,-0.1829513231037887,0.67843608204319,2.369679600255617,1.8014941112205392,-0.3595605235778322,-0.3542952646811534,-0.3602043461764743,2.512181363437181,-1.876510008842519,-1.1542534839770728,-1.2072548547186424,9.147155036953336,-1.0423987871429266,0.1200698044259897,-0.8362679304813694
0.2,0.6957044588685977,2.389554800611426,1.8069959607906387,0.1463236324027132,-0.0520921704273019,0.0351708310480369,-0.1717221388928629,-0.1048884727468629,-0.2062244500005222,0.691903098837621,2.3873715486492446,1.8015584032683485,-0.2347282835210153,-0.1788918770612026,-0.2829513245939049,2.542639841677595,-1.8496928430981856,-1.2998298587888208,-1.1636563448366748,9.19491674235678,-1.047368447529953,0.1042314562217981,-0.8419052099336294
0.22,0.6918341491012916,2.386989986680484,1.802797456703292,0.1491847889307343,-0.0475750770832454,0.0355590072712952,-0.2127950059488093,-0.1484450722398194,-0.2108648424055808,0.691903098837621,2.3873715486492446,1.8015584032683485,-0.2347282835210153,-0.1788918770612026,-0.2829513245939049,3.002370317456774,-2.053643352797321,-2.177829974647828,-0.2320196202529295,9.224901336886887,-1.0534103722616277,0.0922901295035509,-0.8476300672022296
0.24,0.6871922517344292,2.383625863422904,1.7985484781015115,0.1450100622562015,-0.0373393833677605,0.0362882564837581,-0.2486140301927646,-0.1844074048049956,-0.2137252527125208,0.691903098837621,2.3873715486492446,1.8015584032683485,-0.2347282835210153,-0.1788918770612026,-0.2829513245939049,2.5418860165443293,-1.790951212197765,-1.79811662825881,-0.1430205153470004,10.640871013931246,-1.052918271200453,0.0942132998865801,-0.8500803499498901
0.26,0.6818951945022705,2.379624935707092,1.7942141561994591,0.1380512372832506,-0.0239842060447561,0.0372022780679965,-0.2786960176590382,-0.2132207137157047,-0.2193760804902569,0.6895558160024109,2.3855826298786327,1.7987288900224094,-0.2547282838190385,-0.1988918773592258,-0.3029513248919281,2.1018233720264288,-1.5040993733136765,-1.440665445535455,-0.2825413888868019,10.405629816906185,-1.047135283341498,0.0978278754610292,-0.8591556678220114
0.28,0.6763592493111702,2.375339536248405,1.7899621682701892,0.130968954164196,-0.0102170128513054,0.0380876724360584,-0.3021461902429875,-0.2362467871587888,-0.227869982932907,0.6848612503319905,2.3820047923374084,1.793069863530531,-0.294728284415085,-0.2388918779552723,-0.3429513254879745,1.6972455855949122,-1.1725086291974662,-1.1513036721542012,-0.4246951221325096,10.126683798953309,-1.0385452191547262,0.101453510829494,-0.871704394036606
0.3,0.6701007361672313,2.3703910850869754,1.7852794785015174,0.1239783143964829,0.0039815894336367,0.0389056150912475,-0.3221129820047262,-0.2573142962073445,-0.2401320271521033,0.6801666846615703,2.3784269547961845,1.7874108370386532,-0.3347282850111314,-0.2788918785513187,-0.382951326084021,1.575492335113963,-0.9983395880869383,-1.0533754524277836,-0.6131022109598135,9.874682069213122,-1.0284768724476294,0.1047965823471839,-0.8854805679423766
0.32,0.6634866383467394,2.365046711504156,1.7803128311543053,0.1178596538145107,0.0168340555065213,0.0395222281720836,-0.338145791325537,-0.2761627963702905,-0.2559528077962713,0.6734721189613476,2.372849117225158,1.7797518105169727,-0.3747282856071778,-0.3188918791473651,-0.4229513266800674,1.468514583942678,-0.8016404660405402,-0.9424250081473018,-0.7910390322083988,9.651100133363798,-1.018495536410006,0.1075482601565616,-0.8987267970504325
0.34,0.6565848297438353,2.359342315645652,1.77500759928328,0.1126913115900763,0.0277372120687447,0.0399027259275849,-0.3511840007434413,-0.2934798677757212,-0.2738401092869372,0.666777553261125,2.367271279654132,1.7720927839952922,-0.4147282862032244,-0.3588918797434117,-0.4629513272761139,1.4051969804122584,-0.6519104708952117,-0.8658535702715381,-0.8943650745332932,9.460618840318602,-1.009248265784585,0.1088844875934845,-0.9114058345268132
0.36,0.6498035317220967,2.353604998962781,1.7696187973490112,0.1083982306231355,0.0361693198703921,0.0400416554365734,-0.3619782775044973,-0.3095585371460857,-0.2925387843028419,0.6590829875460011,2.360693442068204,1.763433757458711,-0.4547282867992708,-0.3988918803394581,-0.5029513278721603,1.3459944900204726,-0.5397138380527994,-0.8039334685182226,-0.934933750795236,9.275031896304426,-1.0001614912651604,0.109368848044491,-0.9242246657283087
0.38,0.6424551533908834,2.347243482736869,1.763546175701752,0.1042752516018531,0.0432109476873282,0.0399798527488639,-0.372262580321699,-0.3256921801265732,-0.3138322124254698,0.6503884218159762,2.353115604467376,1.753774730907228,-0.4947282873953172,-0.4388918809355045,-0.5429513284682067,1.4313205453979012,-0.5142151408600887,-0.8066821490243736,-1.0646714061313955,9.275031896304426,-0.9922941532524836,0.1095601699639181,-0.935517801231784
0.4,0.6349092098002682,2.3405667376281003,1.7570319150884168,0.1004515273983462,0.0486120979179012,0.0397403330479403,-0.3818442479499098,-0.3411175039911538,-0.3365464856582876,0.6238420243747985,2.33095887373054,1.7478545650804789,-0.4722625818118152,-0.4256921816166893,-0.4138322139155859,1.4540350574864145,-0.4790833814105361,-0.7712661932290338,-1.1357136616408914,9.197093978013072,-0.9859784887101922,0.1095858816428649,-0.9448498378276884
0.42,0.6276044729834189,2.333929664632759,1.750694314206723,0.0973970533802225,0.0517203851218766,0.0393334736357331,-0.3868473387372608,-0.3569480677777646,-0.3294762720215135,0.6238420243747985,2.33095887373054,1.7478545650804789,-0.4722625818118152,-0.4256921816166893,-0.4138322139155859,0.9022549363927792,-0.250154539367553,-0.791528189330537,0.3535106818387062,10.880053525392212,-0.9914025404825332,0.1107456519928793,-0.9412083167239363
0.44,0.6198137248383213,2.326631329135052,1.7441401588578247,0.0951382220759818,0.0523254111669283,0.0387045586372636,-0.3920802259775833,-0.3722308246493935,-0.3267455629917337,0.6238420243747985,2.33095887373054,1.7478545650804789,-0.4722625818118152,-0.4256921816166893,-0.4138322139155859,0.8191497699941264,-0.2616443620161224,-0.7641378435814472,0.1365354514889893,10.880053525392212,-0.9911357510178846,0.1122795925620995,-0.9412004407351228
0.46,0.6119106662248205,2.3190290796298823,1.737574136322703,0.0936728692396857,0.0502939733647649,0.0378786110441206,-0.3981142545919069,-0.3872520082511321,-0.3302357639509917,0.6191193985566804,2.326701951914373,1.7437162429413229,-0.4922625821098383,-0.4456921819147125,-0.4338322142136091,0.8279899770704079,-0.3017014307161808,-0.7510591800869298,-0.1745100479628974,10.465703147203383,-0.992459045770934,0.1124391376970753,-0.9403031426222468
0.48,0.6038733139137502,2.311132001092492,1.7308874766674676,0.0928066962341638,0.0458659363223167,0.0368706733923034,-0.4056088345487478,-0.4017210611035694,-0.3384388959917408,0.6096741469204441,2.3181881082820395,1.7354395986630111,-0.5322625827058848,-0.4856921825107589,-0.4738322148096556,0.9121589697718128,-0.374728997842047,-0.7234526426218635,-0.4101566020374564,10.124490970213628,-0.9952287356207984,0.1113946674589914,-0.9387213491048724
0.5,0.5960718876170897,2.303366800177038,1.724344846777939,0.0925929694109345,0.0401111891408847,0.0358113147473922,-0.4154954228226863,-0.4150131294347227,-0.3498386389196293,0.6002288952842078,2.309674264649706,1.7271629543846994,-0.5722625833019312,-0.5256921831068054,-0.513832215405702,1.0054574170997628,-0.4943294136969256,-0.6646034165576631,-0.5699871463944267,9.68725046588952,-0.9991803127382424,0.1092722789492924,-0.9365277857056143
0.52,0.5876270845905569,2.2949234790823234,1.71719631576413,0.0931287344905196,0.0334443743280146,0.0346875500004389,-0.428699625696621,-0.4286832471416753,-0.3645387824252671,0.5887836436181692,2.29916042098757,1.7168863100765852,-0.6122625838979777,-0.5656921837028519,-0.5538322160017485,1.201371415033991,-0.660210143696735,-0.6835058853476322,-0.7350071752818876,9.54384900799505,-1.0043515995580086,0.1063868108091192,-0.9332651872862568
0.54,0.5788914505845406,2.2862046304283385,1.709741756790243,0.094511340143128,0.0269339998946436,0.0336252377967416,-0.444359258272678,-0.4426003187262537,-0.3802067837544379,0.5773383919521305,2.2886465773254336,1.7066096657684713,-0.6522625844940242,-0.6056921842988984,-0.593832216597795,1.3080474375555753,-0.7829816288028479,-0.6958535792289222,-0.7834000664585394,9.54384900799505,-1.0100255160472345,0.1026650075195519,-0.9296995035953756
0.56,0.569813781723136,2.277190534522383,1.7019661068359582,0.0963261664959456,0.0213981920327581,0.0326684246501868,-0.4626967308179961,-0.4580617298750404,-0.3965680338993739,0.5648931402711908,2.277132733648396,1.695333021445456,-0.6922625850900705,-0.6456921848949447,-0.6338322171938413,1.451730553828163,-0.9168736272659044,-0.7730705574393343,-0.8180625072468029,9.511458053135357,-1.014180322755755,0.0984772831416957,-0.927992661655098
0.58,0.5608264776298102,2.2683270299775438,1.6942689636009445,0.0978478452151224,0.0179162099409336,0.0319032098066063,-0.4824601065686995,-0.474056778781188,-0.4128339672771284,0.5514478885753499,2.264618889956458,1.6830563771075395,-0.732262585686117,-0.6856921854909912,-0.6738322177898878,1.5091497599833277,-0.9881687875351708,-0.7997524453073807,-0.8132966688877252,9.482453628780604,-1.016759735168475,0.0940907493472175,-0.928291932234742
0.6,0.5509430821255424,2.2586596027135077,1.6858223349260757,0.0987588683730177,0.0169855765732468,0.0313100065863773,-0.5046233628254942,-0.4917663243485648,-0.4309866747575445,0.5367034723013753,2.244624191038484,1.6736272652370878,-0.5824601080588157,-0.5740567802713041,-0.5128339687672445,1.6840121146958058,-1.1081628128397358,-0.8854772783688375,-0.9076353740208016,9.482453628780604,-1.0180520871815923,0.0904478565447547,-0.9298709132816312
0.62,0.5406112931025597,2.2485606586576283,1.6772897792482893,0.0972461982758162,0.0194227947324449,0.0308773419899308,-0.5270450062715243,-0.5169253893509964,-0.4197581222082341,0.5367034723013753,2.244624191038484,1.6736272652370878,-0.5824601080588157,-0.5740567802713041,-0.5128339687672445,1.7760834995644934,-1.121082172301502,-1.2579532501215795,0.5614276274655161,11.354167673714985,-1.0231719889402655,0.0894729600226672,-0.9267992078032744
0.64,0.5298589948992628,2.237990697140104,1.6689859849556663,0.0928017014533045,0.0248234383601792,0.0305182830707471,-0.5466451691710736,-0.5379646753239754,-0.4112341199737892,0.5367034723013753,2.244624191038484,1.6736272652370878,-0.5824601080588157,-0.5740567802713041,-0.5128339687672445,1.49956373158536,-0.9800081449774678,-1.0519642986489497,0.4262001117222469,11.354167673714985,-1.0204316556220454,0.0931417036466943,-0.9290601974561272
0.66,0.5193083829497519,2.22760625952325,1.6611907365880565,0.0878338954676318,0.0314591811891052,0.0302427177306503,-0.5626722927780301,-0.5538866441728064,-0.4096996051929256,0.5308788712207871,2.238883623235771,1.6684989255494154,-0.6024601083568388,-0.5940567805693273,-0.5328339690652677,1.1321798871518771,-0.8013561803478231,-0.7960984424415507,0.0767257390431791,10.900302462122454,-1.0152109483536853,0.0970180471141816,-0.9345236029570692
0.68,0.5079016218194863,2.2163800891833483,1.6529579457412895,0.0828036343772282,0.0390654592686561,0.0299910895354607,-0.5769050560044219,-0.5678247853607519,-0.4139244919094528,0.5192296690596108,2.227402487630345,1.6582422461740705,-0.6424601089528853,-0.6340567811653738,-0.5728339696613142,1.0182006145661069,-0.7116381613195888,-0.6969070593972726,-0.2112443358263577,10.455942992150996,-1.009529119655931,0.100511166979009,-0.9407550421425568
0.7000000000000001,0.4968238721421118,2.205476895042932,1.6450021805279504,0.0786106826184892,0.0461961413885608,0.0297581825885869,-0.5883150428159947,-0.5792693122167051,-0.4233000944858004,0.5075804668984345,2.215921352024919,1.6479855667987255,-0.6824601095489318,-0.6740567817614203,-0.6128339702573606,0.9341666308353616,-0.5704993405786396,-0.5722263427976604,-0.4687801288173837,10.093452809869632,-1.0036407801918454,0.1031500855722384,-0.9473773343690868
0.72,0.4849486124608755,2.193779118725117,1.636392472091437,0.0749466277929613,0.0531163171829328,0.0294972552761161,-0.598480971189107,-0.5899803953084187,-0.4373840726890752,0.4939312647074558,2.2024402163896903,1.6357288873935782,-0.7224601101449782,-0.7140567823574667,-0.6528339708534071,1.0203330861968098,-0.5082964186556183,-0.5355541545856823,-0.7041989101637364,9.795442613793966,-0.9974465712357298,0.104991339660312,-0.9546725355750753
0.74,0.4728874918581793,2.1818772337333177,1.6274714918110833,0.0721084082552899,0.0590854341655799,0.0292079213730772,-0.6070805718026476,-0.599852133868121,-0.4540220782939402,0.4802820625164772,2.188959080754462,1.623472207988431,-0.7624601107410247,-0.7540567829535132,-0.6928339714494536,1.0585692979335826,-0.4299800306770296,-0.4935869279851124,-0.8319002802432501,9.444191190999843,-0.9920825358407503,0.1058537104300935,-0.9613254929054376
0.76,0.4612771597439373,2.1703842522532417,1.6186715894705423,0.0698508966579607,0.0638673627356198,0.0288919301971082,-0.6145917545343911,-0.6094221140793763,-0.4714588927811605,0.4656328603105975,2.174477945104333,1.6102155285683826,-0.8024601113370711,-0.7940567835495596,-0.7328339720454999,1.063067362323758,-0.3755591365871724,-0.4784990105627662,-0.8718407243610171,9.444191190999843,-0.986873033247396,0.1061891242747319,-0.968046366951134
0.78,0.4489073687638379,2.158093029438857,1.6090347368555868,0.0676710031694064,0.0681350336962289,0.0285151262203175,-0.6219449339174181,-0.6191554782664802,-0.4913863188218667,0.4499836580898165,2.158996809439301,1.595958849133433,-0.8424601119331175,-0.834056784145606,-0.7728339726415464,1.1682357789050826,-0.3676589691513521,-0.4866682093551955,-0.9963713020353092,9.363832673660909,-0.982140079073734,0.1062430484334089,-0.9743755073672888
0.8,0.4363951730404281,2.145610730611999,1.598984374933624,0.0656022505040861,0.071765649458665,0.028100753946886,-0.6288650306394061,-0.6285326300345517,-0.5127128385247962,0.4178101220679671,2.127135255525533,1.5844654209144935,-0.7219449354075342,-0.7191554797565963,-0.5913863203119829,1.2151534435643874,-0.3460048360994006,-0.4688575884035761,-1.066325985146474,9.283156475705256,-0.977819224740993,0.106116806514247,-0.9803672614351064
0.8200000000000001,0.4237789876582514,2.132912707221884,1.5888084144834964,0.0631859113216458,0.0746642815341571,0.0276138365822628,-0.6322770694484526,-0.6406113142781286,-0.5021950070131618,0.4178101220679671,2.127135255525533,1.5844654209144935,-0.7219449354075342,-0.7191554797565963,-0.5913863203119829,0.8187817193819134,-0.1706019404523251,-0.6039342121788416,0.5258915755817217,9.21694215811749,-0.9797113372535142,0.1070752797254847,-0.9793030384717945
0.84,0.4117395905494396,2.120650931559117,1.5793362536862028,0.0609262335374329,0.0764382814004834,0.0270935565342125,-0.6349579017799586,-0.6496271633059225,-0.4955956427396457,0.4178101220679671,2.127135255525533,1.5844654209144935,-0.7219449354075342,-0.7191554797565963,-0.5913863203119829,0.5745084953596888,-0.1340416165752977,-0.4507924513896977,0.3299682136758047,11.209212463762016,-0.9780141400509208,0.1089714515179432,-0.9805176621463826
0.86,0.3990078444940181,2.1075695588307592,1.569433179373813,0.059105318084504,0.0772217638750838,0.0265235927579094,-0.6381737626244863,-0.6581083233139937,-0.495365902229244,0.4105906727138917,2.119943700727968,1.5785515577113736,-0.7419449357055574,-0.7391554800546195,-0.6113863206100061,0.4536645697979745,-0.160793042226387,-0.4240580004035599,0.0114870255200821,10.751688904495497,-0.9768887570260444,0.1099481349231851,-0.9816996627464786
0.88,0.3862053212537973,2.0943271959780985,1.559473052017077,0.0579496075631035,0.0770141011958473,0.0259482151266843,-0.642007962740139,-0.6657399046702883,-0.5008818356433651,0.396151774005741,2.1055605911328352,1.566723831305134,-0.7819449363016039,-0.779155480650666,-0.6513863212060526,0.5083494023642393,-0.1917100057826359,-0.3815790678147301,-0.2757966707060522,10.34887159399841,-0.9764965107189882,0.1100331138751551,-0.982566137328978
0.9,0.3733195953238665,2.080941790445538,1.549350827189402,0.0577024230557178,0.0759158962644586,0.0253911727703037,-0.6464497249880234,-0.672552121803457,-0.5110453762081445,0.3817128752975903,2.091177481537704,1.5548961048988943,-0.8219449368976504,-0.8191554812467124,-0.691386321802099,0.6508323727122157,-0.2220881123942197,-0.3406108566584354,-0.5081770282389708,10.036420851825824,-0.976948098453383,0.1091285020015573,-0.9829662102276162
0.92,0.3609901517293056,2.06810429355039,1.5395149401574293,0.0585254224809821,0.0740928508018941,0.024894282295465,-0.6512336406832372,-0.6785703100566446,-0.5237991330742506,0.3652739765596373,2.0747943719127693,1.5410683784628525,-0.8619449374936968,-0.8591554818427589,-0.7313863223981455,0.744585041196549,-0.2391957847606873,-0.3009094126593781,-0.6376878433053068,9.80057581442088,-0.9781942139581776,0.1070323307490769,-0.9828964148639242
0.94,0.3479081780612937,2.054468354222179,1.5288864335612955,0.0607125821632545,0.0713614656609096,0.0244137968479075,-0.6567979263456788,-0.6848704661488817,-0.5384299458301081,0.3488350778216843,2.058411262287835,1.5272406520268105,-0.9019449380897432,-0.8991554824388054,-0.771386322994192,0.8436734018812698,-0.2782142831220802,-0.3150078046118554,-0.7315406377928713,9.626666965237746,-0.980450000898941,0.1035880031717578,-0.9820989054823394
0.96,0.3347021270366656,2.040681799554916,1.5179579412796285,0.0637395411711094,0.068003387620913,0.0239443438310448,-0.6636580267544919,-0.6936648612623566,-0.5537130307368778,0.3313961790688301,2.0410281526479994,1.5124129255758672,-0.9419449386857895,-0.939155483034852,-0.8113863235902383,0.9460114260653032,-0.3430050204406565,-0.4397197556737453,-0.7641542453384886,9.563842340025076,-0.98315222602978,0.0991178279524687,-0.9812354185123906
0.98,0.3213418361397635,2.0266974388751646,1.5067179955711247,0.0665032804527863,0.0645737865775094,0.0234401647289569,-0.6721280330509598,-0.7042248081713692,-0.5695090432497012,0.3129572803010748,2.022645042993263,1.4965851991100227,-0.981944939281836,-0.9791554836308984,-0.8513863241862848,1.0401532299241338,-0.423500314823394,-0.5279973454506315,-0.7898006256411683,9.541456282170657,-0.98579803033719,0.0949432737941251,-0.9804713341702976
1.0,0.3084765354090708,2.013207689310541,1.495741960501385,0.0685443004784975,0.0618144123614996,0.0229454562425419,-0.6817585523395736,-0.7150586482067048,-0.5850637048796556,0.2877354344872155,1.991486198466596,1.4782425434086397,-0.7721280345410759,-0.8042248096614854,-0.6695090447398173,1.0630927641814474,-0.4815259644306902,-0.5416920017667803,-0.7777330814977224,9.524785886115753,-0.9883550699565716,0.0910942118828408,-0.9798376043538896
1.02,0.2947134815948323,1.9987130251446923,1.4841609620170826,0.0684840298885622,0.0609217810370439,0.0224070725709703,-0.6938623750646054,-0.7334756218599252,-0.5706094936656627,0.2877354344872155,1.991486198466596,1.4782425434086397,-0.7721280345410759,-0.8042248096614854,-0.6695090447398173,1.317774321461311,-0.6051911362515872,-0.9208486826610184,0.7227105606996465,9.501803544818358,-0.9929986698961212,0.0895941519133057,-0.9766406823623756
1.04,0.2807201864128036,1.9838718659143,1.4728697339756929,0.0654406558379521,0.0627293373119507,0.0218510761607467,-0.7045551793054635,-0.7492730536380431,-0.5593609919235161,0.2877354344872155,1.991486198466596,1.4782425434086397,-0.7721280345410759,-0.8042248096614854,-0.6695090447398173,1.1072756034076148,-0.5346402120429083,-0.7898715889058938,0.5624250871073322,11.057623431710454,-0.9932003531571147,0.0920859527155294,-0.9758331532300116
1.06,0.2672436291641423,1.969519376040832,1.4622811676752203,0.0612403297864896,0.0658678253946117,0.0213264732883158,-0.7133045727963246,-0.7604251472606173,-0.5557457974224185,0.2800141541418048,1.9834439503699808,1.4715474529612416,-0.7921280348390991,-0.8242248099595085,-0.6895090450378405,0.7314210652991702,-0.4374696745430562,-0.5576046811287094,0.1807597250548798,11.057623431710454,-0.991121833842826,0.0957697021102843,-0.9774297535961468
1.08,0.2528937246788519,1.9542165352291956,1.4511464995397432,0.0568469438698808,0.0698496917104809,0.0208148181504736,-0.7210764949774202,-0.7692256570394093,-0.5581945440987753,0.2645715934509833,1.967359454176752,1.458157272066445,-0.8321280354351456,-0.864224810555555,-0.729509045633887,0.5996834728433565,-0.3885961090547785,-0.4400254889395993,-0.122437333817843,10.588336436257125,-0.9878114449470728,0.0991940702576105,-0.9805751160261672
1.1,0.2384012361937573,1.9387580669298008,1.4398969918615048,0.0530585998984101,0.0739261155650614,0.0203473701006753,-0.7276799171871642,-0.7763006464716394,-0.5666169573678308,0.2491290327601617,1.9512749579835216,1.4447670911716488,-0.872128036031192,-0.9042248111516016,-0.7695090462299334,0.6414781867317665,-0.3301711104871985,-0.3537494716115086,-0.4211206634527731,10.204476940192762,-0.9836045375387776,0.1017253209270411,-0.9850869093683018
1.12,0.2237872782190984,1.9231702606331853,1.428431187358301,0.0500304116976998,0.0777143456877962,0.0199168131912974,-0.733327432025082,-0.7822963915768694,-0.5795496363670862,0.2316864720395379,1.9331904617604896,1.4293769102470502,-0.9121280366272384,-0.944224811747648,-0.8095090468259799,0.7666445873238344,-0.2823757418958905,-0.2997872552614966,-0.6466339499627716,9.892627642050684,-0.97943133398753,0.1032302459821647,-0.9899251044042292
1.14,0.2098081014627483,1.9082575418813943,1.4172767081335105,0.0478937407774221,0.0808129291868668,0.0195366861863517,-0.7378700236770906,-0.787351644084281,-0.593967835266596,0.214243911318914,1.9151059655374576,1.4139867293224515,-0.952128037223285,-0.9842248123436944,-0.8495090474220264,0.7969867883729569,-0.2271295826004327,-0.2527626253705839,-0.7209099449754897,9.653275659444262,-0.9757463343556212,0.1040315520620338,-0.9944883378503728
1.16,0.1950024316555902,1.8924516496646169,1.405221972787785,0.0461450202135989,0.0835348562869514,0.0191507771505077,-0.7424333065012862,-0.7929830695202577,-0.6108251116587895,0.195801350583389,1.8960214692995248,1.3975965483829516,-0.9921280378193312,-1.0242248129397409,-0.8895090480180727,0.917475163066236,-0.2281641412097801,-0.2815712717988305,-0.8428638196096738,9.542161022192886,-0.9724098867113444,0.1042126051028543,-0.9989311513684902
1.18,0.1801070762942074,1.876533022598854,1.3928147145083292,0.0446065151247629,0.0858624534143548,0.0187681237436478,-0.7468453463889146,-0.7985629167777258,-0.6291165079390774,0.1763587898329629,1.8759369730466904,1.3802063674285503,-1.0321280384153777,-1.0642248135357872,-0.9295090486141192,0.9812950235138612,-0.2206019943814197,-0.2789923628734092,-0.9145698140143932,9.456277655684971,-0.969493012747779,0.1041538069318369,-1.0029876887484743
1.2,0.1658760142479034,1.8613094034668365,1.3806752924193209,0.0432517951961219,0.087829817402794,0.0184081795101537,-0.7509061750050849,-0.8036081867010264,-0.6478014750205714,0.1427648089747617,1.836604876759968,1.3613588891113753,-0.8468453478790308,-0.898562918267842,-0.6946792926108608,0.9887783782089196,-0.2030414308085149,-0.2522634961650283,-0.9342483540747016,9.386888392396031,-0.9666506118331586,0.1039945476691018,-1.0070426664769487
1.22,0.1508483239994169,1.845144986329684,1.3678593342551966,0.0411536471096701,0.0896575090021349,0.0179798688239683,-0.7514584330624094,-0.8121971162920146,-0.6309571483059976,0.1427648089747617,1.836604876759968,1.3613588891113753,-0.8468453478790308,-0.898562918267842,-0.6946792926108608,0.9457880879828974,-0.0276129028662253,-0.4294464795494113,0.8422163357286905,9.321624562965551,-0.9696423934659544,0.1049137387130296,-1.0048585922480648
1.24,0.1358198090604925,1.8288385972564265,1.3553950346497847,0.0386261537874977,0.0910224029501016,0.01751174764951,-0.7514245834125044,-0.8180092452010793,-0.6165230607666831,0.1427648089747617,1.836604876759968,1.3613588891113753,-0.8468453478790308,-0.898562918267842,-0.6946792926108608,0.7780181092798851,0.0016924824952524,-0.2906064454532342,0.7217043769657261,11.65565757241984,-0.9683201088440854,0.1074628247122989,-1.0050959080612467
1.26,0.120791723052638,1.8124328094654176,1.3431557601423356,0.0364943822092662,0.0916929716434996,0.0170552743520899,-0.7514569323678344,-0.8223537422554509,-0.6084146808096853,0.1342963554959714,1.8276192475772892,1.3544120961852666,-0.8668453481770539,-0.9185629185658652,-0.7077918495452175,0.4599497979056983,-0.0016174477664998,-0.2172248527185782,0.4054189978498879,11.22288090728398,-0.9675284053803722,0.1095958801227157,-1.005072575928314
1.28,0.1065117670230405,1.7967779047218797,1.3316208341896074,0.0351432413538884,0.0915424643064649,0.0166511882345499,-0.7517983088583139,-0.8254618780870263,-0.6061669181861713,0.1173594485383907,1.8096479892119328,1.3405185103330497,-0.9068453487731004,-0.9585629191619116,-0.7340169634139309,0.1925453392544322,-0.0170688245239747,-0.1554067915787715,0.1123881311757002,10.509372156743666,-0.96725590131272,0.1107608098580464,-1.0050231763000452
1.3,0.0914689536406638,1.7802440146407064,1.3194847631507955,0.0347178055253876,0.0905112377406309,0.0162762724811836,-0.7525300889049782,-0.8278576849411565,-0.6077292794237277,0.1004225415808101,1.7916767308465755,1.326624924480832,-0.9468453493691468,-0.998562919757958,-0.7602420772826443,0.1476174545540939,-0.0365890023332149,-0.1197903427065105,-0.0781180618778187,10.509372156743666,-0.9679516584326404,0.1108372012318154,-1.0043353282903276
1.32,0.0764081054652794,1.7636696954426234,1.3072810403677593,0.0356972065993861,0.0884309510131454,0.0159712791142112,-0.7536146154122838,-0.8296733574618801,-0.6125461348515686,0.0814856345934272,1.7717054724514163,1.3114200829351792,-0.9868453499651934,-1.0385629203540043,-0.7864671911513577,0.2630349818003296,-0.0542263253652808,-0.0907836260361782,-0.2408427713920469,10.27725005129014,-0.9695468643556312,0.1095629912115784,-1.0030963804424873
1.34,0.0620770467552838,1.7478905990419007,1.2955918188179694,0.038144181919655,0.0853424069196917,0.0157480627402994,-0.7549711944663878,-0.8315068307440717,-0.6176511931954121,0.0625487276060442,1.7517342140562573,1.2962152413895265,-1.0268453505612398,-1.078562920950051,-0.8126923050200711,0.279569095665946,-0.0678289527052011,-0.0916736641095816,-0.2552529171921724,10.107004904616588,-0.972787742172667,0.1066419451212963,-1.0005687255149676
1.36,0.0469524449697002,1.7312139775887876,1.2831812433916223,0.0416358415570448,0.0809746516150738,0.0155242760205076,-0.7575751969751261,-0.8362726549085402,-0.6231389678399539,0.0426118206037601,1.730762955646197,1.2803547719971555,-1.0668453511572862,-1.1185629215460973,-0.8389174188887843,0.386036201610106,-0.1302001254369134,-0.2382912082234234,-0.2743887322270932,10.078944927970952,-0.9770556080630036,0.1025942041993525,-0.9974128300860708
1.38,0.0317585367753613,1.7144192138179253,1.2706620551867427,0.0449701908747336,0.0758362985969723,0.0152416091269174,-0.7618956126517114,-0.8429564219818925,-0.6284917606793745,0.0216749135865749,1.7087916972212356,1.2638386747580672,-1.1068453517533323,-1.1585629221421436,-0.8651425327574978,0.4795600199429262,-0.2160207838292627,-0.3341883536676138,-0.2676396419710292,10.075214696758849,-0.9815398244916892,0.0987077962286628,-0.9941633065625292
1.4,0.0164549145711761,1.697477847270526,1.2580360028797193,0.0477168925353597,0.0705504749620182,0.0148965267136209,-0.7683938806458899,-0.8507114606384976,-0.6338359219019057,-0.0063362438572241,1.6722713927188306,1.239237467152774,-0.8618956141418275,-0.9429564234720086,-0.6270033678559988,0.5721192416402606,-0.3249133997089259,-0.3877519328302548,-0.2672080611265615,10.086729802498668,-0.9865385079900127,0.0950969632835171,-0.9904282186652368
1.42,0.0017726846332455,1.6811514302320083,1.2462345142444176,0.0475223401828245,0.0667725951320322,0.0144288094151533,-0.776918951999078,-0.8663722790193987,-0.608108762632327,-0.0063362438572241,1.6722713927188306,1.239237467152774,-0.8618956141418275,-0.9429564234720086,-0.6270033678559988,1.5651076624459337,-0.426253567659407,-0.7830409190450582,1.2863579634789346,10.08990813638684,-0.9943160098927096,0.0939136709033025,-0.9838720933149452
1.44,-0.0138739747849741,1.6636838142527968,1.234345277133177,0.0436572900323573,0.06555830277789,0.0138287982985706,-0.7870861420597092,-0.8787875811114072,-0.5823707819583586,-0.0063362438572241,1.6722713927188306,1.239237467152774,-0.8618956141418275,-0.9429564234720086,-0.6270033678559988,1.5165381044820487,-0.508359503031558,-0.6207651046004237,1.2868990336984245,12.234247817405958,-0.997890314001862,0.0981003334228163,-0.9786920211164646
1.46,-0.0297122419557257,1.6460269769079707,1.2229207091728993,0.0385142320670633,0.0665759705939952,0.0132555337185763,-0.7959996438275473,-0.8860489143543149,-0.5613293994948814,-0.0149551999986424,1.6628418284841104,1.232967433474214,-0.8818956144398507,-0.962956423770032,-0.6267056892913236,1.1988716050980346,-0.4456750883919058,-0.3630666621453837,1.05206912317386,11.96353448059108,-0.9992191479833228,0.1034109306754755,-0.975416018197171
1.48,-0.0457130229674903,1.628260123657854,1.2118713807680035,0.0337052328119649,0.0687849247463131,0.0127624183235252,-0.8034790049563787,-0.8903593481731111,-0.5446408849414611,-0.032193112281479,1.6439827000146705,1.220427366117094,-0.9218956150358972,-1.0029564243660782,-0.6261103321619733,0.939450904253937,-0.3739680564415704,-0.2155216909398127,0.8344257276710121,11.341143676192589,-0.9990949643558626,0.1085024585479716,-0.97382521225275
1.5,-0.0610397214859472,1.6113195409545884,1.2016480581574729,0.0299627949420695,0.0712963133632894,0.0123724532051756,-0.8094038673907662,-0.8928423566094861,-0.5323279072537023,-0.0494310245643155,1.62512357154523,1.207887298759974,-0.9618956156319436,-1.0429564249621248,-0.625514975032623,0.6944039625836906,-0.296243121719375,-0.1241504218187472,0.6156488843879426,11.106017187907128,-0.9981172592533788,0.1126104183753938,-0.9734445383466008
1.52,-0.0772831438083981,1.593446656427494,1.1911114448336388,0.0270485505906513,0.0738536762299892,0.0120386382708425,-0.8145715531292691,-0.8944917355320506,-0.522107714912658,-0.0686689368769544,1.6042644430459876,1.1953769992593215,-1.00189561622799,-1.0829564255581712,-0.6249196179032727,0.5785277828463977,-0.2583842869251451,-0.0824689461282279,0.511009617052216,10.93251153593792,-0.9969042927144498,0.1156082136802949,-0.9736300246392792
1.54,-0.09361981069955,1.575548368207313,1.1807642279258743,0.0252469951143155,0.0759405459963499,0.0117796771394426,-0.8188523948223011,-0.8955220503529675,-0.513121226393787,-0.0879068491895933,1.5834053145467453,1.1828666997586692,-1.0418956168240363,-1.1229564261542178,-0.6243242607739223,0.5003601955861438,-0.2140420846516,-0.0515157410458433,0.449324425943548,10.87177127234645,-0.99603511211131,0.1174193413079726,-0.9737761476774386
1.56,-0.1092176750263724,1.5585216641164574,1.1710952413526918,0.024317061319258,0.0774492245032451,0.0115869533877778,-0.8228155989220733,-0.8967643739815517,-0.5051162994410404,-0.1081447615171333,1.5615461860326016,1.1703712841862504,-1.081895617420083,-1.162956426750264,-0.6237289036445721,0.4509135456309743,-0.1981602049886122,-0.0621161814292114,0.4002463476373286,10.842437944744232,-0.995295717263712,0.1184513714203013,-0.9740282191830116
1.58,-0.1257167867561673,1.540573992414474,1.161078212663761,0.0240088683823268,0.0786689184068576,0.0114337400739757,-0.8268836759273049,-0.8979671771157803,-0.497022573457429,-0.1293826738595745,1.5386870575035567,1.1578907525420654,-1.1218956180161292,-1.2029564273463105,-0.6231335465152218,0.4569036720086352,-0.2034038502615798,-0.0601401567114301,0.4046862991805677,10.842437944744232,-0.9949275090911108,0.1188773217831935,-0.9739727381428688
1.6,-0.1422969513451425,1.5226020194338632,1.151219052094841,0.024375337596454,0.0796126483319479,0.0113327770628721,-0.8309257711539294,-0.8992073339135415,-0.489314237457622,-0.1670609705525326,1.4956756335586852,1.13622708399089,-0.8749997452143666,-0.9979671786058965,-0.4503677455646487,0.4395877801703979,-0.2021047613312232,-0.0620078398880563,0.385416799990354,10.82333150953218,-0.9948051205953996,0.1186971122598835,-0.9737557681155048
1.62,-0.1590426988945266,1.5045471466458016,1.1416347862553955,0.0237211592253815,0.0834629483320714,0.0112424132850736,-0.8424619041988378,-0.9055616634326932,-0.4694359528098442,-0.1670609705525326,1.4956756335586852,1.13622708399089,-0.8749997452143666,-0.9979671786058965,-0.4503677455646487,1.1922731123843535,-0.5768066522454207,-0.3177164759575857,0.99391423238889,10.800953531299456,-0.991206134322188,0.118100444330055,-0.9786719775552348
1.64,-0.1751165347032835,1.4873044799448305,1.1329057376618088,0.0217261274850112,0.0910097645361218,0.0111563241807555,-0.8484207504584091,-0.9090593604206278,-0.4504279190355286,-0.1670609705525326,1.4956756335586852,1.13622708399089,-0.8749997452143666,-0.9979671786058965,-0.4503677455646487,1.0112456191872163,-0.2979423129785663,-0.1748848493967336,0.9504016887157768,11.673445510407872,-0.9874760353168962,0.1213273870504498,-0.9803276962708404
1.66,-0.1921114412784013,1.4691099186665038,1.1240923575214503,0.0194415389080262,0.1008957909878728,0.0110884892812426,-0.8502940324022286,-0.9102102634323296,-0.4320007960290875,-0.1758109680046762,1.4856959617726262,1.1317234065352435,-0.884622959071779,-1.0179671789039195,-0.4410367799860927,0.9278909220348792,-0.0936640971909708,-0.0575451505850865,0.9213561503220558,11.57861857138778,-0.98007577660594,0.1245017402004924,-0.985940104041492
1.68,-0.209104266499323,1.450910616882035,1.115626199445138,0.0178751084558258,0.1115425967486899,0.0110786679309673,-0.8485153636555678,-0.9097949825360692,-0.4156440267383579,-0.1933109629089636,1.4657366182005085,1.1227160516239505,-0.9038693867866036,-1.057967179499966,-0.4223748488289806,0.8229216584270086,0.0889334373330386,0.0207640448130153,0.8178384645364828,11.451778909339737,-0.9709142604251364,0.1268738777911284,-0.9934792876592632
1.7,-0.2260158292608324,1.4327331532011671,1.1074665382657536,0.0175847776100602,0.1218346532055627,0.0111538312467841,-0.8425277476674797,-0.908215409171468,-0.4011700882427609,-0.2108109578132509,1.4457772746283903,1.1137086967126577,-0.9231158145014284,-1.0979671800960125,-0.4037129176718684,0.7871491167645557,0.2993807994044029,0.0789786682300675,0.7236969247798458,11.323678265321178,-0.9622440226215192,0.128114734886612,-1.0005445140924385
1.72,-0.2419365178557833,1.4155008923902572,1.099970736674189,0.0189168440969313,0.1303144942995043,0.011329053562467,-0.8335958119905511,-0.9060507633774688,-0.3886151602947352,-0.2292732741032795,1.42381793102647,1.10563443835922,-0.942362242216253,-1.1379671806920588,-0.3850509865147563,0.7779643020897341,0.4465967838464313,0.1082322896999554,0.6277463974012881,11.224419963081344,-0.9536956056343352,0.1277615977294768,-1.007636766291138
1.74,-0.2584847187624775,1.3974024831171,1.092337702991328,0.0222555482487332,0.1372517050766157,0.0116371138863341,-0.8216589917600517,-0.9044861275029572,-0.3753626068634223,-0.247735590393308,1.4018585874245495,1.0975601800057828,-0.9616086699310776,-1.1779671812881054,-0.3663890553576442,0.8952177599401026,0.5968410115249678,0.0782317937255805,0.6626276715656437,11.189715799356236,-0.9471610365112996,0.1254662264834342,-1.0130731112081703
1.76,-0.2747761783841366,1.379296427400326,1.0849750482590503,0.0264485974411036,0.1418914038185544,0.0119819455789421,-0.8081422868648482,-0.9063667553471162,-0.3615492610605145,-0.2666790673762073,1.3788992438077283,1.0899524699312733,-0.9808550976459024,-1.2179671818841518,-0.3477271242005321,0.9708843836716038,0.6758352447601756,-0.0940313922079494,0.6906672901453914,11.189715799356236,-0.9423447238142206,0.1221805604257164,-1.0171521269787895
1.78,-0.2907861037698576,1.361128696075266,1.0778996086742991,0.030365433315827,0.1442295128729865,0.0122650823389442,-0.7937387063236728,-0.9102651409727645,-0.346694372765394,-0.2861037050519771,1.354939900176006,1.0828113081356914,-1.000101525360727,-1.257967182480198,-0.3290651930434199,1.0527680764927445,0.7201790270587705,-0.1949192812824074,0.7427444147560219,11.244113431222104,-0.9396689714566704,0.1192364856978104,-1.0192588066365125
1.8,-0.3057254614214423,1.343784577723116,1.071463360609992,0.0334726264203928,0.1444501326142905,0.0124377973385326,-0.7797027934902064,-0.9151117976362332,-0.3315447556323742,-0.3304730390860413,1.3156154390266277,1.0605648900360294,-0.8296157739193931,-1.0102651424628806,-0.2651862354796847,1.0606693984924125,0.7017956416733195,-0.2423328331734475,0.7574808566509911,11.319004635109197,-0.9391742370035456,0.1168033581406962,-1.0191708497602197
1.82,-0.3211944312214806,1.3253440042638285,1.0649453405974922,0.0334758937167436,0.1433363225893114,0.0123512037763888,-0.7681565576198988,-0.9278472345630684,-0.3213088143177503,-0.3304730390860413,1.3156154390266277,1.0605648900360294,-0.8296157739193931,-1.0102651424628806,-0.2651862354796847,1.0003517020110932,0.5773117935153838,-0.6367718463417493,0.5117970657311954,11.024725011156988,-0.9387657638593088,0.1168117726576543,-1.0194022358291346
1.84,-0.3364328465078145,1.3066969747591184,1.058653125861276,0.0295086329890899,0.1415665717947268,0.011982476913399,-0.7562875397755298,-0.9354745000519236,-0.3081950215094224,-0.3304730390860413,1.3156154390266277,1.0605648900360294,-0.8296157739193931,-1.0102651424628806,-0.2651862354796847,0.9630943947079952,0.59345089221845,-0.3813632744427586,0.6556896404163959,11.024725011156988,-0.9399357612452546,0.1206272059341528,-1.0174698949304286
1.86,-0.351429298816654,1.287956773527579,1.052654785677239,0.0247021145810608,0.1387809607879271,0.0115543197288103,-0.7440938734063574,-0.9381313996089148,-0.2922974182165714,-0.3387691968252352,1.305512787601999,1.0579130276812323,-0.8367911874385372,-1.0302651427609038,-0.2488846080225428,1.0105424350757015,0.6096833184586203,-0.132844977849561,0.7948801646425474,11.236860000913111,-0.9427660312193656,0.1258299937564395,-1.013419397236642
1.88,-0.3654509897404112,1.2701319677427725,1.047269960436416,0.0208205689672825,0.1349489746902378,0.0111979969045614,-0.7326343242847806,-0.938277018101546,-0.2753131119064657,-0.3553615123036231,1.2853074847527413,1.0526093029716388,-0.8511420144768252,-1.0702651433569503,-0.216281353108259,1.0244622145920317,0.5729774560788381,-0.0072809246315641,0.8492153155052862,11.37774576983611,-0.9472650418468036,0.1305859125173525,-1.007582405991325
1.9,-0.3799823130595245,1.2513783476574825,1.0419695186866682,0.0179216667783731,0.1294998331066464,0.0109098564720344,-0.7213508768876526,-0.9373213912715008,-0.2555231704317033,-0.3719538277820109,1.2651021819034836,1.047305578262045,-0.8654928415151134,-1.1102651439529967,-0.1836780981939753,1.1400342005577897,0.5641723698563972,0.0477813415022565,0.9894970737381188,11.4884587849092,-0.9529932670327572,0.1342078872855795,-1.0006364878054037
1.92,-0.3943092532879599,1.2326509579530651,1.0370851698673058,0.0163710391371447,0.1228878478541375,0.0107236474792977,-0.7122229173106145,-0.9356661329171296,-0.233806738622541,-0.3892636846123132,1.2428968790244237,1.0436320162981656,-0.8798436685534016,-1.150265144549043,-0.1510748432796915,1.1807444016189046,0.4563979788519079,0.082762917718554,1.085821590458115,11.60268283908954,-0.9592673457489542,0.1364575007544712,-0.993344363503228
1.94,-0.4084796896157183,1.2139652026920158,1.03265409643411,0.0164535835974739,0.1157734686568384,0.0106601933369713,-0.7055437799425169,-0.9332846381024884,-0.2103675990066375,-0.4065735414426155,1.2206915761453638,1.039958454334286,-0.8941944955916896,-1.1902651451450896,-0.1184715883654077,1.2244137979742582,0.3339568684048777,0.1190747407320724,1.171956980795176,11.71154940735778,-0.9666083564543744,0.1374701987416928,-0.98494163845753
1.96,-0.4218427929223648,1.196250979326411,1.028894165538551,0.0180277135014734,0.1091345183872191,0.0107075137506512,-0.7015866470162767,-0.9316431133430444,-0.1865660834127747,-0.4242421689488749,1.1974862732514029,1.0370999737432638,-0.9085453226299778,-1.230265145741136,-0.085868333451124,1.2091997861154862,0.1978566463120112,0.0820762379721895,1.1900757796931394,11.802984874727372,-0.9748187779772524,0.137361613861961,-0.9753452301397428
1.98,-0.435850962590036,1.1776261826870278,1.025442154841563,0.0209569541410268,0.1028024136012594,0.0108465170929854,-0.6996274452052336,-0.93129151674526,-0.1597971788259208,-0.4422695671310916,1.1732809703425404,1.0350565745250984,-0.9228961496682658,-1.2702651463371823,-0.0532650785368402,1.3421404031285806,0.0979600905521571,0.0175798298892249,1.3384452293426985,11.89696177852693,-0.9832101752190836,0.136695842798085,-0.9648436884730476
2.0,-0.449844327353041,1.1589797812038212,1.0225409650553876,0.0242342994495096,0.0977101636358004,0.0110192927440362,-0.6999888761855382,-0.9334422749341033,-0.1315940058063686,-0.4708323348502977,1.1310616068497648,1.0174522959002672,-0.6981711147913034,-1.031291518235376,-0.0597971773358046,1.4143685530221577,-0.0180715490152305,-0.1075379094421624,1.4101586509776096,12.003942484242543,-0.9899658657372926,0.1358556509647681,-0.9557845785885476
2.02,-0.4639763858598079,1.1402005736542389,1.0200144511163625,0.0246740091769883,0.0974730693384287,0.0111076640177558,-0.7122197487928414,-0.9430756899785068,-0.1224334095281788,-0.4708323348502977,1.1310616068497648,1.0174522959002672,-0.6981711147913034,-1.031291518235376,-0.0597971773358046,0.9032074157216146,-0.6115436303651633,-0.4816707522201813,0.4580298139094864,12.095037261713514,-0.9895826668168468,0.1370602147690763,-0.9541072901323508
2.04,-0.4775753878212476,1.1222296735261197,1.0178067142359282,0.0221698309691674,0.1026406664632416,0.0111248918892908,-0.7180633356179293,-0.9479449295502766,-0.1103532382160214,-0.4708323348502977,1.1310616068497648,1.0174522959002672,-0.6981711147913034,-1.031291518235376,-0.0597971773358046,0.7137708664562811,-0.2921793412543949,-0.2434619785884884,0.6040085656078699,10.915524474638003,-0.9876587589570592,0.140433123478845,-0.9546344545388727
2.06,-0.4919541750142322,1.1032548619968436,1.0157611008161882,0.018638797965658,0.1108952949947394,0.0111336384074258,-0.7190103202762699,-0.9491327319220916,-0.0947358395162563,-0.4778140459982107,1.120748691667411,1.0168543241269092,-0.6978798487085174,-1.0512915185333993,-0.0397971770377814,0.7845552825726299,-0.0473492329170266,-0.0593901185907519,0.780869934988257,11.13237192874476,-0.9817442339728636,0.1449443614933021,-0.9586872973642716
2.08,-0.5063064565054275,1.0842868039861389,1.014050057279048,0.0157913432202696,0.1204112784439643,0.0111974447144804,-0.7157802250296742,-0.9479083288606864,-0.0771912026052624,-0.4917774682940368,1.1001228613027034,1.015658380580193,-0.6972973165429454,-1.091291519129446,0.000202823558265,0.8940734904042664,0.1615047623297838,0.0612201530702682,0.8772318455496932,11.28442260488373,-0.9745886216592732,0.1488094663449457,-0.9639429642559494
2.1,-0.5198478762287612,1.066302088254779,1.0127626943728338,0.0142278513381755,0.1297941032309115,0.0113335101494566,-0.7095034009837387,-0.9455871200906611,-0.0592282621491257,-0.5057408905898628,1.079497030937996,1.014462437033477,-0.6967147843773733,-1.1312915197254922,0.0402028241543114,0.9584541722069848,0.3138412022967773,0.1160604385012586,0.8981470228068371,11.388996337543176,-0.9669331802622924,0.1522705512106433,-0.9691397737452594
2.12,-0.5339389298473071,1.0474265642259868,1.0117907969857804,0.0141250315108192,0.1394641575634806,0.0115832279374993,-0.6996362886884365,-0.942259715034874,-0.0388609391811685,-0.5196751862774103,1.0568712005434862,1.0152664935165632,-0.6961322522118013,-1.1712915203215386,0.0802028247503578,1.1437431686511352,0.4933556147651063,0.1663702527893551,1.0183661483978586,11.481720082966604,-0.9596544049759134,0.1547125739520959,-0.9736366259691116
2.14,-0.5477906330621967,1.0286237308054065,1.0112334447971818,0.0160470802782213,0.1481192394987521,0.0119767764372305,-0.6858553101872202,-0.9384174237517758,-0.0178950952050599,-0.5336094819649577,1.0342453701489762,1.0160705499996494,-0.6955497200462293,-1.2112915209175852,0.1202028253464043,1.2690992715166982,0.6890489250608145,0.1921145641549104,1.048292198805428,11.591969729127412,-0.9537398090398428,0.1557578424239862,-0.9765578907605188
2.16,-0.5613333287724392,1.0098779301098657,1.0111036148308767,0.0197270410117387,0.1548892848701454,0.0124913364546714,-0.6690632040822054,-0.936882897353685,0.0038873942993223,-0.5475292143483659,1.0106195397395652,1.0178746064976367,-0.6949671878806571,-1.2512915215136315,0.1602028259424508,1.3773220826272254,0.8396053052507402,0.0767263199045409,1.089124475219116,11.706546427979449,-0.9502301691998144,0.1552124057274981,-0.9776477792722724
2.18,-0.5738650354017949,0.9920661794469112,1.0113978970106914,0.0235075708303841,0.1591009591263514,0.0129810020333949,-0.6510766346335902,-0.9381455100650066,0.0259953045799253,-0.5614343834276347,0.9859937093152532,1.0206786630105251,-0.6943846557150851,-1.291291522109678,0.2002028265384972,1.4264208428474416,0.8993284724307604,-0.0631306355660776,1.105395514030152,11.706546427979449,-0.9482448458056706,0.1544057898531625,-0.9771133192267968
2.2,-0.5866775392871434,0.9732741463040716,1.0121791667935556,0.0270698353569693,0.1611324531025992,0.0134258934304754,-0.6312659917417005,-0.9409668870109852,0.0510660997138478,-0.6064188671334744,0.9451589039436608,1.0126976622396875,-0.6235653564662232,-1.0381455115551228,0.1259953060700415,1.6038753912854251,0.990532144594486,-0.1410688472989252,1.2535397566961235,11.815092095376713,-0.9486279097746364,0.1541301162199702,-0.9740893276280576
2.22,-0.5991623078773851,0.9543401218582598,1.0132072765324311,0.0273357171401692,0.1617357197498646,0.0136107463364372,-0.6185092744677463,-0.9513711633195931,0.0491394136712286,-0.6064188671334744,0.9451589039436608,1.0126976622396875,-0.6235653564662232,-1.0381455115551228,0.1259953060700415,0.8286961448870883,0.6378358636977111,-0.5202138154304037,-0.0963343021309588,11.94510406147674,-0.9459700537320256,0.156269057070966,-0.9737284057134789
2.24,-0.6113908198891147,0.9352548362660894,1.0142033589421606,0.0238121833573561,0.161852106959652,0.0135289607199397,-0.6050236493581289,-0.9561098841401868,0.0507356438653033,-0.6064188671334744,0.9451589039436608,1.0126976622396875,-0.6235653564662232,-1.0381455115551228,0.1259953060700415,0.7191409987706638,0.6742812554808686,-0.2369360410296894,0.0798115097037324,10.508306201109008,-0.944695279296955,0.1592383125872641,-0.9745303087273844
2.26,-0.6227511619702347,0.9170857478464012,1.0152328817930625,0.0198846485757734,0.1614627729582161,0.0134137451667602,-0.5915478391709187,-0.9562668852847088,0.057544747592955,-0.6126545206981366,0.9347774488281096,1.0139576153003882,-0.6180631008327498,-1.058145511853146,0.1459953063680647,0.7549602690456974,0.6737905093605112,-0.0078500572260997,0.3404551863825863,10.508306201109008,-0.9450912421472056,0.1636974468167588,-0.9728139189319344
2.28,-0.6344291550142855,0.897982623848122,1.0165004797235937,0.0166373822571636,0.1606226244163494,0.0133631973749541,-0.5769971634599281,-0.954271926530073,0.0690489430783011,-0.6251258278274611,0.9140145385970072,1.016477521421789,-0.607058589565803,-1.0981455124491926,0.1859953069641111,0.9328029505798188,0.7275337855495279,0.0997479377317978,0.5752097742673039,11.08984136885556,-0.946876254457502,0.1679762197092485,-0.9691903714535816
2.3000000000000003,-0.6458132638204832,0.8789309887121923,1.0180388487247394,0.0147897518156349,0.159413248921609,0.0134204103389624,-0.562191482563463,-0.951250510279709,0.0843677845142532,-0.6375971349567855,0.8932516283659048,1.01899742754319,-0.5960540782988563,-1.138145513045239,0.2259953075601576,1.0758764402868963,0.7402840448232584,0.1510708125182003,0.7659420717976068,11.08984136885556,-0.9495969288004144,0.1715090203540659,-0.9642722991422084
2.32,-0.6568989387945919,0.859949839393357,1.0199226226083309,0.0146920260210101,0.1578621669174586,0.0136067584868804,-0.5472028755224956,-0.9473464251453624,0.1032440491094502,-0.6495182165227626,0.870488718105,1.023517333694393,-0.5850495670319095,-1.1781455136412853,0.265995308156204,1.220874263420123,0.7494303520483692,0.1952042567173295,0.9438132297598504,11.313544476942296,-0.9527975370815532,0.1738118451342094,-0.9587798636001836
2.34,-0.6671538174211855,0.8419942599305649,1.0220807840155124,0.0165583104660382,0.156073314757474,0.0139207142163854,-0.5330815438998595,-0.9432254476466726,0.1229964209376616,-0.6614392980887397,0.8477258078440952,1.028037239845596,-0.5740450557649627,-1.218145514237332,0.3059953087522505,1.2314124564713156,0.7060665811318034,0.2060488749344891,0.9876185914105696,11.515662111002712,-0.9564003677765998,0.1746204552926842,-0.9528455861540296
2.36,-0.6776603111941519,0.8231563194088944,1.0247774764024584,0.0202798347352965,0.1538408584883987,0.014364117557461,-0.5183767489750951,-0.9413329117526807,0.1457303695230022,-0.6730852668730432,0.8239628975682892,1.0335571460117003,-0.5630405444980159,-1.2581455148333782,0.345995309348297,1.357060337798519,0.7352397462382199,0.0946267946995871,1.1366974292670289,11.741126571226232,-0.96101348231968,0.1737936670263522,-0.9463449062392668
2.38,-0.6878750070621343,0.8043196153169542,1.0279504321965962,0.0243179213979682,0.1512251485919561,0.0148115465074213,-0.503911136063227,-0.9424975503891768,0.1705285993786285,-0.6844561228756729,0.7991999872775821,1.040077052192706,-0.5520360332310691,-1.2981455154294246,0.3859953099443434,1.4366302099375627,0.7232806455934049,-0.0582319318247981,1.2399114927813135,11.741126571226232,-0.965660550434808,0.1729641833903185,-0.939679069858913
2.4,-0.6973145640210404,0.78638447206094,1.03144417289248,0.0276737746677908,0.1483840442514851,0.0151836895757043,-0.4905534302933722,-0.945236387317133,0.1960031916782894,-0.7130705638652957,0.7571947377974954,1.0364768621655276,-0.4382437079869598,-1.042497551879293,0.2705286008687446,1.4447182977884443,0.6678852884927422,-0.1369418463978089,1.273729614983049,11.865524294448733,-0.9693081624538978,0.172086702420548,-0.934160203564982
2.42,-0.7071017992505445,0.767366815798705,1.0353702388240222,0.0279045277531007,0.1475204371904866,0.0154008586270187,-0.4889455591560014,-0.9554667915603852,0.1937986555500117,-0.7130705638652957,0.7571947377974954,1.0364768621655276,-0.4382437079869598,-1.042497551879293,0.2705286008687446,0.5294015491940488,0.0803935568685382,-0.5115202121626083,-0.110226806413885,11.982385214109854,-0.9681439534063642,0.1748565711939285,-0.931658875642294
2.44,-0.716842944053833,0.7482021327214687,1.0392448524085367,0.0243784995045153,0.1506833217302993,0.0154729237129851,-0.4847082720564774,-0.9599374227347368,0.1942220037478474,-0.7130705638652957,0.7571947377974954,1.0364768621655276,-0.4382437079869598,-1.042497551879293,0.2705286008687446,0.3087084739583925,0.2118643549761989,-0.2235315587175823,0.0211674098917827,10.05345513040811,-0.9648130156645974,0.1776542576643414,-0.9350389885811564
2.46,-0.7264568484378368,0.7290040867449836,1.0431890652102154,0.0203343024079687,0.1562529040334773,0.0155626007618886,-0.4765160308448181,-0.9597417224161848,0.2001150540369352,-0.7174530009451653,0.7467697622787024,1.039182148174215,-0.4251102223717063,-1.062497552177316,0.2905286011667679,0.5046760257690287,0.4096120605829673,0.0097850159276047,0.2946525144543882,10.401686923538364,-0.9601360431449856,0.1814293177769273,-0.9389584090870404
2.48,-0.7354003667025337,0.7107945573128258,1.0470821926609148,0.0174254920769801,0.1625732437225449,0.0157243823343905,-0.4650861411475251,-0.9574237303305658,0.2093475586413555,-0.7262178751049044,0.7259198112411166,1.04459272019159,-0.3988432511411994,-1.1024975527733627,0.3305286017628143,0.7437314822432863,0.5714944848646486,0.1158996042809445,0.4616252302210161,10.69103533330508,-0.9544861430513186,0.1852032776504403,-0.9432237362819887
2.5,-0.744543482007015,0.6916843277370507,1.0514017272857197,0.0158048594681518,0.1692870499113649,0.015990724802673,-0.4495967395374788,-0.9539721809178427,0.2222389473580547,-0.7349827492646437,0.7050698602035307,1.0500032922089648,-0.3725762799106925,-1.142497553369409,0.3705286023588607,1.022280121384069,0.7744700805023125,0.1725774706361482,0.6445694358349602,10.921786029209215,-0.9486803303552824,0.188114751230797,-0.9473198984707882
2.52,-0.7533425444247421,0.6726515446877397,1.0560103077060243,0.0160038866197181,0.1752504602848757,0.0163755047102165,-0.4309546467562195,-0.9496861259911968,0.2380769578072479,-0.7424342748628575,0.6822199091361425,1.057413864256142,-0.3463093086801856,-1.1824975539654554,0.4105286029549072,1.2417129953093655,0.9321046390629668,0.214302746332301,0.7919005224596626,11.136698338336828,-0.9436895079792412,0.1897278416379365,-0.9505372013893092
2.54,-0.7617419291146377,0.6537103393870809,1.0609566212783892,0.0184820200513336,0.1798397184993627,0.016909234317244,-0.4099754014006052,-0.9450384279439624,0.2557391513615468,-0.7498858004610713,0.6593699580687543,1.0648244363033192,-0.3200423374496787,-1.222497554561502,0.4505286035509537,1.390757809594149,1.0489622677807149,0.2323849023617152,0.8831096777149439,11.332963818083954,-0.9396399727075788,0.1896612303319589,-0.9528872407622536
2.56,-0.7693146338936111,0.6357733256278336,1.0659998715128778,0.0223582816226728,0.1825845375197544,0.0175057556230159,-0.3883376237054723,-0.9436854682966498,0.2742433181293792,-0.7566806517785225,0.635520006986465,1.0732350083653976,-0.2937753662191718,-1.2624975551575484,0.4905286041470001,1.42515622929821,1.0818888847566432,0.0676479823656373,0.9252083383916172,11.44737110382357,-0.9378131412704418,0.1880752240797817,-0.9534778417258482
2.58,-0.7768321643275453,0.6168880737521714,1.0717107518701885,0.0265305585120053,0.1836385445957807,0.018105985310306,-0.3646671051077373,-0.9449615978037856,0.2959893097411723,-0.762818828815211,0.6106700558892746,1.0826455804423774,-0.2675083949886649,-1.3024975557535947,0.5305286047430465,1.6084232250754764,1.18352592988675,-0.0638064753567868,1.0872995805896568,11.57372267622577,-0.937268814761305,0.1863948926664876,-0.9527424284733657
2.6,-0.7838698980120365,0.597958252680498,1.0778800237747097,0.0301132618240034,0.1827947933894728,0.0186129474961112,-0.3403632398509817,-0.9478819806468652,0.3199542562163625,-0.7950655195829321,0.569639993861982,1.086510217357247,-0.2792319158010014,-1.0449615992939016,0.3959893112312884,1.7128376761440485,1.2151932628377795,-0.1460191421539858,1.1982473237595104,11.879132749674682,-0.9385117327948967,0.1852852596577689,-0.950086019348696
2.62,-0.7904885641847013,0.5788764319371861,1.0842014594926292,0.0298371034743427,0.1801205857683568,0.0187932996303985,-0.3228497009720767,-0.95860725932471,0.3110352190867106,-0.7950655195829321,0.569639993861982,1.086510217357247,-0.2792319158010014,-1.0449615992939016,0.3959893112312884,1.1194919272827064,0.8756769439452528,-0.5362639338922393,-0.4459518564825931,11.879132749674682,-0.9406945149450028,0.1911537257258114,-0.94121491264456
2.64,-0.7964600554156029,0.5606180171619323,1.0900815511334807,0.0260578397824113,0.1762767122258446,0.0186981023044242,-0.3067315683912669,-0.9622955282141776,0.3084914826203517,-0.7950655195829321,0.569639993861982,1.086510217357247,-0.2792319158010014,-1.0449615992939016,0.3959893112312884,0.836462970644638,0.8059066290404898,-0.1844134444733802,-0.1271868233179457,9.805228719058505,-0.9424797244161116,0.193430708105091,-0.9400264696673228
