t,x,y,z,roll,pitch,yaw,v_x,v_y,v_z,ref_x,ref_y,ref_z,ref_v_x,ref_v_y,ref_v_z,a_com,a_x,a_y,a_z,thrust,wind_x,wind_y,wind_z
0.0,2.301611026266938,-2.506720122533969,2.581093265744552,0.0232990211112767,0.0994932818846782,0.0416955876553961,-0.0005317641619094,0.006763672312028,0.000134985577834,2.301601903989725,-2.50660954317088,2.581094809479993,-0.1003647949914929,0.1045066487181778,-0.0486654629240073,0.339294331571457,-0.026588208095472,0.3381836156014003,0.0067492788917028,10.256034081206051,-0.9413634688802124,0.2593309668495234,-0.8759830408766016
0.02,2.3017819580079144,-2.506868348402284,2.581037189726809,0.0157255503383,0.0938854279899243,0.0410741102359449,0.0169075561901729,-0.0170103696004371,-0.0057910598685722,2.301601903989725,-2.50660954317088,2.581094809479993,-0.1003647949914929,0.1045066487181778,-0.0486654629240073,1.5037062361304798,0.8719660176041185,-1.1887020956232586,-0.2963022723203144,10.25523333161982,-0.9492887842489,0.2574582287834882,-0.8762955161937526
0.04,2.302242474967584,-2.507228657890692,2.580817901130852,-0.0005387864333351,0.0779468513893103,0.0398899069426379,0.0266238350442203,-0.016901311188835,-0.0157112869678796,2.301601903989725,-2.50660954317088,2.581094809479993,-0.1003647949914929,0.1045066487181778,-0.0486654629240073,0.6943141835807877,0.4858139427023704,0.0054529205801049,-0.4960113549653684,9.991741258510956,-0.9570309301600528,0.2744363826906832,-0.8573755297645772
0.06,2.3027484219136194,-2.507482498243006,2.5804211637180594,-0.0166276722961753,0.0572791483723295,0.0390769357316789,0.0252146909631439,-0.0095042036230882,-0.0255139257865978,2.3005982560398106,-2.505564476683698,2.5806081548507533,-0.1203647952895161,0.124506649016201,-0.0584132042954005,0.6180505949974934,-0.0704572040538194,0.3698553782873391,-0.490131940935911,9.647075024560763,-0.970720997466201,0.2894108392296071,-0.8343645045755076
0.08,2.30314501720533,-2.5075578271452823,2.579801251339542,-0.032945343744757,0.0335738767852247,0.0387395544489216,0.0136972105581253,0.0019324134276761,-0.0359845830935834,2.2985909601399808,-2.5034743437093345,2.579634845592273,-0.1603647958855626,0.1645066496122475,-0.0779086870381869,0.9657681254915114,-0.5758740202509283,0.5718308525382234,-0.5235328653492823,9.587144791294122,-0.9880070555061324,0.3023883446952901,-0.8083066716448992
0.1,2.3032140708398905,-2.507372964111808,2.5789713116689823,-0.0484710842162943,0.0108285200877046,0.0388711479317872,-0.0067429962750174,0.0163110788086216,-0.0465139893814658,2.296583664240151,-2.501384210734971,2.578661536333793,-0.200364796481609,0.204506650208294,-0.0974041697809733,1.3559281602413118,-1.0220103416571418,0.7189332690472715,-0.5264703143941205,9.6105504635334,-1.0062030718200297,0.313477124374327,-0.7817836978237722
0.12,2.302793851959713,-2.5068706403328638,2.577930847732055,-0.0631956762271643,-0.0087705949965443,0.0392974472957572,-0.0343334151214199,0.0335024333488996,-0.057041225132761,2.292576368310519,-2.497294077730805,2.576713452938174,-0.2403647970776555,0.2445066508043404,-0.1168996525237597,1.7085056157449483,-1.379520942320126,0.8595677270139035,-0.5263617875647594,9.6105504635334,-1.0221271657257778,0.3223317066627089,-0.7589530177178172
0.14,2.301832696588152,-2.506027042026785,2.5767445826944644,-0.0757244805337006,-0.0234029892325233,0.039839335924295,-0.0653152733581688,0.0541646042109137,-0.067297111227907,2.288569072380887,-2.493203944726639,2.5747653695425545,-0.280364797673702,0.2845066514003869,-0.1363951352665461,1.931310464509576,-1.5490929118374432,1.0331085431007052,-0.512794304757301,9.657759080833785,-1.0364539504258488,0.3298814609755547,-0.7386189525569925
0.16,2.3001482392287955,-2.504682310957337,2.5752819072869526,-0.0866121650966312,-0.0340287641643928,0.0404076688042354,-0.1015135067990206,0.0788942154899934,-0.0784177536182241,2.2835617764363536,-2.488113811707572,2.5723298990783654,-0.3203647982697484,0.3245066519964333,-0.1558906180093325,2.2613792613281958,-1.8099116720425896,1.236480563953983,-0.5560321195158521,9.73409688116135,-1.0466413041949445,0.3352251823114279,-0.7251188437009976
0.18,2.297700434668599,-2.502818690892619,2.573594853356739,-0.0947708687778469,-0.0388365059154098,0.0407681698796174,-0.1410848981645459,0.1055717037950445,-0.0896558233328528,2.277554480476919,-2.482023678673604,2.5694070415456065,-0.3603647988657948,0.3645066525924798,-0.1753861007521189,2.451467727597368,-1.978569568276263,1.3338744152525568,-0.5619034857314339,9.73409688116135,-1.052429020520519,0.3381201698587109,-0.719405016683316
0.2,2.294644301445419,-2.50054505026852,2.571787659752892,-0.1001722980567227,-0.0379042323319257,0.0407833071096035,-0.1779644739744763,0.1318671829743573,-0.0998800773839761,2.290646189760372,-2.4975401057028668,2.569112062190096,-0.241084899654662,0.2055717052851607,-0.1440823816486067,2.321686191161495,-1.84397879049652,1.314773958965639,-0.5112127025561686,9.780417006445532,-1.0556544356685815,0.3387054165403823,-0.7200551820967618
0.22,2.290655330690256,-2.4974806213210266,2.5697529595741586,-0.09983394267696,-0.0312413906656166,0.0406509896298821,-0.2182341463321164,0.1717167401865044,-0.1023119021617773,2.290646189760372,-2.4975401057028668,2.569112062190096,-0.241084899654662,0.2055717052851607,-0.1440823816486067,2.835289885331741,-2.013483617882006,1.9924778606073517,-0.1215912388900557,9.79744261297128,-1.0564102405595617,0.3370062392578489,-0.7226608631113068
0.24,2.2859219700484923,-2.493714226360522,2.567695822425819,-0.0932063386755968,-0.0195977478001978,0.0405015252036789,-0.2522825157102771,0.2017601347614633,-0.1031861959680618,2.290646189760372,-2.4975401057028668,2.569112062190096,-0.241084899654662,0.2055717052851607,-0.1440823816486067,2.2708266141198763,-1.7024184689080373,1.5021697287479483,-0.0437146903142296,10.416277602390435,-1.0522053950198451,0.3309514293945264,-0.73491064298191
0.26,2.280575780838198,-2.4894259890341486,2.5656072685310023,-0.0852006019383895,-0.005463244488311,0.0403096543999924,-0.2800316278443622,0.2253220056899915,-0.1055532884873487,2.2882353407638254,-2.495484388650015,2.56767123837361,-0.2610848999526852,0.2255717055831839,-0.1549676933117575,1.8239915795292947,-1.387455606704252,1.1780935464264064,-0.1183546259643432,10.28252998770222,-1.045431419040837,0.3250464052786537,-0.7490950165997532
0.28,2.275039591131077,-2.4849534116715986,2.56356014982029,-0.0780407296845855,0.0085397502367216,0.0401489821043326,-0.3009932731248218,0.2443933550113127,-0.1098195402156915,2.283413642770732,-2.491372954544312,2.564789590740638,-0.3010849005487316,0.2655717061792303,-0.1767383166380591,1.432923446672277,-1.0480822640229814,0.9535674660660616,-0.213312586417138,10.110440491132069,-1.0368295779642842,0.3193702127400778,-0.7649042193203021
0.3,2.2688328173376533,-2.4798759982219445,2.5612959734386176,-0.0716090534840371,0.0225249375262737,0.0400563074921629,-0.3182701757240627,0.2624643034863132,-0.1165114994760251,2.278591944777639,-2.487261520438609,2.561907943107666,-0.3410849011447781,0.3055717067752768,-0.1985089399643607,1.2940564718664171,-0.8638451299620431,0.9035474237500244,-0.3345979630166834,9.949910713428835,-1.027961865161052,0.3148117211582728,-0.7795311296428304
0.32,2.2623229567652974,-2.4744500283401467,2.5588737920523887,-0.0664355741062226,0.0347926695710535,0.0400708067543276,-0.3316800116251155,0.2793734144918703,-0.1255074007813524,2.271770246754744,-2.4811500863031037,2.5579377643083787,-0.3810849017408245,0.3455717073713232,-0.2202795632906622,1.1690465925131104,-0.6704917950526412,0.8454555502778544,-0.4497950652663632,9.807733874593396,-1.0193679366661546,0.3112213593529298,-0.7929441074554063
0.34,2.2555764098491577,-2.4686937636868467,2.5562536050739904,-0.0624170393915637,0.0448010267529452,0.0402008417191201,-0.342239138305321,0.2955533510967996,-0.1361624989735005,2.264948548731848,-2.4750386521675978,2.5539675855090915,-0.421084902336871,0.3855717079673698,-0.2420501866169638,1.103196064025425,-0.5279563340102766,0.808996830246464,-0.5327549096074038,9.684803672689668,-1.0110336995079838,0.3081441814153965,-0.8055497058423524
0.36,2.2489874394557763,-2.4629229118475844,2.553553111166888,-0.0592968527380466,0.0521134199886422,0.0404369132673122,-0.350861151052127,0.3111084012512303,-0.1475921829650086,2.257126850694051,-2.467927218017191,2.549453141126647,-0.4610849029329175,0.4255717085634162,-0.2638208099432654,1.0570434774155206,-0.4311006373402981,0.777752507721538,-0.5714841995754074,9.552424909217734,-1.003643596500723,0.3057531734765829,-0.8161724973002705
0.38,2.241882632327417,-2.456531397537701,2.55046513681806,-0.0563664413277349,0.0577872484393256,0.0407939224191722,-0.3591831482475608,0.3271844714306366,-0.1606644424988051,2.248305152641353,-2.459815783851883,2.5443944311610447,-0.5010849035289638,0.4655717091594625,-0.285591433269567,1.1164448475551076,-0.4160998597716903,0.803803508970316,-0.6536129766898254,9.552424909217734,-0.997537776305018,0.3035237436990811,-0.8250526201093422
0.4,2.23461549610869,-2.44982180717128,2.547106836717902,-0.0536320003670513,0.061737984178086,0.0412402067243025,-0.3671481209552009,0.3429003785047708,-0.1745524193242283,2.2239234749150394,-2.4401721739661686,2.54243191469312,-0.4591831497376769,0.4271844729207528,-0.2220661375118514,1.121724593761501,-0.3982486353820036,0.7857953537067058,-0.6943988412711599,9.50571822578422,-0.9928844951727932,0.3014282371262902,-0.8320850374138918
0.42,2.227211985340006,-2.4427950873859303,2.5436315961585647,-0.0510525523058164,0.0639352591936836,0.0417690195831795,-0.3729927322793295,0.3589375406246665,-0.1722719845987786,2.2239234749150394,-2.4401721739661686,2.54243191469312,-0.4591831497376769,0.4271844729207528,-0.2220661375118514,0.861031986814353,-0.2922305662064306,0.8018581059947877,0.114021736272489,9.472429597331027,-0.9962084302496153,0.2988673160889334,-0.8307839381675488
0.44,2.220073138757579,-2.4358422853469723,2.5403534168996447,-0.0492091471951181,0.0642495172930236,0.0423141926285771,-0.3783281264224582,0.3723895550163213,-0.172970205658921,2.2239234749150394,-2.4401721739661686,2.54243191469312,-0.4591831497376769,0.4271844729207528,-0.2220661375118514,0.7244146507778643,-0.2667697071564362,0.6726007195827388,-0.0349110530071236,10.40540768455594,-0.9963128249454978,0.2993427138018992,-0.8286365077217184
0.46,2.212442969797255,-2.428250480793596,2.536854486069299,-0.0481613790100453,0.0627710478662145,0.0429064904749312,-0.3845218559066916,0.3861402492074764,-0.1770304270369964,2.219331643417662,-2.435900329236961,2.540211253318001,-0.4791831500357001,0.447184473218776,-0.2343464765144607,0.7809117640641455,-0.3096864742116706,0.6875347095577578,-0.2030110689037662,9.974444892179235,-0.9974028297148572,0.3001807964126904,-0.8255524738465341
0.48,2.20467998878272,-2.420388264334051,2.5332430863314737,-0.0481041274234792,0.0595788754684975,0.0435049127954006,-0.3916221862288243,0.3995027277263612,-0.1838874817084997,2.210147980422909,-2.427356639778546,2.5357699305677643,-0.5191831506317466,0.4871844738148224,-0.2589071545196792,0.8306469190020507,-0.3550165161066321,0.668123925944239,-0.3428527335751691,9.974444892179235,-0.9994709445068368,0.3012108634832037,-0.8218277399527779
0.5,2.1967607046496638,-2.412260200653627,2.5294743586493564,-0.049086654270188,0.0549225096919703,0.0440991035603184,-0.4001512786548898,0.4127432276570977,-0.1926341861619409,2.200964317428156,-2.418812950320131,2.531328607817527,-0.559183151227793,0.5271844744108689,-0.2834678325248977,0.9007789612663696,-0.4264546213032794,0.6620249965368225,-0.4373352226720556,9.830174492696642,-1.0026035290449409,0.3027301759523088,-0.8169334794230353
0.52,2.189057787288382,-2.404291632855218,2.5257187886874184,-0.0509887809861717,0.0496526719917471,0.0446430348669203,-0.4104625076060653,0.4254882091069982,-0.2022488766294988,2.1897806544036,-2.4082692608319136,2.525659251167029,-0.5991831518238395,0.5671844750069154,-0.3080285105301162,0.9502608423859435,-0.5155614475587739,0.6372490724950247,-0.4807345233778987,9.65663347143436,-1.0064258512576498,0.3047757604376076,-0.8112493792883805
0.54,2.180714063467597,-2.395631420602086,2.5215630972359224,-0.0537734000498512,0.0439624145635059,0.0451822016419586,-0.4235495118433866,0.4401339349919504,-0.2128367932600325,2.178596991379044,-2.397725571343696,2.5199898945165318,-0.639183152419886,0.6071844756029618,-0.3325891885353347,1.1156510937340087,-0.6543502118660643,0.732286294247611,-0.5293958315266828,9.65663347143436,-1.011345266918368,0.3071153346591644,-0.8044773053781769
0.56,2.1720798285952823,-2.386652454746146,2.517193037685921,-0.0563702428805581,0.0389032925646091,0.0457164424966849,-0.4393921015904188,0.4569148481196977,-0.2236350413966467,2.166413328339587,-2.3861818818405776,2.513706520915903,-0.6791831530159324,0.6471844761990082,-0.3571498665405532,1.2739592400403403,-0.7921294873516116,0.8390456563873661,-0.5399124068307087,9.637738230088871,-1.0156975877387149,0.3094216841672338,-0.7981823557726195
0.58,2.1630988158792466,-2.377326373459873,2.512604325569741,-0.0581188646074401,0.0355717708018764,0.046220977447774,-0.4579628355802812,0.4745898689320065,-0.234681831416422,2.1532296652852287,-2.3736381923225576,2.506809130365144,-0.7191831536119788,0.6871844767950547,-0.3817105445457717,1.3958063004754513,-0.9285366994931182,0.8837510406154409,-0.5523395009887646,9.642318117035757,-1.0187142796699296,0.310929363097337,-0.7939776940887195
0.6,2.154204001536486,-2.3681334971623857,2.50803612498199,-0.0587534347311706,0.0349107887507416,0.0466257808277164,-0.4770982479282328,0.492018594677708,-0.2455957822577781,2.1402006741002326,-2.3535968800132725,2.5008702339989197,-0.5579628370703973,0.5745898704221226,-0.3082321078746853,1.404491731741906,-0.9567706173975788,0.8714362872850712,-0.5456975420678064,9.62646593219688,-1.0211546546145107,0.3110432501506945,-0.7920897613923653
0.62,2.1444331603485844,-2.358049662664921,2.503155395875156,-0.0568395554897485,0.0376391190808725,0.0470258299136839,-0.4985263452461005,0.5150675846275187,-0.2409994768999761,2.1402006741002326,-2.3535968800132725,2.5008702339989197,-0.5579628370703973,0.5745898704221226,-0.3082321078746853,1.59024000964685,-1.0714048658933883,1.1524494974905346,0.2298152678900988,9.62646593219688,-1.0265220470422105,0.3093028009419167,-0.787671242066698
0.64,2.134268580499308,-2.347546833851506,2.49836737528097,-0.0523056696563785,0.0435661569822927,0.0474310082118972,-0.5163969806556732,0.533455520595508,-0.2382723707674637,2.1402006741002326,-2.3535968800132725,2.5008702339989197,-0.5579628370703973,0.5745898704221226,-0.3082321078746853,1.2892952599799772,-0.8935317704786311,0.9193967983994688,0.1363553066256184,10.655738558677513,-1.025570692654579,0.3076492207252767,-0.7885276700623145
0.66,2.1237837008712903,-2.3367185942256024,2.493578772894955,-0.0474768859270686,0.0511064674798497,0.0477910122609945,-0.5308584281139218,0.5484202672979656,-0.2406914940386386,2.1346210457295287,-2.347850981309051,2.4977879129201725,-0.5779628373684205,0.5945898707201458,-0.322942163166338,1.047531937290623,-0.7230723729124311,0.7482373351228755,-0.1209561635587455,10.356929129928176,-1.0213321843933238,0.3053852969255769,-0.7942884073644065
0.68,2.113585503821556,-2.326173731585364,2.4889430463048683,-0.0433678750317916,0.0587019047854924,0.0481000833747064,-0.541723907428176,0.5609254269207736,-0.2471623964367341,2.1234617889881204,-2.336359183900609,2.491623270762678,-0.6179628379644669,0.6345898713161923,-0.3523622737496434,0.8892556378315405,-0.5432739657127095,0.6252579811404035,-0.3235451199047709,10.051337423895347,-1.0151574123225144,0.3026353414244631,-0.8032606982529985
0.7000000000000001,2.102654770184313,-2.314828729077444,2.483894060261085,-0.0398151574810072,0.0663231137596621,0.0484054780182906,-0.5506171317934042,0.5730221565086495,-0.2575786548245157,2.1123025322467126,-2.3248673864921665,2.485458628605185,-0.6579628385605134,0.6745898719122387,-0.3817823843329487,0.9136721856518222,-0.4446612182614107,0.6048364793937944,-0.5208129193890798,9.80209956906674,-1.0079223675206812,0.2997998234398491,-0.8139840260102702
0.72,2.091568267906883,-2.30324793768865,2.478602985766273,-0.0370781569530223,0.0729889823808219,0.0487021977774942,-0.5575070015419727,0.5845614317234078,-0.2711534619609735,2.099143275475502,-2.3113755890539216,2.477822980918526,-0.6979628391565599,0.7145898725082852,-0.4112024949162541,0.9551185350863552,-0.3444934874284266,0.5769637607379141,-0.6787403568228934,9.601817424671935,-1.000727881970329,0.2973565251822346,-0.8244067766547656
0.74,2.0803614810254025,-2.2914405944175464,2.473018697502456,-0.035088359642288,0.0783389610423363,0.0489977703722073,-0.5628597378836138,0.5957609513037749,-0.2866172811554179,2.085984018704292,-2.2978837916156767,2.470187333231867,-0.7379628397526063,0.7545898731043317,-0.4406226054995595,0.9914770915818204,-0.2676368170820509,0.5599759790183567,-0.7731909597222197,9.444940189368026,-0.9944672405561586,0.2952346531706837,-0.8336731286863311
0.76,2.069621162848427,-2.2800093289801544,2.467415358154425,-0.0335048659112195,0.0822175623502302,0.0492961171493729,-0.5674501249776969,0.6069115129773647,-0.30244939113086,2.071824761918181,-2.283391994162531,2.461816182780625,-0.7779628403486527,0.794589873700378,-0.4700427160828648,0.9950658088595756,-0.2295193547041552,0.5575280836794871,-0.7916054987721022,9.31578415912918,-0.9884022996786774,0.2931353992068748,-0.8426588405871015
0.78,2.058224451731443,-2.267748668392586,2.461181326597629,-0.0318676554023856,0.0852531585135782,0.0496367152866331,-0.5719837339902802,0.618496645923039,-0.3201742443072777,2.0566655051171683,-2.267900196694484,2.4527095295648014,-0.8179628409446992,0.8345898742964245,-0.4994628266661701,1.082750359239712,-0.2266804506291686,0.5792566472837157,-0.8862426588208849,9.31578415912918,-0.983671201054248,0.291256364612312,-0.849699888560366
0.8,2.046738574382565,-2.2552583374449973,2.454583785886566,-0.0301621543983034,0.0874324954291679,0.0500007769806437,-0.576384565602506,0.6298622682530268,-0.3387299745383207,2.029625265031929,-2.236823836096434,2.4451726143822654,-0.6719837354803964,0.7184966474131551,-0.3909428315985184,1.110022313102679,-0.2200415806112854,0.5682811164993917,-0.9277865115521532,9.26676172077714,-0.97987113033987,0.2893815259458816,-0.8555301467086687
0.8200000000000001,2.0351770983797874,-2.242522384126411,2.4478557663118115,-0.027893310675161,0.0892137223237531,0.0504060688800278,-0.5794602326823932,0.6427335796909411,-0.3331200485143771,2.029625265031929,-2.236823836096434,2.4451726143822654,-0.6719837354803964,0.7184966474131551,-0.3909428315985184,0.7186822248257684,-0.1537833539943633,0.6435655718957156,0.2804963011971834,9.23110495243509,-0.9844084119827984,0.2876960356750171,-0.8520493959182805
0.84,2.0241469400789667,-2.2302135309126565,2.4415466650750526,-0.0257453398608139,0.0905757156188155,0.0507895372758102,-0.5815088982765159,0.6524484673627008,-0.331347605416678,2.029625265031929,-2.236823836096434,2.4451726143822654,-0.6719837354803964,0.7184966474131551,-0.3909428315985184,0.5042757869609409,-0.1024332797061322,0.4857443835879826,0.0886221548849514,10.631032393001988,-0.982791530186697,0.2871640505510641,-0.8529396953821494
0.86,2.012496071575269,-2.217065355033509,2.434895059144357,-0.0240741506265985,0.0913320769326717,0.0511578094637166,-0.5835352598421097,0.6619272513341373,-0.3341153143136502,2.022905427677125,-2.2296388696223026,2.4412631860662803,-0.6919837357784195,0.7384966477111783,-0.4050965490567665,0.5040181031224407,-0.101318078279694,0.4739391985718266,-0.1383854448486099,10.320653681861586,-0.9810577262258016,0.2866360681494465,-0.8543902766603727
0.88,2.000803324052816,-2.20373439151371,2.4281424482529377,-0.0231593781016491,0.091285297103735,0.0514801151057241,-0.5857491125236882,0.6707910322500733,-0.34098925576551,2.0094657529675173,-2.2152689366740392,2.4334443294343098,-0.731983736374466,0.7784966483072248,-0.4334039839732628,0.5716616720251566,-0.1106926340789238,0.4431890457967991,-0.3436970725929883,10.050653495448389,-0.9797926174294608,0.2863213361661476,-0.855631861547967
0.9,1.989651361996524,-2.190910438220492,2.4215722901692964,-0.0231403401873188,0.0905037608930101,0.0517332345199104,-0.5881018995213022,0.6787561568459144,-0.3502569978674765,1.9960260782579091,-2.2008990037257763,2.42562547280234,-0.7719837369705125,0.8184966489032712,-0.4617114188897591,0.6222335979195772,-0.1176393498806993,0.3982562297920544,-0.4633871050983257,9.689179685515228,-0.9792154993926654,0.2863839422259794,-0.8562918952675808
0.92,1.9778616116576384,-2.177251017371087,2.4144442275607427,-0.0242048320306261,0.088835059630843,0.0519350834119575,-0.5908175910598767,0.6868652968048097,-0.3621543885875351,1.980586403518499,-2.1845290707477107,2.416391244424545,-0.811983737566559,0.8584966494993177,-0.4900188538062554,0.7325998862806585,-0.1357845769287269,0.4054569979447642,-0.5948695360029288,9.689179685515228,-0.9798339308582472,0.2872869886889798,-0.855389246334941
0.94,1.966014288923568,-2.163426866163334,2.407070231185824,-0.026481624232036,0.0861853554019765,0.0520731376645539,-0.5938707177060703,0.6953109449631947,-0.3746584976296728,1.965146728779089,-2.1681591377696456,2.407157016046749,-0.8519837381626054,0.8984966500953642,-0.5183262887227517,0.7697455717160689,-0.1526563323096752,0.42228240791925,-0.6252054521068862,9.569562820623103,-0.98146103481331,0.2889501490863401,-0.8533054687239559
0.96,1.9540935544628244,-2.1494074196451303,2.3994447867448887,-0.0292475399951848,0.0826638791044378,0.0522038477235257,-0.5981706338197588,0.7062297488579015,-0.387252783970398,1.9487070540247773,-2.150789204776679,2.397215101796041,-0.8919837387586518,0.9384966506914104,-0.5466337236392479,0.860705532554542,-0.2149958056844259,0.5459401947353393,-0.629714317036259,9.544737810179868,-0.9836156593788816,0.2909773207600974,-0.8503438597870882
0.98,1.942674441456021,-2.1358710689140605,2.3919673270981736,-0.0314192171272079,0.078890802150682,0.0523771317569848,-0.6037234437080992,0.7179146207430049,-0.3992065724874103,1.9312673792555648,-2.132419271768811,2.386565501672421,-0.9319837393546982,0.978496651287457,-0.5749411585557441,0.8807141825484408,-0.2776404944170196,0.5842435942551738,-0.5976894258506144,9.546856358576406,-0.9866342731779616,0.2928601360134705,-0.8463238916237587
1.0,1.9305235096252005,-2.121377838511164,2.383848305315279,-0.0329663330527181,0.0749568688710653,0.052611882818923,-0.6112162437263113,0.7306796264402505,-0.4120726546902519,1.912488269270616,-2.09997533787691,2.372006998473803,-0.7037234451982153,0.8179146222331211,-0.438053810312804,0.9805910128768128,-0.3746400009106088,0.6382502848622795,-0.6433041101420789,9.546856358576406,-0.98979940063995,0.2941897127949822,-0.8422597734393898
1.02,1.918180744536492,-2.1065752894915,2.375707362060999,-0.032213618570964,0.0728468457446673,0.0529412168246985,-0.6227786543739467,0.7485381603888289,-0.4000880133956145,1.912488269270616,-2.09997533787691,2.372006998473803,-0.7037234451982153,0.8179146222331211,-0.438053810312804,1.2209097036003584,-0.5781205323817706,0.8929266974289196,0.5992320647318666,11.1488030610426,-0.996562471712027,0.2934367908776359,-0.835771674786244
1.04,1.906243720306808,-2.0922025872678014,2.368213232909896,-0.0287316033790733,0.0738755504740984,0.053336402510449,-0.6327839506159932,0.7629451648475659,-0.3894606948058842,1.912488269270616,-2.09997533787691,2.372006998473803,-0.7037234451982153,0.8179146222331211,-0.438053810312804,1.025436042341019,-0.5002648121023245,0.7203502229368497,0.5313659294865158,11.1488030610426,-0.9994936923598396,0.2929697724037011,-0.8304995644852793
1.06,1.8934982710025188,-2.0768231892935307,2.360500546915258,-0.0241197886250371,0.0768344204602394,0.0537565130773529,-0.6410013233410087,0.7740711548831568,-0.3825600555111638,1.905451034818634,-2.091796191654579,2.367626460370675,-0.7237234454962385,0.8379146225311442,-0.4458232578778827,0.7728707709729609,-0.4108686362507718,0.5562995017795447,0.3450319647360228,10.876887321615868,-0.9994702873496132,0.2914706226388655,-0.8293256450904198
1.08,1.880610118252896,-2.061247304371773,2.35287594610502,-0.0198435610261976,0.080622889128472,0.0541313363441145,-0.6472558249321915,0.7830488798471551,-0.3802258871276673,1.8913765659146695,-2.0754378992099167,2.358865384164419,-0.7637234460922849,0.8779146231271907,-0.4613621530080402,0.5593895729404967,-0.3127250795591396,0.4488862481999145,0.1167084191748213,10.58159132959372,-0.9978251218714425,0.2898919525640731,-0.8305355868540204
1.1,1.8676150060945813,-2.045504994411952,2.345259936865585,-0.0163007283991035,0.0844498944123558,0.0544532510583909,-0.6518791664590065,0.7908934018050637,-0.3814933622019271,1.8773020970107053,-2.059079606765254,2.350104307958163,-0.8037234466883314,0.9179146237232372,-0.4769010481381976,0.4596691872574027,-0.2311670763407491,0.3922260978954317,-0.0633737537129891,10.323212578607126,-0.9952576832818804,0.2881847995404799,-0.8333434923432218
1.12,1.855196552639197,-2.03041105821615,2.337973639249264,-0.0136915397987263,0.0876274909356494,0.0547104856481103,-0.6551022807694228,0.797719723262254,-0.3854263171853918,1.8612276280769389,-2.0407213142907894,2.340566286995399,-0.8437234472843779,0.9579146243192836,-0.4924399432683551,0.4256032935635797,-0.1611557155208165,0.3413160728595155,-0.1966477491732315,10.120131891997517,-0.9924774869029764,0.2866643774045542,-0.8366764438191931
1.14,1.84206842530102,-2.014386580851771,2.3302105362556818,-0.0117298464146331,0.0901612739282924,0.0549307596967702,-0.6575561439249543,0.8044988203020332,-0.3907291659859812,1.845153159143172,-2.0223630218163247,2.331028266032635,-0.8837234478804243,0.99791462491533,-0.5079788383985127,0.4474868893686473,-0.1226931577765766,0.3389548519889596,-0.2651424400294727,9.96393812306269,-0.9902027841792772,0.285381863687736,-0.8396789845786057
1.16,1.8288931409306015,-1.9982199122733864,2.322332758520526,-0.0102482115099233,0.0918086612486011,0.055118257485405,-0.6598979118471805,0.8117997049754401,-0.3967828564509781,1.8280786901945043,-2.003004729326959,2.321101772691617,-0.9237234484764708,1.0379146255113765,-0.52351773352867,0.4884515386963902,-0.1170883961113089,0.3650442336703419,-0.3026845232498437,9.904925270572676,-0.9884814189365052,0.2844664284652181,-0.8418739778349412
1.18,1.816332702126357,-1.9827253173135304,2.314731853398517,-0.0089579888784098,0.0927267253732066,0.0552844548431855,-0.6621728250026708,0.8187821890930015,-0.4030099263478652,1.8100042212309355,-1.982646436822692,2.310786806972345,-0.9637234490725172,1.0779146261074228,-0.5390566286588275,0.4814216286628036,-0.1137456577745166,0.3491242058780708,-0.3113534948443575,9.872121588708069,-0.987286463688272,0.2835539940999614,-0.8434777996897015
1.2,1.8030631525636864,-1.966274295909207,2.306597628194561,-0.0076268092730969,0.0931714163514483,0.0554503815220552,-0.6646940380147631,0.8258976194500315,-0.4101100063602287,1.783224060876223,-1.9417862078588808,2.294581357081124,-0.762172826492787,0.9187821905831176,-0.4377791820157901,0.5181626202266295,-0.1260606506046147,0.3557715178514997,-0.3550040006181726,9.847549128289756,-0.986542576219915,0.2826057810468098,-0.844607043335179
1.22,1.7897290355222226,-1.9496626198075329,2.298458566929722,-0.005626413647099,0.0939918481249497,0.0556476893233623,-0.6684235540801864,0.834537984397539,-0.4026894453728952,1.783224060876223,-1.9417862078588808,2.294581357081124,-0.762172826492787,0.9187821905831176,-0.4377791820157901,0.5992285079064228,-0.1864758032711633,0.4320182473753764,0.3710280493666756,9.817510671918171,-0.9882759187626242,0.2804649546582748,-0.8446329170559206
1.24,1.776336979737796,-1.932910909797806,2.290468857295598,-0.0033933688225373,0.095560122435993,0.055844876162677,-0.6705361062554361,0.8403416988432748,-0.3967345513540561,1.783224060876223,-1.9417862078588808,2.294581357081124,-0.762172826492787,0.9187821905831176,-0.4377791820157901,0.4289718546606535,-0.1056276087624874,0.2901857222867898,0.2977447009419542,10.741236731317258,-0.988591825994586,0.2803661086910358,-0.8428758737348854
1.26,1.7635856574054132,-1.916898305770148,2.282956760415837,-0.0018258725653569,0.0970031154385815,0.0559837568167963,-0.6716191460132269,0.8450464380524985,-0.3943051965230957,1.7756023326112953,-1.9325983859530491,2.290203565260966,-0.7821728267908101,0.9387821908811408,-0.4447330331493751,0.2702281954130275,-0.0541519878895391,0.2352369604611826,0.1214677415480203,10.539446253691494,-0.987924360699598,0.2802829667154591,-0.8425376727762395
1.28,1.750147814468881,-1.8999533054413364,2.2750727894588114,-0.0010260252759477,0.0980312063434555,0.0560611529201747,-0.67214427995689,0.8492837192260342,-0.3943339323472934,1.7603588760814397,-1.914222742141387,2.28144798162065,-0.8221728273868566,0.9787821914771871,-0.458640735416545,0.2134897137450637,-0.0262566971831523,0.2118640586767861,-0.0014367912098856,10.340937097691494,-0.9872662424930078,0.2804642469785933,-0.8424474509323832
1.3,1.7367031572521163,-1.8829295628700544,2.2671639763509543,-0.0014384625357433,0.0982742902811531,0.0560449467290373,-0.6724133882775508,0.8530481260417421,-0.396534504501328,1.7451154195515837,-1.8958470983297249,2.272692397980334,-0.8621728279829031,1.0187821920732336,-0.472548437683715,0.2184358931558039,-0.0134554160330424,0.1882203407853944,-0.1100286077017315,10.189566711382213,-0.9869258577766435,0.2811710852732147,-0.8421235154776261
1.32,1.72392611460347,-1.8666880272043824,2.259596844770149,-0.0031330869773909,0.0976673596109155,0.0559334836550971,-0.6726204795128999,0.8565693591062085,-0.399889500963693,1.7278719629919257,-1.87547145448826,2.26324142922666,-0.9021728285789496,1.05878219266928,-0.486456139950885,0.2434028057384061,-0.010354561767456,0.1760616532233194,-0.1677498231182489,10.077860896559288,-0.9872646700736578,0.2826754351393047,-0.8409999620157471
1.34,1.7104723130322337,-1.849510940096222,2.2515598157737093,-0.0062555682211497,0.0959860339769463,0.055725410155033,-0.6728341134136381,0.8614138857149294,-0.4036400736461744,1.7106285064322675,-1.8550958106467952,2.253790460472985,-0.942172829174996,1.0987821932653266,-0.500363842218055,0.3065202805391735,-0.010681695036907,0.2422263304360461,-0.1875286341240706,10.004928538856802,-0.9883954038654238,0.2849481204787681,-0.8389623128069467
1.36,1.6970067593719993,-1.832202884144721,2.243450806569669,-0.0095994721433073,0.0931704712278964,0.0555149609018542,-0.673829099992359,0.8690987729551486,-0.4070617213804689,1.6923850498577084,-1.8337201667904293,2.243991799162632,-0.9821728297710424,1.138782193861373,-0.5142715444852248,0.4235420976842834,-0.049749328936044,0.3842443620109603,-0.1710823867147243,9.992475225503767,-0.990769172583663,0.287795506016926,-0.8348410598622212
1.38,1.6835095509237124,-1.8147250822983485,2.2352777168287914,-0.0123360455676328,0.0894356726689959,0.055364260885151,-0.6759666529320771,0.8781023483566133,-0.4100607512305104,1.673141593268248,-1.8113445229191625,2.233845445295599,-1.0221728303670887,1.1787821944574193,-0.5281792467523948,0.4863838058092535,-0.1068776469859089,0.450178770073234,-0.1499514925020734,10.011054328282626,-0.9941002129236296,0.2903548036911343,-0.8294032876134491
1.4,1.670633749069773,-1.797948124335928,2.2274605448718465,-0.0141662149037458,0.0853379893226776,0.0552880954656722,-0.6793886015215794,0.8872274297892923,-0.4126327065193804,1.6497112182771083,-1.7708199648805178,2.214774679267266,-0.7759666544221933,0.9781023498467294,-0.4512569596777283,0.5039637817099709,-0.1710974294751144,0.4562540716339491,-0.1285977644435026,10.031321859552008,-0.9985814737519092,0.2928146979185138,-0.8221954080446391
1.42,1.6569477721223371,-1.780051472706994,2.21928790806486,-0.0137040275691248,0.082521396389035,0.0553524217795864,-0.6893004690337379,0.9014862329737908,-0.4038986781493623,1.6497112182771083,-1.7708199648805178,2.214774679267266,-0.7759666544221933,0.9781023498467294,-0.4512569596777283,0.9719077083256584,-0.4955933756079222,0.712940159224934,0.4367014185009066,10.042801286548638,-1.0031486139774075,0.2929434220330915,-0.8165323605783096
1.44,1.6430610433974655,-1.7618997342841192,2.2112874844498305,-0.0102785980364364,0.0831946068884941,0.0555643214578163,-0.6984068320303035,0.9125357557198708,-0.3966157492620563,1.6497112182771083,-1.7708199648805178,2.214774679267266,-0.7759666544221933,0.9781023498467294,-0.4512569596777283,0.8032105158657231,-0.4553181498282821,0.5524761373039921,0.3641464443653014,10.608279135163684,-1.0060101391206773,0.2925037635320465,-0.8117466545956585
1.46,1.6297232487447444,-1.744488540051934,2.2037860852993427,-0.0061373413430628,0.0857663780327957,0.0558014299209467,-0.7048960151611469,0.91955638809439,-0.3933581958797003,1.6419515517328866,-1.7610389413820506,2.2102621096704884,-0.7959666547202164,0.9981023501447526,-0.4594962013671719,0.5050010660450795,-0.3244591565421673,0.3510316187259554,0.1628776691178002,10.608279135163684,-1.0059358182071598,0.2909898818399283,-0.8109968043542628
1.48,1.6155727266204365,-1.726041495985187,2.1959222827398794,-0.0021486444860012,0.0893892632696821,0.0560197991708522,-0.7096561520556981,0.9248504082312358,-0.3933529749963641,1.6264322186444429,-1.741476894385116,2.201236970476934,-0.8359666553162629,1.0381023507407992,-0.4759746847460591,0.35596902857489,-0.2380068447275618,0.2647010068422939,0.0002610441668077,10.3619325000991,-1.0040024458338122,0.2889114793036065,-0.8134067817816069
1.5,1.601345537617353,-1.7074998628974896,2.1880251561187136,0.0010286127272924,0.0931074697237204,0.056182596605585,-0.7127400001876384,0.9291794635105108,-0.3964907857782845,1.6109128855559989,-1.7219148473881811,2.19221183128338,-0.8759666559123094,1.0781023513368455,-0.4924531681249462,0.3086126026875206,-0.1541924065970146,0.2164527639637481,-0.1568905390960218,10.15296612979182,-1.0011893663465548,0.2869588286459371,-0.8171240742084988
1.52,1.5877859362038402,-1.6898108608781173,2.180438801009392,0.0032092885296249,0.0961789990747166,0.0562772347951823,-0.714448479014006,0.9328100949876108,-0.4019123095078563,1.5933935524377527,-1.7003528003614443,2.182362767920881,-0.9159666565083558,1.118102351932892,-0.5089316515038335,0.3372436225229728,-0.0854239413183799,0.1815315738550094,-0.2710761864785888,9.98167911762812,-0.99836083776599,0.2853685068115445,-0.8209466296708285
1.54,1.573487384578801,-1.6711200249631846,2.1723285090046978,0.004634235273885,0.0985845457484696,0.0563091936073032,-0.7153369448466305,0.9361802825090574,-0.4088889398968089,1.5758742193195066,-1.6787907533347075,2.1725137045583818,-0.9559666571044024,1.1581023525289385,-0.5254101348827206,0.3899387998440009,-0.0444232916312237,0.1685093760723233,-0.3488315194476316,9.854035525196196,-0.9958022285517906,0.2839997539588396,-0.8246061812249811
1.56,1.559172612882295,-1.6523564676901477,2.164070361263143,0.0053355059857893,0.1000885743805024,0.0562800084494328,-0.7161351565412241,0.9400107371785308,-0.4166047202026574,1.557354886186359,-1.6562287062930694,2.1622526791114107,-0.9959666577004488,1.1981023531249848,-0.5418886182616077,0.4325586394131887,-0.0399105847296799,0.1915227334736702,-0.3857890152924231,9.789535146407616,-0.9938069818694744,0.2831221131520735,-0.8273874123154827
1.58,1.5448413831419654,-1.633513418921135,2.1556526856162783,0.0056258717539127,0.1008575606657034,0.0562110313488766,-0.7170029884879928,0.9440739186266552,-0.4247779850175069,1.5378355530383103,-1.6326666592365302,2.1515796915799674,-1.035966658296495,1.2381023537210312,-0.558367101640495,0.4584343832596732,-0.043391597338438,0.2031590724062171,-0.4086632407424739,9.756798997153965,-0.9925019059939648,0.2825223916737299,-0.829284134115717
1.6,1.5312088901994756,-1.6155351517137762,2.147501488621136,0.0056853729627566,0.1010632802935587,0.0561208934303167,-0.7179970057158379,0.9481337012368496,-0.4328352720027248,1.5089912337175655,-1.5863097229898029,2.134413786365403,-0.8170029899781089,1.0440739201167712,-0.4464883454402373,0.4538440774469,-0.0497008613922544,0.2029891305097175,-0.4028643492608952,9.737311073951789,-0.991625729422146,0.2820355762311853,-0.8306656442210946
1.62,1.5168288738675473,-1.596500499676669,2.1389142145795383,0.0065253749116438,0.1015751136399792,0.0560745457559781,-0.7197931381899715,0.9548751326443956,-0.4246214432220574,1.5089912337175655,-1.5863097229898029,2.134413786365403,-0.8170029899781089,1.0440739201167712,-0.4464883454402373,0.5388412858286884,-0.0898066237066785,0.3370715703773064,0.4106914390333671,9.72290194462039,-0.9922887370152488,0.2784667960182151,-0.8343739341619657
1.64,1.5024284897380606,-1.5773534696119489,2.130501598223457,0.0082898665729977,0.1027045430730983,0.0560881699968821,-0.7201172325275015,0.9595008238990552,-0.4171404449327576,1.5089912337175655,-1.5863097229898029,2.134413786365403,-0.8170029899781089,1.0440739201167712,-0.4464883454402373,0.4400778116639209,-0.0162047168765,0.2312845627329862,0.3740499144649939,10.780309931591546,-0.993008792807834,0.2789800545244502,-0.83173181547751
1.66,1.4880319398891886,-1.5581276188852486,2.122206651982657,0.0100694068249394,0.103689690768762,0.0560936751638907,-0.7195604422090005,0.9629167977964952,-0.4127198265277346,1.5008212038177846,-1.575868983788635,2.1299489029110004,-0.8370029902761321,1.0640739204147944,-0.4508304175247834,0.2807167621001428,0.0278395159250488,0.1707986948719986,0.2210309202511473,10.610817225902792,-0.9931438729918478,0.2791947342484871,-0.829946619942145
1.68,1.474370842183241,-1.539810339347565,2.114384162424002,0.0112946327645065,0.1040881616020474,0.0560537050240554,-0.7185657263789973,0.9651520030321464,-0.4109118468044876,1.4844811440182224,-1.5549875053862996,2.121019136002196,-0.8770029908721786,1.104073921010841,-0.4595145616938756,0.1521051668058412,0.0497357915001606,0.1117602617825508,0.0903989861623516,10.286270246483582,-0.9932667759778312,0.2792451020112701,-0.828661115173628
1.7,1.4600130339111883,-1.5204918182456175,2.1061686273729974,0.011640314762404,0.1036982869786046,0.0559295120360463,-0.7173460231543409,0.9666750697600676,-0.4108108874954282,1.4681410842186602,-1.534106026983964,2.112089369093391,-0.9170029914682252,1.1440739216068874,-0.4681987058629678,0.0976934106788162,0.0609851612328182,0.0761533363960675,0.00504796545297,10.180873918572615,-0.9937730156476832,0.2795724655031117,-0.8272027899186277
1.72,1.445680245300289,-1.5011475937391972,2.097941085734781,0.0106431223079916,0.1022723368877506,0.0556953142903721,-0.7160619243833274,0.967804355793738,-0.4119878976107634,1.4498010243892958,-1.5112245485518263,2.102725394976132,-0.9570029920642714,1.1840739222029335,-0.47688285003206,0.1037972712931688,0.0642049385506771,0.0564643016835231,-0.0588505057667609,10.110791269239598,-0.9949993304470476,0.2805137803875331,-0.8250316142109846
1.74,1.4313745195995364,-1.48178075716087,2.0896890802343715,0.0080623161095062,0.099513791557987,0.0553395376793948,-0.7147206639230681,0.9691514788802624,-0.4131326678024909,1.4314609645599312,-1.4883430701196887,2.0933614208588724,-0.997002992660318,1.2240739227989803,-0.4855669942011522,0.1109529069512091,0.0670630230129643,0.0673561543262146,-0.0572385095863742,10.110791269239598,-0.9971421168824122,0.2821314901947421,-0.8219058463306099
1.76,1.417799862133304,-1.4633290899035734,2.0818350222331827,0.0048864463713901,0.0955838322183207,0.0549526512475549,-0.7144020757639806,0.97315327285999,-0.4135376495987282,1.4121209047156655,-1.4644615916726498,2.083780343137386,-1.0370029932563642,1.2640739233950269,-0.4942511383702443,0.2017415656637101,0.0159294079543736,0.2000896989863776,-0.0202490898118662,10.11493142330528,-1.000819352199453,0.2848707623766313,-0.8160868504856379
1.78,1.4035021846218418,-1.4438057647519242,2.073566616266974,0.0018233202822366,0.0902951782275508,0.0545777035261932,-0.715642562581043,0.9789161306042556,-0.4132356424349387,1.3917808448564988,-1.4395801132107096,2.073982161811672,-1.0770029938524106,1.304073923991073,-0.5029352825393365,0.2951294006487962,-0.0620243408531173,0.2881428872132774,0.0151003581894765,10.14934593507951,-1.0059636657048532,0.2879714652868735,-0.8077710776169925
1.8,1.3891540543003822,-1.4241572247868608,2.065311934903214,-0.0005851606245996,0.0844406953940206,0.0542658459194564,-0.7193185386937834,0.985522495607028,-0.4122060261696356,1.3677200564927896,-1.3948599582217114,2.052904834145227,-0.8156425640711591,1.0789161320943716,-0.4080124082508524,0.3815002247216615,-0.1837988056370199,0.3303182501386226,0.0514808132651534,10.218997387786658,-1.0117083071240691,0.2905063992168366,-0.7989002043565022
1.82,1.3746609364519868,-1.4043169174214225,2.057203062603672,-0.0003682138921582,0.0804689016726516,0.0541436336208204,-0.7298166623550006,0.9972476522581896,-0.3987100342758561,1.3677200564927896,-1.3948599582217114,2.052904834145227,-0.8156425640711591,1.0789161320943716,-0.4080124082508524,1.0366191394353228,-0.5249061830608637,0.5862578325580792,0.6747995946889768,10.218997387786658,-1.0175585580696418,0.2901368616169746,-0.7925324436267098
1.84,1.3606933380238826,-1.3852846443631652,2.049750658111672,0.0025944025112022,0.0802634889008102,0.0542107207330682,-0.7394671731824586,1.0052658202593847,-0.3864354900775649,1.3677200564927896,-1.3948599582217114,2.052904834145227,-0.8156425640711591,1.0789161320943716,-0.4080124082508524,0.877621519508947,-0.4825255413728968,0.4009084000597573,0.6137272099145608,11.032473870351168,-1.0222426632487511,0.2900878803391934,-0.7853848110576449
1.86,1.3458206983524164,-1.365127508594447,2.042136505597711,0.0066846754092374,0.0824802982929989,0.0543505901185253,-0.7470249106384538,1.009878240834868,-0.3757280217556082,1.359563630852078,-1.3840707969007675,2.0488247100627186,-0.8356425643691823,1.0989161323923948,-0.4069677614140351,0.6947008292866071,-0.3778868727997597,0.2306210287741694,0.5353734160978313,10.911979329915994,-1.0236348260504229,0.2889762204033771,-0.7829231325408172
1.88,1.3308218931261473,-1.3449041635022576,2.034707051015004,0.0103012793098342,0.0858956678480873,0.0544678034677718,-0.752314661130764,1.0124096215433347,-0.36774144787039,1.343250779570655,-1.3624924742588802,2.040664461897701,-0.8756425649652287,1.1389161329884414,-0.4048784677404006,0.4954157622294186,-0.2644875246155087,0.1265690354233295,0.3993286942609114,10.745030449699698,-1.0230010613329852,0.2876920052094404,-0.7834779470879706
1.9,1.315738605984628,-1.3246408594639214,2.027414122121423,0.0130094200418632,0.0895472477492288,0.0545283066638818,-0.7556831357274232,1.0140517844150057,-0.3619494281328995,1.3269379282892315,-1.340914151616993,2.0325042137326843,-0.9156425655612752,1.1789161335844878,-0.402789174066766,0.3449304735918287,-0.1684237298329616,0.082108143583548,0.2896009868745275,10.582949079191168,-1.0214502484846228,0.2865241984262558,-0.7853748869706064
1.92,1.3013622178435156,-1.3053649488935422,2.0205772154968047,0.0146484348515299,0.0926157006806326,0.0545175244932924,-0.7574669391478065,1.0151282222616689,-0.3580142258426331,1.3086250769780063,-1.3173358289453032,2.024448430251349,-0.9556425661573216,1.218916134180534,-0.4006998803931315,0.2226347353043608,-0.0891901710191656,0.0538218923331501,0.1967601145133168,10.45491478288386,-1.0197655062635067,0.285806990644863,-0.7873781354009215
1.94,1.2862042202002553,-1.2850570811124993,2.013454791819141,0.0152502516504101,0.0950049403365843,0.0544150256016441,-0.7582595410074604,1.0157138071344305,-0.3544577888896764,1.2903122256667807,-1.2937575062736135,2.0163926467700137,-0.9956425667533682,1.2589161347765807,-0.398610586719497,0.1845221609420554,-0.0396300929826953,0.0292792436380917,0.1778218476478354,10.363003720395682,-1.0185785024454708,0.2856729929054959,-0.7886911767918052
1.96,1.271033343624632,-1.2647317238001212,2.006401347481138,0.0147374408023568,0.0964202936140466,0.0542181207352958,-0.7588654382797694,1.0168614680073775,-0.351061526369492,1.270999374340654,-1.2691791835870223,2.0083890956305197,-1.0356425673494143,1.298916135372627,-0.3965212930458625,0.1817885866184547,-0.0302948636154487,0.0573830436473521,0.1698131260092189,10.334044346274824,-1.0180565100552632,0.2862855500265324,-0.7888380368796294
1.98,1.2566092491597407,-1.2453951872706504,1.9997651646497068,0.0135131773083421,0.0970126714427598,0.05396753636585,-0.7594968759226419,1.0185341458962476,-0.3476506187038403,1.2506865229996262,-1.2436008608855305,2.0004377768328654,-1.0756425679454609,1.3389161359686734,-0.3944319993722279,0.1925542515783074,-0.0315718821436272,0.0836338944435022,0.1705453832825859,10.328957426733725,-1.0182867408017495,0.2875449312275299,-0.7877496771492862
2.0,1.2414109124254702,-1.224999770370062,1.9928526071969628,0.0116761390331533,0.0969978763776755,0.0536578082158345,-0.7603640077959651,1.0209626197723678,-0.3437668281404956,1.218634405363609,-1.194468479975838,1.9823826337145147,-0.859496877412758,1.1185341473863637,-0.3383952895568591,0.2330945741145489,-0.0433565936661606,0.1214236938060109,0.1941895281672379,10.356427259358496,-1.019225809236071,0.2893283472088326,-0.7854843203125802
2.02,1.2261648798302236,-1.2045047439944618,1.9860460378458855,0.010931404742946,0.0973436293487469,0.0534294935509234,-0.7640981631297898,1.0281008627307056,-0.3369359816510108,1.218634405363609,-1.194468479975838,1.9823826337145147,-0.859496877412758,1.1185341473863637,-0.3383952895568591,0.5281072153272874,-0.1867077666912353,0.3569121479168879,0.3415423244742394,10.548499663414988,-1.02041387659472,0.2905598624727312,-0.7830610394332497
2.04,1.2108602960938384,-1.1838891942013552,1.9793797207529724,0.0118663989091182,0.0984944287684815,0.0533260357100779,-0.7661118878332287,1.0330720047912978,-0.3300467045248783,1.218634405363609,-1.194468479975838,1.9823826337145147,-0.859496877412758,1.1185341473863637,-0.3383952895568591,0.4365474770528434,-0.1006862351719428,0.2485571030296118,0.3444638563066232,10.548499663414988,-1.021675073775865,0.2911794738432948,-0.7804961553879965
2.06,1.1962950957496716,-1.16422298472509,1.973165902498372,0.0133914488713268,0.0995662491794777,0.0532705765113018,-0.7669852024612994,1.0368250566168673,-0.3243788584402521,1.210039436589481,-1.1832831385019744,1.978998680818946,-0.8794968777107812,1.1385341476843869,-0.3365442237274628,0.3426826362832882,-0.043665731403536,0.1876525912784754,0.2833923042313113,10.521629969723108,-1.0224229320613007,0.2913978561298501,-0.7784751942186298
2.08,1.1809531893010543,-1.1434564323582277,1.966733263853404,0.0151727627226229,0.100237640065027,0.0532165267402952,-0.7671944030735787,1.0396466638491888,-0.3192152377675843,1.192849499041226,-1.1609124555542472,1.972230775027809,-0.9194968783068276,1.1785341482804337,-0.3328420920686704,0.2943985849187677,-0.0104600306139623,0.1410803616160749,0.2581810336333895,10.461291596350748,-1.0231859022544103,0.291300035237456,-0.7766263381811234
2.1,1.1656110126453745,-1.1226446755427246,1.9603961949299964,0.0166404450102962,0.1001805462669619,0.0531270022925298,-0.767092704368991,1.0414288380178574,-0.3147730547290365,1.1756595614929708,-1.13854177260652,1.965462869236672,-0.9594968789028742,1.2185341488764798,-0.3291399604098778,0.2393714558063794,0.0050849352293824,0.0891087084334274,0.222109151927391,10.410382379947803,-1.0242564546320052,0.2912317352374902,-0.7744596094260633
2.12,1.1502728667304527,-1.1018084186830075,1.9541427840043544,0.0173069837219934,0.0992336256500881,0.0529644856766605,-0.7668374083478164,1.0422588286488397,-0.3107770871796199,1.1564696239149133,-1.1141710896289905,1.9588800700284743,-0.9994968794989206,1.2585341494725262,-0.3254378287510853,0.2044615927377081,0.0127648010587289,0.0414995315491162,0.1997983774708278,10.36797545391255,-1.0258384365714577,0.2914298279846153,-0.7717747271996497
2.14,1.1357069223905356,-1.082004699286371,1.9482766106540048,0.0168419408362987,0.0973446064437918,0.0527166998037345,-0.7665368999260843,1.0424719427472446,-0.306900986791518,1.1372796863368555,-1.0898004066514606,1.9522972708202768,-1.039496880094967,1.2985341500685728,-0.3217356970922929,0.1946784345344549,0.0150254210866063,0.0106557049202482,0.1938050194050938,10.342885946517526,-1.028344527469976,0.2922606389162599,-0.7677620675163707
2.16,1.1203729780176346,-1.0611459268859833,1.942186191585623,0.0152382306291199,0.0942736095466236,0.0523659518396027,-0.7669989489239613,1.0434674703370663,-0.3023078733845516,1.117089748743897,-1.06442972365903,1.945807024903549,-1.0794968806910137,1.3385341506646191,-0.3180335654335003,0.2361210242004647,-0.023102449893847,0.0497763794910954,0.2296556703483221,10.344984926201503,-1.0318443313546906,0.2940094235569588,-0.7619555151458514
2.18,1.1050173489351622,-1.0402563212576916,1.9361961328193549,0.0128769494487615,0.0903154853187683,0.0519618275928084,-0.7686975045039366,1.0455849341374683,-0.2968771017214274,1.0958998111360374,-1.038059040651698,1.939409332278291,-1.1194968812870598,1.3785341512606657,-0.3143314337747079,0.3035705225366519,-0.0849277789987668,0.1058731900200893,0.2715385831562111,10.369777544624412,-1.0363565564836117,0.2964260792628266,-0.7544292124281445
2.2,1.0896107057497608,-1.0193054395678205,1.9303245963001925,0.010456584645109,0.0858393785227417,0.0515645546757012,-0.7720508897208941,1.0493931945925663,-0.2904965573552475,1.0665824737099654,-0.9879770745508182,1.9213522777332832,-0.8382294220759581,1.1455849356275845,-0.2964347193075334,0.4076131331175551,-0.1676692608478747,0.1904130227549094,0.3190272183089954,10.410469773258228,-1.0414511993050326,0.299096372252902,-0.7457691608729621
2.22,1.0747894897070371,-0.9992754037135442,1.9248595343026755,0.0102341303273625,0.0848156661397834,0.0513763573500358,-0.7878853946165,1.0583490536878215,-0.2851374643119649,1.0665824737099654,-0.9879770745508182,1.9213522777332832,-0.8382294220759581,1.1455849356275845,-0.2964347193075334,0.948233668023852,-0.7917252447802947,0.447792954762749,0.2679546521641263,10.4929154114634,-1.0436933218458682,0.3025987286959687,-0.7382579279127357
2.24,1.058894522282355,-0.978041349294332,1.9192141510927787,0.0128133915233582,0.090078020580385,0.0514463898965451,-0.7999649249764372,1.064437364233244,-0.2796720541074142,1.0665824737099654,-0.9879770745508182,1.9213522777332832,-0.8382294220759581,1.1455849356275845,-0.2964347193075334,0.7294746186779861,-0.6039765179968626,0.3044155272711291,0.2732705102275384,10.4929154114634,-1.043258809689363,0.3000791220142906,-0.7420765158093545
2.26,1.0428172188011589,-0.9567166409353504,1.913658233665955,0.0164187771512658,0.0987635980692153,0.0516537190918863,-0.8066342886687833,1.06755919363351,-0.276204255279229,1.0582001794892058,-0.9765212251945424,1.918387930540208,-0.8521358055903624,1.1655849359256076,-0.2963462428247547,0.4069762265105634,-0.3334681846173026,0.1560914700132976,0.1733899414092576,10.422664812564108,-1.038432958830214,0.2976566602612908,-0.7503688180055573
2.28,1.0266513196460008,-0.9353546538977308,1.9081475084670088,0.0196574581824211,0.108997962984798,0.0518931624750696,-0.8092145376701413,1.068675479086799,-0.2750630739360821,1.041435591047687,-0.9536095264819908,1.912459236154057,-0.8799485726191709,1.2055849365216542,-0.2961692898591971,0.1517075556801642,-0.1290124500679002,0.055814272664445,0.0570590671573473,10.281286530756915,-1.0312806017458664,0.2952603540594303,-0.7613190567502893
2.3000000000000003,1.0112857391376648,-0.9150485138699296,1.9029140047491284,0.0219391436082838,0.1189556885140756,0.0520968704310872,-0.8078732317416654,1.0690048949573303,-0.2759152520707318,1.0246710026061674,-0.930697827769439,1.9065305417679064,-0.9077613396479796,1.2455849371177006,-0.2959923368936395,0.0811453015075089,0.0670652964237961,0.0164707935265795,-0.0426089067324858,10.15115970559873,-1.022773646825546,0.2930574442961424,-0.7736872662963553
2.32,0.9951768734320048,-0.8936704988185997,1.897372311633657,0.0233603586255889,0.1285854717030262,0.0522432231687424,-0.8029044047665889,1.0689125034974156,-0.2782987899036096,1.0065157758132075,-0.905786129027085,1.9006106950300337,-0.9355741066767882,1.285584937713747,-0.2958153839280819,0.2755858772273761,0.248441348753825,-0.0046195729957454,-0.1191768916438906,10.049361870022947,-1.01407829772488,0.291435789742836,-0.7855706293617665
2.34,0.9792003839493336,-0.872299672868464,1.8917699753559,0.0235036474043766,0.1364607952740046,0.0522672566216629,-0.795036141957834,1.0683735065499231,-0.2818425039475902,0.9883605490202482,-0.8808744302847309,1.894690848292161,-0.9633868737055968,1.3255849383097935,-0.2956384309625243,0.4323135047698204,0.3934131404377428,-0.0269498473746243,-0.1771857021990286,9.984064436291192,-1.0063469626606016,0.2906754601323266,-0.7954285121749421
2.36,0.9641849008748014,-0.8519988396184952,1.886379269810918,0.0225754436099398,0.1419887652135354,0.0521685224313037,-0.7860261819978447,1.068634300918496,-0.2854404074959624,0.9695100030515684,-0.8549627315274758,1.8887754253784272,-0.9911996407344054,1.36558493890584,-0.2954614779969668,0.4852635936444215,0.4504979979994661,0.0130397184286423,-0.1798951774186097,9.951790217285634,-0.9993483780457626,0.290737038788829,-0.8036594938752418
2.38,0.9485732171892745,-0.8306163524095277,1.880633438393101,0.0207969323461414,0.145765072136906,0.0519585754226479,-0.775688113837676,1.0696500240546398,-0.2889419408976051,0.9499641379071684,-0.8280510327553195,1.8828644262888323,-1.019012407763214,1.4055849395018862,-0.2952845250314092,0.5481060183404565,0.5169034080084345,0.0507861568071921,-0.1750766700821387,9.951790217285634,-0.9942588957133488,0.2917232247763866,-0.8088906277088436
2.4,0.9331731664759207,-0.8092019421024865,1.874824649579155,0.0185473695137466,0.1475865704674464,0.0516731960348222,-0.7649537423603359,1.0718578006207349,-0.2917245783182947,0.9097888114973904,-0.7771338512067957,1.8661863413482207,-0.7907722305573391,1.1535935326200657,-0.2823399292766068,0.5653407808445137,0.5367185738670066,0.1103888283047527,-0.1391318710344785,9.981931715749852,-0.9913317698001642,0.2933199969751242,-0.8111065004382807
2.42,0.9179012142617936,-0.7876230309677758,1.8689811496997624,0.0199424233541862,0.1502884609660787,0.0516592557897803,-0.7624800613268086,1.084955802818416,-0.2924310448558867,0.9097888114973904,-0.7771338512067957,1.8661863413482207,-0.7907722305573391,1.1535935326200657,-0.2823399292766068,0.6674126429631553,0.1236840516763648,0.654900109884049,-0.0353233268795993,10.1590626957086,-0.9882078402082912,0.2944480389951324,-0.8121269106553117
2.44,0.9034648684840496,-0.7669438802769222,1.8634214683348345,0.0257484569335392,0.1555470106062129,0.052026510687824,-0.7568288528015035,1.0902574055893148,-0.2928107471717792,0.9097888114973904,-0.7771338512067957,1.8661863413482207,-0.7907722305573391,1.1535935326200657,-0.2823399292766068,0.3879024477416285,0.2825604262652548,0.2650801385449486,-0.018985115794623,10.1590626957086,-0.9842363247026396,0.2908468346934762,-0.8174895627402929
2.46,0.8884196056873843,-0.7451326411966775,1.8575491023010489,0.0325627555376062,0.1624293630545196,0.0525308328492375,-0.7476854957783793,1.0905008439757933,-0.2944988026296399,0.9018810891918172,-0.765597915880595,1.8633629420554547,-0.7937890539012717,1.170382234333151,-0.2810195269524071,0.4650531451596129,0.4571678511562094,0.0121719193239222,-0.0844027728930385,10.152444159786684,-0.9771207394509652,0.2858815151141752,-0.8269422782006886
2.48,0.8735843658457839,-0.7233473018622854,1.851627786533628,0.0386037261105148,0.1698507408831663,0.0530385384820629,-0.7360508825261832,1.0881422308953037,-0.2976328141894326,0.8860656445806704,-0.7425260452281938,1.8577161434699223,-0.7998227005891371,1.2039596377593211,-0.2783787223040077,0.6139000522246005,0.5817306626098029,-0.1179306540244784,-0.1567005779896352,10.02853532910649,-0.9688562605527528,0.2811842390204965,-0.8375051743514548
2.5,0.859004920191976,-0.7016261025949464,1.845631862176735,0.0433456751829424,0.1773250724242414,0.0534915371254715,-0.7222713126635454,1.084414034280306,-0.3018349020472008,0.8702501999695236,-0.7194541745757924,1.8520693448843903,-0.8058563472770023,1.2375370411854916,-0.2757379176556084,0.744032153142256,0.6889784931318921,-0.1864098307498896,-0.2101043928884077,10.02853532910649,-0.9593326231662332,0.276789395988061,-0.8491787903863244
2.52,0.8454403938128651,-0.6810662516492256,1.839852087077444,0.0466198917940315,0.1838268326736819,0.0538313279953617,-0.7062344452791389,1.0802684825907998,-0.3063714743643121,0.8541330730239836,-0.6947034337520825,1.8465545865312785,-0.8118899939648675,1.271114444611662,-0.273097113007209,0.8587013489912945,0.8018433692203231,-0.2072775844753072,-0.2268286158555649,9.997300703321343,-0.9499152321244084,0.2731313796896046,-0.860317488209522
2.54,0.8315154068763854,-0.6595110097962441,1.833674155536605,0.0488830639780786,0.1892927875077762,0.054052963771501,-0.6870849680859454,1.0756923811795258,-0.3111834953753267,0.8380159460784434,-0.6699526929283727,1.841039828178166,-0.8179236406527328,1.3046918480378322,-0.2704563083588097,1.0134085147527463,0.9574738596596744,-0.2288050705636979,-0.2406010505507289,9.994541284737352,-0.9413414670649828,0.2705512679402123,-0.8697247200195457
2.56,0.8179936354422442,-0.6380429925815214,1.827406235163035,0.0502318687092777,0.1928693895435033,0.0541200985063998,-0.6662092981037359,1.0714167032859525,-0.315371009843607,0.8217479779657068,-0.6443625170190086,1.835591089941264,-0.823957287340598,1.3382692514640029,-0.2678155037104103,1.0858295170948504,1.0437834991104789,-0.2137838946786652,-0.2093757234140153,10.074418354179215,-0.9347468453076986,0.2690395767863174,-0.876330823812196
2.58,0.8055449848091976,-0.6177284440617229,1.8213834032804976,0.0508448026579469,0.1943549180713497,0.0540379456063894,-0.6453998531242328,1.0672133954727607,-0.3183934880244786,0.8053291686857735,-0.6179329060239903,1.8302083718205715,-0.8299909340284634,1.3718466548901729,-0.2651746990620109,1.0721895486354676,1.040472248975155,-0.210165390659589,-0.1511239090435823,10.074418354179215,-0.9297474812368972,0.2683215739434255,-0.8806531381522259
2.6,0.792873574415362,-0.5964325786801924,1.8149927410150564,0.0507677209883893,0.1938333865098771,0.053790144770777,-0.6228971319187409,1.0626307656564986,-0.3204510159660562,0.7732749921529859,-0.5643677742880848,1.8054637288792736,-0.6776079493602233,1.0868277585619646,-0.288708126713639,1.152829539562725,1.1251360602745952,-0.2291314908131059,-0.102876397078877,10.144817510610665,-0.92705322026713,0.2684187149106637,-0.8821995360611901
2.62,0.7806649850294738,-0.5749998095452133,1.808536279741958,0.0571963251017163,0.1900367821998164,0.0538117544606286,-0.5991039223569975,1.077312691878694,-0.325374407925167,0.7732749921529859,-0.5643677742880848,1.8054637288792736,-0.6776079493602233,1.0868277585619646,-0.288708126713639,1.4194326042701526,1.1896604780871678,0.7340963111097665,-0.2461695979555395,10.218238987251423,-0.9291770942103628,0.2669842877032323,-0.8765236992798917
2.64,0.7689241141976191,-0.5534576536660377,1.80199017621044,0.0699936439390454,0.1822048455655937,0.0539498690365598,-0.5767438018920434,1.075254090238395,-0.3288215508203543,0.7732749921529859,-0.5643677742880848,1.8054637288792736,-0.6776079493602233,1.0868277585619646,-0.288708126713639,1.1358869024473128,1.118006023247703,-0.1029300820149625,-0.1723571447593663,9.993073931515935,-0.93338473472173,0.2592350921990096,-0.8717458915746047
