t,x,y,z,roll,pitch,yaw,v_x,v_y,v_z,ref_x,ref_y,ref_z,ref_v_x,ref_v_y,ref_v_z,a_com,a_x,a_y,a_z,thrust,wind_x,wind_y,wind_z
0.0,1.5140465522843831,1.9906848522083336,2.479208285193678,0.0248806720128211,0.0998453969748135,0.0424666091148611,0.0038986976284527,-0.0058500129939852,0.0120356843439152,1.5141654653886925,1.9904730597632927,2.479571129483687,-0.0960519643993238,-0.1067495788415105,-0.0879203149859693,0.6969221492646543,0.1949348814226359,-0.292500649699261,0.6017842171957637,10.2460697303477,-0.9433656175875722,0.2600752661966392,-0.8725623255832621
0.02,1.514280150266526,1.9908704151190548,2.4792118695957304,0.031940768678485,0.0935294949283907,0.042767181613219,0.0180964396560832,0.0186316365379158,-0.0117658082430334,1.5141654653886925,1.9904730597632927,2.479571129483687,-0.0960519643993238,-0.1067495788415105,-0.0879203149859693,1.8489443554718967,0.709887101381527,1.224082476595053,-1.1900746293474382,10.245498289757052,-0.9513097261217462,0.2600883244541426,-0.8590433737729545
0.04,1.5147168785583192,1.991268356334676,2.4787015884047925,0.045374810144612,0.0779794652233016,0.0430482285325219,0.0258434448587091,0.0213897828351486,-0.0406730150930202,1.5141654653886925,1.9904730597632927,2.479571129483687,-0.0960519643993238,-0.1067495788415105,-0.0879203149859693,1.5027059496740998,0.3873502601312943,0.1379073148616391,-1.44536034249934,8.567936465781258,-0.9512242581624116,0.245558476567501,-0.8645438644877451
0.06,1.5152279572232257,1.991659546358271,2.477566839137511,0.0600589855790134,0.0556532453017842,0.0427787254916194,0.0238188139131687,0.0171753800653195,-0.0712792253497379,1.5132049457446992,1.9894055639748776,2.478691926333827,-0.1160519646973471,-0.1267495791395338,-0.1079203152839926,1.54806365134835,-0.1012315472770216,-0.210720138491452,-1.530310512835885,8.567936465781258,-0.9586957946659472,0.2277809521985219,-0.8655758707720742
0.08,1.5155940897879407,1.9919233719556628,2.475827752761649,0.0742106608076757,0.0312535460688693,0.0419443911356878,0.0121605437214125,0.0090694029786267,-0.1011122831157417,1.5112839064567127,1.9872705723980475,2.476933520034108,-0.1560519652933935,-0.1667495797355802,-0.147920315880039,1.651993843862394,-0.5829135095878082,-0.4052988543346422,-1.4916528883001898,8.565149775814007,-0.9708614606958308,0.2080260266460295,-0.8644652966995254
0.1,1.5156361666858913,1.991990974337701,2.473500809435684,0.087701271781252,0.0078739817224563,0.0407412909561269,-0.0076907797092382,-0.0022155705241118,-0.1301782776538199,1.5093628671687265,1.9851355808212168,2.4751751137343883,-0.19605196588944,-0.2067495803316267,-0.1879203164760855,1.8481461707569329,-0.992566171532538,-0.564248675136929,-1.453299726903908,8.716561684059798,-0.9849377549308792,0.1893393742619172,-0.8609582750927977
0.12,1.5152462005556009,1.9918183854597864,2.4707572544556053,0.099922007290297,-0.0116120452802378,0.0394668276781517,-0.0324248722035206,-0.0156414719142767,-0.1572368092691844,1.5054418278509374,1.9810005892145848,2.4714167074048667,-0.2360519664854864,-0.2467495809276731,-0.2279203170721319,1.952046549671543,-1.2367046247141218,-0.6712950695082432,-1.3529265807682254,8.716561684059798,-0.9995637199521514,0.1690345923749763,-0.8585541910013471
0.14,1.514284910509157,1.991334562413166,2.4673072615277216,0.1121839989560945,-0.0283390786126728,0.038177398902064,-0.0624815202313989,-0.032318417292761,-0.1864168098368492,1.5015207885331483,1.976865597607952,2.467658301075345,-0.2760519670815329,-0.2867495815237196,-0.2679203176681785,2.2544373083752123,-1.5028324013939145,-0.8338472689242193,-1.4590000283832394,8.80529479631332,-1.0122425679731528,0.1482096949826665,-0.8592062193945752
0.16,1.512682465521046,1.9904902505550504,2.4632709173728653,0.123845459448074,-0.04060801821242,0.0371236618465946,-0.0959897699988154,-0.0515344660048448,-0.2157915218813569,1.4965997492004586,1.9717306059864184,2.462899894730922,-0.3160519676775793,-0.326749582119766,-0.3079203182642249,2.4263826152724186,-1.6754124883708272,-0.9608024356041868,-1.468735602225382,8.821689342029458,-1.0220185024115058,0.1297062018144251,-0.8609930153883764
0.18,1.5103838942226908,1.989236264444597,2.4586483919637305,0.1349185733674037,-0.0480693893463755,0.0364737623435113,-0.1320839346598636,-0.0731466799960645,-0.2450387338420162,1.4906787098528675,1.9655956143499835,2.457141488371598,-0.3560519682736258,-0.3667495827158125,-0.3479203188602713,2.5618723249085136,-1.8047082330524071,-1.0806106995609843,-1.4623605980329648,8.934462050161528,-1.028872876751009,0.1123261906519006,-0.8643980110850152
0.2,1.5075128971073182,1.9876150833922952,2.4537160796782183,0.1446509761365602,-0.0501225035812769,0.0364065634267916,-0.1677894984086343,-0.0964404202085328,-0.2726344746448966,1.4847576705052763,1.9594606227135487,2.4513830820122737,-0.3960519688696722,-0.4067495833118589,-0.3879203194563178,2.5391979669588864,-1.7852781874385368,-1.1646870106234164,-1.379787040144023,8.934462050161528,-1.0331612491490367,0.0949448818813553,-0.8713549022428513
0.22,1.5037372258863526,1.9852503730718056,2.4480655356587127,0.1494572671925316,-0.046209025740502,0.0368184415555267,-0.2073527221611995,-0.1368497481085753,-0.2898375813635723,1.5037796974896975,1.9855789304447933,2.4463964552716297,-0.2320839361499797,-0.1731466814861806,-0.3450387353321323,2.955549583327454,-1.9781611876282603,-2.0204663950021238,-0.8601553359337821,8.986623579430216,-1.0377862702260354,0.0829661401022192,-0.8765198811341076
0.24,1.499218326983074,1.9821445812605256,2.44210860758933,0.1479990714073084,-0.036776388142943,0.0376107148346924,-0.2418555430794595,-0.1711429109338158,-0.3049364356511052,1.5037796974896975,1.9855789304447933,2.4463964552716297,-0.2320839361499797,-0.1731466814861806,-0.3450387353321323,2.5467828081091475,-1.725141045912998,-1.7146581412620252,-0.7549427143766468,9.8689741747271,-1.0367273771720606,0.0813872810478311,-0.8813056087629895
0.26,1.49406622301206,1.9783995724045744,2.435837218893918,0.1431418125608652,-0.0243404140240444,0.0385645517807645,-0.2710848343299227,-0.2006777827062194,-0.3212292457832227,1.5037796974896975,1.9855789304447933,2.4463964552716297,-0.2320839361499797,-0.1731466814861806,-0.3450387353321323,2.231656212109045,-1.4614645625231613,-1.4767435886201787,-0.8146405066058737,9.759651711058725,-1.0311276880757536,0.0821349510684733,-0.8911165100587614
0.28,1.488678292060187,1.9743427268619231,2.429563987356837,0.1375426215356427,-0.0114324604903239,0.0394844402377548,-0.2942465698431077,-0.2246205776031918,-0.3382358073568162,1.5014588581281978,1.983847463629932,2.4429460679183084,-0.252083936448003,-0.1931466817842038,-0.3650387356301555,1.8701246990626383,-1.1580867756592506,-1.19713974484862,-0.8503280786796741,9.600686176897398,-1.0231006399926978,0.084631397225201,-0.902593121566954
0.3,1.4825767093634177,1.9696131613742465,2.422592027868724,0.1317248392268218,0.0019918074579314,0.0403485154972016,-0.3143557607996199,-0.2469654041835639,-0.3581796806773143,1.496817179405198,1.980384530000208,2.436045293211666,-0.2920839370440494,-0.2331466823802503,-0.4050387362262019,1.8037661425864315,-1.0054595478256072,-1.117241329018609,-0.9971936660249064,9.450038603162284,-1.0134843207085964,0.0867223353582801,-0.9159275187867032
0.32,1.4761129196952587,1.9644580620066,2.4151959582069145,0.1264280213521844,0.0143026887045144,0.0410208658585648,-0.3308526256944428,-0.267438867743462,-0.3804571083642958,1.4921755006821986,1.9769215963704845,2.4291445185050238,-0.3320839376400958,-0.2731466829762967,-0.4450387368222484,1.7230735952399168,-0.8248432447411469,-1.0236731779949035,-1.1138713843490744,9.302047205292183,-1.0028384200563236,0.0878887635739446,-0.9305744035150892
0.34,1.4693500375898991,1.9589083859026528,2.407338819205461,0.1217716359630964,0.0249555138699272,0.0414618121597565,-0.3445364722084122,-0.2865654263051479,-0.404189259096573,1.4855338219293968,1.9714586627109585,2.4202437437685784,-0.3720839382361423,-0.3131466835723431,-0.4850387374182948,1.6705447286820834,-0.6841923256984683,-0.956327928084294,-1.1866075366138622,9.103454765518109,-0.9932353632060454,0.0886551602420743,-0.9435030227993458
0.36,1.4626883330641545,1.9532836899736927,2.3994226071546247,0.1177106457117885,0.0334328624582931,0.0416577416090946,-0.3559754494582967,-0.304452912992182,-0.4279280673626454,1.478892143176595,1.9659957290514325,2.411342969032133,-0.4120839388321888,-0.3531466841683897,-0.5250387380143413,1.5924379096180965,-0.5719488624942232,-0.8943743343517052,-1.1869404133036163,9.103454765518109,-0.98364878580019,0.0887538743054587,-0.956757908266196
0.38,1.455453560295454,1.9470038334231137,2.390590533700664,0.1136089146646549,0.0407894394842356,0.0416512170944891,-0.3668424665511106,-0.322484225815259,-0.4540964249389363,1.4712504644088915,1.9595327953770052,2.4014421942807878,-0.4520839394282352,-0.3931466847644361,-0.5650387386103877,1.6792879747528393,-0.5433508546406951,-0.9015656411538508,-1.3084178788145495,9.05059220273506,-0.9750675023526736,0.0886449596059746,-0.9688788954791976
0.4,1.4480109286243386,1.9403708711995424,2.381224868709707,0.1096142788774196,0.0467404129130128,0.0414589641552497,-0.3768420463488156,-0.3397917196867487,-0.4812056489746478,1.4626087856262877,1.9520698616876773,2.39054141951454,-0.4920839400242817,-0.4331466853604825,-0.6050387392064341,1.684080586002878,-0.4999789898852524,-0.865374693574486,-1.355461201785571,8.995025409162736,-0.967595213240699,0.0884343043702249,-0.9797976959526024
0.42,1.4404073839767944,1.93339420165546,2.371538908574048,0.1062595524344714,0.0508001671647779,0.0410794584844755,-0.3832058738658351,-0.3572807582059482,-0.4860930983560755,1.4371114369678986,1.9308796221323508,2.367885712453717,-0.4668424680412267,-0.4224842273053751,-0.5540964264290524,0.9620965783751078,-0.3181913758509763,-0.8744519259599737,-0.2443724690713855,8.956528278417863,-0.9698257320089392,0.0893641050769117,-0.979460233991424
0.44,1.4330708963721177,1.9264529441135256,2.362222488080753,0.1040331256642119,0.0524724409684896,0.040540100013735,-0.3889138182655142,-0.3727813554985116,-0.4944486188460577,1.4371114369678986,1.9308796221323508,2.367885712453717,-0.4668424680412267,-0.4224842273053751,-0.5540964264290524,0.9255591125835272,-0.2853972199839544,-0.7750298646281684,-0.4177760244991085,9.901874941267124,-0.9672265443450552,0.0897657632040829,-0.9832198576934252
0.46,1.4252250234932005,1.9188265988883488,2.352199273395491,0.1024298553869986,0.0521318148586738,0.0397978054067438,-0.3954758667193465,-0.3890705078328351,-0.5076329321924318,1.4371114369678986,1.9308796221323508,2.367885712453717,-0.4668424680412267,-0.4224842273053751,-0.5540964264290524,1.0979789183957704,-0.3281024226916118,-0.8144576167161771,-0.659215667318705,9.901874941267124,-0.9663365127858106,0.088957149556818,-0.9859330182934066
0.48,1.4172412884303829,1.9108779227504529,2.3418723553218928,0.1013349577587345,0.0498230155547434,0.0388845500878526,-0.4027122603832599,-0.4050145623055972,-0.5243858295267272,1.4324430122874865,1.926654779859297,2.362344748189426,-0.4868424683392499,-0.4424842276033984,-0.5740964267270756,1.211649532025426,-0.3618196831956716,-0.7972027236381046,-0.8376448667147707,9.66346503508248,-0.9675345897391628,0.0875760150960967,-0.9867746821766932
0.5,1.4091022345707949,1.9026142672845208,2.331184323943453,0.100709582885732,0.0457116993437159,0.0378174064601302,-0.4110124064727243,-0.4205874369905854,-0.5435782571422013,1.4231061629266617,1.9182050953131893,2.3512628196608456,-0.5268424689352963,-0.4824842281994448,-0.6140964273231221,1.3036066592688238,-0.4150073044732194,-0.7786437342494068,-0.9596213807737064,9.490534641999147,-0.970249155236772,0.085372388032224,-0.9866576605801264
0.52,1.401197404838708,1.8944776489904749,2.320657452642572,0.10059841004639,0.0405279017513823,0.0367036652278762,-0.420918207288314,-0.435164896235399,-0.5635581540678465,1.4137693135658371,1.909755410767082,2.340180891132265,-0.5668424695313428,-0.5224842287954913,-0.6540964279191686,1.3321256406508215,-0.4952900407794836,-0.7288729622406814,-0.9989948462822584,9.36451633141496,-0.9745740460036524,0.0827673194257467,-0.9849091210996698
0.54,1.3926492121328562,1.8856150936192453,2.3091592547598365,0.1010924879627551,0.034486583829231,0.0355066426178776,-0.4335939128551605,-0.4503810469052933,-0.5852372876925237,1.4024324641752104,1.899305726191172,2.327098962573881,-0.6068424701273892,-0.5624842293915377,-0.694096428515215,1.4681532511482915,-0.6337852783423276,-0.7608075334947145,-1.0839566812338608,9.273496447547586,-0.9809259544955792,0.080153833565028,-0.9805277295649464
0.56,1.383820725695439,1.87643474810248,2.2972244648663933,0.1019274367852144,0.0286038069707179,0.0343370015540242,-0.4487601538747839,-0.4668725872150007,-0.6071492268595668,1.3910956147845834,1.8888560416152624,2.3140170340154977,-0.6468424707234357,-0.6024842299875842,-0.7340964291112615,1.566938772345791,-0.7583120509811719,-0.8245770154853727,-1.0955969583521574,9.246984462930412,-0.987542259013306,0.0772070555100946,-0.9758794722494036
0.58,1.374663952963222,1.86691177540268,2.2848490892394366,0.102477485012245,0.0236901411215499,0.0332351746851807,-0.4662533912661927,-0.4844642313181729,-0.6292764625299123,1.3787587653790554,1.8774063570244512,2.299935105442213,-0.6868424713194821,-0.6424842305836306,-0.7740964297073079,1.6621475980609115,-0.8746618695704395,-0.8795822051586077,-1.1063617835172734,9.249523879482696,-0.9931267664451614,0.0746165200673092,-0.9721336679549262
0.6,1.3656192909758176,1.8575304325664823,2.2726789282239235,0.1022957954529384,0.020687425503171,0.0323045700707299,-0.4849903300740017,-0.5019988073366467,-0.6506675962658707,1.3654219159586265,1.8649566724187392,2.2848531768540274,-0.7268424719155285,-0.682484231179677,-0.8140964303033543,1.670415243693069,-0.9368469403904484,-0.8767288009236901,-1.0695566867979178,9.249523879482696,-0.99755641207207,0.0725945663397551,-0.9695267434952785
0.62,1.355677796262242,1.84724784862433,2.259640612357108,0.1003385576598612,0.0208777132615077,0.0315433305377459,-0.5077877527152604,-0.525122438005278,-0.6508106958297376,1.3513512833999122,1.8426885638367716,2.253385266112941,-0.5662533927563089,-0.584464232808289,-0.7292764640200284,1.6236111386879415,-1.1398711320629362,-1.1561815334315662,-0.0071549781933466,9.245052902040698,-1.0034724479145951,0.072003295715087,-0.9656314319768664
0.64,1.345304185622065,1.836534953974164,2.246609879612537,0.0966969425243655,0.0246562582506607,0.031020935873657,-0.5280326396494877,-0.5445766644445977,-0.6525426864490752,1.3513512833999122,1.8426885638367716,2.253385266112941,-0.5662533927563089,-0.584464232808289,-0.7292764640200284,1.4065224534623,-1.0122443467113609,-0.9727113219659856,-0.0865995309668798,10.663209674921744,-1.0035405098386512,0.0755028378693856,-0.9644141103694684
0.66,1.334552811954903,1.825462317308835,2.2334849606202,0.0927249560429305,0.0305906080669017,0.0306700905142642,-0.5457271398978111,-0.561537759344804,-0.6597963121939966,1.3513512833999122,1.8426885638367716,2.253385266112941,-0.5662533927563089,-0.584464232808289,-0.7292764640200284,1.2780739079754997,-0.884725012416171,-0.8480547450103126,-0.3626812872460694,10.336416141522022,-1.0002942278050608,0.0784786493760389,-0.9673934892621396
0.68,1.3234746582957813,1.8140707628522532,2.2201661595715376,0.088834736079065,0.0376749939414154,0.0304108063914717,-0.5609117532956505,-0.576690072014517,-0.6716923943035412,1.345688749472349,1.8368439215086885,2.246092501472741,-0.5862533930543321,-0.6044642331063121,-0.7492764643180516,1.226460183658257,-0.7592306698919693,-0.7576156334856532,-0.5948041054772313,9.741446206147884,-0.9951295827178476,0.080811754229367,-0.9732035630431326
0.7000000000000001,1.312691439629212,1.8029823608201785,2.2072548810715924,0.0854082407782496,0.0447769433811705,0.0301953493264728,-0.5732097348725899,-0.5897434347902936,-0.6867855799234213,1.3343636816172229,1.8251546368525229,2.2315069721923404,-0.6262533936503786,-0.6444642337023586,-0.7892764649140981,1.1720013681507826,-0.6148990788469699,-0.6526681387888256,-0.7546592809940023,9.741446206147884,-0.9889593730870606,0.082632050361355,-0.9803161994302668
0.72,1.3011096204143824,1.7910553973695855,2.1933206222696127,0.0822257044465344,0.0520988617942392,0.0299648962962913,-0.5841492653134029,-0.6022739255879144,-0.7060064405900958,1.3230386137620966,1.8134653521963569,2.21692144291194,-0.666253394246425,-0.6844642342984051,-0.8292764655101446,1.2709524092805862,-0.5469765220406542,-0.6265245398810404,-0.961043033333725,9.5200318820107,-0.9823916636731848,0.0838507264083283,-0.988042377702726
0.74,1.2893284080534184,1.7788869316125917,2.1789778627262155,0.0795507856817143,0.0588527235309832,0.0297068778796967,-0.5933204429596645,-0.6140224183633064,-0.7273132295007622,1.3097135458771685,1.7997760675103889,2.200335913601737,-0.7062533948424715,-0.7244642348944516,-0.869276466106191,1.300112337065938,-0.4585588823130759,-0.5874246387696014,-1.0653394455333198,9.333064767241922,-0.976036720474856,0.0844429062394239,-0.995721799605466
0.76,1.277374827479947,1.7664807040835282,2.164193843508678,0.0770785245783677,0.0649522977457129,0.0293989101487422,-0.6014750285801485,-0.625901017129855,-0.7500244124472308,1.2963884779922397,1.786086782824421,2.183750384291534,-0.746253395438518,-0.764464235490498,-0.9092764667022376,1.344801292130574,-0.4077292810241995,-0.593929938327431,-1.135559147323434,9.174235984251936,-0.9701647960919983,0.0846623210235949,-1.0030085807506948
0.78,1.2658765915817622,1.754477844712326,2.149716497199936,0.0746887097546971,0.0702258158288961,0.0290541381519187,-0.6083742814652576,-0.6368415548000271,-0.7727707076617983,1.28206341009241,1.7713974981235514,2.16616485496643,-0.7862533960345643,-0.8044642360865444,-0.949276467298284,1.3083281324589398,-0.3449626442554587,-0.5470268835086056,-1.1373147607283751,9.174235984251936,-0.9643400101661006,0.0849155773754089,-1.010293957222023
0.8,1.2536402307533554,1.7416255700520589,2.1339970895945624,0.0721208116641282,0.0752809217229965,0.0286423068330557,-0.6148108645829985,-0.6477093518751097,-0.798035956269599,1.2667383421776792,1.755708213407781,2.147579325626425,-0.8262533966306108,-0.8444642366825909,-0.9892764678943304,1.4123308772298484,-0.3218291558870434,-0.5433898537541282,-1.263262430390033,9.115233832782906,-0.9588174393015012,0.0852150625180212,-1.0172491825312324
0.8200000000000001,1.2413077554753804,1.7285390762830206,2.118016603403602,0.0693554790593989,0.0797186924221309,0.0281653110776498,-0.6179414591907699,-0.6602878793355684,-0.7974361797871405,1.2354578775084994,1.722635766972325,2.111077961816846,-0.7083742829553737,-0.7368415562901433,-0.8727707091519145,0.6488060332268656,-0.1565297303885715,-0.6289263730229366,0.0299888241229229,10.621839422182347,-0.9574567172484828,0.0861309454669467,-1.019618352969332
0.84,1.229547956356545,1.7158956704570625,2.102845238848752,0.0669459051061777,0.0830477673846098,0.0276616246914636,-0.6198269845171505,-0.6701119187402169,-0.7997473963369962,1.2354578775084994,1.722635766972325,2.111077961816846,-0.7083742829553737,-0.7368415562901433,-0.8727707091519145,0.5133436420197375,-0.0942762663190266,-0.4912019702324244,-0.1155608274927832,10.260177575487432,-0.9537239024294304,0.0877547354982012,-1.0232093120314911
0.86,1.2171327555549691,1.7023923325085566,2.086771219109353,0.0649446417051408,0.0854422346792506,0.0270941054926468,-0.6216472180414837,-0.6797563797620817,-0.8077922808939807,1.2354578775084994,1.722635766972325,2.111077961816846,-0.7083742829553737,-0.7368415562901433,-0.8727707091519145,0.6345255038621048,-0.0910116762166624,-0.482223051093239,-0.4022442278492244,10.260177575487432,-0.9507379740138432,0.0885173907815859,-1.026551752289028
0.88,1.2046803025208683,1.6887031684092906,2.070481407748938,0.0634503244358517,0.0867059254284974,0.0264914160539923,-0.6236061617501641,-0.6887494981980845,-0.8207710404695694,1.2283741346789456,1.7152673514094232,2.102350254725327,-0.7283742832533969,-0.7568415565881664,-0.8927707094499376,0.7955530148561558,-0.0979471854340219,-0.4496559218001406,-0.6489379787794347,9.938577044837984,-0.9487168078525904,0.0885136550338089,-1.0293533722793482
0.9,1.1921852001456128,1.6748414008195551,2.05389461013448,0.0625464548962814,0.0869490204698827,0.0258699116430992,-0.625910092531039,-0.6970519326223862,-0.8372591647241318,1.2142066490198382,1.7005305202836205,2.0848948405422885,-0.7683742838494434,-0.7968415571842129,-0.932770710045984,0.9301837934607062,-0.1151965390437437,-0.4151217212150837,-0.8244062127281182,9.692688699424252,-0.9475173575148796,0.087765298802969,-1.031746768951163
0.92,1.180268901334654,1.6615248410194954,2.0378061022841694,0.0624220730915875,0.0863128152782937,0.0252809388852232,-0.6283855365517278,-0.7043722273077501,-0.8554430431083818,1.2000391633607308,1.6857936891578176,2.0674394263592504,-0.8083742844454899,-0.8368415577802594,-0.9727707106420306,0.9878865958111376,-0.1237722010344388,-0.3660147342681941,-0.9091939192125033,9.509487416497905,-0.9473004690489668,0.0861846964939746,-1.0334062188777406
0.94,1.167673212682821,1.647361426997344,2.020486204716644,0.0633079846372828,0.0846709404713178,0.0246737266385556,-0.6311102006446155,-0.7116882216434363,-0.8756342849626522,1.183871677671821,1.6690568580022125,2.0479840121464097,-0.8483742850415363,-0.8768415583763058,-1.012770711238077,1.082397587715003,-0.136233204644387,-0.3657997167843096,-1.0095620927135174,9.371073506431458,-0.948337774955392,0.0835587273143512,-1.0340492112205997
0.96,1.15501573236081,1.633040649824676,2.002757528656752,0.0651024407981726,0.0820633514680302,0.0240666885231948,-0.6346004213163138,-0.7200614141499658,-0.8962180016792923,1.1677041919829112,1.6523200268466072,2.028528597933569,-0.8883742856375828,-0.9168415589723524,-1.0527707118341236,1.1247015014654382,-0.174511033584912,-0.4186596253264785,-1.0291858358320085,9.316544776783305,-0.950406431683645,0.0799127238893785,-1.0339832576536991
0.98,1.1422778689614883,1.6185399547639177,1.9846151120639344,0.0673355871161678,0.0787670169351568,0.0234387250242656,-0.6391173527398619,-0.729699363983721,-0.916997557360004,1.1505367062791003,1.6345831956761008,2.008073183705827,-0.9283742862336292,-0.9568415595683988,-1.09277071243017,1.1673502910125344,-0.2258465711774071,-0.4818974916877605,-1.0389777840355885,9.303680031646763,-0.953230403469574,0.0759974219627454,-1.033202866561325
1.0,1.1300817614743903,1.6045710369011312,1.9669928376991264,0.0692945122905519,0.0752963791901882,0.0228000356345293,-0.6445562019514836,-0.7401508317348936,-0.936932050353845,1.132369220560388,1.6158463644906933,1.986617769463184,-0.9683742868296756,-0.9968415601644453,-1.1327707130262163,1.1577977692823216,-0.2719424605810816,-0.522573387558628,-0.9967246496920434,9.297200495178004,-0.956661592900448,0.0719591756299339,-1.0320037199331893
1.02,1.1171187963093807,1.589646145695984,1.948029179349844,0.0709040329810692,0.0716373289632803,0.0220889455901863,-0.6515804963639029,-0.7517321952860624,-0.958401460660698,1.1103220013244952,1.5820549865647315,1.9387652341959345,-0.739117354229978,-0.8296993654738372,-0.948942335176538,1.269255955885857,-0.3512147206209681,-0.5790681775584394,-1.073470515342645,9.291106664968538,-0.9601730131528337,0.0684018929331487,-1.030631463639389
1.04,1.104007186809393,1.5743695544580127,1.9291356101164787,0.0693959204408846,0.0693545561343416,0.0212588939414853,-0.6593458070574911,-0.7742122537953874,-0.9297973326109696,1.1103220013244952,1.5820549865647315,1.9387652341959345,-0.739117354229978,-0.8296993654738372,-0.948942335176538,1.860006197728845,-0.3882655346794106,-1.1240029254662498,1.430206402486417,9.266259893880488,-0.968531147797312,0.069910576223172,-1.0216309484960575
1.06,1.090736329412232,1.5586864605831887,1.910805687270569,0.0638997432088206,0.0695711428371925,0.020338628096464,-0.6670607367713921,-0.7917575877959955,-0.9046611856663164,1.1103220013244952,1.5820549865647315,1.9387652341959345,-0.739117354229978,-0.8296993654738372,-0.948942335176538,1.5804942019084791,-0.3857464856950487,-0.8772667000304046,1.2568073472326635,12.464369970572989,-0.969501062246864,0.0749630754087666,-1.019707331622874
1.08,1.0779993544399022,1.5435225944040063,1.8937929066094303,0.0575140259480421,0.0711641716774098,0.0194832499613699,-0.6731530185035347,-0.8032679006856487,-0.887378340810682,1.1029308277821954,1.5737579929099932,1.929275810844169,-0.7591173545280012,-0.8496993657718603,-0.9553312907398448,1.082011929030173,-0.3046140866071301,-0.5755156444826603,0.8641422427817125,11.972399618682177,-0.9686879387675073,0.0808964569507373,-1.0198623894128005
1.1,1.0644795020297442,1.527361793550289,1.876181179288342,0.0509001291489575,0.07341912842486,0.018629756257846,-0.678421232017903,-0.8120772861551209,-0.874960699370944,1.0881484806975958,1.5571640056005165,1.9102969641406384,-0.7991173551240477,-0.8896993663679068,-0.9681092018664584,0.8055388955671531,-0.2634106757184173,-0.4404692734736093,0.6208820719869002,11.488020711436548,-0.9669315551895126,0.0866658971408997,-1.021014539095321
1.12,1.0508633242691416,1.5110493690531352,1.858761228274333,0.0449167926920211,0.0756795501629036,0.0178258632968653,-0.6828904638891701,-0.8186942284347323,-0.8678678237887473,1.0733661336129965,1.5405700182910396,1.8913181174371076,-0.8391173557200942,-0.9296993669639532,-0.9808871129930722,0.5340103994197598,-0.223461593563351,-0.3308471139805702,0.3546437791098367,11.102882567613053,-0.96495159599212,0.0918496049953088,-1.022414815339495
1.14,1.0371641217295695,1.4946238533327505,1.841433166686264,0.0397865915624718,0.0775773510775039,0.0170729713195887,-0.6868133441166244,-0.8236413046359667,-0.8652779683618254,1.0565837864985943,1.5219760309517605,1.871700375177246,-0.8791173563161406,-0.9696993675599996,-0.9936650241196858,0.3412107243043866,-0.1961440113727175,-0.2473538100617234,0.1294927713460958,10.785163704307706,-0.963268805597553,0.0959698787841198,-1.0236983373245758
1.16,1.0240824106192543,1.4789400566593256,1.8250056112673367,0.035782675087536,0.0788443535522998,0.0164074983413202,-0.6900541162021608,-0.8272033241214248,-0.8640686588276515,1.0398014393841923,1.5033820436124814,1.8520826329173845,-0.9191173569121872,-1.0096993681560462,-1.0064429352462996,0.2482590183388055,-0.1620386042768207,-0.1781009742729045,0.0604654767086931,10.54005223994136,-0.9622967816067126,0.0994799982622796,-1.0243299024927357
1.18,1.0102442649974892,1.46235816049597,1.807730200153576,0.032258920905338,0.0796362011147761,0.0157497323312031,-0.6936171156847158,-0.8307993357091548,-0.8635699280387457,1.0220190922548893,1.4837880562583012,1.8321454428793575,-0.9591173575082336,-1.0496993687520926,-1.019220846372913,0.2543373598764926,-0.1781499741277503,-0.1798005793864965,0.0249365394452916,10.47207068714033,-0.9617271751841502,0.1022151493646102,-1.0247883172366834
1.2,0.9963324768220856,1.4457087787559393,1.7904566739462642,0.0291830723184263,0.0800624188418633,0.0151275894664752,-0.697403957056159,-0.8339404118471626,-0.8638388612272625,1.0032367451106852,1.46319406888922,1.8118888050631656,-0.99911735810428,-1.089699369348139,-1.0319987574995269,0.2463678750218942,-0.1893420685721569,-0.1570538069003924,-0.013446659425842,10.429619226908471,-0.961504917552375,0.1045315773213989,-1.0249706675495849
1.22,0.982366125940003,1.4289845632394227,1.7735270502798626,0.0261990345914458,0.0804240060780406,0.014527105428711,-0.6990071728227908,-0.8381199319112456,-0.8290991929279339,0.9755634092132536,1.4208181937105122,1.764551703751639,-0.7881989953601042,-0.9307993371992708,-0.8160078280455167,1.7513446564767217,-0.0801607883315902,-0.2089760032041476,1.736983414966431,10.387128548301916,-0.9663650018854664,0.1076200465824033,-1.0188023793774783
1.24,0.969072683556581,1.4130332197616662,1.758090613901246,0.0235104821461144,0.0807588303056165,0.0139831865897204,-0.7002404158170225,-0.840764071901236,-0.7976178705506782,0.9755634092132536,1.4208181937105122,1.764551703751639,-0.7881989953601042,-0.9307993371992708,-0.8160078280455167,1.580811518801487,-0.0616621497115832,-0.1322069994995234,1.5740661188627825,12.70290201190528,-0.96685071473861,0.1106568809614341,-1.0170484936166952
1.26,0.9550589551507044,1.396205415799561,1.742456737842892,0.0212960649979551,0.0807663989130585,0.013463239235056,-0.701118878256417,-0.8420228362141232,-0.767564148729758,0.9755634092132536,1.4208181937105122,1.764551703751639,-0.7881989953601042,-0.9307993371992708,-0.8160078280455167,1.5046447912564644,-0.04392312196973,-0.0629382156443592,1.5026860910460127,12.44657047286637,-0.9680820537810364,0.1133760427786371,-1.01426593235856
1.28,0.9410283373031,1.379363337762115,1.727393040979899,0.0200733370263137,0.0801030079440479,0.0130161777672377,-0.7019992642812195,-0.8422364728490368,-0.7404223410801086,0.9676814192596525,1.4115102003385196,1.7563916254711838,-0.8071153712951818,-0.950799337497294,-0.8064954080468709,1.3578461277469998,-0.0440193012401224,-0.0106818317456791,1.3570903824824676,12.2229252163188,-0.9698597324618852,0.1153712687584898,-1.0107916671208304
1.3,0.926978896788567,1.3625286090877906,1.7128466603154648,0.0203009423752871,0.0785684869731051,0.0126685593301569,-0.7030128186954928,-0.8414837487756358,-0.7155547584966883,0.9519174393524504,1.392894213594534,1.7400714689102734,-0.8449481231653372,-0.9907993380933404,-0.7874705680495794,1.244980471357485,-0.0506777207136655,0.0376362036700494,1.2433791291710183,12.027402515684116,-0.9723894724301996,0.1159916490310002,-1.0068496211656992
1.32,0.913611330944381,1.346554309837715,1.6994751632933112,0.0222410339758283,0.0760928624851966,0.0124465313451768,-0.7041608526564762,-0.8403399622451871,-0.6932023500031032,0.9361534594452484,1.374278226850549,1.723751312349363,-0.8827808750354925,-1.030799338689387,-0.7684457280522878,1.1205538753970097,-0.0574016980491698,0.0571893265224332,1.1176204246792554,11.793221630512562,-0.9761556678084388,0.1149248653403224,-1.0018808536433184
1.34,0.8995136793433344,1.32974921505484,1.6858654837845604,0.026074383891318,0.0721583835789397,0.0123051013282377,-0.7056712094487121,-0.8408674164870629,-0.6688946245493637,0.9184978419445384,1.3536622400767608,1.7083823977883172,-0.920613626905648,-1.0707993392854334,-0.7494208880549963,1.2180157042824822,-0.0755178396117939,-0.0263727120937862,1.2153862726869746,11.793221630512562,-0.982109420591812,0.1121957438102843,-0.9948572473975408
1.36,0.8853722409859214,1.3128950764365006,1.6727519829064683,0.0304322733231901,0.0668385070928158,0.0121484674374292,-0.7086188101605415,-0.8446529476486202,-0.6436237924546137,0.9008422244438288,1.3330462533029732,1.6930134832272714,-0.9584463787758032,-1.11079933988148,-0.7303960480577046,1.2861119225134976,-0.1473800355914711,-0.1892765580778665,1.2635416047375003,11.842563690161114,-0.9885412339258276,0.1087104278502018,-0.9877754913340084
1.38,0.8711463686098336,1.295942869412401,1.660154450402361,0.0344395038511398,0.0606615691389499,0.0119203026241151,-0.714103448690476,-0.8503401525327268,-0.6173859590735589,0.882240788146365,1.3114302665142843,1.678120189666158,-0.9962791306459584,-1.1507993404775263,-0.7113712080604131,1.370081621409689,-0.2742319264967263,-0.2843602442053283,1.3118916690527394,11.902410227955444,-0.9954853481257298,0.1056154636012665,-0.9802299460500752
1.4,0.8575036782400768,1.2797201577388475,1.6486793007403726,0.037640120115316,0.0547544347666349,0.011642214690891,-0.7218424472017092,-0.8569156121124676,-0.5918222727998975,0.8626935330521474,1.288814279710694,1.6637025171049769,-1.0341118825161135,-1.1907993410735729,-0.6923463680631216,1.375346158735916,-0.3869499255616582,-0.3287729789870408,1.2781843136830673,11.96504585051207,-1.0035422154426534,0.1031317014270901,-0.9711068234831725
1.42,0.8428348003077588,1.2624214232156468,1.63710317965292,0.0377867854341243,0.0531615848468608,0.0112956109952958,-0.7445342090482202,-0.871756313585219,-0.5671651377988486,0.8354411961753099,1.2534258617857648,1.629285152448683,-0.7630548323705812,-0.9503401540228428,-0.5743397304859315,1.832441528645628,-1.1345880923255502,-0.7420350736375703,1.2328567500524468,12.011549897597432,-1.001951459830606,0.1012386920126007,-0.9747571051180576
1.44,0.8277539122154092,1.2448734422796082,1.6260203875892263,0.0339655379083308,0.0591296456926843,0.0109627791984376,-0.7615118459415062,-0.8815448870002486,-0.5422549140489102,0.8354411961753099,1.2534258617857648,1.629285152448683,-0.7630548323705812,-0.9503401540228428,-0.5743397304859315,1.584752008402011,-0.8488818446643009,-0.4894286707514794,1.2455111874969171,11.95885348655429,-1.0028577442690167,0.1063224242937724,-0.9708375812233818
1.46,0.8124005497361513,1.227189411709677,1.6154184132139422,0.0291242980547845,0.0689358903198044,0.0106714622024259,-0.7723713196922973,-0.886242898541851,-0.5191647242413773,0.8354411961753099,1.2534258617857648,1.629285152448683,-0.7630548323705812,-0.9503401540228428,-0.5743397304859315,1.2972628376094897,-0.5429736875395552,-0.2349005770801215,1.1545094903766484,11.762231530236932,-0.9975696212595168,0.1120336449703666,-0.9736419581103796
1.48,0.7968816193261705,1.209444538447834,1.6052538573478436,0.0248327236526685,0.0804730452176397,0.0104373472889595,-0.778481755995172,-0.8881860486360944,-0.4984506297882914,0.8278106478516041,1.2439224602455363,1.623541755143824,-0.7728451091066023,-0.970340154320866,-0.5657304847684059,1.0841897586580602,-0.3055218151437333,-0.0971575047121697,1.035704722654293,11.762231530236932,-0.9895429373327744,0.1167129556480115,-0.9797870110576736
1.5,0.7820632946287001,1.1925665196647173,1.5959606525745995,0.0217504233840553,0.0919814000088857,0.010272110972683,-0.7806662242319522,-0.8886240238367188,-0.4808352463067249,0.8125495512041924,1.2249156571650794,1.6120549605341052,-0.7924256625786443,-1.0103401549169126,-0.548511993333355,0.8877858116636428,-0.10922341183901,-0.0218987600312192,0.8807691740783247,11.586498280899832,-0.9795702684404044,0.1205389905994923,-0.9880230132335054
1.52,0.7664552476062307,1.1747989428526366,1.5865247679039858,0.0196765231209922,0.1040667129022393,0.0101637240828646,-0.7796491775473796,-0.8883272930881747,-0.4637674503300395,0.7972884545567808,1.2059088540846226,1.6005681659243869,-0.8120062160506865,-1.050340155512959,-0.531293501898304,0.8550322985090824,0.0508523342286293,0.0148365374272041,0.8533897988342698,11.450095004304783,-0.9688665968218648,0.1231672831250632,-0.997099114081136
1.54,0.7509036351515096,1.157046500599518,1.5774136310707838,0.0189807986430246,0.1156552927480673,0.0101407986804197,-0.7752689316884948,-0.8871845112081345,-0.4482336454112255,0.781048330235767,1.1849020509743633,1.5899422958864209,-0.8315867695227286,-1.0903401561090054,-0.5140750104632531,0.8089987630790836,0.2190122929442428,0.0571390940020122,0.7766902459406977,11.366870078461034,-0.9579975468150842,0.1245232441126652,-1.00632502092391
1.56,0.7354801771089245,1.1393137969290357,1.5686017581556642,0.0196623851327763,0.126076317634169,0.0102066054629406,-0.7671574822431056,-0.8862859828183665,-0.4337705076368356,0.7648082059147533,1.163895247864104,1.5793164258484549,-0.8511673229947706,-1.130340156705052,-0.4968565190282021,0.8303392674884585,0.4055724722694553,0.0449264194884002,0.7231568887194978,11.244825190289705,-0.9486566303343354,0.1246623595592692,-1.0140961356019855
1.58,0.7210079210155995,1.1224805794526325,1.5604922151291596,0.0214647778789284,0.1342846139409706,0.0103401616406482,-0.7566366135822826,-0.8857972376946419,-0.4206196866859081,0.7480785677569385,1.1418884447389437,1.5691210180963648,-0.8707478764668127,-1.1703401573010983,-0.4796380275931511,0.8424245379522207,0.5260434330411512,0.0244372561862271,0.6575410475463728,11.244825190289705,-0.9399649309625272,0.1235734153779818,-1.021336414093991
1.6,0.7060119033265364,1.1047604630905412,1.5522248017682296,0.0243537330599652,0.1408068915927315,0.010533438069494,-0.7435063785445868,-0.8865885662533025,-0.4068326694098877,0.7308594157623227,1.1188816415988825,1.5593560726301512,-0.8903284299388547,-1.2103401578971449,-0.4624195361581002,0.9527737380960044,0.6565117518847918,-0.0395664279330298,0.6893508638010221,11.246052741612402,-0.9333829310321018,0.1214566877539672,-1.0267260116512107
1.62,0.6912946688321501,1.0870010766988154,1.5442349025997495,0.027425903784738,0.1450204305965521,0.0107093953716734,-0.7289482557906458,-0.889369971307868,-0.3928438615557745,0.6831760903364854,1.0781907175679004,1.539461230794864,-0.7621404827321165,-0.985797239184758,-0.3736703298915508,1.0190214636793429,0.7279061376970486,-0.1390702527282739,0.6994403927056608,11.246052741612402,-0.9286539472446044,0.1190695239832063,-1.030503188644665
1.64,0.6768127851617373,1.0690886031759337,1.5364978609762063,0.027452611170053,0.1488852749737417,0.0106821543276481,-0.7195802231083495,-0.900402379461461,-0.3815526429989703,0.6831760903364854,1.0781907175679004,1.539461230794864,-0.7621404827321165,-0.985797239184758,-0.3736703298915508,0.917831251512985,0.4684016341148178,-0.5516204076796483,0.5645609278402103,11.27622802525093,-0.9222013241147607,0.1184457542259207,-1.036736507534313
1.66,0.6632550280936822,1.0519165795207126,1.5293658946291433,0.0242321079080018,0.1532684138996376,0.0104552974029348,-0.7078852296988849,-0.9061937896252682,-0.3697441440939308,0.6831760903364854,1.0781907175679004,1.539461230794864,-0.7621404827321165,-0.985797239184758,-0.3736703298915508,0.8799914046784606,0.584749670473228,-0.2895705081903621,0.5904249452519744,11.134915985871883,-0.9173942015451896,0.1220952338865712,-1.039947021939298
1.68,0.6492480544674373,1.0337739997602946,1.5221049536565106,0.020051124716855,0.1576159115290209,0.0101550211233521,-0.6933249976304818,-0.9076847389282308,-0.3569768475050411,0.6755546855091642,1.068332745176053,1.5357245274959486,-0.7632412565620833,-1.0057972394827812,-0.3642804585326794,0.971116818279902,0.7280116034201534,-0.0745474651481281,0.6383648294444849,11.226227944679522,-0.912384119662628,0.1266899346264067,-1.043068221098978
1.7,0.6355518212435824,1.015629905470241,1.5150992267751917,0.0165966758144074,0.1610582939238161,0.0098903742543935,-0.677009809441106,-0.9068306393076512,-0.3442502320743274,0.6603118758545219,1.0486168003923575,1.5282511208981175,-0.7654428042220169,-1.0457972400788278,-0.3455007158149364,1.0354728293609428,0.8157594094687914,0.0427049810289792,0.6363307715356842,11.23063840316263,-0.9081987599039278,0.1306555784561759,-1.0454428513414284
1.72,0.6221962876827866,0.9975167131867866,1.5083496521916664,0.014392857488981,0.1631562510101389,0.0097000405839238,-0.6594862810417836,-0.9049146601902746,-0.3313531269458931,0.6450690661998796,1.0289008556086623,1.5207777143002863,-0.7676443518819505,-1.0857972406748742,-0.3267209730971935,1.0921084472637872,0.8761764199661182,0.095798955868831,0.6448552564217169,11.250463136998404,-0.9051594587084748,0.1332422626076178,-1.0470851420846463
1.74,0.6098395148936052,0.9803521646302804,1.5021814640672486,0.0136168406077901,0.1637431740359497,0.0096033935700998,-0.6422590356944622,-0.9022328474601704,-0.3185737792212388,0.6297161791622405,1.007184910795165,1.5142432948383426,-0.769845899541884,-1.1257972412709203,-0.3079412303794506,1.0808351285508138,0.8613622673660726,0.1340906365052019,0.6389673862327111,11.250463136998404,-0.9031697709207744,0.1346647337053978,-1.0479082008212122
1.76,0.5971881356358903,0.9623461702508984,1.495959251426891,0.0146082411802419,0.1628184573330604,0.0096191373842895,-0.623851523723418,-0.8987157959214337,-0.3042743665669324,0.6143632921246015,0.9854689659816674,1.5077088753763987,-0.7720474472018176,-1.165797241866967,-0.2891614876617077,1.1786425992942091,0.9203755985522089,0.1758525769368413,0.7149706327153199,11.291497318690745,-0.9031197153587668,0.1344584901447195,-1.047079984681992
1.78,0.5849084503143238,0.944401864984907,1.4900354823804438,0.0175408293425669,0.1600743917745023,0.0097480541116754,-0.6051994782805202,-0.8962972180495389,-0.2888048224252857,0.5989553663954642,0.9627530211532688,1.5016439494823983,-0.7742489948617511,-1.2057972424630137,-0.2703817449439648,1.2176361464705894,0.932602272144889,0.1209288935947405,0.7734772070823348,11.348303159018542,-0.905470423239736,0.13250241723356,-1.04425003157965
1.8,0.5729996162499442,0.9264736952565096,1.4844365998003006,0.0213806556014934,0.1552802437829897,0.0098949052730609,-0.5868552967548499,-0.8968620425341479,-0.271831656943828,0.5834924019748284,0.9390370763099692,1.4960485171563418,-0.7764505425216848,-1.2457972430590598,-0.2516020022262218,1.2499163662082626,0.917209076283515,-0.0282412242304519,0.8486582740728887,11.500361589909517,-0.9095399399712166,0.1297532578522308,-1.0401330954199597
1.82,0.5620091286933341,0.909409998570529,1.4794479555849698,0.0248935511479036,0.1489950248317171,0.0099700375430277,-0.5713361131914725,-0.8992762116625567,-0.2541039428105935,0.5546484764002978,0.89958700408243,1.4755952412591795,-0.5907638321563361,-0.996297219539655,-0.2304578282040753,1.184214000343737,0.7759591781688724,-0.1207084564204374,0.8863857066617215,11.594707837585702,-0.9151692017546098,0.1269024741484629,-1.0346687177157767
1.84,0.5506629036655082,0.8913088092964323,1.4745087533639956,0.025569222917827,0.1432209307282133,0.0098480131845641,-0.5644826282190966,-0.9098312932606248,-0.2410146994589307,0.5546484764002978,0.89958700408243,1.4755952412591795,-0.5907638321563361,-0.996297219539655,-0.2304578282040753,0.9078935721320892,0.3426742486187961,-0.5277540799034031,0.6544621675831391,11.594707837585702,-0.9190989197861936,0.1271080099864648,-1.0301404355650323
1.86,0.5394298296977096,0.8730440101299096,1.469842954352331,0.0225674309648339,0.1409365616137578,0.0095759552136443,-0.558938312890695,-0.9157039981570552,-0.2260564813976742,0.5546484764002978,0.89958700408243,1.4755952412591795,-0.5907638321563361,-0.996297219539655,-0.2304578282040753,0.84996526815719,0.2772157664200803,-0.2936352448215218,0.7479109030628289,11.377063322384856,-0.923126815147045,0.130891386741405,-1.0250022365042035
1.88,0.5283230697261054,0.8547133859375061,1.4654925505079646,0.0186090739533001,0.1415197174001903,0.0093235407771092,-0.5517154139521719,-0.9170040370992204,-0.2097464963383278,0.5487408380787344,0.8896240318870334,1.4732906629771387,-0.5878767029314993,-1.0162972198376783,-0.2187884293598332,0.8942538551263917,0.3611449469261507,-0.0650019471082619,0.8154992529673194,11.424205246290512,-0.9248088060941304,0.1357839575941101,-1.0213712182479415
1.9,0.5179261024206888,0.8373034283739461,1.4616664075035544,0.0155028631111607,0.1436285768080714,0.0091711813565692,-0.5428897664125931,-0.915835267848406,-0.1938330607886545,0.5369255614356078,0.8696980874962403,1.4686815064130574,-0.5821024444818256,-1.0562972204337246,-0.195449631671349,0.911722966487256,0.4412823769789409,0.0584384625407163,0.7956717774836655,11.439735106332591,-0.9247270303632192,0.140472946300955,-1.0190844934776548
1.92,0.5071838997365709,0.8190131478135613,1.4579697942407333,0.0134446474275168,0.1465490982461423,0.0091159851122364,-0.5316489087841981,-0.9135006701636428,-0.176651546522358,0.525110284792481,0.8497721431054472,1.4640723498489758,-0.576328186032152,-1.0962972210297712,-0.1721108339828648,1.033213021422127,0.5620428814197498,0.1167298842381647,0.8590757133148219,11.466102303577827,-0.9240939985360364,0.1442885267562614,-1.017080694325869
1.94,0.4966856135192227,0.8007786818477133,1.454621144281239,0.0129065120838878,0.149452945882758,0.0091775168234523,-0.5186640932323213,-0.9102320665019225,-0.1590578205636352,0.5135837210718379,0.8278461986848518,1.4606301331693186,-0.5705539275824784,-1.1362972216258176,-0.1487720362943806,1.1054731994991018,0.6492407775938402,0.1634301830860218,0.8796862979361427,11.491272003322592,-0.9237181688178628,0.1470170471275325,-1.0146304912145712
1.96,0.4864618964150266,0.782617452837199,1.4516282678322074,0.0143356430545784,0.1517981799940425,0.0093819964593497,-0.50434193191968,-0.906276898811664,-0.1410919265467095,0.5020571573511949,0.8059202542642564,1.4571879164896613,-0.5647796691328046,-1.1762972222218642,-0.1254332386058964,1.1656982928172137,0.7161080656320651,0.1977583845129138,0.8982947008462818,11.51439532387394,-0.9236996590885974,0.1479871307115167,-1.0120461740608615
1.98,0.4765361062529758,0.7645227382394812,1.449001972665715,0.0176979114330752,0.153213923525979,0.0097206430808683,-0.4890491371053961,-0.9039401730533232,-0.1224318163355567,0.4906749500917937,0.7829943098287598,1.454329169752216,-0.559005410683131,-1.2162972228179103,-0.1020944409174122,1.2119504668032568,0.7646397407141958,0.1168362879170492,0.9330055105576406,11.51439532387394,-0.924839267113729,0.1471920903614229,-1.0088688429947112
2.0,0.4673953036146905,0.7473438771162768,1.4468621396014918,0.0214866984395201,0.1535483782302203,0.0100739525719671,-0.4740316770561361,-0.9045872586578936,-0.1037362265763511,0.4794370992936344,0.7590683653783621,1.4520538929569828,-0.5532311522334573,-1.2562972234139569,-0.078755643228928,1.1994456037637506,0.7508730024630011,-0.0323542802285248,0.9347794879602784,11.618998187915167,-0.9269536716168296,0.1456316690522617,-1.0049723172116345
2.02,0.4580824208387954,0.7292282970216055,1.445005175084384,0.0252328874862772,0.1528132870927758,0.0104087400426985,-0.4581314330529831,-0.9069520977074952,-0.0828757623388524,0.452083649397706,0.7193257295868151,1.4428803818489373,-0.4774090773436931,-0.9784777110453236,-0.0699900815149524,1.3167850918945423,0.7950122001576493,-0.1182419524800748,1.0430232118749383,11.618998187915167,-0.9303595178416846,0.1444228265485783,-0.999745315839756
2.04,0.4490745529577646,0.7108926874434492,1.44344799416711,0.023142084729536,0.1507300351945236,0.0103095295521562,-0.443600833608348,-0.924506122205735,-0.0744434212948673,0.452083649397706,0.7193257295868151,1.4428803818489373,-0.4774090773436931,-0.9784777110453236,-0.0699900815149524,1.214893484824198,0.7265299722317542,-0.8777012249119975,0.4216170521992551,11.693699103343532,-0.9354298823419486,0.1491203127599904,-0.991551636032974
2.06,0.4403533217000469,0.6923379400804718,1.4420614375626566,0.0148258854274751,0.1469179829007053,0.0097808269316015,-0.4294158548168158,-0.9290928162849816,-0.064513575721415,0.452083649397706,0.7193257295868151,1.4428803818489373,-0.4774090773436931,-0.9784777110453236,-0.0699900815149524,0.8956188070343107,0.7092489395766094,-0.2293347039623361,0.4964922786726139,10.991701659881985,-0.9384789911951829,0.1571321006400159,-0.986605891352847
2.08,0.4323188771915365,0.674707778124684,1.4409417530271915,0.0065326075786604,0.1417837191490136,0.0092968023602766,-0.4172905730464809,-0.92658531056386,-0.0538246511836561,0.4473095586242691,0.7095409524763618,1.4421804810337877,-0.4750810653913525,-0.9933852186437238,-0.0595017345508315,0.8178678846937609,0.6062640885167447,0.1253752860560841,0.5344462268879469,11.046197084612686,-0.9440918127736456,0.1664750190548498,-0.9783139845804996
2.1,0.4240830231736346,0.6562409716127179,1.4399936142059968,-0.0007756986296845,0.1354537474641487,0.008959100070768,-0.4072116107374126,-0.9204707222779792,-0.041487798998656,0.4377613770773952,0.6899713982554553,1.4407806794034888,-0.4704250414866713,-1.0232002338405242,-0.0385250406225898,0.8531875423492694,0.5039481154534176,0.3057294142940481,0.6168426092500043,11.046197084612686,-0.9510948575523956,0.1746110411753534,-0.9685541916348552
2.12,0.4160201674850158,0.6379177146594138,1.4393023876464288,-0.0060660416805994,0.1290559469257287,0.0088323407590537,-0.3997688984700382,-0.9125245446762034,-0.0281964525177039,0.4282131955305213,0.6704018440345488,1.4393808777731896,-0.4657690175819901,-1.0530152490373244,-0.0175483466943481,0.8590628551663182,0.3721356133687153,0.3973088800887869,0.664567324047602,11.101161381138809,-0.95871206727701,0.1810590994205424,-0.9581383827122568
2.14,0.4084748696054401,0.620668250979903,1.438902166882924,-0.0091476186582569,0.1235774248780731,0.008891363227799,-0.3949657146769968,-0.9041346817040437,-0.0145732734539072,0.4188978151788815,0.6493415390538023,1.4390299108393023,-0.4611129936773088,-1.0828302642341243,0.0034283472338936,0.8352415564458325,0.2401591896520727,0.4194931486079856,0.6811589531898374,11.202590227232577,-0.9654201982970018,0.185479675424744,-0.9488894927059334
2.16,0.4006079929848021,0.6026845189241397,1.4387672347253513,-0.0105715355898997,0.1191040091618494,0.0091000744262278,-0.3921400673461267,-0.8949421167920354,0.000405648661291,0.4095824348272417,0.6282812340730559,1.4386789439054155,-0.4564569697726277,-1.1126452794309247,0.0244050411621353,0.8900219663484643,0.1412823665435048,0.459628245600413,0.7489461057599138,11.239077327561064,-0.9710614242524156,0.1885928418787395,-0.9407040872448834
2.18,0.3927762109198975,0.5848833121932913,1.4389373317811796,-0.0102031360138592,0.1166851815210273,0.0094299400742643,-0.3912410338073647,-0.8858056266380482,0.0158859198195349,0.4003834550732189,0.6064755537123894,1.4388523943197349,-0.4518009458679464,-1.1424602946277251,0.045381735090377,0.8998923668562863,0.0449516769380986,0.4568245076993604,0.7740135579121975,11.239077327561064,-0.9751181970874389,0.1902204595717888,-0.9343371930972556
2.2,0.3849603343611339,0.5672639446433779,1.439423004865614,-0.0080312492085618,0.1165879619391394,0.0098723274670926,-0.3901078998100109,-0.8768323421780628,0.0319226258774198,0.3913008759168132,0.5839244979718029,1.4395502620822598,-0.4471449219632653,-1.172275309824525,0.0663584290186188,0.9205701600676246,0.0566566998676909,0.4486642229992676,0.8018353028942401,11.264896997164216,-0.9779593863377576,0.1905275309572212,-0.9294356097831308
2.22,0.3775699389960062,0.5506758562888685,1.440187293085342,-0.0046230440998374,0.1179953357725654,0.0103836918311396,-0.3877134085122343,-0.8701764753716058,0.0477384898725709,0.3732141592295293,0.5405930308613889,1.4397316277721564,-0.3755730942487395,-0.8948706819264226,0.0471843560439955,0.8662789756099685,0.1197245648888289,0.3327933403228511,0.7907931997575574,11.282172096375689,-0.9798775362215252,0.1896873230197958,-0.9256697031708264
2.24,0.3698250383647052,0.5330738928409388,1.4411813321991402,-0.008750498211723,0.1208629070040333,0.0103888030828764,-0.3867920931644922,-0.8868280954542195,0.0500930035062631,0.3732141592295293,0.5405930308613889,1.4397316277721564,-0.3755730942487395,-0.8948706819264226,0.0471843560439955,0.8421238148231684,0.0460657673871073,-0.8325810041306836,0.1177256816846078,11.304363046739129,-0.9791174181738944,0.1953608460473176,-0.9233352077680826
2.26,0.3621150920224241,0.515329865472686,1.4422010646249237,-0.021276912054518,0.1249037846618484,0.0097913446501716,-0.3840208341287819,-0.8854740758422119,0.051878338225274,0.3732141592295293,0.5405930308613889,1.4397316277721564,-0.3755730942487395,-0.8948706819264226,0.0471843560439955,0.1781899675319343,0.1385629517855147,0.0677009806003769,0.0892667359505449,10.362710378557496,-0.9740712208003136,0.2064229525516352,-0.926075274185446
2.28,0.3544802064733371,0.4977348612049384,1.4432547015704411,-0.0345972377775625,0.1293614028951559,0.009105425913844,-0.379459978693653,-0.8740847557599436,0.0533624624553124,0.3694584282870419,0.5316443240421247,1.4402034713325964,-0.3724395063370145,-0.8966836929840974,0.0534440432888877,0.6179009608478783,0.2280427717564426,0.569466004113417,0.0742062115019225,10.407047171894192,-0.9700745520350657,0.2180447792170712,-0.9270390632095568
2.3000000000000003,0.3473273060748326,0.4812873900600509,1.4442789583831808,-0.0455034439227136,0.1335107735602902,0.0085570720003242,-0.3736256761335334,-0.8582673464703164,0.0543745667550952,0.3619469664020671,0.5137469104035962,1.4411471584534763,-0.3661723305135644,-0.9003097150994472,0.0659634177786719,0.8444730281546015,0.2917151280059815,0.790870464481358,0.0506052149891397,10.39438306601096,-0.9663481943422796,0.2289604072595952,-0.92751130884363
2.32,0.3399318955947394,0.4643252821784367,1.445378785030038,-0.0544547811462453,0.1374441746486913,0.0081643293898993,-0.3661443392550114,-0.8391567448086211,0.0555765936637566,0.3544355045170922,0.4958494967650677,1.4420908455743562,-0.3599051546901143,-0.903935737214797,0.0784827922684562,1.027898786421931,0.3740668439261019,0.9555300830847656,0.0601013454330702,10.39438306601096,-0.96311372433444,0.2377105008839829,-0.927858248445904
2.34,0.3326995579274001,0.4477653940476337,1.4465083894261963,-0.0606948536403181,0.1406789097395516,0.0079999133918389,-0.3574635162128266,-0.8184620883118038,0.0573492262372384,0.3472374014232899,0.4777707820207718,1.4436605014197252,-0.3536379788666642,-0.9075617593301468,0.0910021667582404,1.1255751001727503,0.434041152109238,1.0347328248408671,0.0886316286740913,10.424159650730871,-0.9605904321192767,0.2442464514543775,-0.92787512242391
2.36,0.3256498256503201,0.43162521929667,1.4476778939864303,-0.064561855570533,0.1430820765576172,0.0080632578566848,-0.3479769157453929,-0.797206692746733,0.0595464762614911,0.3400392983294877,0.4596920672764758,1.4452301572650943,-0.3473708030432141,-0.9111877814454966,0.1035215412480246,1.1689903086910352,0.4743300233716857,1.0627697782535417,0.1098625012126326,10.471529265075333,-0.958861188669924,0.2487108636477052,-0.9274759158573308
2.38,0.3191340718297666,0.4166866453254196,1.448836500404286,-0.066381533895811,0.1445482446323643,0.0083217844937919,-0.3384238869253543,-0.7767703137329725,0.0623324649984741,0.3329978746312717,0.4415227019792961,1.4471127974727085,-0.341103627219764,-0.9148138035608464,0.1160409157378089,1.1365162560134756,0.4776514410019306,1.0218189506880249,0.139299436849153,10.551411417017334,-0.9577927323818743,0.2518373819146816,-0.9266170159166434
2.4,0.312473922917951,0.4013820565676426,1.4501228853695096,-0.0665003555598686,0.1452658168104102,0.0087927116577168,-0.3281412310529762,-0.7549515133734901,0.0662235123871427,0.3261131303286418,0.4232626861292327,1.4493084220425665,-0.3348364513963139,-0.918439825676196,0.1285602902275931,1.2216109350950923,0.5141327936189016,1.090940017974118,0.1945523694334268,10.551411417017334,-0.957398590215762,0.2534956141470508,-0.9253513749035912
2.42,0.3060202707869088,0.3865188715249461,1.4514986988409684,-0.0645206436442044,0.1452246922214969,0.0094770071277428,-0.3178002900169214,-0.732689149531597,0.0712368304104859,0.3022128774834989,0.3778481296387709,1.4519531236542098,-0.3079443011734631,-0.7527780528149512,0.082544498762002,1.25267839342663,0.5170470518027437,1.1131181920946531,0.2506659011671609,10.61271488361217,-0.9578652294923472,0.2535141980224177,-0.9235074077250172
2.44,0.2997421109428273,0.371984312319319,1.4528758507445871,-0.0636269118276356,0.1449909330375825,0.010111175198107,-0.310632887949066,-0.7213151751070482,0.065597968085956,0.3022128774834989,0.3778481296387709,1.4519531236542098,-0.3079443011734631,-0.7527780528149512,0.082544498762002,0.7289302348777786,0.3583701033927661,0.5686987212274397,-0.2819431162264941,10.678574028609546,-0.957815330668414,0.2548945970460531,-0.9212027379491275
2.46,0.2939084035163245,0.358409036400359,1.4540775917152011,-0.0657570283458005,0.1450933834296524,0.0105013609542203,-0.3037452232588243,-0.7079674379742071,0.0612301359587182,0.3022128774834989,0.3778481296387709,1.4519531236542098,-0.3079443011734631,-0.7527780528149512,0.082544498762002,0.7821124742394135,0.3443832345120884,0.6673868566420549,-0.2183916063618896,9.952034147568156,-0.956323449020164,0.2572684914919661,-0.9221543008655502
2.48,0.2879132073758955,0.3444309759585812,1.4552710574379697,-0.0693704160385656,0.1454907593100206,0.0108173303346763,-0.2960906520421595,-0.690220809477481,0.0584094202398953,0.2991334344717642,0.3703203491106214,1.4527785686418295,-0.3018483840230849,-0.747979600631347,0.0865869055147076,0.9765906520623427,0.3827285608332398,0.8873314248363073,-0.1410357859411483,10.213926285402522,-0.954609208943027,0.2611383910815547,-0.9225954291761168
2.5,0.2820760031003119,0.3308422827104113,1.4564240852228405,-0.0727188586843812,0.1461127856362049,0.0111563680648785,-0.2879642164782493,-0.6696370840871166,0.0571054679231339,0.292974548448295,0.3552647880543224,1.4544294586170698,-0.2896565497223284,-0.7383826962641385,0.0946717190201187,1.1084098943584697,0.4063217781955092,1.0291862695182177,-0.0651976158380671,10.213926285402522,-0.9533851691110417,0.2651381028139407,-0.9220807444006098
2.52,0.276407003459903,0.3176827589949303,1.4575671373350072,-0.0750697931570474,0.1468565889976867,0.0115746592806823,-0.2793082359335262,-0.647665662378049,0.0572805193616763,0.2868156624248257,0.3402092269980233,1.45608034859231,-0.277464715421572,-0.72878579189693,0.1027565325255299,1.1807836530398446,0.4327990272361526,1.0985710854533814,0.0087525719271196,10.309944172491669,-0.9524813258239216,0.2683898915590652,-0.9211984929103628
2.54,0.2711867838272591,0.3055965790941874,1.4586689230913674,-0.0761837827575566,0.1475760287255683,0.0120647699551209,-0.2706042715260316,-0.6259034437928629,0.0587051962075777,0.2812663681163943,0.3256335111600847,1.4581354792428205,-0.2652728811208156,-0.7191888875297215,0.110841346030941,1.1740771463915836,0.4351982203747329,1.088110929259306,0.0712338422950677,10.39556541561342,-0.9516971705384722,0.2710777218161022,-0.9200136606396832
2.56,0.2658741386654805,0.2933262996112808,1.4598660935871477,-0.0759349910435672,0.1482689979296579,0.0126993974997272,-0.2610986729005107,-0.6024115512875283,0.0609851999201419,0.2757170738079628,0.3110577953221461,1.460190609893331,-0.2530810468200591,-0.709591983162513,0.1189261595363522,1.272226233459488,0.4752799312760458,1.1745946252667283,0.1140001856282137,10.476006745952873,-0.951112637841204,0.2727899079344398,-0.918607415139592
2.58,0.2607564874627366,0.2815325378875181,1.4611174781255003,-0.07384488686056,0.1487949321509581,0.0134876207053603,-0.25113634478698,-0.5783477022469771,0.0640972752775784,0.2704725753570503,0.2967220020933878,1.462447860881477,-0.2408892125193026,-0.6999950787953046,0.1270109730417634,1.311489444408957,0.4981164056765325,1.2031924520275628,0.1556037678718227,10.523543886607513,-0.9508490336022324,0.2731024336691522,-0.9172357469516702
2.6,0.255842759279104,0.2702097172168135,1.46244338978225,-0.0698800599917121,0.1490219410814278,0.0144368580007606,-0.2407621624050241,-0.5558307379511609,0.0683957153635955,0.2655328727636566,0.2826261314738096,1.464907232207258,-0.2286973782185462,-0.6903981744280961,0.1350957865471745,1.2580877635982155,0.518709119097796,1.1258482147908089,0.2149220043008541,10.627477333580828,-0.9511219826700054,0.2718658928790968,-0.9157354951984396
2.62,0.2513697304702687,0.2598429239181646,1.4637945967121353,-0.0654453205931836,0.1488963734542666,0.0154121891881971,-0.2306475234149373,-0.5367636135689385,0.0736421333630273,0.2481996702233876,0.2526151527751692,1.4643223418893794,-0.2464548781740151,-0.5438746257842314,0.084999527102315,1.1106147576136425,0.5057319495043385,0.9533562191111178,0.2623208999715909,10.627477333580828,-0.951378636260156,0.269996654154181,-0.9144512622430904
2.64,0.2469214957222968,0.2492540597778345,1.4652419428575023,-0.0621584036199101,0.1462948464596902,0.0164996915404964,-0.214640110591809,-0.5224928537990888,0.0703190170933078,0.2481996702233876,0.2526151527751692,1.4643223418893794,-0.2464548781740151,-0.5438746257842314,0.084999527102315,1.0850517861384394,0.8003706411564143,0.7135379884924853,-0.1661558134859755,10.10818390312943,-0.957174150724778,0.2707073420676413,-0.9051105749187894
