t,x,y,z,roll,pitch,yaw,v_x,v_y,v_z,ref_x,ref_y,ref_z,ref_v_x,ref_v_y,ref_v_z,a_com,a_x,a_y,a_z,thrust,wind_x,wind_y,wind_z
0.0,0.6924040196528835,0.5663444827369851,2.091481309003388,0.0214067322072237,0.0996040372466592,0.041855639100511,0.0022873666323715,-0.002876333395572,0.0066689128669291,0.6924790206134641,0.5661724705857311,2.0916816524012445,-0.0975548712132597,-0.1049925394468348,-0.0933242572794386,0.3807221386393986,0.114368331618577,-0.1438166697786028,0.3334456433464575,10.250292933507808,-0.9424809154993776,0.2614987926471873,-0.8739437084118008
0.02,0.692588321647404,0.5665583975652226,2.091400020190552,0.0286150011343105,0.0939966195785787,0.0422165238333097,0.0157204083859548,0.0203251743796898,-0.0159928908559704,0.6924790206134641,0.5661724705857311,2.0916816524012445,-0.0975548712132597,-0.1049925394468348,-0.0933242572794386,1.75521645515181,0.6716520876791638,1.160075388763094,-1.1330901861449791,10.249595407004565,-0.9499265037399496,0.2604797133170884,-0.8616109989519086
0.04,0.6930092855465892,0.5670182489654316,2.090758703780451,0.0429483524446831,0.0779455897336457,0.0425941798430159,0.0241340681753088,0.0236189960756155,-0.046855214489729,0.6924790206134641,0.5661724705857311,2.0916816524012445,-0.0975548712132597,-0.1049925394468348,-0.0933242572794386,1.6078883298369946,0.4206829894676999,0.1646910847962845,-1.5431161816879315,8.883848182113525,-0.9496248966573372,0.2465718540509227,-0.8671397366548622
0.06,0.6934622591667756,0.5674373707089921,2.089577986880748,0.0570498308635331,0.0569589610081813,0.0424288080469739,0.0222557255906756,0.0200047820745748,-0.0758886451165857,0.6915034719013315,0.5651225451912627,2.09074840982845,-0.1175548715112829,-0.124992539744858,-0.1133242575774618,1.4658877921545237,-0.0939171292316591,-0.1807107000520351,-1.4516715313428348,8.550329482277903,-0.9566213945431156,0.2288143653805433,-0.8686509924491929
0.08,0.6938017185518871,0.5677634108586695,2.0877450338810606,0.0713560493304354,0.032823518637087,0.0417068944355698,0.0110412266399376,0.0124330247664056,-0.1059039965891308,0.6895523744770663,0.563022694402326,2.088881924682861,-0.1575548721073293,-0.1649925403409045,-0.1533242581735082,1.646221293956507,-0.5607249475369008,-0.3785878654084598,-1.500767573627256,8.571730711229065,-0.9685481884984594,0.2091295878619146,-0.8677426051714188
0.1,0.6938265874083411,0.5679037904781088,2.08532023856231,0.0849899668967825,0.0095821926375283,0.0406029347983018,-0.0083256058262102,0.0016688985900892,-0.1351592293777452,0.6876012770528012,0.5609228436133893,2.0870154395372724,-0.1975548727033758,-0.2049925409369509,-0.1933242587695547,1.8349449975595429,-0.9683416233073944,-0.5382063088158192,-1.462761639430718,8.622516999714662,-0.9825202121159736,0.1905372735822903,-0.8642589627235983
0.12,0.6934292264418538,0.5678097886359915,2.082480768639625,0.0973377836408667,-0.0098747357622123,0.0394040774211999,-0.0326024776598778,-0.0112822937499991,-0.1623425685535211,0.6836501795987336,0.5568229927946503,2.083148954361881,-0.2375548732994223,-0.2449925415329974,-0.2333242593656011,1.9339298189202452,-1.2138435916833792,-0.6475596170044186,-1.3591669587887931,8.706236222984899,-0.9970330649013294,0.1702028786393491,-0.8620360572693807
0.14,0.6924692658089727,0.5674181473028964,2.078927930406405,0.1097259797492348,-0.0266602478974627,0.038172275507025,-0.0622041638364633,-0.0274874552831976,-0.1915863933412808,0.6796990821446661,0.5527231419759113,2.07928246918649,-0.2775548738954688,-0.2849925421290439,-0.2733242599616476,2.232749634996781,-1.4800843088292763,-0.8102580766599264,-1.4621912393879877,8.796658014684454,-1.009694222706806,0.1493624604192902,-0.8627294229296493
0.16,0.6908768174446026,0.5666753010082634,2.0747870082966635,0.1215076721767087,-0.0390603056116815,0.0371531641526092,-0.0953012404915369,-0.0462446877082244,-0.2210777350529733,0.6747479846756974,0.5476232911422712,2.074415983996198,-0.3175548744915152,-0.3249925427250903,-0.3133242605576941,2.406755849330225,-1.654853832753677,-0.9378616212513412,-1.4745670855846216,8.861946582530436,-1.0200903888958444,0.130066547561449,-0.8642458287910677
0.18,0.6885962000601658,0.5655317206000329,2.07005799296481,0.1326963610048937,-0.0467145718309467,0.0365148169486493,-0.1309927516874195,-0.067421159605582,-0.2503947550987001,0.6687968871918276,0.5415234402937298,2.068549498791005,-0.3575548750875616,-0.3649925433211367,-0.3533242611537405,2.540577984350674,-1.784575559794132,-1.058823594867875,-1.4658510022863391,8.861946582530436,-1.02650408777632,0.1134888599779165,-0.8676205453755064
0.2,0.6857487510822339,0.5640311388972937,2.065024536176669,0.1427863128851632,-0.0490127330677566,0.0364526396053374,-0.1664544659028863,-0.089673303029409,-0.2779501575895466,0.6820465624757948,0.5621606626197537,2.057538255209875,-0.2309927531775356,-0.1674211610956981,-0.3503947565888162,2.505988461908076,-1.773085710773339,-1.11260717119135,-1.3777701245423295,8.92689975176836,-1.0311497971077224,0.096273273423265,-0.873669595190887
0.22,0.6820003250334783,0.5618122086353224,2.0592681762136684,0.1483405277567513,-0.0453142603099301,0.0368885301905137,-0.2059724765447115,-0.129077236292535,-0.2951102665995056,0.6820465624757948,0.5621606626197537,2.057538255209875,-0.2309927531775356,-0.1674211610956981,-0.3503947565888162,2.919251814646165,-1.9759005320912584,-1.9701966631563004,-0.8580054504979479,9.862512368208629,-1.0359192953667145,0.0836360889627571,-0.8787935734062925
0.24,0.677509478192726,0.5588712382192134,2.0532055565761804,0.1480864772082822,-0.0360191509971063,0.0377476583874231,-0.2404265706405631,-0.1625294959339643,-0.3102460054947925,0.6820465624757948,0.5621606626197537,2.057538255209875,-0.2309927531775356,-0.1674211610956981,-0.3503947565888162,2.517552813244292,-1.7227047047925796,-1.6726129820714684,-0.7567869447643427,9.752063562956664,-1.0348908731912851,0.081157126311585,-0.8835161521634814
0.26,0.6723872601347418,0.5552892770580441,2.04682504052384,0.1443751108543189,-0.0236573737215013,0.0387868710419994,-0.269521978874401,-0.1930690405234002,-0.3268339412418653,0.6797366349440194,0.5604864510087968,2.054034307643987,-0.2509927534755589,-0.1874211613937213,-0.3703947568868394,2.2662558198341367,-1.454770411691894,-1.5269772294717918,-0.8293967873536423,9.752063562956664,-1.0293509424457956,0.08086948772677,-0.8934811932232717
0.28,0.667030424621287,0.5513675135272778,2.040443651559753,0.1393669466122829,-0.0107746164294152,0.0397703004339627,-0.2925442012388696,-0.2178627438445323,-0.3439858484366306,0.6751167798804687,0.5571380277868828,2.047026412512211,-0.2909927540716053,-0.2274211619897677,-0.4103947574828858,1.8966670552532416,-1.1511111182234328,-1.2396851660566075,-0.8575953597382641,9.451648644261695,-1.021339048359726,0.0827899078451271,-0.9050314612966534
0.3,0.6609645425144801,0.5467652503042955,2.033356139507985,0.1339222885267112,0.0026502099698875,0.0406928078264367,-0.3124945510671756,-0.2409160098455999,-0.3639688129363627,0.670496924816918,0.5537896045649688,2.0400185173804344,-0.3309927546676517,-0.2674211625858142,-0.4503947580789323,1.8226275001939656,-0.997517491415298,-1.1526633000533804,-0.9991482249866068,9.451648644261695,-1.0116976602511578,0.0845572779641354,-0.9184079448441724
0.32,0.6545388820202818,0.5417233381099053,2.0258465864908364,0.1288383053277186,0.0150064146173368,0.0414185665207322,-0.3288477012271955,-0.262060105225006,-0.3861037281921733,0.663877069723565,0.5484411813132526,2.031010622218856,-0.3709927552636982,-0.3074211631818606,-0.4903947586749787,1.735261336911171,-0.8176575080009962,-1.0572047689703046,-1.1067457627905286,9.184499139742002,-1.0011537354894404,0.0855831460365376,-0.9328968940909408
0.34,0.6478173892602985,0.5362739904554645,2.017878138422229,0.1242950097222984,0.0257255823302857,0.0419052457156714,-0.3423465307789989,-0.2818098689105385,-0.409724018327557,0.6572572146302119,0.5430927580615362,2.022002727057277,-0.4109927558597447,-0.3474211637779071,-0.5303947592710252,1.6809146847644618,-0.6749414775901713,-0.987488184276622,-1.1810145067691873,9.184499139742002,-0.9914881695422788,0.0862455107712094,-0.9458813328941535
0.36,0.6411997735622599,0.5307338854350272,2.009857240087719,0.1202900326276052,0.0342342315691561,0.0421325569355547,-0.353540749460888,-0.3002583232664865,-0.4334138107960288,0.6496373595219578,0.5367443347949188,2.011994831880797,-0.4509927564557911,-0.3874211643739536,-0.5703947598670716,1.602234585836852,-0.5597109340944512,-0.9224227177974026,-1.1844896234235902,9.111174410475542,-0.9817918918035282,0.0862580862908589,-0.9592487323449786
0.38,0.6340164129875715,0.5245318397646569,2.000916087092822,0.1161992685555735,0.0415954361560277,0.0421474803832254,-0.3641515927299935,-0.3188574532749966,-0.45951962053699,0.6410175043988023,0.5293959115134003,2.000986936689416,-0.4909927570518375,-0.42742116497,-0.610394760463118,1.688217206246167,-0.5305421634552748,-0.929956500425505,-1.305290487048058,9.003393234460418,-0.973146422930066,0.0861103478013132,-0.9714287629302434
0.4,0.626630253977543,0.5179654690036751,1.9914427245424828,0.1121758826932038,0.0475248480502325,0.0419662545576445,-0.3739021142875661,-0.336720065149315,-0.4865529462949768,0.6158088333510718,0.5085889671009071,1.9779401060659725,-0.44128750580401,-0.408232323336871,-0.5030160951606701,1.6918527382389554,-0.4875260778786333,-0.8931305937159184,-1.351666287899339,9.003393234460418,-0.9657669847135838,0.0859499501397789,-0.9821964937779912
0.42,0.6190634292189043,0.5109804173018972,1.981754514116419,0.1071458072126339,0.0525945786853349,0.0415880534530412,-0.3821430169158851,-0.3603611398258602,-0.4790748098121087,0.6158088333510718,0.5085889671009071,1.9779401060659725,-0.44128750580401,-0.408232323336871,-0.5030160951606701,1.3064603067523937,-0.4120451314159501,-1.1820537338272596,0.3739068241434023,8.965457046715528,-0.9697327587797784,0.0879418564638056,-0.9806226488194644
0.44,0.6117359615247269,0.5039394862383598,1.9727265349319756,0.1015673302510653,0.0568718610630763,0.0410877311163511,-0.3887385417639484,-0.3793697367699994,-0.4717930798598169,0.6158088333510718,0.5085889671009071,1.9779401060659725,-0.44128750580401,-0.408232323336871,-0.5030160951606701,1.0698730028656034,-0.3297762424031653,-0.9504298472069628,0.3640864976145935,11.1185241472258,-0.967364007514014,0.093101153095927,-0.9821811445360816
0.46,0.6038960279288385,0.496166220060876,1.963330795057012,0.0958188275795915,0.0605408399063108,0.0404610514394435,-0.3948953769884726,-0.3968184471875475,-0.4683620533459606,0.6113959582930317,0.5045066438675384,1.9729099451143657,-0.4567146884188133,-0.4261072973492459,-0.5117153900854061,0.94092515397902,-0.3078417612262074,-0.8724355208774043,0.1715513256928119,10.583556682848211,-0.9646640107630284,0.0976277517959378,-0.9845939137927708
0.48,0.5959382723009765,0.4880651062770801,1.9539580185098435,0.0904940683903098,0.0632292524823405,0.0397528204456879,-0.4006193989609091,-0.4123848083770245,-0.4690736940271348,0.6025702081769515,0.4963419974008009,1.9628496232111523,-0.4875690536484199,-0.4618572453739957,-0.5291139799348782,0.8300338256379899,-0.2862010986218272,-0.7783180594738509,-0.0355820340587093,10.3572945015012,-0.962378194012402,0.1012389753483419,-0.9869889589169956
0.5,0.5882737102042838,0.4800954218630799,1.9450107223214608,0.0859291123032142,0.0648973199214228,0.0390250651786229,-0.405947157102601,-0.4257686959776765,-0.4727136387077339,0.5937444580608713,0.4881773509340635,1.952789301307939,-0.5184234188780266,-0.4976071933987454,-0.5465125697843503,0.7429041852774001,-0.2663879070845948,-0.6691943800325978,-0.1819972340299541,10.181673578004848,-0.960529958491261,0.1043127559036342,-0.9892990405412716
0.52,0.5800955203790629,0.4714446861176919,1.9354932946757148,0.0817238155340353,0.0658024883421513,0.0382239734193266,-0.411648992155664,-0.4386177301549498,-0.4789544640983054,0.5833759896833107,0.4782252070660885,1.941859049912252,-0.5492777841076332,-0.5333571414234951,-0.5639111596338223,0.7690196743528029,-0.2850917526531493,-0.6424517088636644,-0.3120412695285735,10.181673578004848,-0.9593280555992232,0.1066452673712372,-0.9912493442001364
0.54,0.5718015347845296,0.4625459634870054,1.9258422714445984,0.0781628236708415,0.0659467567373429,0.0374058628475086,-0.417527349682577,-0.4506565573460019,-0.4858547145498028,0.5730075213057502,0.4682730631981137,1.9309287985165648,-0.5801321493372399,-0.569107089448245,-0.5813097494832944,0.753495029253046,-0.2939178763456479,-0.6019413595526046,-0.3450125225748696,10.041999471363852,-0.9591167380410632,0.1082542744955927,-0.9924828967262452
0.56,0.5633833520908623,0.4534056591861967,1.916049557099212,0.074984302243756,0.0655920721397815,0.0365782519267809,-0.4240452355172034,-0.4626976429407107,-0.4930673525998988,0.5618676937974495,0.45742717062952,1.919563582374641,-0.6109865145668465,-0.6048570374729947,-0.5987083393327663,0.7737776258299656,-0.325894291731324,-0.6020542797354422,-0.3606319025048043,10.016949661386208,-0.9592435310963928,0.1093651681363977,-0.993488578019279
0.58,0.5552594699875338,0.4445026124217137,1.9066100388677416,0.0720801595233328,0.0651033991816981,0.0357928295971294,-0.4307893476330912,-0.4737692804604459,-0.5001993522090151,0.5499565071584087,0.4456875293603076,1.9077634014864804,-0.6418408797964531,-0.6406069854977444,-0.6161069291822384,0.7398135306016411,-0.3372056057943884,-0.5535818759867583,-0.3565999804558128,10.005990769684104,-0.959694532017595,0.1104698258979254,-0.9942082030556684
0.6,0.5465650911478055,0.4349104535869362,1.896522955917869,0.0691113140651476,0.0646398832368274,0.0349810544311593,-0.4383058486299361,-0.4847812106774865,-0.5081494551052537,0.5337200026058793,0.4208141483986913,1.8816000712572911,-0.4401471669667637,-0.5016934958815265,-0.4934019803111686,0.7761516127686027,-0.3758250498422433,-0.5505965108520278,-0.3975051448119271,9.991126210047696,-0.9606042845114192,0.1117553003344306,-0.9941846758782258
0.62,0.537640727754266,0.4249005201332658,1.8864969884720084,0.0603101838023558,0.0675162119715209,0.0339866382334181,-0.4532864649595733,-0.5123788312079279,-0.4924894733501421,0.5337200026058793,0.4208141483986913,1.8816000712572911,-0.4401471669667637,-0.5016934958815265,-0.4934019803111686,1.7544817989426835,-0.7490308164818604,-1.379881026522073,0.7829990877555759,9.964334647630494,-0.9590253366802792,0.1165823876789345,-0.9983284671148526
0.64,0.5284601921446794,0.4144986565006905,1.8768228370864355,0.0458877835714351,0.0755109546277623,0.03285465907034,-0.4633479604787834,-0.5252557728692954,-0.4757482918747667,0.5337200026058793,0.4208141483986913,1.8816000712572911,-0.4401471669667637,-0.5016934958815265,-0.4934019803111686,1.169739795664828,-0.5030747759605048,-0.6438470830683718,0.83705907376877,11.689797151473613,-0.9567379494383672,0.1303790821136777,-0.9968948409338558
0.66,0.5195973914663232,0.4044676535323352,1.8679086650306984,0.0316557826239196,0.0854067556189351,0.0317378832710532,-0.4686401225493284,-0.5297079791993684,-0.4634149827081145,0.5293185309362116,0.4157972134398761,1.8766660514541795,-0.4420187308334982,-0.5072783389657426,-0.4920425059315993,0.7070000629184666,-0.2646081035272501,-0.2226103165036519,0.6166654583326131,11.411685704449155,-0.9498897960489296,0.1450249148056243,-0.999885932759792
0.68,0.5101983014583705,0.3938744848753254,1.8587448218133904,0.0177627260762523,0.0968257457039736,0.030531158369193,-0.4705749590686701,-0.5292599924230402,-0.4537961126503507,0.5205155875968763,0.4057633435222456,1.866798011847956,-0.4457618585669672,-0.5184480251341748,-0.4893235571724608,0.4910879394173925,-0.0967418259670865,0.0223993388164089,0.4809435028881897,11.123193891242408,-0.940072044199648,0.1582320668167388,-1.0061802280793093
0.7000000000000001,0.5007940704382607,0.3833320057490035,1.849738883938541,0.0056474014439523,0.1084767177656571,0.0293182296132195,-0.4693948705562448,-0.525073700335364,-0.4474380115973095,0.511712644257541,0.395729473604615,1.8569299722417327,-0.4495049863004363,-0.529617711302607,-0.4866046084133222,0.3851723618757643,0.0590044256212674,0.209314604383809,0.3179050526520593,10.905850442431984,-0.9289413030543296,0.1696547021665169,-1.0139337386312786
0.72,0.49190790695174,0.3734232840523293,1.841274183963261,-0.0039395080136301,0.1193610584338827,0.0281953822706818,-0.4657562788723474,-0.518470867174076,-0.4439253697658405,0.5027225445315323,0.3851371193785629,1.8471978800734663,-0.4532481140339053,-0.5407873974710393,-0.4838856596541836,0.4158587736062514,0.1819295841948703,0.3301416580644034,0.1756320915734466,10.603339316677191,-0.9179580287686206,0.1787250370473105,-1.021772209668051
0.74,0.4826558079680493,0.3631467655766592,1.8324277776342544,-0.0120806328583808,0.1303984268007811,0.0270685205733881,-0.4593416033710296,-0.509736664387152,-0.4409490734207204,0.4937324448055236,0.3745447651525107,1.8374657879052,-0.4569912417673743,-0.5519570836394715,-0.481166710895045,0.5619001246758454,0.32073377506589,0.4367101393461969,0.1488148172560072,10.603339316677191,-0.9066202669259302,0.1864515539473043,-1.029937784429487
0.76,0.4735579649202628,0.3530583852662914,1.8236354910339443,-0.0183928213910571,0.1408876896010372,0.0260168722977562,-0.4504884055547593,-0.4997536492724014,-0.4384708181394909,0.4846487668861781,0.3636731687722478,1.827801669455912,-0.4607343695008433,-0.5631267698079038,-0.4784477621359064,0.6785673356312802,0.4426598908135126,0.4991507557375318,0.1239127640614734,10.583897438247732,-0.8954101617301478,0.1925339081680105,-1.0380243131133988
0.78,0.4646725145582793,0.3431817437660189,1.8148882585031056,-0.0230362443323063,0.1504098244961341,0.0250645377321433,-0.438358301234095,-0.4887712955137172,-0.4364110021738353,0.4754715107734959,0.352522330237774,1.8182055247256024,-0.4644774972343123,-0.5742964559763359,-0.4757288133767678,0.8246125858902666,0.6065052160332152,0.5491176879342086,0.1029907982827815,10.583897438247732,-0.8859022838600271,0.1969826502936434,-1.0446213014525176
0.8,0.4564849493941034,0.334008476107178,1.8066136550187155,-0.0260986730703704,0.1579464509443131,0.0242756291116719,-0.4240946515802707,-0.4777124219657077,-0.4347261938750687,0.4427545994965746,0.318743178990333,1.793067708394414,-0.401798991423695,-0.4726574312557855,-0.4086027345506492,0.9063511524258956,0.7131824826912159,0.5529436774004748,0.0842404149383302,10.583316812943847,-0.8767031586952548,0.2002795781878805,-1.051125013934432
0.8200000000000001,0.4481517852402801,0.3244825202922287,1.79798987104264,-0.0313008901492247,0.1651248558234351,0.0233204735378889,-0.4097804958654833,-0.4739430112184064,-0.4275331650921671,0.4427545994965746,0.318743178990333,1.793067708394414,-0.401798991423695,-0.4726574312557855,-0.4086027345506492,0.822865685091897,0.7157077857393696,0.188470537365068,0.3596514391450811,10.59064925579787,-0.8666265159829452,0.2048423366673732,-1.0589324622795826
0.84,0.4401254068820151,0.3151148193220677,1.7895191736653768,-0.0385284264111746,0.1724307594354735,0.022198062135688,-0.3933474903814683,-0.4627442401298851,-0.419973267904764,0.4427545994965746,0.318743178990333,1.793067708394414,-0.401798991423695,-0.4726574312557855,-0.4086027345506492,1.0637295105134472,0.8216502742007498,0.5599385544260621,0.3779948593701537,10.961091450069944,-0.8586132518322127,0.2120306672397329,-1.0631482082275314
0.86,0.4328336709234334,0.3064653745009241,1.7816099258752514,-0.0449235987533229,0.1788181767568122,0.0211657080363204,-0.3749570867878866,-0.4484373782711031,-0.4129853379519924,0.4387366095823376,0.3140166046777752,1.7889816810489074,-0.394487129461615,-0.4694346584041992,-0.403041081026012,1.2162693016001187,0.9195201796790842,0.7153430929390997,0.3493964976385821,10.961091450069944,-0.8501778700789886,0.2193789810465594,-1.067320937474672
0.88,0.4255591215886191,0.297675938737986,1.7734284224253611,-0.0504397565025043,0.1842990745139448,0.0202115012345985,-0.3534015806194649,-0.4314229274788873,-0.405532208650196,0.4307006297538637,0.3045634560526595,1.7808096263578943,-0.379863405537455,-0.4629891127010265,-0.3919177739767375,1.4227442833542654,1.0777753084210862,0.8507225396107931,0.3726564650898156,10.977913267036456,-0.842109982031959,0.2256097046416478,-1.0713338528283791
0.9,0.4187348894891315,0.2892419541348098,1.765399068799051,-0.054485659210473,0.1881001839360509,0.0194520751901,-0.3301213062659883,-0.4130757777662441,-0.3977531122489006,0.4226646499253898,0.2951103074275438,1.7726375716668816,-0.365239681613295,-0.4565435669978538,-0.3807944669274631,1.532239714741079,1.1640137176738286,0.9173574856321588,0.3889548200647713,11.013644214998749,-0.8353015835164741,0.2305009628211199,-1.0745281316208144
0.92,0.4123899025386511,0.2811848952096751,1.757532228656996,-0.0569904146543206,0.1899593510553775,0.0189264123801371,-0.3057241941437295,-0.393972004046124,-0.3893015298517195,0.4153598562931239,0.2859794360875867,1.7650216823283325,-0.350615957689135,-0.4500980212946811,-0.3696711598781886,1.60592846608431,1.2198556061129406,0.955188686006006,0.4225791198590567,11.057886010982656,-0.8301310819488711,0.2337597571558921,-1.0768861475162148
0.94,0.4068206427801165,0.2738909516282877,1.7502249941189425,-0.057958821621919,0.1898546743532527,0.0186571353870824,-0.2818666085427004,-0.3750378730229444,-0.3802840454476204,0.408055062660858,0.2768485647476296,1.7574057929897833,-0.335992233764975,-0.4436524755915084,-0.3585478528289142,1.5882385945533586,1.1928792800514536,0.9467065511589796,0.4508742202049526,11.113677795570766,-0.8272133422092278,0.2358843530027229,-1.0774981259868337
0.96,0.4014530468060195,0.2666087640619993,1.742729417823267,-0.057161151976487,0.1875383221669259,0.0186536659655303,-0.2562306169052536,-0.3543752915587053,-0.3696680102952453,0.4011158621266961,0.2678788320502519,1.7500679863274655,-0.321368509840815,-0.4372069298883357,-0.3474245457796397,1.729773498437024,1.281799581872342,1.0331290732119525,0.5308017576187568,11.189127372017538,-0.8271714965501179,0.2363357598497136,-1.0760290423792642
0.98,0.3966003926766493,0.2597438765450954,1.735459386473287,-0.0540737212370644,0.1825544782307202,0.0189755506752155,-0.2306126858546196,-0.3336482003400983,-0.3577445845265753,0.3945422546906382,0.2590702379954535,1.7430082623413805,-0.306744785916655,-0.4307613841851631,-0.3363012387303653,1.7521834833718732,1.2808965525316975,1.0363545609303526,0.5961712884335002,11.337477892310744,-0.8291868333663505,0.2345534915538593,-1.0735536585760252
1.0,0.3924468988992102,0.2535818186920829,1.7287900016177613,-0.0495339296766192,0.1755355034859988,0.0195062103197054,-0.2083124139789528,-0.3165324761849294,-0.3448196724141815,0.3850697583839183,0.2430614665280905,1.7175721572469582,-0.2505403141929566,-0.3195269184256853,-0.3172967012186415,1.5470160731207592,1.11501359378334,0.855786207758441,0.6462456056196914,11.406581431990162,-0.8323449384910762,0.2311636244354978,-1.0709101071512688
1.02,0.3885693707783849,0.2473953088155411,1.7219984308959986,-0.0449300446544118,0.1641770852420055,0.0202112182764144,-0.1814191416199956,-0.3028970581289722,-0.3351420913320451,0.3850697583839183,0.2430614665280905,1.7175721572469582,-0.2505403141929566,-0.3195269184256853,-0.3172967012186415,1.5833732182709643,1.3446636179478595,0.6817709027978625,0.48387905410682,11.406581431990162,-0.8435257296362058,0.2286425580189585,-1.0601967464351536
1.04,0.3851676399332474,0.2414806597505022,1.7154152611105389,-0.0409508678216085,0.1479815103817606,0.0210393264362505,-0.161011728656003,-0.2893376419849104,-0.3234401207858015,0.3850697583839183,0.2430614665280905,1.7175721572469582,-0.2505403141929566,-0.3195269184256853,-0.3172967012186415,1.3576232768297032,1.0203706481996295,0.6779708072030877,0.5850985273121806,11.216796191887624,-0.85342587197779,0.2254575049065827,-1.053062317932389
1.06,0.3822454098528285,0.2361078577718022,1.7094045595771152,-0.0373930993444329,0.1304252622753456,0.0218419258885309,-0.1482633552972924,-0.2770169468447956,-0.3097827101913269,0.3825643552419888,0.2398661973438336,1.7143991902347715,-0.254525839860624,-0.3167026620428027,-0.3092071245570547,1.1189787935600015,0.6374186679355311,0.6160347570057428,0.6828705297237281,11.216796191887624,-0.8690212686778003,0.2228495631087753,-1.0399605678393455
1.08,0.379360455463114,0.2306960695141103,1.7033780833891994,-0.0338165199348055,0.1115510389374536,0.0226261625236196,-0.1415178022949061,-0.2649218585824704,-0.2934628169730824,0.3775535489581296,0.2334756589753199,1.708053256210399,-0.2624968911959588,-0.3110541492770375,-0.2930279712338812,1.0702015698413307,0.337277650119315,0.6047544131162569,0.8159946609122226,11.418301141893608,-0.8880026996437715,0.2208645222275715,-1.0223944030922325
1.1,0.37654291560534,0.2255167493682624,1.6976930240946977,-0.030412773942448,0.0937400904010518,0.0233013976639424,-0.1410271790924858,-0.2537147996163468,-0.2757826364092877,0.3725427426742705,0.2270851206068062,1.7017073221860262,-0.2704679425312936,-0.3054056365112723,-0.2768488179107077,1.0469332196531362,0.0245311601210149,0.5603529483061837,0.8840090281897389,11.478891965235562,-0.90813690511512,0.2193372862989134,-1.0023402998421842
1.12,0.3736756513599351,0.2205520030177964,1.6923713230872224,-0.0271984237790886,0.0781242769254583,0.0238448091862829,-0.1459137980195659,-0.2433953182063574,-0.2572352528802197,0.3671333838236446,0.2209770078765807,1.696170345827812,-0.2784389938666283,-0.2997571237455071,-0.2606696645875341,1.0890089265978902,-0.2443309463540058,0.515974070499467,0.9273691764533992,11.478891965235562,-0.9265854304853288,0.2183561830672632,-0.982547083011637
1.14,0.3708196336082943,0.2160186440794446,1.6876621288600877,-0.0243439883160029,0.0659299504023602,0.0242382243522249,-0.1545061488795371,-0.2343583814383128,-0.2393624235649202,0.3617240249730187,0.2148688951463553,1.690633369469598,-0.2864100452019631,-0.2941086109797419,-0.2444905112643606,1.0896475888840298,-0.4296175429985602,0.4518468384022298,0.8936414657649729,11.517403739994734,-0.9446420707594592,0.2180337044635997,-0.9613627016888672
1.16,0.3676047579295309,0.2114252431070485,1.683073719030183,-0.0215486178625555,0.0562049561443563,0.0245357470912626,-0.1666362984287539,-0.2255123676133456,-0.2203885536613576,0.3561153898390095,0.208901995235274,1.685500871944463,-0.2943810965372979,-0.2884600982139768,-0.2283113579411871,1.2097522760829924,-0.6065074774608367,0.4423006912483609,0.9486934951781296,11.521610153723486,-0.9597381865178028,0.2178582839904874,-0.9426063502561782
1.18,0.3641157328724948,0.2070019271781664,1.6788637379557332,-0.0189548231908576,0.0501144209278331,0.0247264235718258,-0.1818015018736775,-0.2173120586032217,-0.2015487262212557,0.3503074784216169,0.2030763081433368,1.6807728532524078,-0.3023521478726327,-0.2828115854482115,-0.2121322046180136,1.2768785781743877,-0.7582601722461807,0.4100154505061931,0.9419913720050952,11.52335528661206,-0.9708655472412192,0.2177129209122084,-0.927849164189804
1.2,0.3602994639314018,0.2027360342637056,1.67502784817829,-0.0165626004847672,0.0483830025200091,0.0248186569868568,-0.1985489387260396,-0.2097013612473549,-0.1829176349336597,0.3550256577788109,0.1961363242480054,1.6687863016446705,-0.2108215915297921,-0.2217080906795507,-0.182165400048427,1.3091189001893515,-0.8373718426181078,0.3805348677933431,0.931554564379798,11.49016576205031,-0.9792048075121678,0.2178715716670637,-0.9157401618011186
1.22,0.3561424118337245,0.1986462125747233,1.6714633350668522,-0.0133906505330296,0.0509375861058514,0.0249050077376851,-0.2149216068726453,-0.2007423727023659,-0.174808700994163,0.3550256577788109,0.1961363242480054,1.6687863016446705,-0.2108215915297921,-0.2217080906795507,-0.182165400048427,1.017450917272232,-0.8186334073302839,0.4479494272494486,0.4054466969748385,10.827290901379456,-0.9800744970764984,0.217863661830093,-0.9112269705348824
1.24,0.3519105985809446,0.1949082836315722,1.668231885879679,-0.0097467140054106,0.0564028841716284,0.0250115010129255,-0.2285148825629652,-0.1937329108852502,-0.1661225852210952,0.3550256577788109,0.1961363242480054,1.6687863016446705,-0.2108215915297921,-0.2217080906795507,-0.182165400048427,0.87942922708678,-0.6796637845159922,0.3504730908557865,0.4343057886533885,10.827290901379456,-0.980278054373289,0.2157237291766426,-0.9099229770895704
1.26,0.3472293504990357,0.191093529822631,1.6650050711763067,-0.0059255626857427,0.0638488808134691,0.0251388501766748,-0.2385704209704845,-0.188167583083063,-0.1569715443437734,0.352917441863513,0.1939192433412098,1.6669646476441862,-0.216625609461015,-0.2225872970948165,-0.1782887348138613,0.7345547551906993,-0.5027769203759663,0.2782663901093565,0.4575520438660885,10.832107774438557,-0.977888191703292,0.2137282417896873,-0.9113404871741873
1.28,0.3423832131446006,0.1873788053973812,1.661963635482658,-0.0023903442976269,0.0718847800948723,0.0252794685996162,-0.2452628141586759,-0.1836075706217442,-0.1476285415617581,0.3487010100329172,0.1894850815276188,1.6633213396432176,-0.2282336453234608,-0.2243457099253481,-0.1705354043447298,0.618210201342312,-0.3346196594095699,0.2280006230659437,0.4671501391007679,10.83359765204932,-0.9742362793830588,0.2120081826957604,-0.9140773593157488
1.3,0.3374360257859845,0.1837470704507273,1.6591090784171885,0.0007483884263793,0.0795843797161448,0.0254276072724801,-0.2489772780934724,-0.1797722773487282,-0.1383064394475174,0.3444845782023213,0.1850509197140278,1.659678031642249,-0.2398416811859066,-0.2261041227558797,-0.1627820738755984,0.5371412864444433,-0.1857231967398273,0.1917646636508008,0.4661051057120335,10.83359765204932,-0.9703843424718605,0.2106925151593204,-0.9170274424430604
1.32,0.3326910634603871,0.1803626283282624,1.6565687674797684,0.0033584223529992,0.0860134280414884,0.0255687901532441,-0.2502623457507748,-0.17664811171129,-0.1295738039606524,0.3396877445786032,0.1805288372589102,1.656422390164737,-0.2514497170483525,-0.2278625355864113,-0.1550287434064669,0.4681632524036018,-0.0642533828651148,0.1562082818719085,0.436631774343249,10.821677154490317,-0.9665312151190047,0.2096159320944341,-0.9198744142519052
1.34,0.3276876220172359,0.176860017478012,1.65406975150874,0.0057460384235032,0.0915040392563247,0.0257105565063613,-0.2499697582685518,-0.173772498853242,-0.1208169355864695,0.3348909109548851,0.1760067548037926,1.653166748687225,-0.2630577529107983,-0.2296209484169429,-0.1472754129373354,0.4610788990695886,0.0146293741111483,0.1437806429023996,0.437843418709146,10.821677154490317,-0.9632642160167152,0.2088277610109311,-0.9220606064920892
1.36,0.3227021647226684,0.173410161270237,1.651740155694052,0.0077770434355572,0.0955516906088869,0.0258368217894673,-0.2486471511953059,-0.1713184310576234,-0.1125874119339307,0.3298038764346058,0.1714407120279117,1.6501049404714414,-0.2746657887732441,-0.2313793612474745,-0.139522082468204,0.4344444664263429,0.0661303536622942,0.1227033897809315,0.4114761826269394,10.797704804527712,-0.9609470371702084,0.2082875417504885,-0.9233454273264412
1.38,0.317995727157943,0.1701751831608061,1.6496760221215327,0.0094046718933775,0.0981393284457224,0.025938193306871,-0.2469040242897184,-0.1692934985226392,-0.1051036595792048,0.3244266410177653,0.1668307089312676,1.6472369655173862,-0.2862738246356899,-0.2331377740780061,-0.1317687519990725,0.3973203760414451,0.0871563452793738,0.1012466267492073,0.3741876177362963,10.754443715327398,-0.9595227237887032,0.207923002951864,-0.9236754624484632
1.4,0.3130785655449847,0.1668083045551587,1.6476551565287467,0.0108124379675629,0.099708620266976,0.0260224870780682,-0.2449613309163542,-0.1675130136730295,-0.0973819791546006,0.3056505259434571,0.1617105082346741,1.6444208391425723,-0.2439322808233859,-0.1774405361106991,-0.0864543701947205,0.4079477062759349,0.0971346686682125,0.0890242424804871,0.3860840212302089,10.754443715327398,-0.9591255570375464,0.2077678026977475,-0.9229733644822796
1.42,0.3081586952715374,0.1634639119467638,1.645788651111508,0.0115852003689634,0.1016278205532928,0.0260753384435191,-0.2469942160014737,-0.1669484811532977,-0.0896405067319092,0.3056505259434571,0.1617105082346741,1.6444208391425723,-0.2439322808233859,-0.1774405361106991,-0.0864543701947205,0.4011910829219289,-0.1016442542559753,0.0282266259865868,0.3870736211345718,10.746833474888264,-0.956509938739148,0.2075756106528973,-0.9251180740731324
1.44,0.3032103973944841,0.1601328039946674,1.6440763923287494,0.0115484289555091,0.1049943657483702,0.0260971058022704,-0.2474918214543475,-0.1661385833063967,-0.0819702403943808,0.3056505259434571,0.1617105082346741,1.6444208391425723,-0.2439322808233859,-0.1774405361106991,-0.0864543701947205,0.386447057815702,-0.024880272643693,0.0404948923450512,0.3835133168764166,10.769118732795503,-0.956079203317178,0.2086837973849376,-0.9242474649387076
1.46,0.2985185554330476,0.1569869633007538,1.6425901896564925,0.0109207375150143,0.1087914309259902,0.0260903880220326,-0.2462274517262575,-0.1650147149563777,-0.0748584450806032,0.3032112031352232,0.1599361028735671,1.643556295440625,-0.2433379321301193,-0.1790699436283111,-0.0827245123178236,0.3655110923848757,0.0632184864045024,0.0561934175009506,0.3555897656888802,10.755008982306208,-0.9544440805083816,0.2103029577843468,-0.9245239123002132
1.48,0.2936228637434085,0.1537044386805838,1.6411702518293083,0.0097979040878453,0.1128460414206943,0.0260576461640922,-0.2432886256337378,-0.1632661677904361,-0.0675208456301032,0.2983325575187555,0.1563872921513531,1.6418272080367309,-0.2421492347435863,-0.1823287586635351,-0.0752647965640299,0.4047668516861774,0.1469413046259859,0.0874273582970819,0.3668799725250027,10.739661612045891,-0.9522625101272396,0.212333949696824,-0.925240606549913
1.5,0.2888010573682235,0.1504648980303912,1.6398947632195615,0.0084327739959118,0.1165340711742966,0.0260098326373399,-0.2389690413231225,-0.1607581825722012,-0.0604097989532995,0.2934539119022878,0.1528384814291392,1.6400981206328364,-0.2409605373570533,-0.185587573698759,-0.0678050808102362,0.4344990889261987,0.2159792155307649,0.1253992609117446,0.3555523338401822,10.729956588351342,-0.949994512427184,0.2146020102325189,-0.925930260532862
1.52,0.2840776828059868,0.1472851623322953,1.6387593572880612,0.0071367347746616,0.1195513002934851,0.0259671752815423,-0.2335899791727841,-0.1573851956139764,-0.0534917930155639,0.2886347011551467,0.149126729955164,1.6387420190166315,-0.2397718399705203,-0.188846388733983,-0.0603453650564425,0.4694948263615444,0.2689531075169199,0.1686493479112399,0.3459002968867797,10.71740664945446,-0.9480958914013308,0.21673523052706,-0.9262716329474392
1.54,0.2796970378515331,0.1443347880490634,1.637807822633763,0.006256905431503,0.1216661049308115,0.0259525531077301,-0.2278339881677211,-0.1534206790346506,-0.0470187535127326,0.2838154904080057,0.1454149784811888,1.637385917400427,-0.2385831425839873,-0.1921052037692069,-0.0528856493026488,0.4763115171905084,0.2877995502531483,0.1982258289662863,0.3236519751415679,10.708774782216096,-0.946562845747019,0.2187028989202795,-0.9261716932912936
1.56,0.2752073664392973,0.1413153166538058,1.6369389642770198,0.0059419059657908,0.1230860291879208,0.0259829253320147,-0.221465302683516,-0.1487827019878553,-0.040207106110433,0.2790259970955279,0.141621756631333,1.6362163086780672,-0.2373944451974542,-0.1953640188044309,-0.045425933548855,0.5207435218429985,0.3184342742102525,0.231898852339768,0.3405823701149807,10.70469177382438,-0.9456259677179228,0.2201594123686805,-0.9255536668961272
1.58,0.270846783564695,0.1383925160431911,1.6362063084874998,0.006458436850173,0.1237228905787071,0.0260749738063387,-0.2149837552884458,-0.1438447290232043,-0.0333964520624148,0.2742662212177135,0.1377470644055967,1.635233192849552,-0.2362057478109212,-0.1986228338396549,-0.0379662177950613,0.5309873873171389,0.3240773697535129,0.2468986482325477,0.34053270240091,10.706026669296987,-0.9453587590169936,0.2209254819165309,-0.9244423303177136
1.6,0.2668232508265112,0.1357066588639644,1.635636911550478,0.0078105623661143,0.1237006530439306,0.0262247571409224,-0.2089368378017544,-0.1392345526666545,-0.0268756954287627,0.2600975958002727,0.1312002795920309,1.6345364858843792,-0.2060296354198693,-0.1446601031596411,-0.0324958024221713,0.5008472926068936,0.3023458743345683,0.2305088178274919,0.3260378316826023,10.705558456347717,-0.9456592726577724,0.2209690626858532,-0.922865947073678
1.62,0.2626929736935841,0.1329299001107348,1.6351133926115735,0.0088681003691591,0.1234806444574127,0.0263607679882101,-0.2044636899279531,-0.138462845915809,-0.0261251034957526,0.2600975958002727,0.1312002795920309,1.6345364858843792,-0.2060296354198693,-0.1446601031596411,-0.0324958024221713,0.2300433190732415,0.2236573936900646,0.038585337542274,0.0375295966505033,10.70728226862775,-0.943402830473164,0.2207661288301449,-0.9243013653741023
1.64,0.2586496232651877,0.1301752245430994,1.634594073369633,0.0087295038281579,0.1234452642162688,0.0264222853253566,-0.2000703904496964,-0.1369576745769145,-0.025797667441796,0.2600975958002727,0.1312002795920309,1.6345364858843792,-0.2060296354198693,-0.1446601031596411,-0.0324958024221713,0.2327758333381649,0.219664973912835,0.0752585669447261,0.0163718026978341,10.335967344876735,-0.942889246913665,0.2210789180752109,-0.924539939945208
1.66,0.2546955418615283,0.1274574423407086,1.6340850279652526,0.0078475859434644,0.1235333122539197,0.0264418293098577,-0.1955431761278697,-0.134852062520533,-0.0251251478800385,0.258037299446074,0.1297536785604345,1.6342115278601574,-0.204238811446154,-0.1448231779869284,-0.0323156724941226,0.2519005468864587,0.2263607160913366,0.1052806028190758,0.0336259780878749,10.354657403773672,-0.9422792268819944,0.2220935420467666,-0.9246438210700338
1.68,0.2510243182838855,0.1249212988069125,1.633616290711552,0.00657943285919,0.1236807580981766,0.0264397954709525,-0.1911185222618565,-0.1322072496271262,-0.0242509070797671,0.2539167067376767,0.1268604764972417,1.633561611811714,-0.2006571634987233,-0.1451493276415031,-0.0319554126380252,0.2614234785363371,0.2212326933006617,0.1322406446703367,0.0437120400135682,10.3682715816567,-0.9416240937339376,0.2235976111219536,-0.9245941660104708
1.7,0.2472517904989202,0.1223136624707198,1.6331426182144249,0.0050541876840576,0.1238616160898216,0.0264343342013545,-0.1863579712355677,-0.1286789268039881,-0.0231558047182211,0.2497961140292793,0.1239672744340488,1.6329116957632706,-0.1970755155512927,-0.1454754772960778,-0.0315951527819278,0.3012936989070637,0.2380275513144403,0.1764161411569043,0.0547551180773002,10.3682715816567,-0.9409413442812716,0.2253550005615406,-0.9244274260875658
1.72,0.2435755898151047,0.1197857871523347,1.632692287596597,0.0036397887184392,0.1240328393364225,0.0264466164500947,-0.1814944326770371,-0.12429183059516,-0.0219277790513019,0.2458546037182534,0.1210577648881273,1.632279792707632,-0.1934938676038621,-0.1458016269506525,-0.0312348929258304,0.3331991427601509,0.2431769279265277,0.219354810441405,0.0614012833459614,10.378416048910369,-0.9403141282004424,0.2272246729216235,-0.923960851226371
1.74,0.2399972154922944,0.1173549826443459,1.632265309436842,0.0026882602266026,0.1241620094814149,0.0265005972243995,-0.1765858090767249,-0.1190908332567123,-0.0208332239434945,0.2419130934072275,0.1181482553422057,1.6316478896519937,-0.1899122196564315,-0.1461277766052272,-0.030874633069733,0.3617423456277625,0.2454311800156122,0.2600498669223877,0.0547277553903694,10.38553164106088,-0.9396529088061716,0.2287234722793327,-0.923556485707714
1.76,0.2366892975243554,0.1151477391076459,1.6318787630210796,0.0024716985033638,0.124218768564319,0.0266075217170636,-0.1718666281428102,-0.1136090361236354,-0.019910684675538,0.2380611242948875,0.1152305920549198,1.6310249930927574,-0.1863305717090009,-0.1464539262598019,-0.0305143732136356,0.3645951425765115,0.2359590466957314,0.2740898566538433,0.046126963397822,10.376717707786156,-0.9389590739396514,0.2297491303090479,-0.923207480206234
1.78,0.2333043196858139,0.1129386940420041,1.6314901859297972,0.0031501821147109,0.1241897161243482,0.0267897492272547,-0.1668851321300804,-0.1076652359206672,-0.0189975190618352,0.2342986963812331,0.1123047750262695,1.6304111030299235,-0.1827489237615703,-0.1467800759143765,-0.0301541133575382,0.3904418484732976,0.2490748006364923,0.2971900101484133,0.0456582806851409,10.366309872053534,-0.9382741677424764,0.2299860856979355,-0.9230466666837864
1.8,0.2300191373848976,0.1108474134893327,1.6311196464136364,0.0048552961001927,0.1240616583104669,0.027047902623573,-0.1618904058362709,-0.10186493308688,-0.0181018107891944,0.2249600630793099,0.1075554322459707,1.6305403099767055,-0.1565736710762917,-0.1077545998869207,-0.0227121669044064,0.38533458520936,0.2497363146904727,0.2900151416893571,0.044785413632039,10.366309872053534,-0.9376216236393596,0.2293898204221647,-0.9231139445004348
1.82,0.2269898031905336,0.1089490248229984,1.630780651987674,0.0069622350153484,0.1238726316049862,0.0273290519038042,-0.1572472321595951,-0.0982740930910183,-0.0176470711695711,0.2249600630793099,0.1075554322459707,1.6305403099767055,-0.1565736710762917,-0.1077545998869207,-0.0227121669044064,0.2943636432599577,0.2321586838337899,0.1795419997930848,0.0227369809811665,10.365048119288076,-0.9366529914474409,0.2280537719366331,-0.923895571515042
1.84,0.223895143917511,0.1070166459802792,1.6304309511812438,0.009107395734213,0.1236599356404277,0.0276214125899857,-0.1524671577550943,-0.0951980703261993,-0.0173517987926577,0.2249600630793099,0.1075554322459707,1.6305403099767055,-0.1565736710762917,-0.1077545998869207,-0.0227121669044064,0.2845971413191669,0.2390037202250408,0.1538011382409505,0.0147636188456722,10.33905826451064,-0.9358702477126564,0.2267785284203266,-0.9244855223297423
1.86,0.2208957104873943,0.1051392878482029,1.6300858368249358,0.0110544742837595,0.1234580750015859,0.0279014427812536,-0.1477183981642361,-0.0926979442559876,-0.0171792304397545,0.223394326368547,0.1064778862471015,1.6303131883076614,-0.154511378865534,-0.1077724726801715,-0.0234550964729206,0.2684731264723858,0.2374379795429079,0.125006303510583,0.0086284176451574,10.331087693908556,-0.9351320445714644,0.2256238438988007,-0.9250558894551628
1.88,0.2179910236641149,0.103307269589762,1.6297429216993211,0.0127513133249878,0.1232656063884136,0.0281654997006822,-0.1429915778356447,-0.0906086389286436,-0.0171207416572721,0.2202628529470211,0.1043227942493631,1.6298589449695733,-0.1503867944440185,-0.1078082182666729,-0.024940955609949,0.2584155960237805,0.236341016429574,0.1044652663672041,0.0029244391241186,10.324892354579788,-0.934418355310904,0.2246852242935034,-0.9256130473204416
1.9,0.2153189811141493,0.101601846036666,1.6294173007004973,0.0141120407258372,0.123088250985756,0.0284002467770299,-0.1385156792759061,-0.0890119910808011,-0.0171586259547067,0.2171313795254953,0.1021677022516247,1.6294047016314852,-0.1462622100225031,-0.1078439638531743,-0.0264268147469775,0.2376151693762501,0.2237949279869269,0.0798323923921234,-0.001894214871727,10.319387685020956,-0.933639551199492,0.2238632151584705,-0.9262457493624856
1.92,0.2125979042887234,0.0998354522676991,1.629072850290144,0.0152030344866173,0.122907809002865,0.0286252816574032,-0.1338306034207468,-0.0877194258994438,-0.0172890464657557,0.2142061353250452,0.1000108229745612,1.6288761653365456,-0.1421376256009876,-0.1078797094396758,-0.0279126738840059,0.2430929350390324,0.2342537927579671,0.0646282590678636,-0.0065210255524533,10.314603524105223,-0.9328436352675648,0.2232969523511436,-0.9268783134206728
1.94,0.2099704405083034,0.0980915362500604,1.6287247865489067,0.0158575606510618,0.122731570355634,0.0288220945118045,-0.1291535933610408,-0.0867315647941535,-0.0175150481618633,0.2112808911245952,0.0978539436974977,1.628347629041606,-0.1380130411794721,-0.1079154550261772,-0.0293985330210344,0.2392768763826761,0.2338505029853013,0.0493930552645141,-0.0113000848053754,10.31020068473481,-0.9320595282250512,0.2231053278625091,-0.927408807222791
1.96,0.2074369077999713,0.0963655657920241,1.628371282830104,0.0160127962778191,0.1225344522870783,0.0289865803710523,-0.1244444919906792,-0.0858869481234711,-0.0178238117819479,0.208458761534683,0.0956961707807717,1.6277819462682408,-0.1338884567579567,-0.1079512006126786,-0.0308843921580629,0.2397099706406888,0.2354550685180798,0.0422308335341237,-0.01543818100423,10.305678966650705,-0.9313617471727922,0.223346367460535,-0.9277382382245656
1.98,0.2051173041709343,0.0947421356236092,1.6280290792670995,0.0156995105076561,0.1223013666658758,0.0291133524780561,-0.1199730747082859,-0.0850179460975081,-0.018181992885733,0.2057397465553087,0.0935375042243831,1.6271791170164498,-0.1297638723364412,-0.1079869461991801,-0.0323702512950913,0.2284569474623252,0.2235708641196626,0.043450101298146,-0.0179090551892562,10.301830473791597,-0.93066329411661,0.224025491038519,-0.9279375975147192
2.0,0.2027668333490007,0.0930537527362667,1.6276608734296236,0.0149448058652232,0.1219988659781234,0.0292206743491806,-0.1153227939728061,-0.08383976067571,-0.0186224865755021,0.19911865043552,0.0904912383187338,1.6271199796228129,-0.1250643185974687,-0.0761938602807671,-0.035737775457168,0.2408696042345258,0.2325140367739911,0.0589092710899068,-0.0220246844884572,10.298213928226687,-0.9300118125105268,0.2251057921770415,-0.927967383712366
2.02,0.200533677300012,0.0913583417485793,1.6272630943827862,0.0127168790871005,0.1207884791720936,0.0292192278531253,-0.1082295643553575,-0.0853243360117169,-0.0212264107356139,0.19911865043552,0.0904912383187338,1.6271199796228129,-0.1250643185974687,-0.0761938602807671,-0.035737775457168,0.3850269190775605,0.3546614808724285,-0.0742287668003431,-0.1301962080055889,10.294383944053152,-0.9310860744102109,0.2268246803282408,-0.9268590756345289
2.04,0.1984407583277961,0.0896672566940422,1.6268051951234652,0.0090431640357446,0.1176507601996655,0.0291100651666139,-0.1015840814326972,-0.0834160749762919,-0.0244064735861088,0.19911865043552,0.0904912383187338,1.6271199796228129,-0.1250643185974687,-0.0761938602807671,-0.035737775457168,0.3805151218670205,0.3322741461330172,0.0954130517712488,-0.1590031425247462,10.160650462403282,-0.932194037089582,0.2303340452519355,-0.924354398763166
2.06,0.1965628766437351,0.0881218076948126,1.6263091613056282,0.0056064458078446,0.1130661624186978,0.0290204892339514,-0.096610426224474,-0.0794182279367666,-0.0276359090429786,0.1978680072495453,0.0897292997159262,1.626762601868241,-0.1260825673753053,-0.0744290431174189,-0.0392489319714549,0.3575936256835901,0.2486827604111584,0.1998923519762642,-0.1614717728434888,10.11489128678386,-0.9344217275082928,0.2340781981127789,-0.9204925407591252
2.08,0.1946623945063558,0.0865888579490378,1.6257189984600993,0.0025533293831144,0.1071850297436102,0.0289888519031915,-0.0939725838997951,-0.0741694866269301,-0.031210308508422,0.195366720877596,0.0882054225103108,1.6260478463590975,-0.1281190649309784,-0.0708994087907226,-0.0462712450000289,0.3438161900129675,0.1318921162339434,0.2624370654918231,-0.1787199732721707,10.11489128678386,-0.9376844793166792,0.2374539656544,-0.9155122124234228
2.1,0.1927857291046895,0.0851677737403929,1.6250559064683725,0.0002161984464585,0.1011749343356206,0.0290337600525061,-0.0939929845885959,-0.0683187961316044,-0.0349189861720988,0.1928654345056466,0.0866815453046955,1.6253330908499544,-0.1301555624866515,-0.0673697744640262,-0.0532935580286029,0.3463570609690716,-0.0010200344400398,0.2925345247662865,-0.185433883183838,10.099655291228371,-0.9418412743028016,0.2401796732209864,-0.9098354533583516
2.12,0.1908822714402299,0.0838681997250711,1.624316904420242,-0.0013738767146832,0.0958410855552844,0.0291513205959662,-0.0964600741998291,-0.0620869556362937,-0.0387880781289977,0.1902623232559135,0.085334149815415,1.6242672196893824,-0.1321920600423246,-0.0638401401373298,-0.0603158710571769,0.3869503833819956,-0.123354480561659,0.3115920247655355,-0.193454597844948,10.0886369305681,-0.9453313162082008,0.2420847035733068,-0.9051739855986748
2.14,0.188904840672179,0.0826968431563394,1.623497892533008,-0.0021799420388073,0.0919688646366057,0.029334507488349,-0.1012368330423012,-0.0554721951875814,-0.0429171623414569,0.1876592120061805,0.0839867543261344,1.6232013485288104,-0.1342285575979978,-0.0603105058106334,-0.0673381840857509,0.4572248278105733,-0.2388379421236063,0.3307380224356147,-0.2064542106229565,10.080161740922447,-0.947856535570831,0.2433053883276147,-0.9018323146976376
2.16,0.1869193394730289,0.0817102363860037,1.62264090113022,-0.0020500455739307,0.0903856852332132,0.0295723172569642,-0.107428175359752,-0.0488308404348037,-0.0470848473523306,0.1850051883175556,0.0827275996950213,1.6219599195425238,-0.1362650551536709,-0.056780871483937,-0.0743604971143249,0.4995245514335649,-0.3095671158725402,0.3320677376388858,-0.2083842505436857,10.057989230316709,-0.94904181049092,0.2432470343138738,-0.9008273814397584
2.18,0.1847067360827852,0.0808077260367398,1.6216505688400351,-0.0008386116616431,0.0910154422351203,0.0298954435935303,-0.1132550791711497,-0.0418638419204132,-0.0517412163591556,0.1823002521900389,0.0815566859220756,1.6205429327305232,-0.138301552709344,-0.0532512371572406,-0.0813828101428989,0.510327465100892,-0.2913451905698853,0.3483499257195245,-0.2328184503412499,10.057989230316709,-0.9487201552292012,0.2417746663416502,-0.9023947337207175
2.2,0.1823922482138061,0.0800415412035336,1.6205644483134063,0.0015203608112653,0.0933058721335605,0.0303001916788334,-0.1176651668365321,-0.0352912528134798,-0.0566416038687963,0.1790439821242277,0.0787145339407191,1.6190635080220774,-0.1074730127924073,-0.0492288437516169,-0.0432047089836172,0.46546105779533,-0.2205043832691156,0.3286294553466698,-0.2450193754820334,10.02105960832978,-0.946470190309344,0.2394183067743691,-0.9062166791528532
2.22,0.1801267444615125,0.0794551154217242,1.6195341397132228,0.0055928369807447,0.0966648792259235,0.0308206846167259,-0.1203282082195223,-0.0275660474831618,-0.0510190705459146,0.1790439821242277,0.0787145339407191,1.6190635080220774,-0.1074730127924073,-0.0492288437516169,-0.0432047089836172,0.4959422037143206,-0.1331520691495148,0.3862602665158992,0.2811266661440818,10.02105960832978,-0.9455050384818016,0.2348936542905106,-0.9099483977494538
2.24,0.1777098231360674,0.0789483040775101,1.618582459549883,0.0111254654192283,0.1011084672187749,0.0314746937811829,-0.1210115399066492,-0.0237783333280229,-0.0445509339920143,0.1790439821242277,0.0787145339407191,1.6190635080220774,-0.1074730127924073,-0.0492288437516169,-0.0432047089836172,0.3763326693085937,-0.0341665843563432,0.1893857077569435,0.323406827695016,10.711018172171862,-0.943154097828126,0.2313887685171005,-0.9124013770292052
2.26,0.1753009155422716,0.0784881938865956,1.6177498790181877,0.0165073275641538,0.1057787854813567,0.0321389155317891,-0.119698810926292,-0.0224623395462876,-0.039078519432283,0.1779692519963036,0.0782222455032029,1.6186314609322412,-0.1063165995166588,-0.0507018441178576,-0.0414974075085096,0.2889741256712912,0.0656364490178584,0.065799689086768,0.2736207279865652,10.658577711942598,-0.9401787958705772,0.2281565862502382,-0.9152216246741476
2.28,0.1729371438694183,0.0780371063607996,1.61701690426909,0.0212200283865161,0.1101061046398065,0.0327665225953422,-0.1166889580369773,-0.0226162994425151,-0.0344969221243484,0.1758197917404555,0.0772376686281706,1.617767366752569,-0.1040037729651618,-0.0536478448503391,-0.0380828045582942,0.2741986139508934,0.150492644465737,-0.0076979948113746,0.229079865396731,10.600949002460766,-0.9371125687758436,0.2254842212737139,-0.9181144827562022
2.3000000000000003,0.1707601809418441,0.0775964680001023,1.6163990403125383,0.0249691705944917,0.1135653083941644,0.0333076910597999,-0.1126180700977285,-0.0236401772050114,-0.0307741252234852,0.1736703314846073,0.0762530917531383,1.616903272572897,-0.1016909464136648,-0.0565938455828206,-0.0346682016080789,0.2805337370599667,0.2035443969624392,-0.051193888124815,0.1861398450431595,10.557243588323216,-0.934044781970015,0.2232158139642322,-0.9208920517368404
2.32,0.1685609208484973,0.0771062755800712,1.615820389173422,0.0281938733553124,0.1163452024225162,0.0338098314347897,-0.1075222073956515,-0.0252576158412549,-0.0273071382670921,0.171636512556334,0.0751212148414818,1.616209908540735,-0.0993781198621679,-0.0595398463153021,-0.0312535986578636,0.3186060379851324,0.2547931351038527,-0.0808719318121764,0.1733493478196563,10.525088154518926,-0.9314588396816382,0.2215266410475359,-0.9230345998606316
2.34,0.1664700620311514,0.0765786144068569,1.6153109005854798,0.0307490984720877,0.1181817058652316,0.034238491721715,-0.1018505877405925,-0.0273524318601534,-0.0238064083576966,0.1696026936280607,0.0739893379298254,1.6155165445085735,-0.0970652933106709,-0.0624858470477835,-0.0278389957076482,0.3493230366123216,0.2835809827529491,-0.1047408009449269,0.175036495469774,10.503782775575928,-0.9297243965917208,0.2203479183791022,-0.9242349029986764
2.36,0.1644961647021081,0.076004476326979,1.614872658638237,0.0326777730458209,0.119079095125904,0.0345910589857441,-0.0959156834999023,-0.0298264885702175,-0.0201872908022114,0.1676266953635748,0.072783810999857,1.6149085455501675,-0.0947524667591739,-0.065431847780265,-0.0244243927574329,0.3689243039947216,0.2967452120345076,-0.1237028355032053,0.1809558777742567,10.512797237031918,-0.9288836272715764,0.2197739042329764,-0.9243712889505252
2.38,0.1627304116335066,0.075409893693161,1.614524155611463,0.0339652074814877,0.1191582124811158,0.0348578499678582,-0.0903360814080618,-0.0325724430595797,-0.0166721563950411,0.1657085177628764,0.0715046340515765,1.6143859116655166,-0.0924396402076769,-0.0683778485127465,-0.0210097898072175,0.3571708115922685,0.2789801045920262,-0.1372977244681054,0.1757567203585174,10.521460366539031,-0.9287474432259966,0.2196700819355183,-0.9236186836095868
2.4,0.1609829036961988,0.0747239035591001,1.614230280507497,0.034649635111419,0.1185844473728919,0.0350642247065263,-0.0847852136024755,-0.0358463175401653,-0.0128892690350654,0.1582136075631035,0.073781271540182,1.613690547791711,-0.1009224288390062,-0.041922827645139,-0.0222955603316656,0.3736329224251671,0.2775433902793167,-0.1636937240292797,0.189144367998785,10.526852942371988,-0.929386899848158,0.2202664239664081,-0.9218100538602964
2.42,0.1593712009734375,0.0739590620745003,1.6139701911516116,0.0341010044234195,0.1164195941296318,0.0351261728498069,-0.0766336922472942,-0.0403019897171363,-0.0135153371681934,0.1582136075631035,0.073781271540182,1.613690547791711,-0.1009224288390062,-0.041922827645139,-0.0222955603316656,0.4655434358358215,0.4075760677590641,-0.2227836088485517,-0.0313034066563997,10.531154261817392,-0.9321340452731256,0.2210792697010375,-0.9186959266410654
2.44,0.1579216629877994,0.0731132455913947,1.6136892442334072,0.0320782049437469,0.1113158906129503,0.0349909491611856,-0.0691335495282603,-0.0439357421940238,-0.0144914826777604,0.1582136075631035,0.073781271540182,1.613690547791711,-0.1009224288390062,-0.041922827645139,-0.0222955603316656,0.4195508250647663,0.3750071359516937,-0.1816876238443732,-0.0488072754783503,10.251312487917858,-0.9349139664484136,0.2235098679700049,-0.914431616126266
2.46,0.1566515576714384,0.0722567456836852,1.6134076628705565,0.0292924095754066,0.1044996160663614,0.0347572702880154,-0.0652901190226094,-0.0457872722733201,-0.0150668586594177,0.1572043832747135,0.0733620432637306,1.6134675921883943,-0.1030396983251951,-0.0437929045622509,-0.0234202411189905,0.2152392808398085,0.1921715252825445,-0.0925765039648179,-0.0287687990828671,10.24953793878285,-0.9399729481680826,0.2272799796861655,-0.9069029986109308
2.48,0.1553555255640303,0.0713384273039879,1.613102506588966,0.0263911673023419,0.09659006936553,0.034519479050289,-0.064801597834007,-0.0459576661899143,-0.0153983294133324,0.1551859346979333,0.0725235867108278,1.613021680981761,-0.1072742372975729,-0.0475330583964746,-0.0256696026936403,0.0307229514868982,0.0244260594301194,-0.0085196958297086,-0.0165735376957311,10.255700252150746,-0.946569856301852,0.2307449682404553,-0.8981250046926003
2.5,0.1540338184233054,0.0704276883719466,1.6127921770375222,0.0239897792029179,0.0890120430083869,0.0343515161017787,-0.0675140542767742,-0.0452353864963944,-0.0156069060921593,0.1531674861211532,0.071685130157925,1.6125757697751275,-0.1115087762699507,-0.0512732122306984,-0.0279189642682901,0.1407356754747263,-0.13562282213836,0.0361139846759957,-0.0104288339413478,10.259411924591404,-0.9531215139907244,0.2333539516931566,-0.8899019961961196
2.52,0.1526291916188812,0.0695360025454635,1.612477844433003,0.0221811125355714,0.0825478283737218,0.0342707993613414,-0.0728847493977855,-0.0441105938151561,-0.0158094400519398,0.1509373105957542,0.070659665913311,1.612017390489762,-0.1157433152423285,-0.0550133660649221,-0.03016832584294,0.2745475581000775,-0.2685347560505653,0.0562396340619133,-0.0101266979890241,10.258221148079429,-0.9593222424942248,0.2353368236076547,-0.8824100044911529
2.54,0.1511716985583589,0.0687130802471387,1.6121732476311372,0.0210377962848018,0.0780945312773941,0.0342822710412305,-0.0803271803161904,-0.0426495681016904,-0.0162415535734575,0.1487071350703552,0.0696342016686971,1.611459011204396,-0.1199778542147062,-0.0587535198991459,-0.0324176874175898,0.3798390981919666,-0.3721215459202419,0.0730512856732843,-0.0216056760758833,10.258221148079429,-0.9638575241444324,0.2366828536109415,-0.8769563627919686
2.56,0.1494639593050894,0.0678792531649482,1.6118410028835817,0.0205463410214869,0.075950692136368,0.0344016389913669,-0.0900315010639349,-0.0408531148266775,-0.0169715544017176,0.1463710960706467,0.0685152335782275,1.610844397879664,-0.124212393187084,-0.0624936737333696,-0.0346670489922396,0.4948080101253146,-0.4852160373872253,0.0898226637506435,-0.0365000414130048,10.248246400402422,-0.966691046690801,0.2367842931343201,-0.8744629685841142
2.58,0.1475628990226216,0.0670836234895535,1.611491435547649,0.0208988906641033,0.0765932500284523,0.0346367836153429,-0.0992349038164956,-0.0388826064716539,-0.0179415927354514,0.1439291935966288,0.0673027616419024,1.610173550515566,-0.1284469321594618,-0.0662338275675934,-0.0369164105668894,0.4730922208512143,-0.4601701376280367,0.0985254177511829,-0.0485019166866907,10.234583616949749,-0.9677452837424836,0.2356738843804272,-0.874940232438237
2.6,0.1454950745800639,0.0663260078300285,1.6111204016831049,0.0221203523894576,0.0792261099750189,0.0349730015858956,-0.1068113493523967,-0.037062077515833,-0.0191140933406402,0.1426011538317969,0.0651394931659708,1.6105943559108764,-0.0939540985304756,-0.0392378401136937,-0.0116999950345873,0.3939911493505437,-0.3788222767950516,0.0910264477910427,-0.0586250302594402,10.21396957952038,-0.9666525625440112,0.2337997398492122,-0.8780358832769409
2.62,0.1433900814460852,0.0655980798180344,1.610789650391938,0.0228815187369388,0.0835989079148363,0.0353066316166067,-0.1140990154547652,-0.0394428164291529,-0.0153664681703968,0.1426011538317969,0.0651394931659708,1.6105943559108764,-0.0939540985304756,-0.0392378401136937,-0.0116999950345873,0.4266810559705243,-0.3643833051184278,-0.1190369456659939,0.1873812585121672,10.19650499024374,-0.9636333116064336,0.2314139459410036,-0.8841941457915817
2.64,0.1410531905419119,0.0647896227339772,1.6105265119511831,0.0223236229129586,0.090104293716894,0.0356041349285597,-0.1188465060442228,-0.0411397924662114,-0.0111980342780967,0.1426011538317969,0.0651394931659708,1.6105943559108764,-0.0939540985304756,-0.0392378401136937,-0.0116999950345873,0.3270865163906013,-0.2373745294728772,-0.0848488018529255,0.2084216946150092,10.542216424728394,-0.9603839095511156,0.2317028839576218,-0.8883543324268106
