t,x,y,z,roll,pitch,yaw,v_x,v_y,v_z,ref_x,ref_y,ref_z,ref_v_x,ref_v_y,ref_v_z,a_com,a_x,a_y,a_z,thrust,wind_x,wind_y,wind_z
0.0,-0.8770735832422958,0.8953198829131047,2.5233036523051577,0.0216620191151819,0.1001291797914206,0.0426882362895149,0.004563119632008,-0.0014018872223603,0.0216936353283743,-0.8770151527214269,0.895179209253379,2.523548583804061,0.0222487305763635,-0.1055635919852311,-0.0781048630083407,1.110631759766404,0.2281559816004044,-0.0700943611180194,1.0846817664187185,10.233438842123178,-0.946329883946988,0.2663295205162676,-0.8645752662589816
0.02,-0.8770720969720217,0.8955518824331106,2.523532108844979,0.0291075292376377,0.1019231286311297,0.0432543196686138,-0.0040599885228402,0.0206461017324257,-5.408340016221794e-05,-0.8770151527214269,0.895179209253379,2.523548583804061,0.0222487305763635,-0.1055635919852311,-0.0781048630083407,1.6073542555206402,-0.4311554077424185,1.1023994477393062,-1.0873859364268297,10.23283245530274,-0.937622887924219,0.2672074799049666,-0.8656721798833714
0.04,-0.8772319019978513,0.8960092778822009,2.5232291064152177,0.0435644640643934,0.1071048623274087,0.0444376805595534,-0.010989042402845,0.0232069282693118,-0.0293412238237019,-0.8770151527214269,0.895179209253379,2.523548583804061,0.0222487305763635,-0.1055635919852311,-0.0781048630083407,1.5102203600900133,-0.3464526940002385,0.1280413268443031,-1.4643570211769863,8.656905519406337,-0.9222005207885924,0.2468992290391807,-0.8950376347377168
0.06,-0.8774906071330904,0.8964372668768645,2.52233198697102,0.058570426846102,0.1145821617674196,0.0458340324403558,-0.0140986826294248,0.0191216059605228,-0.0589754367323254,-0.8767926654156633,0.8941235733335267,2.5227675351739776,0.0257303883794222,-0.1255635922832544,-0.0981048633063639,1.503783807117132,-0.1554820113289875,-0.2042661154394451,-1.481710645431174,8.656905519406337,-0.9068357329974966,0.2251940997145566,-0.9247652714310508
0.08,-0.8777568845199618,0.8967341792313424,2.520936660536118,0.0723466984385546,0.1226113785104711,0.0472714835543812,-0.013508243474076,0.0120701520292513,-0.0865049256266168,-0.876347690804136,0.892012301493822,2.5212054379138107,0.0326937039855394,-0.1655635928793008,-0.1381048639024104,1.4212181216494588,0.0295219577674374,-0.3525726965635763,-1.3764744447145691,8.701428557324562,-0.8898917664316458,0.2031792252964553,-0.9543416872582724
0.1,-0.8779908086832987,0.8968738364774487,2.518904863750164,0.08619100797441,0.1310827342538786,0.0488357734792479,-0.0096614659791657,0.0019675438232632,-0.1152850242929859,-0.8759027161926087,0.8899010296541174,2.519643340653644,0.0396570195916567,-0.2055635934753473,-0.1781048644984568,1.5371682316072193,0.1923388747455175,-0.5051304102994042,-1.4390049333184545,8.775534371378853,-0.8723833435295344,0.1819133940617765,-0.9822999166472608
0.12,-0.8781159254847336,0.8967840599149172,2.516302100822708,0.0993541983005474,0.1388686006152788,0.0503777940186674,-0.0028685230402646,-0.0107259861419629,-0.1435981063166165,-0.8751095758007756,0.8857897577846106,2.516081243363675,0.0466203351977739,-0.2455635940713937,-0.2181048650945033,1.5881596192024423,0.3396471469450506,-0.6346764982613136,-1.415654101181532,8.901206830219962,-0.8547506997655603,0.1607204404015473,-1.009188609146022
0.14,-0.8780794497828621,0.8964148203300312,2.51313064016675,0.1118514638773207,0.1454708899390829,0.0518177303204975,0.006216478377484,-0.0258337182066987,-0.1722394048773516,-0.8743164354089424,0.8816784859151036,2.5125191460737057,0.0535836508038912,-0.2855635946674402,-0.2581048656905498,1.6815950777056203,0.4542500708874392,-0.755386603236787,-1.4320649280367552,8.925792705286767,-0.8383394474408382,0.1409438155695952,-1.0331793999271377
0.16,-0.8778580388639892,0.8957623241743545,2.5095843170716323,0.1231238075110559,0.1503836981187152,0.0530252837741533,0.0166036162240039,-0.0423187773321625,-0.1997018050566283,-0.8733492121269564,0.8765672140306955,2.5079570487688354,0.0605469664100084,-0.3255635952634866,-0.2981048662865962,1.683622011185543,0.5193568923259907,-0.8242529562731925,-1.3731200089638365,8.925792705286767,-0.8232702380141588,0.1220034255023871,-1.0540173864586488
0.18,-0.877399938238921,0.8947148000183692,2.505284132770521,0.1343770225917206,0.154016223832602,0.0540732259570273,0.0286473655777973,-0.0618174599985608,-0.2289371456118431,-0.8722079059548175,0.8704559421313862,2.502394951449064,0.0675102820161257,-0.3655635958595331,-0.3381048668826426,1.8573877231216973,0.60218746768967,-0.9749341333199116,-1.4617670277607366,8.956532968098145,-0.8093297903145626,0.1031681554598198,-1.0734162588156784
0.2,-0.8766904338010488,0.8932541692256499,2.5004016157408,0.1450236678509738,0.1560718652010485,0.054851634856198,0.0415850402962097,-0.0835093937241833,-0.2579287957890157,-0.8759675699600312,0.8916239270184412,2.4938372754899287,0.0553088994401496,-0.1618174614886769,-0.3289371471019592,1.9225238593264604,0.6468837359206229,-1.0845966862811278,-1.449582508858631,8.980881977538047,-0.7976980993587719,0.0854876414880978,-1.0901354015635187
0.22,-0.8757305976281097,0.8913127383139122,2.4953472397189307,0.1509276086185646,0.1562027309895569,0.0549949689046008,0.0585708481964769,-0.1174175701440643,-0.2723427747501813,-0.8759675699600312,0.8916239270184412,2.4938372754899287,0.0553088994401496,-0.1618174614886769,-0.3289371471019592,2.028573937301446,0.8492903950133565,-1.6954088209940508,-0.7206989480582793,9.033312565949927,-0.7930957731938685,0.0690638856050123,-1.1034810840205154
0.24,-0.8743764147299439,0.8886476132327137,2.4897393945248423,0.1529916122929778,0.1539802272444853,0.0544511797877595,0.075799368457766,-0.1469631816207451,-0.2877731513261397,-0.8759675699600312,0.8916239270184412,2.4938372754899287,0.0553088994401496,-0.1618174614886769,-0.3289371471019592,1.8760740851579567,0.8614260130644591,-1.4772805738340369,-0.7715188287979208,9.95479078126482,-0.7898956991228901,0.062633344320377,-1.10978502210963
0.26,-0.8726881072379319,0.8854071794626857,2.483802348452904,0.1529540649642717,0.1493924323404676,0.0533555146097759,0.0918396159476982,-0.1754411571579273,-0.305205794883864,-0.8754144809656297,0.8900057524035544,2.4905479040189094,0.0606412062126201,-0.1818174617867001,-0.3489371473999824,1.8521485440194103,0.8020123744966072,-1.4238987768591087,-0.8716321778862168,9.721528284600936,-0.7892724239672206,0.0587050950450812,-1.1137667052731528
0.28,-0.8707081899067618,0.8816006382272555,2.4774965773058653,0.1510426078409436,0.1430262260478645,0.0518292993694506,0.1049951748147135,-0.2035716150461635,-0.3244337989674623,-0.8743083029768267,0.886769403173781,2.48396916107687,0.0713058197575611,-0.2218174623827466,-0.3889371479960288,1.826271838434936,0.6577779433507638,-1.4065228944118144,-0.9614002041799102,9.721528284600936,-0.7911437830236261,0.0566889420432847,-1.1158259294320554
0.3,-0.8686129747923477,0.8774733807925066,2.4711372296184173,0.147708894327118,0.1362271759419265,0.0501540865588102,0.1146652797514083,-0.2289962699490496,-0.3439201621714813,-0.8732021249880237,0.8835330539440074,2.477390418134831,0.081970433302502,-0.261817462978793,-0.4289371485920753,1.6730528662720756,0.4835052468347409,-1.2712327451443015,-0.9743181602009516,9.622808506615913,-0.7951687445181389,0.0563865598688087,-1.1163415448168663
0.32,-0.8662381584251508,0.8726370537225502,2.46403258814528,0.143676340095957,0.1290153492231224,0.0483556943914112,0.1220975841288396,-0.2531695199532948,-0.3655674512713507,-0.8715627163219737,0.8782967046844316,2.4688116751629896,0.092635046847443,-0.3018174635748394,-0.4689371491881217,1.6644746089230769,0.3716152188715682,-1.2086625002122584,-1.082364454993473,9.5357094470628,-0.79952074821508,0.0565766350094475,-1.1167586694797635
0.34,-0.8637400064689956,0.8673318788611374,2.4564872315334507,0.1397731247569557,0.1223175172534498,0.0466534594240263,0.1272513889499402,-0.276097510255514,-0.3878715150688469,-0.8699233076559236,0.8730603554248557,2.460232932191148,0.1032996603923839,-0.341817464170886,-0.5089371497841683,1.6199735378359106,0.2576902410550273,-1.146399515110963,-1.1152031898748085,9.445795327109408,-0.8034887433178849,0.0564609544413662,-1.1175213162454032
0.36,-0.861287245562845,0.8618668477478532,2.4489007377951517,0.1360804405730586,0.1167250242247848,0.0451555435832506,0.1306076245142956,-0.2978254767609292,-0.4095633582365333,-0.8680172836512501,0.8668240061503787,2.450654189204405,0.1139642739373249,-0.3818174647669324,-0.5489371503802146,1.5442675493865934,0.1678117782177704,-1.08639832527076,-1.0845921583843177,9.407114260421622,-0.8077716127469138,0.0559250396920595,-1.1186789242560993
0.38,-0.8586523582754195,0.8556756406490843,2.4404634151529154,0.1320738644644845,0.1118695846371495,0.0437200337926535,0.1325721850798084,-0.319980633215964,-0.4330423945002412,-0.8658446443079529,0.8595876568610005,2.4400754462027616,0.1246288874822658,-0.4218174653629788,-0.5889371509762611,1.6170773015189712,0.0982280282756417,-1.1077578227517395,-1.1739518131853977,9.379352513515189,-0.8109767020829208,0.0554548872051481,-1.1207589945246808
0.4,-0.8559954317123984,0.8490475186928317,2.4315500246409067,0.1279041807467425,0.108448781008318,0.0424693240729835,0.1329568103797801,-0.3414929322633916,-0.4570964863071238,-0.8520237490214291,0.8396766089882861,2.4188112954279037,0.1698617635474159,-0.4199806347060801,-0.5330423959903574,1.6136343138868787,0.0192312649985829,-1.0756149523713814,-1.202704590344131,9.339909031938078,-0.8126362936937693,0.0552329269323699,-1.123964287093164
0.42,-0.8533638653483668,0.8419890363695874,2.422373771671644,0.1242795872107111,0.1082884987116973,0.0416711531964772,0.130747562211791,-0.3634924753315328,-0.4593535976889644,-0.8520237490214291,0.8396766089882861,2.4188112954279037,0.1698617635474159,-0.4199806347060801,-0.5330423959903574,1.1112551737391296,-0.1104624083994545,-1.0999771534070557,-0.1128555690920296,9.31250742663542,-0.8105603305392866,0.051315728012581,-1.133259062901227
0.44,-0.8508892005827516,0.8348851674847058,2.4135922483357364,0.1216921410902689,0.1118104388105478,0.0414151436548453,0.130325125004359,-0.3833350392471193,-0.4649903655654619,-0.8520237490214291,0.8396766089882861,2.4188112954279037,0.1698617635474159,-0.4199806347060801,-0.5330423959903574,1.0315994232645205,-0.0211218603716006,-0.9921281957793292,-0.2818383938248764,10.609007327719157,-0.8085500056829813,0.0540872311105022,-1.1340863710996618
0.46,-0.848261773052121,0.8270014632336188,2.4041912128899883,0.119513789078262,0.1179489012079825,0.0414559858192562,0.1328033081326798,-0.4039523622625686,-0.4750051643254969,-0.8503251313859549,0.8354768026412253,2.413480871468,0.1773196792409374,-0.4399806350041034,-0.5530423962883806,1.1527267609291296,0.1239091564160396,-1.0308661507724637,-0.5007399380017458,10.29373346324428,-0.8026184371716044,0.0557021756905747,-1.1384341292265938
0.48,-0.8455536926753251,0.8187101864908612,2.3945541814614333,0.1175327207248279,0.1252699191259066,0.0416247829394223,0.1381618931236078,-0.4240641546223844,-0.4883347937759537,-0.8469278961150066,0.8270771899471037,2.4028200235481925,0.1922355106279804,-0.4799806356001498,-0.5930423968844271,1.2357969557292074,0.2679292495464003,-1.0055896179907902,-0.6664814725228424,10.050674182074545,-0.7947305319987383,0.0564815367879798,-1.144811823180511
0.5,-0.8427105031413217,0.8100241971081023,2.384620433748735,0.1156121800141777,0.1327611605451113,0.0417896839282753,0.1460754154051652,-0.4434621189936311,-0.504385171151254,-0.8435306608440583,0.8186775772529821,2.392159175628385,0.2071513420150234,-0.5199806361961963,-0.6330423974804735,1.3195827660082684,0.3956761140778697,-0.9698982185623344,-0.8025188687650148,9.8765736166406,-0.7852010142311587,0.0566790892028511,-1.1529812171394884
0.52,-0.8398418826018155,0.801419963680624,2.374866450653178,0.113841212280516,0.1394031055947306,0.0418696191607557,0.1555771375130318,-0.4612356459030114,-0.5215676887412098,-0.8393876340037578,0.8082779645290582,2.379498327678776,0.2220671734020664,-0.5599806367922427,-0.67304239807652,1.3242166481950088,0.4750861053933325,-0.8886763454690166,-0.8591258794977907,9.74681550719106,-0.7753198185718014,0.0564660121819698,-1.161733115016622
0.54,-0.8366098275335403,0.7920054186200894,2.364236083879714,0.11211162248948,0.1454988600745339,0.0418361023943499,0.1672144817990745,-0.4792749426098851,-0.5406253826928101,-0.8352446071634573,0.7978783518051342,2.3668374797291665,0.2369830047891094,-0.5999806373882892,-0.7130423986725665,1.4353045900290424,0.5818672143021342,-0.9019648353436828,-0.9528846975800144,9.611038133553848,-0.7657302118003833,0.0557660024441245,-1.1706106351515986
0.56,-0.8331274465702232,0.7822249888225827,2.3532169374450302,0.110258286251536,0.1503788272408291,0.0416342382084093,0.1804612931468445,-0.4977013594889943,-0.5603545714032462,-0.8307286845384807,0.7864787390663092,2.353176631764656,0.2518988361761525,-0.6399806379843356,-0.7530423992686128,1.5035389395174692,0.6623405673884988,-0.9213208439554617,-0.9864594355218026,9.5963558035628,-0.7571160643794376,0.0550145923869093,-1.1789797806639346
0.58,-0.8293675099549416,0.7720773573617526,2.341796630768965,0.10796082764375,0.1537895331662121,0.0412177954482705,0.1947674171053429,-0.5158850665896186,-0.580678197128423,-0.8258398661288281,0.7740791263125829,2.338515783785244,0.2668146675631955,-0.679980638580382,-0.7930423998646593,1.539774455280937,0.7153061979249198,-0.909185355031214,-1.0161812862588382,9.5963558035628,-0.7498583727765696,0.0546876395175805,-1.1864907456320235
0.6,-0.825525664360484,0.762105402302353,2.33056493520533,0.1053527360856441,0.1556334635226553,0.0406247739861279,0.2087982239219619,-0.5326577555543733,-0.6005735423291487,-0.8196291390996744,0.7462831040322717,2.312762720912544,0.2391065076910515,-0.6158850680797348,-0.6806781986185391,1.478184186501912,0.7015403408309486,-0.838634448237735,-0.9947672600362888,9.577876396612735,-0.744431287694863,0.0547317623687361,-1.1927905825550742
0.62,-0.8211596164281436,0.7512499071960587,2.318563486848215,0.102286869405026,0.156297358864681,0.0398304604547433,0.2271674504841752,-0.5519580478563291,-0.5972938434781078,-0.8196291390996744,0.7462831040322717,2.312762720912544,0.2391065076910515,-0.6158850680797348,-0.6806781986185391,1.3422799558851124,0.9184613281106674,-0.9650146150977869,0.1639849425520478,9.552075488048104,-0.7424009797787764,0.0535737056589105,-1.1985005199428551
0.64,-0.8164293161559601,0.7400273386602626,2.306633393334728,0.0993725151372468,0.1559370204799082,0.0389335036265419,0.2448061885030726,-0.5693293560043622,-0.5962757394907706,-0.8196291390996744,0.7462831040322717,2.312762720912544,0.2391065076910515,-0.6158850680797348,-0.6806781986185391,1.238874450259437,0.8819369009448685,-0.8685654074016558,0.0509051993668574,11.098424927160522,-0.7403520335143798,0.0559327908670986,-1.2004038978918872
0.66,-0.8113546674004098,0.7284650912986773,2.2946631007618192,0.0967476406309808,0.1545549581950354,0.0379509901579872,0.2616871545238894,-0.5859827477797966,-0.600767094181071,-0.8172380740227638,0.7401242533514744,2.305955938926359,0.2479743258081932,-0.6358850683777579,-0.7006781989165622,1.2067256713687686,0.8440483010408395,-0.8326695887717228,-0.2245677345150187,10.452468123302424,-0.7410490105524121,0.0583751992631554,-1.1997963711102846
0.68,-0.8062280275165478,0.7171802251534435,2.283168085720104,0.0943910351952856,0.1521033943280914,0.036916734749313,0.277019856685366,-0.6010283418931129,-0.6089872979886019,-0.8124559438689428,0.7278065519898796,2.292342374953988,0.2657099620424767,-0.6758850689738044,-0.7406781995126087,1.1500363129403277,0.7666351080738321,-0.7522797056658148,-0.4110101903765428,10.452468123302424,-0.742610029741157,0.0601357539499769,-1.199433658206422
0.7000000000000001,-0.8005276850647747,0.7050020039746224,2.270865713962137,0.0920973014421051,0.148186657363456,0.0357188165644912,0.2920640654010288,-0.6159820541512653,-0.6209557006709178,-0.8076738137151218,0.7154888506282849,2.278728810981617,0.2834455982767602,-0.7158850695698509,-0.7806782001086552,1.2177688501375243,0.7522104357831405,-0.747685612907617,-0.5984201341157958,10.21240676888101,-0.7452267944656389,0.0611824827116933,-1.1990583848332732
0.72,-0.7945421153226583,0.6925309087151704,2.258293155504854,0.0900182103757241,0.1429157437276976,0.0344185203514657,0.3054336796884612,-0.6303655161469398,-0.6357975670783298,-0.8020049017495866,0.701171149236888,2.263115246979444,0.3011812345110436,-0.7558850701658973,-0.8206782007047017,1.2307635471844234,0.6684807143716165,-0.7191730997837265,-0.7420933203706015,10.011651190085104,-0.7484104132280062,0.0614639366846827,-1.1989576913329287
0.74,-0.7883155931434502,0.6797770662017525,2.2454058774681527,0.0881562638591302,0.136801687014053,0.0330672936024741,0.3163127370142896,-0.6443186400011917,-0.6521603952265425,-0.7963359897840514,0.6868534478454908,2.247501682977271,0.3189168707453271,-0.7958850707619438,-0.8606782013007481,1.204974790813788,0.5439528662914195,-0.6976561927125924,-0.818141407410633,9.849082609505786,-0.752658738022349,0.0610585603650234,-1.1988625278162708
0.76,-0.7822187017524919,0.6673971267404709,2.232848779546355,0.0863186346581752,0.1307247666834608,0.0317657913157096,0.3247435405321092,-0.6579635836156673,-0.668791102424564,-0.7902236869126592,0.6715357464391928,2.230888118960197,0.3366525069796105,-0.8358850713579902,-0.9006782018967945,1.1552525222917984,0.4215401758909831,-0.6822471807237829,-0.8315353599010755,9.769798480253485,-0.7576842098327436,0.0606326169004073,-1.1983191576515106
0.78,-0.7756482420652767,0.6540892231070126,2.2192772431632477,0.0841221065618319,0.1243928159214691,0.0303975478367722,0.3316776174571591,-0.671955872549456,-0.687524917858466,-0.7836679931354098,0.6552180450179934,2.2132745549282213,0.3543881432138939,-0.8758850719540366,-0.940678202492841,1.21944804432235,0.346703846252494,-0.6996144466894338,-0.9366907716951034,9.627767263848,-0.7632699098079245,0.0606069067035622,-1.1971989661964313
0.8,-0.7689580077965991,0.640505343286864,2.205318201247812,0.0816179956002058,0.1183964602217838,0.029054172243763,0.336855398072163,-0.6855547103703289,-0.7074725712108216,-0.7590643611924187,0.6204914294795397,2.184900997270324,0.3786795380976277,-0.7393835449952301,-0.7875249193485822,1.2345512104012302,0.2588890307501951,-0.679941891043645,-0.99738266761778,9.627767263848,-0.7684748493334623,0.060799805195969,-1.1964718483021142
0.8200000000000001,-0.7621789103082803,0.6265236447993674,2.191249108983913,0.0753887590147507,0.1141476196441859,0.0276192902352479,0.3406409498571451,-0.7092890042594225,-0.6981859214496902,-0.7590643611924187,0.6204914294795397,2.184900997270324,0.3786795380976277,-0.7393835449952301,-0.7875249193485822,1.2883021506197336,0.1892775892491038,-1.1867146944546825,0.4643324880565735,9.557565931962015,-0.7694429725467566,0.0610576580129355,-1.2031558359198622
0.84,-0.7556923419644664,0.6128933034120257,2.178036030198463,0.0666256838645759,0.1132579859024195,0.0263294316995029,0.3422017751425479,-0.7237291362072462,-0.6934976026283903,-0.7590643611924187,0.6204914294795397,2.184900997270324,0.3786795380976277,-0.7393835449952301,-0.7875249193485822,0.763108641695704,0.07804126427014,-0.7220065973911838,0.2344159410649915,10.940115078034069,-0.7737452321125969,0.0725199196208769,-1.197258969707506
0.86,-0.748824615393329,0.5983060009480193,2.164153023610556,0.0568591190586969,0.1151229234133316,0.0251365076319857,0.3447585092267006,-0.7338947787051714,-0.6953120862684465,-0.7552775658114425,0.6130975940295874,2.1770257480768382,0.3880799222257214,-0.7528690794843849,-0.8075249196466053,0.5319058362452939,0.1278367042076345,-0.5082821248962588,-0.0907241820028104,10.940115078034069,-0.7737745711525313,0.0840976070147511,-1.1947772439234454
0.88,-0.741892408986354,0.5835541573257534,2.1501670284798533,0.0475069836434977,0.118784378868857,0.0240695591151489,0.3486090591550388,-0.7406471602590886,-0.7031717869657815,-0.7477039750494898,0.5983099231296829,2.1612752496898664,0.4068806904819089,-0.7798401484626946,-0.8475249202426518,0.5527121458137039,0.1925274964169138,-0.3376190776958609,-0.3929850348667496,10.512073998889718,-0.7704453150645847,0.0940403336282763,-1.1956138624578765
0.9,-0.7352218425776259,0.5694404145756373,2.1366913190200334,0.0393676434452504,0.1231676845733444,0.023135844043554,0.3535532747676339,-0.7446683855873023,-0.7149379481703722,-0.7401303842875373,0.5835222522297783,2.145524751302895,0.4256814587380963,-0.8068112174410041,-0.8875249208386983,0.6690629093301119,0.247210780629753,-0.2010612664106847,-0.588308060229531,9.926673822743396,-0.7646980983011427,0.1030880263847957,-1.1988849661148546
0.92,-0.728085272342988,0.5545221485105871,2.122228649280195,0.031754299956557,0.1281776647679136,0.0222167539849136,0.3600025047447706,-0.7469429678784306,-0.7308867247377744,-0.7316167551127754,0.5673860278809582,2.127774252886121,0.4444822269942837,-0.8337822864193137,-0.9275249214347449,0.8676545480403359,0.3224614988568353,-0.1137291145564156,-0.7974388283701117,9.926673822743396,-0.7575023363398086,0.1106820505725969,-1.2038024820649549
0.94,-0.7208048088035468,0.539575386544587,2.1074259651495963,0.0251952726351001,0.1331823507278496,0.0213554605626711,0.3678560245838539,-0.7476703982039875,-0.7486615241770158,-0.7231031259380134,0.5512498035321381,2.110023754469347,0.4632829952504712,-0.8607533553976234,-0.9675249220307912,0.9723045097173424,0.3926759919541667,-0.0363715162778444,-0.8887399719620714,9.72973196001476,-0.7496367581137096,0.1167262765549359,-1.209838269870768
0.96,-0.7133503402432461,0.5246218818977184,2.0922541293048336,0.0195176652045752,0.1377631005973262,0.020535749782394,0.3772554382403167,-0.7476651514451221,-0.7676531247264637,-0.7141194775568468,0.5344393024588603,2.091273256037672,0.4820837635066586,-0.887724424375933,-1.0075249226268377,1.05951627647192,0.4699706828231398,0.0002623379432686,-0.9495800274723964,9.65121626097607,-0.7418662720619659,0.1216986941610593,-1.216082814632259
0.98,-0.705695014290458,0.50967748709097,2.0766911823087093,0.0144938807310157,0.1415842755104883,0.0197446530073267,0.3878116960511616,-0.7467875128848475,-0.7877132210680055,-0.7046658099692755,0.5169545246611248,2.0715227575910955,0.5008845317628461,-0.9146954933542426,-1.047524923222884,1.134253381792887,0.5278128905422452,0.0438819280137336,-1.0030048170770856,9.555903418960952,-0.7349673804972952,0.1257464365304217,-1.2218525867826346
1.0,-0.6982189153197799,0.4955048769731662,2.061524669533956,0.010261993550783,0.1443400686136298,0.0190225141689882,0.3985834526338271,-0.745138713569155,-0.8077737774643969,-0.6863044294878999,0.4723381114467276,2.037305521255309,0.4307770150587968,-0.7633680982751768,-0.8112509164758729,1.141463098387798,0.5385878291332746,0.0824399657846253,-1.003027819819574,9.555903418960952,-0.7284383612526592,0.1293663118166446,-1.2276510923521835
1.02,-0.6900033449842347,0.4804989365160344,2.04559764961836,0.0022673842166694,0.1446093597235171,0.018007939935844,0.4227131360226167,-0.7532894278415774,-0.7814185077304788,-0.6863044294878999,0.4723381114467276,2.037305521255309,0.4307770150587968,-0.7633680982751768,-0.8112509164758729,1.8325364978230825,1.2064841694394757,-0.407535713621121,1.3177634866959054,9.509074949984097,-0.7330325122094653,0.1347501126933524,-1.2270903986343416
1.04,-0.6812960269134304,0.465439204494426,2.030242094729737,-0.0092922289464993,0.1402409421594949,0.0167967917400582,0.4461431560720256,-0.7514454041396077,-0.755672037520714,-0.6863044294878999,0.4723381114467276,2.037305521255309,0.4307770150587968,-0.7633680982751768,-0.8112509164758729,1.743019643600898,1.1715010024704486,0.0922011850984838,1.287323510488242,12.751484948751568,-0.7362979349950055,0.149353330491527,-1.2213037050610396
1.06,-0.6721693068862277,0.450487975315025,2.015326947093132,-0.0209551826671314,0.1321616839458352,0.0157339801681846,0.4647030437339579,-0.7435821594897908,-0.7370612420334747,-0.681996659337312,0.4647044304639759,2.02919301209055,0.4393700788603238,-0.7666842153532427,-0.8159584555574464,1.371734080565787,0.9279943830966114,0.3931622324908457,0.930539774361966,12.288869591796356,-0.7460650168228387,0.1658094590642549,-1.2091255298157104
1.08,-0.6632055470267818,0.4364687042241356,2.001442560417936,-0.0309711361962797,0.1223754971663844,0.014985275652112,0.4774590175197997,-0.7326196079159307,-0.7253267897624387,-0.6733811190361361,0.4494370684984723,2.0129679937610327,0.4565562064633778,-0.7733164495093744,-0.8253735337205933,1.0254142752271491,0.6377986892920934,0.5481275786930029,0.5867226135517989,11.784712440062322,-0.7582494636184077,0.1802363085274532,-1.196212629674823
1.1,-0.65355944199308,0.4219615984740539,1.987019546474299,-0.0399918516583922,0.1110479094716633,0.0144889852204706,0.4860214840085909,-0.7187654327611612,-0.7177764893848951,-0.6647655787349601,0.4341697065329688,1.9967429754315156,0.4737423340664319,-0.7799486836655062,-0.8347886118837403,0.8975815246843022,0.4281233244395582,0.692708757738475,0.3775150188771781,11.369371838701229,-0.7714045541464171,0.1923198620089765,-1.183291371027175
1.12,-0.6437913182199337,0.4077529102874189,1.97269692362788,-0.0472621464233656,0.0996674985770691,0.014258087711052,0.490061266644312,-0.7031197723100558,-0.7148028508071481,-0.6552907320536315,0.4185707328596587,1.9800472031938403,0.4909284616694859,-0.786580917821638,-0.8442036900468873,0.8215063315127619,0.2019891317860567,0.782283022555269,0.1486819288873508,11.05061111806117,-0.7837192345712909,0.2016432119604083,-1.171515610591827
1.14,-0.6339824867251658,0.3938713685232038,1.9584174856993808,-0.0528063267846542,0.0890029744886098,0.0142284025457448,0.4904236758143634,-0.68619531849447,-0.7132454097432398,-0.6458158853723028,0.4029717591863486,1.9633514309561657,0.50811458927254,-0.7932131519777696,-0.8536187682100342,0.8499913235292211,0.0181204585025684,0.8462226907792914,0.0778720531954157,10.710048932302016,-0.7956206017754256,0.2088359732594176,-1.160998669398229
1.16,-0.6246850751711585,0.3810037663189031,1.944872730687002,-0.0566080179895283,0.0799739191573617,0.0143248529016188,0.4881278216339421,-0.6694679316902062,-0.7125643544194085,-0.6359113855008979,0.3872069796591352,1.9464202817644125,0.5253007168755941,-0.7998453861339014,-0.8630338463731813,0.8448968162908042,-0.1147927090210637,0.8363693402131889,0.0340527661915668,10.710048932302016,-0.80624896552879,0.2140220377453882,-1.1517313270936975
1.18,-0.6149687328760196,0.3678044057653772,1.930622402194072,-0.0592893840092682,0.0718520505219704,0.0145017677641363,0.4835105028196361,-0.6515857208784004,-0.712512720473092,-0.6255772324394165,0.3712763942780185,1.9292537556185805,0.5424868444786481,-0.8064776202900331,-0.8724489245363282,0.9234389024391686,-0.2308659407152996,0.8941105405902927,0.0025816973158232,10.659318531238569,-0.8152395601879991,0.2175373582172524,-1.14395833520211
1.2,-0.6053663697804754,0.3549680966577213,1.9163655102900967,-0.0606670377136746,0.0653309932692361,0.0147191918067909,0.4768228154696592,-0.6331250616926417,-0.7131938324166694,-0.5907932077350379,0.3352251197214572,1.894996766170417,0.4995661892189768,-0.6525931794227366,-0.6826570668294839,0.9823250647614832,-0.3343843674988439,0.9230329592879338,-0.0340555971788725,10.616095883905473,-0.8221401130621212,0.219498538740934,-1.1381549163514724
1.22,-0.595853585067585,0.3424777676734444,1.902378792311176,-0.0620152772728174,0.059277960312744,0.0149434213049702,0.474513259399081,-0.6164443214834605,-0.6854315910160667,-0.5907932077350379,0.3352251197214572,1.894996766170417,0.4995661892189768,-0.6525931794227366,-0.6826570668294839,1.6235171624860354,-0.1154778035289127,0.83403701045906,1.3881120700301397,10.577027838785398,-0.8310313964698559,0.2190097606602067,-1.1333387120753606
1.24,-0.5868835534476406,0.3309460246374044,1.889604882618496,-0.0635401491905332,0.0531201567287307,0.0151980608677594,0.4696082795481651,-0.5983452072213125,-0.6606312473366338,-0.5907932077350379,0.3352251197214572,1.894996766170417,0.4995661892189768,-0.6525931794227366,-0.6826570668294839,1.554585001720851,-0.2452489925457962,0.9049557131074026,1.2400171839716423,12.413226521218348,-0.8402171886520087,0.2236129000962983,-1.120569548368296
1.26,-0.5775716552467719,0.3191969443322926,1.8766388209759173,-0.064315020575347,0.0469928394257946,0.0155337315021693,0.4616313952304901,-0.5776430352661789,-0.6373842074307193,-0.585797545842848,0.3286991879272298,1.8881701955021224,0.5027773264988449,-0.6527946711316039,-0.6766859361007623,1.6067322983813046,-0.3988442158837479,1.0351085977566787,1.162351995295724,12.194303642850173,-0.8488301405245442,0.2269834556962754,-1.1088259673752905
1.28,-0.568450289190634,0.3078771477484262,1.8641067414855697,-0.0632875904791967,0.0419918071586628,0.0159440103652077,0.450780365508462,-0.5557340885191309,-0.6169374164316119,-0.5758062220584685,0.315647324338775,1.8745170541655325,0.5091996010585812,-0.6531976545493384,-0.6647436746433191,1.5935950361952869,-0.5425514861014058,1.095447337352401,1.02233954995537,12.003099063589616,-0.8556033092521866,0.2281059242671559,-1.0996012759370049
1.3,-0.5595734965108244,0.2969973433982636,1.851963843385708,-0.059864431830014,0.0389951412863497,0.0164024224696761,0.4373961470693337,-0.5341265200612422,-0.5983102670278893,-0.565814898274089,0.3025954607503203,1.8608639128289428,0.5156218756183174,-0.6536006379670729,-0.6528014131858758,1.57559116905152,-0.6692109219564146,1.0803784228944346,0.9313574701861338,11.84503496292382,-0.8592929058651515,0.2265334784571407,-1.0942805670723978
1.32,-0.5513985602206445,0.2870322375883858,1.840764624494563,-0.0550551032348925,0.0385656157126957,0.016805192812178,0.4241270956654854,-0.5164194169438926,-0.5814207576137012,-0.5555024607617227,0.2895234479909789,1.8478078845652253,0.5220441501780536,-0.6540036213848074,-0.6408591517284326,1.391819631110986,-0.663452570192416,0.8853551558674788,0.8444754707094049,11.741037697599497,-0.8617855185395046,0.222819258166128,-1.0901192036280356
1.34,-0.5430526308266009,0.2768793450540843,1.82933051586004,-0.0493482197456761,0.0401950101619156,0.0171709867482532,0.411404334552072,-0.5001118681917781,-0.562807933225577,-0.5451900232493564,0.2764514352316374,1.834751856301508,0.5284664247377899,-0.6544066048025419,-0.6289168902709893,1.3912602455640042,-0.6361380556706708,0.8153774376057243,0.9306412194062086,11.662041878981654,-0.8620142307016088,0.2182296967270368,-1.0882066956716954
1.36,-0.5349449016713798,0.2670322317287888,1.818276918518967,-0.0434487029976063,0.0433301558314293,0.0174970900143113,0.4002355608950489,-0.4856515283276691,-0.5434354115389328,-0.5347170288729965,0.2633693478868525,1.8219943845742264,0.5348886992975261,-0.6548095882202765,-0.6169746288135461,1.3314818159543622,-0.5584386828511534,0.7230169932054498,0.968626084332208,11.724828969858208,-0.8606592722584264,0.2135597164902496,-1.0874373931697905
1.38,-0.5270428430349265,0.2574568132353818,1.807616859308837,-0.0376027607513295,0.0474118617150898,0.0178063053598017,0.390754056826026,-0.4728142284209183,-0.5235218919707004,-0.5240834776326434,0.2502771859566244,1.8095354693833807,0.5413109738572625,-0.6552125716380109,-0.6050323673561029,1.2759735987679537,-0.4740752034511464,0.6418649953375405,0.9956759784116198,11.724828969858208,-0.8583777822493539,0.2092725341746978,-1.0873911437049646
1.4,-0.5196948457516848,0.2485832130019146,1.797861547939866,-0.0322467074065238,0.0517215766295524,0.018098743467512,0.3833532217540127,-0.4620178862273624,-0.5043401190003924,-0.5075051401936252,0.2338161018143359,1.781440764710302,0.4053092596230812,-0.474599207670269,-0.4991239823294345,1.1611134513990584,-0.3700417536006611,0.5398171096777926,0.9590886485153992,11.741275147766828,-0.8554226360606159,0.2050723283960169,-1.0876535261959253
1.42,-0.5120682049965225,0.2393968295895877,1.787992763002171,-0.028636904479055,0.0555052045941006,0.0183156219885578,0.37970500942942,-0.4563581631216242,-0.4835726688620574,-0.5075051401936252,0.2338161018143359,1.781440764710302,0.4053092596230812,-0.474599207670269,-0.4991239823294345,1.0915916178305531,-0.182410616229639,0.2829861552869128,1.0383725069167515,11.746818764596355,-0.8543708312743251,0.203227088815891,-1.0852983470687498
1.44,-0.5045121546420269,0.2303555792163004,1.778532162760624,-0.0270320479726338,0.0577657487836606,0.0184537419318396,0.3760057489013718,-0.4479522000154311,-0.4635640016618664,-0.5075051401936252,0.2338161018143359,1.781440764710302,0.4053092596230812,-0.474599207670269,-0.4991239823294345,1.1007855233026256,-0.1849630264024099,0.4202981553096535,1.0004333600095503,11.75515873047243,-0.853496002501282,0.2035844327703297,-1.0828915478352232
1.46,-0.4970340154408727,0.2214935604782944,1.769461143481761,-0.0261030916756816,0.059012960993615,0.0185847243050645,0.3719384152598147,-0.4386924742245051,-0.4445305696623429,-0.5034520475973945,0.2290701097376332,1.7764495248870078,0.4082203001824923,-0.4749562035201392,-0.4942444004011814,1.0776795191003747,-0.2033666820778518,0.4629862895463021,0.9516715999761728,11.6491207975223,-0.8536279948633673,0.2046865384512408,-1.079407826730126
1.48,-0.4900092571762564,0.2132501330066061,1.7611881482252487,-0.025420534252073,0.0596149184268865,0.0187209726109121,0.3676852673160563,-0.4295625088189563,-0.4272517112142071,-0.4953458624049328,0.2195781255842278,1.766467045240419,0.4140423813013144,-0.4756701952198794,-0.484485236544675,1.000005606245194,-0.2126573971879208,0.4564982702774361,0.8639429224067907,11.6491207975223,-0.8545230359936452,0.206214430634287,-1.074998983200095
1.5,-0.4827060525153571,0.2047618241181013,1.7528286449975232,-0.0246834258370582,0.0599239039994796,0.0188844857890701,0.3628396792242825,-0.4198054385423804,-0.409624588492198,-0.4872396772124712,0.2100861414308225,1.7564845655938304,0.4198644624201365,-0.4763841869196197,-0.4747260726881687,1.0360931422825237,-0.2422794045886911,0.4878535138287954,0.8813561361004529,11.594848123505471,-0.8557950983718267,0.2075363800236595,-1.0706085370014422
1.52,-0.4755035925651864,0.1964706585902382,1.74481415804581,-0.0237231107137293,0.0601264216718727,0.0190763904986389,0.3576569344332446,-0.4099070590566874,-0.3926885473509234,-0.4788423879640684,0.2005584576924301,1.746990044140067,0.4256865435389586,-0.47709817861936,-0.4649669088316623,1.014480469933705,-0.2591372395518931,0.4949189742846499,0.8468020570637308,11.555681119114524,-0.8574253960414516,0.2085369235084485,-1.0661413669317776
1.54,-0.4684074463235056,0.1883775170991602,1.7371328210777564,-0.0223798316905407,0.0603823827345252,0.0193031166057945,0.3522414190078294,-0.4000227081880923,-0.3762739706746777,-0.4704450987156657,0.1910307739540377,1.7374955226863036,0.4315086246577806,-0.4778121703191003,-0.455207744975156,0.9955733610296588,-0.270775771270762,0.4942175434297563,0.8207288338122842,11.51054074239073,-0.8595069973255554,0.2092179599803019,-1.0611278140019056
1.56,-0.4617670741721984,0.1808699367464549,1.7301353539211128,-0.0206621069923665,0.0607458042839904,0.0195544710647907,0.3470440458731753,-0.3908719363910753,-0.3611067757653103,-0.4619022574392925,0.1814852404231518,1.7282449803289528,0.4373307057766027,-0.4785261620188406,-0.4454485811186496,0.9230291346981496,-0.2598686567327063,0.4575385898508477,0.7583597454683705,11.473313392767524,-0.861436363282845,0.2093921184441381,-1.0564287030002306
1.58,-0.4548833221435984,0.1731460353053814,1.7230785158239674,-0.0185213470545266,0.0612679086196346,0.0198469246808007,0.3416319567274444,-0.3821369540591591,-0.3453753402913834,-0.4532138641349486,0.1719218570997724,1.7192384170680148,0.4431527868954248,-0.4792401537185809,-0.4356894172621433,0.9395061034002824,-0.2706044572865412,0.4367491165958137,0.7865717736963457,11.438856115074486,-0.8631844693665987,0.209149909849398,-1.0521101823529335
1.6,-0.4481069099731161,0.1655882212327754,1.7163326759062354,-0.0163009511551268,0.0619304623570516,0.0201497333370836,0.3363097549007468,-0.3741633472890742,-0.3300024338828821,-0.4378017243072262,0.1540391876024234,1.7058097488093982,0.3618921882968538,-0.3774552108433895,-0.333956543215635,0.9058566231095692,-0.2661100913348813,0.3986803385042425,0.7686453204250682,11.416624963345384,-0.8648172827098106,0.2088031301937455,-1.0479816709482817
1.62,-0.4414343519386682,0.1581433310162648,1.70990182063677,-0.0154024394389528,0.0627343629253593,0.0203660492344057,0.3312399227828622,-0.3701570147548602,-0.3138462191207228,-0.4378017243072262,0.1540391876024234,1.7058097488093982,0.3618921882968538,-0.3774552108433895,-0.333956543215635,0.8700246742467249,-0.2534916058942293,0.2003166267107031,0.8078107381079613,11.386745343381335,-0.8661530960020055,0.2093858442310634,-1.044476561017635
1.64,-0.4351905628256111,0.1511589923219918,1.7040810625153655,-0.0161870723779822,0.0636797442477885,0.0204634409594178,0.3263083739572903,-0.3651133158393023,-0.2996655296634193,-0.4378017243072262,0.1540391876024234,1.7058097488093982,0.3618921882968538,-0.3774552108433895,-0.333956543215635,0.7919138621944276,-0.2465774412785948,0.2521849457778946,0.7090344728651748,11.43396652262436,-0.8676694183200903,0.2119929571233814,-1.0398662276006438
1.66,-0.4287182932647882,0.1439219621383217,1.6982343849619304,-0.0181621005049374,0.064913851096626,0.0204920642737864,0.321230727021132,-0.3587692711924644,-0.2857869526039144,-0.4341828024242577,0.1502646354939895,1.7024701833772418,0.3659442346107357,-0.3765188622002356,-0.3316727838004853,0.804121107305933,-0.2538823468079154,0.3172022323418955,0.693928852975248,11.346708369048429,-0.8688814441633353,0.2157561917646372,-1.035295506247207
1.68,-0.422345742790141,0.1368284255518709,1.6926535454405776,-0.0207955694548939,0.0663833402015216,0.0204809200461376,0.3163337506133462,-0.3506772011257038,-0.2730328858255149,-0.4269449586583206,0.1427155312771217,1.6957910525129292,0.3740483272384994,-0.3746461649139278,-0.3271052649701859,0.79392725625785,-0.2448488203892901,0.4046035033380274,0.637703338919976,11.274302835447996,-0.8698063363617559,0.2201591577914407,-1.0308318175218034
1.7,-0.4160686761388807,0.1299186211168474,1.6873161948190998,-0.0231943715009453,0.0680651336429571,0.0204917269213308,0.3116995644021312,-0.3408150169397811,-0.2613242270909536,-0.4197071148923835,0.135166427060254,1.6891119216486163,0.3821524198662632,-0.37277346762762,-0.3225377461398865,0.7997359691168331,-0.2317093105607487,0.4931092092961359,0.5854329367280614,11.138747651163612,-0.8701090381039278,0.2241425143609981,-1.0271902449343926
1.72,-0.4101878239859061,0.1235464138443516,1.6824551555609704,-0.0248870629341873,0.0698155423350861,0.0205483215084319,0.3076404121449474,-0.3305964485065937,-0.2509378365906207,-0.4120640664950583,0.1277109577077016,1.682661166725819,0.3902565124940269,-0.3709007703413122,-0.3179702273095872,0.7562621329541441,-0.202957612859192,0.5109284216593707,0.5193195250166455,11.138747651163612,-0.8700901278747681,0.227725884040568,-1.0238472132081604
1.74,-0.4040761922840787,0.1170543163563944,1.6775467934221888,-0.0258932790331464,0.0717633787607113,0.0206687954076306,0.3038037099968588,-0.3192106379448594,-0.2404576904053136,-0.404421018097733,0.1202554883551492,1.6762104118030208,0.3983606051217907,-0.3690280730550044,-0.3134027084792878,0.7971675319314219,-0.1918351074044311,0.5692905280867133,0.5240073092653535,11.08951389746926,-0.8699900033081431,0.2304685182047767,-1.0208587259644932
1.76,-0.3980354715507436,0.1107975549723298,1.6728430623493873,-0.0258074209279031,0.0737284500092805,0.0208747841466999,0.3005188439428144,-0.3071367460052697,-0.2304512349259011,-0.3965753673847136,0.1128468364347544,1.6698738448509804,0.4064646977495544,-0.3671553757686966,-0.3088351896489884,0.8010904487374811,-0.1642433027022188,0.6036945969794844,0.5003227739706281,11.059226025422504,-0.8698174794913354,0.2322031499640493,-1.0181476440649506
1.78,-0.3920548776368573,0.1047867051684109,1.6683349504638696,-0.0242994226839336,0.075597709183434,0.021192276450309,0.2977492819903122,-0.2947620775737072,-0.220845562271765,-0.3885271143560002,0.1054850019465174,1.6636514658696977,0.4145687903773182,-0.3652826784823887,-0.304267670818689,0.7954115905276248,-0.1384780976251109,0.6187334215781243,0.480283632706803,11.027767868838056,-0.8695708171161688,0.2326131972439331,-1.0159732034168834
1.8,-0.3864201276592718,0.0993011700130956,1.6642276619843943,-0.0214712311762798,0.0772131076075075,0.021603877321866,0.2955531605803143,-0.2837041261895076,-0.2119632968854045,-0.3771674135373417,0.0900486012897256,1.6572926723502814,0.3093237412525044,-0.277472912166288,-0.1905050546452315,0.7176278221622125,-0.1098060704998932,0.5528975692099841,0.4441132693180236,11.002117767442542,-0.8694168023966031,0.2316966822900177,-1.0139014089904186
1.82,-0.3804795624722527,0.0936854069292324,1.6601870219431465,-0.0192322271849813,0.0773486198191833,0.0220253404072163,0.298627608987513,-0.2779464110833476,-0.1920457435767589,-0.3771674135373417,0.0900486012897256,1.6572926723502814,0.3093237412525044,-0.277472912166288,-0.1905050546452315,1.047989081592661,0.1537224203599363,0.2878857553079983,0.9958776654322834,10.980712234864768,-0.877381981653104,0.2300747890896325,-1.0054355986428822
1.84,-0.3744812820940852,0.0881982919471595,1.6565562557729938,-0.0186488390336053,0.0745915061426877,0.0223925284389645,0.3008083712228226,-0.2709434223026188,-0.1721192891225027,-0.3771674135373417,0.0900486012897256,1.6572926723502814,0.3093237412525044,-0.277472912166288,-0.1905050546452315,1.0616745769155345,0.1090381117654804,0.3501494390364401,0.9963227227128084,11.675189882830637,-0.8833188397871586,0.233515427984282,-0.9941158929630772
1.86,-0.3684612286417678,0.0828585855133607,1.653306842519804,-0.0190470757253596,0.0695466017534814,0.0227427120047588,0.3007325586869321,-0.2633195723214819,-0.1537787625621532,-0.3740741761248166,0.0872738721680627,1.655387621803829,0.3116386331049429,-0.2740150790848042,-0.1844369531199248,0.9931059240916392,-0.0037906267945281,0.3811924990568427,0.9170263280174742,11.58212077047756,-0.8914262393357532,0.2381199167394135,-0.9801681515998106
1.88,-0.3627776761253756,0.0779331551461481,1.650545837344458,-0.0200388664457891,0.0636186060955397,0.0230680438886753,0.2973005967162651,-0.2555104241210511,-0.1377380358579961,-0.3678877012997665,0.0817244139247369,1.6515775207109245,0.3162684168098198,-0.2670994129218365,-0.1723007500693114,0.9083860299754936,-0.1715980985333515,0.3904574100215413,0.8020363352078549,11.471011102816192,-0.900875480430376,0.243199518726345,-0.9648124208242904
1.9,-0.3568994776885996,0.072915706827949,1.6479576926585084,-0.021474259253027,0.057333537118522,0.0234036681839079,0.2904945294740065,-0.2466191428528667,-0.1219475077005516,-0.3617012264747165,0.0761749556814112,1.64776741961802,0.3208982005146967,-0.2601837467588688,-0.160164547018698,0.9678819832334404,-0.3403033621129259,0.444564063409221,0.789526407872225,11.370612240443734,-0.9109968239677072,0.2482348131902639,-0.9489521939838034
1.92,-0.3511918323870465,0.0680861745712976,1.6456717651983386,-0.0229810418183144,0.0520055425420174,0.0237352764113035,0.2804719313585123,-0.2368142231100681,-0.1073986771111297,-0.3552832624644225,0.0709712807462338,1.6445641286776458,0.3255279842195736,-0.2532680805959011,-0.1480283439680846,1.0102690182163474,-0.5011299057747137,0.4902459871399298,0.7274415294710942,11.219705002426052,-0.920076723798109,0.253647794214158,-0.9331829054389844
1.94,-0.345984161204278,0.063688736113804,1.6437641935419225,-0.0241435284866269,0.0488321743102062,0.0240430100282331,0.2681436271348001,-0.2266328582676287,-0.0940994622164649,-0.3488652984541286,0.0657676058110564,1.641360837737272,0.3301577679244505,-0.2463524144329335,-0.1358921409174712,1.039851421961013,-0.6164152111856086,0.5090682421219697,0.6649607447332436,11.219705002426052,-0.9279478185370418,0.2585866262408131,-0.9188530037438593
1.96,-0.3407704873965885,0.0592770749974127,1.642027072425153,-0.0247306653324092,0.0482760557367768,0.0243571800431371,0.2541934864178856,-0.2151174777611181,-0.0802827915681728,-0.3423315898512127,0.0607368225299532,1.6384609518731632,0.3347875516293274,-0.2394367482699658,-0.1237559378668578,1.1381023702141355,-0.6975070358457236,0.5757690253255288,0.6908335324146017,11.195710452584535,-0.9344135656702895,0.2620186182740593,-0.907309005410144
1.98,-0.3358241602317103,0.0551032391350073,1.640565231149869,-0.0243053395941088,0.0501611260012926,0.0246913660319819,0.2413958347876971,-0.202936498324962,-0.0665672473079234,-0.335682136655675,0.0558789309029242,1.63586447108532,0.3394173353342043,-0.2325210821069981,-0.1116197348162444,1.118338389784804,-0.6398825815094267,0.6090489718078059,0.6857772130124729,11.165950388807689,-0.9386138622585846,0.2648997076532064,-0.8979128759746158
2.0,-0.3311175213885194,0.0511766395290862,1.639377398699445,-0.0225612485221118,0.0537842030124538,0.0250857865760492,0.2301943864873021,-0.1905232189394408,-0.0528610970293473,-0.3237543684923255,0.0449564142187592,1.637236868784473,0.2542986133610313,-0.195161078467609,-0.0932594030565291,1.0809954955830483,-0.5600724150197495,0.620663969276057,0.6853075139288025,11.13622726835547,-0.940937778133462,0.2667721473951642,-0.8909340445398892
2.02,-0.3268408095272841,0.0476892026774774,1.638376463378444,-0.0190006297079328,0.0581424078184748,0.0255873634005225,0.2207558371818767,-0.1781311216307496,-0.053169341591742,-0.3237543684923255,0.0449564142187592,1.637236868784473,0.2542986133610313,-0.195161078467609,-0.0932594030565291,0.7790142864692289,-0.4719274652712685,0.6196048654345628,-0.0154122281197342,11.114793283250949,-0.9365934134469518,0.2687342329168012,-0.889274308367333
2.04,-0.3225165670951145,0.0442285503483933,1.637297736873235,-0.0141540158509552,0.0631710043480374,0.0262066496054046,0.2123577892128494,-0.1688317167275733,-0.0546715577060116,-0.3237543684923255,0.0449564142187592,1.637236868784473,0.2542986133610313,-0.195161078467609,-0.0932594030565291,0.6309968195190717,-0.4199023984513661,0.4649702451588119,-0.0751108057134821,10.23271778445178,-0.9323443572569938,0.2648240331166732,-0.8952057481568165
2.06,-0.3183426674832909,0.0409280005727101,1.6361859367441614,-0.0093312742897332,0.0683320607677002,0.0268480657183888,0.2056098108085667,-0.1617363494934467,-0.0564407324276432,-0.3212113823587152,0.0430048034340831,1.6363042747539076,0.2568791690756982,-0.1936059944961384,-0.0985978342062502,0.4975174065483641,-0.3373989202141339,0.3547683617063341,-0.0884587360815789,10.202511620730547,-0.9279794424244387,0.260862083388857,-0.9014644893189464
2.08,-0.3142873262624608,0.0377538530352663,1.6350360462364304,-0.0049787064151558,0.073325703558966,0.0274816463090984,0.2003789489499149,-0.1559950126052188,-0.058472926627846,-0.3161254100914946,0.039101581864731,1.6344390866927772,0.2620402805050318,-0.1904958265531972,-0.1092746965056925,0.4014183550728675,-0.2615430929325923,0.2870668444113933,-0.1016097100101413,10.189844845664084,-0.9232146091846868,0.2570139533132475,-0.9080810941636284
2.1,-0.3105187965179687,0.0348356469576547,1.6339031918663842,-0.0013956457693551,0.0777169954354215,0.0280645024763291,0.1966413555063019,-0.1514044259722851,-0.0606856625857649,-0.3110394378242739,0.0351983602953788,1.6325738986316465,0.2672013919343655,-0.187385658610256,-0.1199515588051348,0.3159877007245504,-0.1868796721806495,0.2295293316466842,-0.1106367978959417,10.167151150142672,-0.9184822681733122,0.2536463444843542,-0.9144356284494156
2.12,-0.3066176220169868,0.0318518617733907,1.6326617192770323,0.0018072221412391,0.0818462341696834,0.0286529880493538,0.1937490906955765,-0.1471824365751438,-0.0633705528766525,-0.3056954099855866,0.0314506471231737,1.630174867455544,0.2723625033636992,-0.1842754906673148,-0.1306284211045771,0.2889594525146928,-0.1446132405362704,0.2110994698570636,-0.1342445145443807,10.167151150142672,-0.9139102413980308,0.2507730175192051,-0.9203966782466402
2.14,-0.3027651685056022,0.0289472423247448,1.631358159609772,0.0044788070354724,0.0854137198401375,0.0292134096298456,0.1916930121987036,-0.1434541367134006,-0.0668990793443706,-0.3003513821468993,0.0277029339509685,1.627775836279441,0.2775236147930329,-0.1811653227243737,-0.1413052834040194,0.276487692663547,-0.1028039248436418,0.1864149930871639,-0.1764263233859038,10.15250531926631,-0.9094374307345888,0.2483868856173597,-0.9260066685471058
2.16,-0.2989458170909167,0.0261132824607803,1.6299749807909854,0.0066904026297373,0.0883789431484736,0.0297453388235964,0.1903598940947835,-0.1400742260095176,-0.0712525321809539,-0.2948783265224787,0.0240329749773369,1.6251098835458522,0.2826847262223666,-0.1780551547814325,-0.1519821457034617,0.2835205100410608,-0.0666559051960072,0.1689955351941482,-0.2176726418291641,10.109135692281598,-0.9054668861053596,0.2463703677084376,-0.9310632035591204
2.18,-0.2953371059414296,0.0234809482956618,1.628573869279513,0.0084485593127973,0.0906372402241184,0.0302261895880526,0.1895713454744804,-0.1371427979510225,-0.0760251345256964,-0.2892762431123247,0.0204407702022789,1.6221770092547774,0.2878458376517003,-0.1749449868384913,-0.162659008002904,0.2828109462598477,-0.0394274310151515,0.1465714029247541,-0.2386301172371277,10.041518334898685,-0.9015929682677744,0.2444093327725386,-0.9361562665983696
2.2,-0.2915514268318168,0.0207673805263041,1.6269949041691083,0.0099842094144491,0.0924767422001134,0.0307070043354662,0.1890458996510188,-0.1343749286312068,-0.0816551978381396,-0.2858585386677056,0.0166238083981106,1.6247726125532282,0.2150651815048445,-0.1234170301075972,-0.0891452735433976,0.3147809031179057,-0.0262722911730822,0.1383934659907867,-0.2815031656221614,10.041518334898685,-0.897973096814641,0.2425774949896187,-0.9410951957309336
2.22,-0.28775667112181,0.0180684906635648,1.6254315618219095,0.0100341971683129,0.0937132704826923,0.0310779240413826,0.190485329813544,-0.1353730557217909,-0.0736893302660247,-0.2858585386677056,0.0166238083981106,1.6247726125532282,0.2150651815048445,-0.1234170301075972,-0.0891452735433976,0.4078089720022649,0.0719715081262575,-0.0499063545292041,0.3982933786057477,10.013039767295597,-0.9000790267856118,0.2394244481290388,-0.9436215133770048
2.24,-0.2839351140293131,0.0153565629561977,1.6240360388787298,0.007754826849322,0.0944089618449482,0.0312815241261748,0.191556694752222,-0.1355039141781157,-0.0663225315418538,-0.2858585386677056,0.0166238083981106,1.6247726125532282,0.2150651815048445,-0.1234170301075972,-0.0891452735433976,0.3722723136692615,0.0535682469339007,-0.0065429228162397,0.3683399362085441,10.89166115512944,-0.9010626190350968,0.2442813908245631,-0.9384668038059848
2.26,-0.2802901234791884,0.012802750420778,1.6228257093659997,0.0042111419567028,0.0948124808149742,0.0313800569788831,0.1920556413238339,-0.1329312384858133,-0.0614314599232787,-0.2837078868526572,0.0153896380970346,1.6238811598177942,0.2201639487109173,-0.1206718765389122,-0.0917693013469378,0.2774445416525516,0.0249473285805962,0.1286337846151189,0.2445535809287555,10.753492061863652,-0.902228926665586,0.2504415177999223,-0.9327754930198368
2.28,-0.2764481322638669,0.0101977523291909,1.6216342072889507,0.0004059424930312,0.0951487779296717,0.0314834463717009,0.1921117999417118,-0.1276706043276853,-0.0580513430484003,-0.2794065832225603,0.0129212974948827,1.6220982543469264,0.2303614831230629,-0.1151815694015421,-0.0970173569540183,0.3126604213194485,0.0028079308938944,0.2630317079063984,0.1690058437439169,10.614840251450005,-0.9028929780516084,0.256251100372898,-0.9280936576487164
2.3000000000000003,-0.2726087705302601,0.0077145971940139,1.620493162635116,-0.0028538677574277,0.095539163161589,0.0316304548334198,0.1918363433722645,-0.1209803318588298,-0.0562831724113536,-0.2751052795924634,0.0104529568927308,1.6203153488760584,0.2405590175352085,-0.109691262264172,-0.1022654125610987,0.3462731921145897,-0.0137728284723651,0.3345136234427726,0.0884085318523349,10.41053625080258,-0.9031012361208516,0.2612329459361073,-0.9244389164571748
2.32,-0.2687773850893091,0.0053749951188177,1.6193721667765557,-0.0053436050809928,0.0960857777874106,0.0318354137502483,0.1913672723460082,-0.1134946890900568,-0.055895137855538,-0.2702940992417592,0.0082591316474473,1.6182700406248365,0.2507565519473542,-0.1042009551268018,-0.1075134681681792,0.3755177962023369,-0.0234535513128131,0.3742821384386509,0.019401727790784,10.41053625080258,-0.9028126458141662,0.2650356672863632,-0.9220356907824984
2.34,-0.2651460913451737,0.0032953710834366,1.6183096921226618,-0.0070039207419575,0.0967904843705784,0.0320816046421285,0.1909491831051565,-0.105943643555833,-0.0559588525280789,-0.265482918891055,0.0060653064021639,1.6162247323736143,0.2609540863594998,-0.0987106479894317,-0.1127615237752596,0.3781439766568256,-0.0209044620425855,0.3775522767111933,-0.0031857336270469,10.336058996995234,-0.9023272964604958,0.2680748089250677,-0.9203250754313204
2.36,-0.2613295783319747,0.0012655583883123,1.617186847335176,-0.0079793980145955,0.0976920510423741,0.0323959799719614,0.1907655535717995,-0.097492086981575,-0.0563344561347469,-0.2604168001800472,0.0040087388353147,1.6140482227322157,0.2711516207716454,-0.0932203408520616,-0.1180095793823401,0.4230945709966807,-0.009181476667848,0.4225778287128987,-0.0187801803334015,10.311831685940888,-0.9016966523758496,0.2704431267783553,-0.918938450827413
2.38,-0.257513790412068,-0.0005889251059635,1.6160530280471028,-0.0079314555546831,0.098672355084127,0.0327826937395654,0.1908591671383799,-0.0884681409456796,-0.0570404659312122,-0.2550957431087358,0.0020894289468998,1.6117405117006394,0.281349155183791,-0.0877300337146915,-0.1232576349894205,0.4526003076426967,0.0046806783290193,0.4511973017947708,-0.0353004898232651,10.29279373983718,-0.9008621546321552,0.2719949771695669,-0.9179320706758264
2.4,-0.2536932153493185,-0.0022604297484908,1.614901684499679,-0.0066327810776822,0.099657348901969,0.0332570687168002,0.1912254567057697,-0.0792535879644743,-0.0580693337674338,-0.247970832055149,-0.0050123321532474,1.6132010047505425,0.2086927557832421,-0.0703047691145009,-0.0492953340809696,0.4639523782540303,0.0183144783694869,0.4607276490602621,-0.0514433918110804,10.273251206893292,-0.8998520981894659,0.2724843518168664,-0.9174180974590204
2.42,-0.2498084406200473,-0.0037589970228856,1.613858249322475,-0.0043114400031685,0.0992614992398519,0.0338087134168873,0.1970028675921457,-0.0711201428386391,-0.0461869820812346,-0.247970832055149,-0.0050123321532474,1.6132010047505425,0.2086927557832421,-0.0703047691145009,-0.0492953340809696,0.7757604136579671,0.2888705443188019,0.4066722562917603,0.5941175843099649,10.254050604804434,-0.9069825036708996,0.2704745268166909,-0.9115899774824398
2.44,-0.2460180855682649,-0.0050447252749808,1.6130869970177673,-0.0016689878121572,0.096616685400009,0.0343643543050807,0.2015188913349651,-0.0647656763674322,-0.0355950522659321,-0.247970832055149,-0.0050123321532474,1.6132010047505425,0.2086927557832421,-0.0703047691145009,-0.0492953340809696,0.6575764058109439,0.2258011871409684,0.3177233235603482,0.5295964907651246,11.034304172421798,-0.9122374116989814,0.2734698670496486,-0.8999812401873796
2.46,-0.2419539614622208,-0.0062815603612172,1.612479183144206,0.001001424012421,0.0919485820703503,0.0349289148081775,0.2044119427658583,-0.0592723415114699,-0.025779553957726,-0.2458839044973166,-0.0057153798443925,1.6127080514097325,0.2122594735122145,-0.0666720947482652,-0.0477463077109211,0.5807118077409827,0.1446525715446608,0.2746667427981127,0.4907749154103052,10.828145442441382,-0.9188300717238528,0.2761440969575394,-0.8875383458536217
2.48,-0.2378627513256609,-0.0074169428705108,1.6120532089859203,0.0033403998078242,0.0861585369240064,0.035450732902534,0.2042698707250226,-0.0545283070327185,-0.0173440538834125,-0.2417100493816518,-0.0071214752266825,1.6117221447281131,0.2193929089701594,-0.0594067460157937,-0.0446482549708241,0.4839517256506881,-0.007103602041783,0.2372017239375683,0.4217750037156736,10.73420194114533,-0.9260022715058684,0.2785469381113201,-0.8750834718887756
2.5,-0.2338085371169029,-0.0084635434748648,1.611781226774884,0.0052854391725244,0.0803770236548185,0.035928012445318,0.2010238992722117,-0.0503097952236846,-0.0102418665180209,-0.237536194265987,-0.0085275706089725,1.6107362380464938,0.2265263444281043,-0.0521413972833222,-0.041550202230727,0.443771444351004,-0.1622985726405457,0.2109255904516982,0.35510936826958,10.73420194114533,-0.9328755588917756,0.2803774800605136,-0.8640599602045249
2.52,-0.2300447096309848,-0.0093838448861302,1.6116440086473611,0.0067708442881193,0.07578000270569,0.0363486591995568,0.195222062103613,-0.0467381578061953,-0.0045390753486887,-0.2330056673774249,-0.0095703985546389,1.6099052340018791,0.2336597798860492,-0.0448760485508508,-0.03845214949063,0.4442401813601409,-0.2900918584299361,0.1785818708744647,0.285139558466609,10.652884225960406,-0.9389307456938668,0.2818741269529561,-0.8545484049883263
2.54,-0.2262275579358236,-0.0102840301572688,1.61161262494182,0.0078921388613424,0.0728595758162212,0.0367657218282406,0.1866648812615558,-0.0434641173663685,0.0010931785558343,-0.2284751404888628,-0.0106132265003054,1.609074229957265,0.240793215343994,-0.0376106998183793,-0.0353540967505329,0.5377428958394211,-0.4278590421028586,0.1637020219913368,0.281612695226154,10.58885116008878,-0.9432803589258532,0.2828426979161021,-0.847990479753921
2.56,-0.2225938618828502,-0.0111213469044494,1.611690216658372,0.0084947722839318,0.0725940367235287,0.0371641896202867,0.1774511204649798,-0.0404104976952538,0.0063850481124096,-0.2237662777138521,-0.01147442072766,1.6083206772311525,0.2479266508019389,-0.0303453510859078,-0.0322560440104359,0.5527699894986792,-0.4606880398287993,0.1526809835557384,0.2645934778287643,10.574621446234232,-0.9464348515217408,0.2832050024131363,-0.8441525941361719
2.58,-0.219131538825301,-0.0118979687579902,1.6118708013486085,0.0085687635721427,0.0745099731566312,0.0375434479530871,0.1695214510883861,-0.0373688967973041,0.0114232305467418,-0.2188790790523928,-0.0121539812367029,1.607644575823543,0.2550600862598838,-0.0230800023534364,-0.0291579912703388,0.4937465814719891,-0.3964834688296864,0.1520800448974839,0.2519091217166103,10.51854679671942,-0.9473621770787096,0.2838793683099795,-0.8427412920706553
2.6,-0.2159733889360892,-0.0125773498975283,1.612133960594621,0.008189543286212,0.0776609252550985,0.037883009388245,0.1635133490155972,-0.0342716386043999,0.0160325160601364,-0.2106554662708817,-0.0137664135978555,1.6124419628759454,0.1821897170494967,-0.0333828655146109,0.0047598759673825,0.4090715456205458,-0.3004051036394478,0.1548629096452102,0.2304642756697322,10.51854679671942,-0.9469670431740445,0.2850708689663406,-0.8425060389025472
2.62,-0.2127359301625608,-0.0131726793981159,1.6125025148674252,0.0090577257343745,0.0810605891822802,0.0383283224323345,0.1606426877861783,-0.0258206248818102,0.020554279592027,-0.2106554662708817,-0.0137664135978555,1.6124419628759454,0.1821897170494967,-0.0333828655146109,0.0047598759673825,0.5002666145962166,-0.143533061470942,0.4225506861294864,0.2260881765945282,10.499132244329305,-0.9475112836148816,0.2864925932520187,-0.8400117701947472
2.64,-0.2095480312314181,-0.0136159788968484,1.612952676139994,0.0122052128187709,0.0836394402701769,0.0389263829514037,0.1583021379433282,-0.0194849401652999,0.0241910254775798,-0.2106554662708817,-0.0137664135978555,1.6124419628759454,0.1821897170494967,-0.0333828655146109,0.0047598759673825,0.3835524573965478,-0.1170274921425046,0.3167842358255115,0.1818372942776407,10.46148086897756,-0.9460653087140188,0.2860037285223743,-0.8402612882845882
