t,x,y,z,roll,pitch,yaw,v_x,v_y,v_z,ref_x,ref_y,ref_z,ref_v_x,ref_v_y,ref_v_z,a_com,a_x,a_y,a_z,thrust,wind_x,wind_y,wind_z
0.0,0.7968547849081431,1.45408268428315,2.391906261387505,0.0318908368379251,0.100163291765069,0.0432974631881412,0.0036583634254437,0.005511809700566,0.0185906022773068,0.7969624662552112,1.454303825081395,2.39247129604241,-0.0963927254853892,-0.0931253096099393,-0.0812290068111061,0.9866283015412716,0.1829181712721889,0.2755904850283045,0.9295301138653422,10.232976821681405,-0.9453049147555576,0.2582714840674979,-0.8678853733662013
0.02,0.7970724447760998,1.4544009248778096,2.392052699730426,0.0401724485625849,0.0944414502013315,0.0436432376398652,0.0180035729422927,0.0231733261807142,-0.0032784804648352,0.7969624662552112,1.454303825081395,2.39247129604241,-0.0963927254853892,-0.0931253096099393,-0.0812290068111061,1.5779503956426333,0.7172604758424487,0.8830758240074091,-1.0934541371071045,10.233779188600238,-0.9529176333778532,0.2555458083736301,-0.8568308046551923
0.04,0.7975379360827382,1.4548839578986164,2.3916821851528502,0.0542036409794681,0.0782387840508568,0.0437849520815886,0.0264428311529877,0.0235267018404873,-0.0327849236528515,0.7969624662552112,1.454303825081395,2.39247129604241,-0.0963927254853892,-0.0931253096099393,-0.0812290068111061,1.5345814927133528,0.4219629105347516,0.017668782988652,-1.4753221594008148,8.60082735669448,-0.9530343657824484,0.2410749543637928,-0.861731472025762
0.06,0.7980621784392393,1.455298760306003,2.3907130895158355,0.0684997335420305,0.0558677972515029,0.0432782646258161,0.0245247791772593,0.0175587408679829,-0.0626408690477419,0.7959985390003572,1.453372571985296,2.391659005974299,-0.1163927257834124,-0.1131253099079625,-0.1012290071091293,1.5253466466459449,-0.0959025987864231,-0.2983980486252192,-1.4927972697445226,8.60082735669448,-0.9601623673313489,0.2242742147187924,-0.8624814309401163
0.08,0.7984444330295425,1.4555541121146904,2.3891549576111824,0.082229114143085,0.0314046442866274,0.0421945954266869,0.013124435321699,0.0079407819467175,-0.0917449733527569,0.7940706844906494,1.4515100657930973,2.390034425838077,-0.1563927263794589,-0.153125310504009,-0.1412290077051758,1.635177254331583,-0.5700171927780115,-0.4808979460632699,-1.4552052152507489,8.665114335423823,-0.9724247338102674,0.2047763863353314,-0.8608528980966179
0.1,0.7985144488023376,1.4555889222358784,2.387140942320628,0.0946756554580248,0.0089665491698797,0.0408275967440776,-0.0054737413406493,-0.0040611542204576,-0.1188787678434113,0.7921428299809417,1.4496475596008984,2.388409845701855,-0.1963927269755053,-0.1931253111000554,-0.1812290083012223,1.7508436897578372,-0.9299088331174228,-0.6000968083587594,-1.3566897245327176,8.665114335423823,-0.9870439654820656,0.18491902860285,-0.8575217825309819
0.12,0.7981419668787885,1.4553506922747212,2.384464652854019,0.1071736578404006,-0.0119405948332316,0.0392627976436682,-0.0310716562320772,-0.0194281919571027,-0.1473740142598612,0.7882149754414316,1.4457850533788974,2.3847852655358306,-0.2363927275715517,-0.2331253116961019,-0.2212290088972687,2.0636001089857863,-1.2798957445713932,-0.7683518868322555,-1.4247623208224944,8.741449853293489,-1.0019127412335618,0.1648535581185393,-0.8544997763071673
0.14,0.797202980941055,1.454777397446837,2.3812147321304056,0.1190763877465009,-0.0289139556173307,0.037789025541242,-0.0614510803912034,-0.0374014067016148,-0.1762666859601542,0.7842871209019214,1.4419225471568962,2.381160685369806,-0.2763927281675983,-0.2731253122921484,-0.2612290094933152,2.2807522544510195,-1.5189712079563118,-0.8986607372256048,-1.4446335850146512,8.803818825238068,-1.014074547835467,0.1450831845454958,-0.8549330327043042
0.16,0.7956185771344723,1.4538183197407404,2.3773844511440783,0.1303978469283742,-0.0413686272542442,0.0365936109440237,-0.095204987412358,-0.0578581098300315,-0.2053542293065844,0.7793592663475102,1.4370600409199938,2.3765361051888805,-0.3163927287636447,-0.3131253128881948,-0.3012290100893616,2.4514730877614066,-1.6876953510577293,-1.0228351564208322,-1.454377167321512,8.841722172811387,-1.024613912818595,0.1252291096775586,-0.8570302364356078
0.18,0.7934645503507859,1.4525020335033647,2.3732066968804992,0.1404963768658557,-0.0486914762807328,0.0358616518400883,-0.1297518605524198,-0.0797912892925406,-0.232983812453422,0.7734314117781977,1.4311975346681904,2.370911524993053,-0.3563927293596911,-0.3531253134842412,-0.341229010685408,2.4687773643841235,-1.72734365700309,-1.0966589731254577,-1.3814791573418792,8.951586526419305,-1.0316836254241502,0.1080731274319962,-0.8601277692144207
0.2,0.7904719431269068,1.4506237701019824,2.368237638888554,0.1496918339066951,-0.0511197963159514,0.0356582668442204,-0.1672921703268609,-0.1066740706421629,-0.2623752299044554,0.7869769573231649,1.4485124690387376,2.361557506257828,-0.2297518620425359,-0.1797912907826567,-0.3329838139435381,2.736701578010243,-1.877015488722052,-1.3441390674811162,-1.4695708725516663,8.951586526419305,-1.0358772183900131,0.0910015234713457,-0.8676198106613198
0.22,0.7867009821652343,1.4480444774358605,2.3627997235175924,0.1530886361799172,-0.0472768450521999,0.0359705008869077,-0.2073666978541681,-0.1481526341283914,-0.2787708670413799,0.7869769573231649,1.4485124690387376,2.361557506257828,-0.2297518620425359,-0.1797912907826567,-0.3329838139435381,2.9980226410684816,-2.003726376365364,-2.073928174311422,-0.8197818568462273,8.984835212693724,-1.0404219098800322,0.0798717710643209,-0.873026882191068
0.24,0.7824185496031889,1.4448814649353807,2.3573639599226204,0.1501904306919817,-0.038315785202976,0.0366388275764948,-0.24075598334644,-0.1816983629414375,-0.2924011542656317,0.7869769573231649,1.4485124690387376,2.361557506257828,-0.2297518620425359,-0.1797912907826567,-0.3329838139435381,2.462694173612748,-1.669464274613594,-1.6772864406523065,-0.6815143612125873,9.9410550299458,-1.039938076149039,0.0798573914650006,-0.8766528427933019
0.26,0.7772822287268972,1.4409347419814356,2.351355507616808,0.1443719518463732,-0.0258519852435508,0.0375480822407965,-0.2705492843611413,-0.2106221163150064,-0.3077033610845907,0.7846794387027395,1.4467145561309112,2.3582276681183925,-0.2497518623405591,-0.1997912910806799,-0.3529838142415614,2.212680403999767,-1.4896650507350615,-1.4461876686784434,-0.7651103409479498,9.811497230653911,-1.0340508651568034,0.0814626107977787,-0.8869466182365522
0.28,0.7716041825159394,1.436455677751885,2.345022421589411,0.1379041696982811,-0.0121517596146321,0.0385018604077196,-0.2953149879336937,-0.2355888050184635,-0.3249000767828477,0.7800844014618888,1.443118730315258,2.351567991839522,-0.2897518629366056,-0.2397912916767264,-0.3929838148376078,1.957295742258659,-1.238285178627621,-1.248334435172857,-0.8598357849128518,9.637216843761053,-1.0263626390095333,0.0842960463820886,-0.8979335761558261
0.3,0.7654791920024593,1.4315075117853648,2.338320193399279,0.1316625190060384,0.0013984859596982,0.0393551428839386,-0.3156565425450682,-0.2579050223987088,-0.3444539710437655,0.7754893642210381,1.4395229044996047,2.344908315560651,-0.329751863532652,-0.2797912922727729,-0.4329838154336543,1.7987128612823735,-1.0170777305687273,-1.1158108690122626,-0.977694713045893,9.47394718951,-1.0167883121735946,0.0867710756699456,-0.9112555314449752
0.32,0.7593195508953763,1.4264131207978847,2.3315697005556726,0.1262701096318395,0.0132791690508529,0.0399923112945614,-0.3315605154863009,-0.2772569495224346,-0.3651778856387979,0.7688943269503851,1.4339270786541494,2.336248639251978,-0.3697518641286985,-0.3197912928688193,-0.4729838160297007,1.6255107465498724,-0.7951986470616346,-0.96759635618629,-1.0361957297516156,9.325591547983096,-1.0060875748387468,0.0883760264859898,-0.9258919699568928
0.34,0.7525394156180917,1.4206694159909914,2.3240220663378137,0.1213236194947876,0.0241761389847571,0.0404422675450498,-0.3454678237619997,-0.2961286731760394,-0.3886081435510991,0.762299289679732,1.428331252808694,2.3275889629433046,-0.409751864724745,-0.3597912934648658,-0.5129838166257472,1.6572056020378847,-0.6953654137849402,-0.9435861826802394,-1.1715128956150591,9.19498445782756,-0.9957906140320284,0.0894052684689477,-0.9397495145042732
0.36,0.7455006410924987,1.4145506163181327,2.315990668847151,0.116885850583781,0.0332654635945995,0.0406544952640458,-0.3576323356628033,-0.3147150480705141,-0.4134267962700297,0.7547042523941778,1.421735426948337,2.3179292866197305,-0.4497518653207914,-0.3997912940609122,-0.5529838172217936,1.6653784887268397,-0.6082255950401766,-0.9293187447237368,-1.2409326359465345,9.050800466941835,-0.9860832621037356,0.0896260675535293,-0.9531753135783736
0.38,0.7382326866144192,1.4080667978255457,2.3074502695112367,0.112640580303323,0.0406992847979343,0.0406444362655493,-0.3685354582011168,-0.3326148235985067,-0.4393880028027824,0.7461092150937224,1.4141396010730796,2.307269610281255,-0.4897518659168378,-0.4397912946569586,-0.59298381781784,1.6682807689911203,-0.5451561269156746,-0.8949887763996273,-1.2980603266376345,9.050800466941835,-0.9778778938675646,0.0896370993031697,-0.964782103595926
0.4,0.731134634392254,1.4015832154434866,2.2988468188373847,0.1087117043587642,0.0464306194750592,0.0404609402384275,-0.3780756080992672,-0.3488645312376094,-0.4649532010901608,0.7198059137043634,1.3914360566456203,2.285480869371097,-0.4685354596912329,-0.4326148250886228,-0.5393880042928986,1.5879600293367493,-0.477007494907522,-0.8124853819551386,-1.2782599143689175,8.963277245652534,-0.970231420661268,0.0895291284011571,-0.9759202298918048
0.42,0.7235042908504197,1.3944326128543554,2.289467919453253,0.1053323054080261,0.0505840483813531,0.0400926438165211,-0.384462835405734,-0.3656899327054365,-0.4705842246509096,0.7198059137043634,1.3914360566456203,2.285480869371097,-0.4685354596912329,-0.4326148250886228,-0.5393880042928986,0.9428669492029872,-0.3193613653233423,-0.8412700733913508,-0.2815511780374397,8.963277245652534,-0.9725021721789192,0.0905479609228538,-0.975593644543931
0.44,0.715753963540259,1.386951782723948,2.2799767810135765,0.1031462524077784,0.0522497951676406,0.0395318034802099,-0.3903872538444385,-0.3817507061816489,-0.4786448754015849,0.7198059137043634,1.3914360566456203,2.285480869371097,-0.4685354596912329,-0.4326148250886228,-0.5393880042928986,0.946072498563712,-0.2962209219352252,-0.8030386738106216,-0.4030325375337679,9.922445916476136,-0.970220132576499,0.0909011099982865,-0.97892556790325
0.46,0.7078799072205187,1.379148076963512,2.270270311779032,0.1017786620797896,0.0516016387339454,0.0387824853091153,-0.3968705880123463,-0.3978815986404445,-0.4915906972820988,0.7151205591074511,1.387109908394734,2.280086989328169,-0.4885354599892561,-0.452614825386646,-0.5593880045909218,1.083782286268766,-0.3241667083953903,-0.806544622939781,-0.6472910940256926,9.922445916476136,-0.9695947263160998,0.0900195264497197,-0.9812064313489725
0.48,0.7002720409790438,1.3714385135702798,2.260776698736189,0.1009739137217787,0.0490679379822551,0.0379058586611587,-0.4037646032681813,-0.4128760542361624,-0.507086911912067,0.7057498499136264,1.3784576118929617,2.26929922924231,-0.5285354605853025,-0.4926148259826924,-0.5993880051869682,1.1319163096467015,-0.3447007627917497,-0.7497227797858969,-0.7748107314984098,9.68215439413234,-0.9707728313851092,0.0882206421177707,-0.9823051822615302
0.5,0.692110783119354,1.3630201391263612,2.250439442919313,0.1006856482728472,0.0445606632763446,0.0368318183568563,-0.4122591963302179,-0.4282031792309269,-0.525943778967871,0.6963791407198018,1.369805315391189,2.2585114691564527,-0.568535461181349,-0.5326148265787389,-0.6393880057830147,1.2871094621816352,-0.4247296531018296,-0.7663562497382204,-0.9428433527902014,9.507469585948456,-0.9736186464085618,0.0856118006843383,-0.9821414431253576
0.52,0.6837541566342634,1.3542961541409269,2.2397038474085127,0.1010357661194679,0.0387681614552632,0.0356652833705608,-0.4232521557011302,-0.44347286327327,-0.5467526758873942,0.6850084314961747,1.3591530188596144,2.245723709040792,-0.6085354617773955,-0.5726148271747854,-0.6793880063790612,1.4026925870364977,-0.5496479685456107,-0.7634842021171595,-1.0404448459761573,9.36895445999562,-0.9780338752833104,0.0823205357903598,-0.980599267936834
0.54,0.6751515978307329,1.3452647958274646,2.2285448039915208,0.1020229356690976,0.032552699315619,0.0344882207111675,-0.4366371055809753,-0.4589666030717404,-0.5681057219085066,0.6736377222725478,1.3485007223280396,2.232935948925132,-0.648535462373442,-0.6126148277708319,-0.7193880069751076,1.4791597535496437,-0.6692474939922588,-0.7746869899235176,-1.0676523010556216,9.262569901518871,-0.984338603449532,0.079446475425367,-0.976142182457419
0.56,0.6667069213863382,1.3363834369370151,2.2175460485568217,0.1031787325762553,0.0269731029888629,0.0334039630742705,-0.4516708983889604,-0.4750582454092459,-0.5885748078737284,0.6612670130340197,1.3368484257815638,2.2191481887945708,-0.6885354629694883,-0.6526148283668782,-0.759388007571154,1.50327921521857,-0.7516896403992529,-0.804582116875277,-1.0234542982610897,9.262569901518871,-0.9910706154776796,0.0762010274389576,-0.9713097922256948
0.58,0.6574879987811133,1.326694564700365,2.205543937140662,0.104095843540291,0.0221231728881042,0.0323342834982021,-0.4695864393267289,-0.4929316474501867,-0.6105712619712744,0.6478963037805904,1.3241961292201867,2.204360428649108,-0.7285354635655348,-0.6926148289629247,-0.7993880081672005,1.6765061142711457,-0.8957770468884241,-0.8936701020470394,-1.0998227048773013,9.253922577914636,-0.9969619719030522,0.0732328643058166,-0.9672481027667688
0.6,0.6478868426183314,1.3166369991506297,2.1930972981523005,0.1042158106153597,0.0191294810880421,0.0313947341143729,-0.4897518508979814,-0.5118267091356186,-0.632992462029229,0.6340086768147769,1.3020479823278557,2.1750153740420983,-0.569586440816845,-0.5929316489403029,-0.7105712634613905,1.7793098324723406,-1.0082705785626256,-0.9447530842715908,-1.121060002897728,9.253922577914636,-1.001026136861382,0.0710401371254178,-0.964922778759353
0.62,0.6378460493326791,1.30614683219787,2.1804200874363726,0.1023139742732293,0.0196149872734224,0.0306747575908462,-0.5128901894184779,-0.5360065550232345,-0.6323323648828951,0.6340086768147769,1.3020479823278557,2.1750153740420983,-0.569586440816845,-0.5929316489403029,-0.7105712634613905,1.6736811112638394,-1.1569169260248229,-1.2089922943807951,0.033004857316693,9.25036393035998,-1.0064075171308586,0.0700974976236398,-0.961775394702828
0.64,0.6279004056197344,1.2957617231016114,2.16839549789974,0.098576776492342,0.0234426841580171,0.0301965614241839,-0.5324658798147696,-0.5554465588054988,-0.6334874251264249,0.6340086768147769,1.3020479823278557,2.1750153740420983,-0.569586440816845,-0.5929316489403029,-0.7105712634613905,1.3806298976482618,-0.978784519814585,-0.9720001891132146,-0.0577530121764868,10.722296488697792,-1.0063970569702734,0.0738743735687352,-0.9605851552383567
0.66,0.6170586782997622,1.2844666027069345,2.1556645897643016,0.0942064543493751,0.0295578567964309,0.0298528011148788,-0.5503388319602764,-0.5728512324730607,-0.6397558832550287,0.6283128124066084,1.2961186658384527,2.167909661407484,-0.5895864411148681,-0.6129316492383261,-0.7305712637594137,1.2861363177944658,-0.8936476072753441,-0.8702336833780966,-0.3134229064301941,10.383499869442858,-1.0027242377863974,0.0772768419029899,-0.9640921671112036
0.68,0.6058864480479783,1.2728458079705611,2.1427514416588043,0.089926459968003,0.0367942555956503,0.0295976803508794,-0.5656962949135562,-0.5882713771553636,-0.6512008465317763,0.6169210835902715,1.2842600328596463,2.1536982361382564,-0.6295864417109146,-0.6529316498343726,-0.7705712643554602,1.229450807058396,-0.7678731476639888,-0.7710072341151453,-0.57224816383738,10.046498818357575,-0.997646028290674,0.0798237699049648,-0.969790136631766
0.7000000000000001,0.5950108776115363,1.2615357980680428,2.130232453614501,0.0861529581872098,0.0440154759033292,0.0293835712106438,-0.5781373228854766,-0.6014729973449819,-0.6660053136565576,0.6055293547739347,1.2724013998808406,2.1394868108690286,-0.6695864423069611,-0.692931650430419,-0.8105712649515067,1.1707200770015136,-0.6220513985960185,-0.6600810094809173,-0.7402233562390614,9.763111655376632,-0.9914003469283657,0.0819839140259741,-0.9769780612060855
0.72,0.5833290775471625,1.2493734396768488,2.1167159736961896,0.0826362959480326,0.0514387448154177,0.0291523154255627,-0.5892117218338149,-0.6140727741403846,-0.6850289662321287,0.5921376259277954,1.2585427668722322,2.1232753855699986,-0.7095864429030075,-0.7329316510264655,-0.8505712655475531,1.2681640712827331,-0.5537199474169141,-0.6299888397701348,-0.9511826287785574,9.533297374340693,-0.9847764799499226,0.0835142761137892,-0.9847635008285478
0.74,0.571445073868925,1.2369685594117936,2.1027958549702737,0.0796534664406367,0.0582822129371924,0.0288923051017515,-0.5985082997088444,-0.6258193575490573,-0.7061158855900146,0.5787458970816561,1.244684133863624,2.107063960270968,-0.749586443499054,-0.772931651622512,-0.8905712661435996,1.2933162316013187,-0.4648288937514788,-0.5873291704336314,-1.0543459678942937,9.34008782976798,-0.9783870888115872,0.0844053282815857,-0.9924703470279804
0.76,0.5593866144549322,1.2243271283786372,2.088436355370742,0.0769240254750175,0.0644410852442614,0.0285821683574966,-0.6067712220899121,-0.637629332757137,-0.7287766567639538,0.5643541682206158,1.2298255008401142,2.089852534957037,-0.7895864440951004,-0.8129316522185583,-0.930571266739646,1.342816025083702,-0.4131461190533814,-0.5904987604039846,-1.1330385586969582,9.242071418880188,-0.9724830955614914,0.0848574810788247,-0.9997952052699114
0.78,0.5477866603005614,1.2121024199524806,2.074362799337371,0.0743203784019318,0.0697521724456664,0.0282353986421586,-0.6137802904276848,-0.6484708577877216,-0.7515170566473027,0.5489624393446743,1.2139668678017037,2.071641109628205,-0.8295864446911468,-0.8529316528146048,-0.9705712673356924,1.3074703541638906,-0.3504534168886353,-0.5420762515292332,-1.1370199941674486,9.112426751426938,-0.9666151197783468,0.0852938869663212,-1.007170805938026
0.8,0.5354409312465926,1.1990190616603895,2.059068156103431,0.0715566271078341,0.0748335391723597,0.0278222826876076,-0.6203362620088614,-0.6591948942530649,-0.776815744159003,0.5170976457791772,1.1796788770630946,2.036786946505006,-0.6304962714939117,-0.7484708592778377,-0.8176359154019376,1.4124529295678023,-0.32779857905883,-0.5362018232671628,-1.264934375585014,9.112426751426938,-0.9610362308507316,0.0857247669037519,-1.0142595207091183
0.8200000000000001,0.5229328137757212,1.185698968909571,2.0435928793806672,0.0686882579468826,0.0815481936677609,0.0275069594863328,-0.6295917643419091,-0.6722156921031778,-0.7676671465963634,0.5170976457791772,1.1796788770630946,2.036786946505006,-0.6304962714939117,-0.7484708592778377,-0.8176359154019376,0.9204650148887958,-0.4627751166523863,-0.6510398925056449,0.4574298781319819,9.041705910694873,-0.9556762316933856,0.0859151351216281,-1.0215386441795606
0.84,0.5102788561945943,1.1721346825094283,2.0283119217884176,0.0659400687843236,0.0911957382374449,0.027384094810726,-0.6347876681590315,-0.6835487427688256,-0.7610831740069642,0.5170976457791772,1.1796788770630946,2.036786946505006,-0.6304962714939117,-0.7484708592778377,-0.8176359154019376,0.7049541632703632,-0.2597951908561213,-0.5666525332823913,0.3291986294699567,11.234830477927972,-0.9481808945283436,0.0886175009895651,-1.0274477742836046
0.86,0.4981966474796848,1.1590508642141122,2.013859200498841,0.063671597640539,0.1015881265455508,0.0273527344875554,-0.6363906436264833,-0.6931666834071556,-0.7605898999546106,0.5107926830642381,1.1721941684703163,2.028610587350987,-0.6338394677071572,-0.7684708595758609,-0.8308596871528645,0.488153745664256,-0.0801487733725903,-0.4808970319164996,0.0246637026176832,10.794786431879402,-0.9375369409835324,0.0904987919367982,-1.0368869167406007
0.88,0.4854765758732783,1.145091381923574,1.9986074156109408,0.0617302236140835,0.1129402660328355,0.027358476969985,-0.6351857654277739,-0.7023175109280316,-0.7648491310101198,0.4981827576343598,1.1572247512847595,2.012257869042948,-0.6405258601336479,-0.8084708601719074,-0.8573072306547185,0.5082578700196421,0.0602439099354701,-0.4575413760438018,-0.2129615527754591,10.439397088990518,-0.9254668465196656,0.0916057931457795,-1.047869386618003
0.9,0.4728071862101086,1.1309575437824384,1.9832221843931788,0.0603225738719808,0.1242216881090124,0.0273828157689521,-0.6314909055895715,-0.7106810447107437,-0.773479404247396,0.4855728322044815,1.1422553340992028,1.9959051507349093,-0.6472122525601387,-0.8484708607679539,-0.8837547741565724,0.6286539244858289,0.1847429919101195,-0.418176689135602,-0.4315136618638138,10.167179531370492,-0.9132905307609828,0.0919385058112502,-1.0590416405814698
0.92,0.4608612237116489,1.1173830330995898,1.9684154772326807,0.0596048263366169,0.1346230622022453,0.0274226961194678,-0.6259136754564784,-0.7178726755222189,-0.7847205423869394,0.4726285871532787,1.1252859168838436,1.9782300552517775,-0.6538986449866295,-0.8884708613640003,-0.9102023176584264,0.7231670560083958,0.2788615066546596,-0.3595815405737612,-0.5620569069771708,9.954167989058988,-0.9002126781083263,0.0914852603332306,-1.0710336566384764
0.94,0.4484239903200474,1.1029532667098525,1.9525862835614087,0.0597637854532174,0.1450963377010879,0.0275002477798559,-0.6178442319961575,-0.7248021341331802,-0.797680021227542,0.459684342102076,1.108316499668485,1.9605549597686465,-0.6605850374131202,-0.9284708619600468,-0.9366498611602804,0.8382741291194167,0.4034721730160451,-0.346472930548064,-0.6479739420301278,9.796842291189932,-0.8872610701909046,0.0900024034088642,-1.0828457862864196
0.96,0.4361708450250225,1.0883776972741568,1.936490092867388,0.0607870526201079,0.1550085525271377,0.0276136099459368,-0.6076378782686527,-0.7324382054292362,-0.811344131733851,0.4465729372402109,1.0903470824382244,1.9422186756979685,-0.6672714298396111,-0.9684708625560932,-0.9630974046621342,0.9343275083957788,0.510317686375239,-0.3818035648028017,-0.6832055253154501,9.757183516981058,-0.8746461151345618,0.0876418710128779,-1.0941916116245485
0.98,0.4241429249462178,1.0736414974096435,1.920114906708518,0.0622931701582072,0.1643354125143605,0.0277391233649561,-0.5954459900221946,-0.7407900798415993,-0.8255340465790297,0.4332943725676836,1.0713776651930629,1.9232212030397444,-0.6739578222661018,-1.0084708631521395,-0.989544948163988,1.0243896091422349,0.6095944123229058,-0.4175937206181535,-0.7094957422589365,9.743563558237838,-0.8628522460813125,0.084870383825278,-1.104694093215545
1.0,0.4129598259038361,1.0594798253470834,1.904291025794416,0.0638866532304668,0.1726575082133664,0.0278503703897182,-0.5821559156106988,-0.7494644207585487,-0.8394651850373946,0.3943706254451081,1.0366019934175636,1.8788382043795664,-0.5693689095041873,-0.8407900813317154,-0.7962554795182015,1.0558727278331077,0.6645037205747883,-0.4337170458474704,-0.6965569229182456,9.738704260324084,-0.8506860427986418,0.0816995449002692,-1.1154020249801118
1.02,0.401543876036022,1.044314912768085,1.8876767187415733,0.0637608256714375,0.1807107027965253,0.0278056862757511,-0.5592438290828506,-0.7666906097374466,-0.8175445827802592,0.3943706254451081,1.0366019934175636,1.8788382043795664,-0.5693689095041873,-0.8407900813317154,-0.7962554795182015,1.8043129572719891,1.1456043263924076,-0.8613094489448969,1.0960301128567718,9.735601072721693,-0.8458050698724903,0.0804002028037864,-1.120144212878872
1.04,0.3906227377609022,1.0288084554767774,1.8716046116031548,0.0602097357947669,0.1879526702180503,0.0274576915803387,-0.5339313453305836,-0.7823666274531512,-0.7911833726299901,0.3943706254451081,1.0366019934175636,1.8788382043795664,-0.5693689095041873,-0.8407900813317154,-0.7962554795182015,1.988323895721293,1.2656241876133512,-0.7838008857852297,1.3180605075134575,12.41656676414732,-0.8351741925768865,0.0836631504022299,-1.1276761614225796
1.06,0.3807234138863785,1.0138338211194884,1.856791354228692,0.0554074594806765,0.1942561091483938,0.0269688295556418,-0.5092221946929683,-0.7928358140131418,-0.7694355354181396,0.3886769363500662,1.0281940926042463,1.8708756495843848,-0.5641534934005858,-0.8607900816297386,-0.7903997661060359,1.727074416356606,1.235457531880768,-0.5234593279995314,1.0873918605925237,12.043475627169755,-0.8245887806540037,0.0889373273011651,-1.134680870279588
1.08,0.370831930356249,0.9978906743127012,1.8416160093055625,0.050412348892316,0.1999758234366874,0.0263847318345874,-0.4811525637038885,-0.8008687285247685,-0.7493897191869692,0.3772895581599824,1.011378290977612,1.8549505399940207,-0.5537226611933829,-0.900790082225785,-0.7786883392817046,1.7707813584602032,1.4034815494539887,-0.4016457255813344,1.0022908115585203,12.043475627169755,-0.815913269784141,0.0943969249404571,-1.1399158940738463
1.1,0.3615223276697696,0.98180708419793,1.8268132794555028,0.0460419190609695,0.2040169832019515,0.0257455451366466,-0.4512615333306476,-0.8071255133537686,-0.7319988125635366,0.3659021799698987,0.994562489350978,1.8390254304036568,-0.54329182898618,-0.9407900828218316,-0.7669769124573733,1.7571743555744266,1.4945515186620406,-0.3128392414500025,0.8695453311716284,11.71677211149563,-0.8087362160445378,0.0990784057161484,-1.144206506130833
1.12,0.3528243892250689,0.9656125728803816,1.8123365506774145,0.0425008618333087,0.2057693058643111,0.0250569659460655,-0.4202713256735808,-0.812184084291603,-0.7165336137387175,0.3550363433901751,0.9757466876945412,1.8236858921545087,-0.5328609967789771,-0.980790083417878,-0.7552654856330421,1.7501103431301226,1.549510382853342,-0.252928546891723,0.7732599412409558,11.71677211149563,-0.8036362160453422,0.1024187014322905,-1.147459331376247
1.14,0.3451455468655273,0.9501415807320124,1.7988737755020543,0.0399357573436166,0.2049536693406059,0.0243610570754375,-0.3897379102849874,-0.8162804567929038,-0.7013657101969053,0.3441705068104515,0.9569308860381046,1.8083463539053617,-0.5224301645717742,-1.0207900840139243,-0.7435540588087107,1.716926775386422,1.5266707694296722,-0.2048186250650396,0.7583951770906094,11.619468486880578,-0.8017782488159939,0.1049772584011438,-1.148535926638269
1.16,0.337697379824776,0.9337686078013904,1.7850230387431325,0.0378068402093297,0.2008645920051099,0.0235553806582487,-0.3569035266047456,-0.8208276902759776,-0.6844278576355864,0.333565441035908,0.9371150843667668,1.7932996013268223,-0.5119993323645713,-1.0607900846099707,-0.7318426319843795,1.8612260296642416,1.641719184012086,-0.2273616741536865,0.8468926280659428,11.670246672250869,-0.8024708964896378,0.1067412450246341,-1.148149525175223
1.18,0.3308907797350029,0.9173046690118276,1.7715236503387342,0.0359736979984642,0.1933321830241196,0.0226627326841462,-0.3259729371210798,-0.8253397109532977,-0.6662469352471146,0.3232211460665445,0.916299282680528,1.7785456344188917,-0.5015685001573683,-1.100790085206017,-0.7201312051600481,1.8080415062265989,1.5465294741832918,-0.2256010338660075,0.90904611942359,11.79873079205754,-0.8055748038453321,0.1079584876181286,-1.1465096877242844
1.2,0.3246699087580132,0.9007523636769637,1.7584009764813466,0.0343374449197349,0.1831770573013944,0.0217172825552758,-0.2982804957826325,-0.8296482370950606,-0.6468511345863172,0.3145921328789489,0.8760376834641628,1.7382113035763784,-0.3382059178119763,-0.9253397124434138,-0.6223229090558801,1.704135989344007,1.384622066922364,-0.2154263070881457,0.9697900330398744,11.841004527216684,-0.8122157941837509,0.1091516484116724,-1.1420353965412808
1.22,0.3192656841627037,0.8849149495027734,1.7463145066535686,0.0318178088204879,0.1710827068203398,0.0207031522216071,-0.2727430803121785,-0.8364412168301137,-0.6262543183621381,0.3145921328789489,0.8760376834641628,1.7382113035763784,-0.3382059178119763,-0.9253397124434138,-0.6223229090558801,1.6752111815857993,1.2768707735227036,-0.3396489867526553,1.029840811208954,11.841004527216684,-0.8240970712418625,0.1116495530672426,-1.1331954088970966
1.24,0.3140476341034732,0.8681504645239126,1.7340287703371364,0.028675477106611,0.1560500725348452,0.0195902824113452,-0.2511002874436555,-0.8396847736937476,-0.6033055718699417,0.3145921328789489,0.8760376834641628,1.7382113035763784,-0.3382059178119763,-0.9253397124434138,-0.6223229090558801,1.585541003759057,1.08213964342615,-0.1621778431816933,1.147437324609818,11.97108082399427,-0.837710945294228,0.1147188896689587,-1.1229200502058467
1.26,0.3092040958456422,0.8513380575063612,1.7222096461022225,0.0261991739917088,0.1398778096927982,0.0185568297136781,-0.2349508155445472,-0.8415486484209778,-0.5796935076864509,0.3112100737008291,0.8667842863397286,1.7319880744858196,-0.3406525139501556,-0.945339712741437,-0.6135381038176332,1.4333606024167338,0.8074735949554129,-0.0931937363615076,1.180603209174541,11.994341001272916,-0.8537445442075382,0.1173311449511609,-1.1101636199760665
1.28,0.3046256919610701,0.8344985515276278,1.7108672122792028,0.0247521197853382,0.1235810523233336,0.0176430549395193,-0.2242132980784466,-0.8425397256446688,-0.5556809454425431,0.3044459553445896,0.8482774920908603,1.719541616304702,-0.3455457062265142,-0.9853397133374836,-0.5959684933411393,1.3161303705519447,0.5368758733050274,-0.0495538611845536,1.20062811219539,11.99126843662816,-0.8698586341613896,0.1189443470081556,-1.096835459970448
1.3,0.3004256589463026,0.8184895569252206,1.7005396226511214,0.0246179194469072,0.1087656692228861,0.0169043678963722,-0.2187728548743427,-0.8427812109829522,-0.5326038665757721,0.2976818369883501,0.8297706978419921,1.7070951581235845,-0.3504388985028728,-1.02533971393353,-0.5783988828646455,1.185546610691516,0.2720221602051986,-0.0120742669141693,1.1538539433385508,11.984928081333235,-0.8869629795425891,0.119483425729175,-1.082059325700258
1.32,0.2960699929632874,0.8016366954829339,1.6901460895400926,0.0261522396206884,0.0944984384224368,0.0162765233857228,-0.2174266896542434,-0.8426881163856995,-0.5079297653304785,0.2906730590182926,0.8092639035633215,1.6955271804662917,-0.3553320907792314,-1.0653397145295762,-0.5608292723881516,1.2355485620432327,0.0673082610049641,0.0046547298626353,1.2337050622646784,11.980800728259965,-0.9038395692222568,0.1185475431910378,-1.0666935936214383
1.34,0.2916975218609379,0.7847787587193402,1.6802490302810635,0.0295577921334048,0.0821081526150781,0.0157992876566889,-0.2200441382005074,-0.8437890512351912,-0.4829967376677289,0.2836642810482351,0.7887571092846508,1.6839592028089987,-0.36022528305559,-1.1053397151256228,-0.5432596619116578,1.2547100888916534,-0.1308724273132,-0.0550467424745848,1.2466513831374786,11.990794888517485,-0.9193286497295702,0.1158689562073226,-1.0520595173529506
1.36,0.2874635770321667,0.768706682080027,1.6713106450820794,0.0333435149902505,0.0723996442890928,0.01540543753383,-0.2255452697798184,-0.8480280092482605,-0.4591134356939402,0.2765331732712687,0.7672503149910791,1.672830465413618,-0.3651184753319487,-1.1453397157216691,-0.525690051435164,1.2436270812231442,-0.2750565789655532,-0.2119479006534641,1.194165098689437,11.994944336892331,-0.9322498069712456,0.1127776135697478,-1.0394565038177166
1.38,0.2828678740226755,0.7516817752287246,1.6623951287931586,0.0370150704191862,0.0645805439555991,0.0150160277299485,-0.2338971394845205,-0.8542355187750493,-0.4336680973479015,0.2692797356873934,0.7447435206826062,1.66214096828015,-0.3700116676083073,-1.1853397163177155,-0.5081204409586701,1.3745473306091331,-0.4175934852351015,-0.3103754763394417,1.2722669173019312,12.031097460404451,-0.9436539684239834,0.1099122334477858,-1.027778544125604
1.4,0.2780764245686325,0.7345189243551273,1.6539878980571352,0.040030452124519,0.0597217476311065,0.014672249889744,-0.2449731860448276,-0.8616454011053872,-0.4083158366217814,0.2711730170484495,0.7089699992899721,1.6407117239257636,-0.2495829175957399,-0.9177296795464192,-0.3980513344117863,1.4320634478617893,-0.553802328015357,-0.3704941165168951,1.267613036306006,12.031097460404451,-0.9525161709587951,0.1085380042792455,-1.0170640882408195
1.42,0.2730209280837508,0.7170093377690453,1.6460586159156565,0.0361349196674294,0.0592650396953257,0.0140252700015317,-0.2595642146178545,-0.8862370838838115,-0.385816862322742,0.2711730170484495,0.7089699992899721,1.6407117239257636,-0.2495829175957399,-0.9177296795464192,-0.3980513344117863,1.81923941607638,-0.7295514286513427,-1.2295841389212137,1.1249487149519704,12.037015696776509,-0.9580013664511114,0.1136027549931041,-1.0087820321896197
1.44,0.2676968569907251,0.6991653931864891,1.6385747550111702,0.0250666688165931,0.0631279911812638,0.0130421830129185,-0.2715729660612737,-0.8956182118673606,-0.3635855336840886,0.2711730170484495,0.7089699992899721,1.6407117239257636,-0.2495829175957399,-0.9177296795464192,-0.3980513344117863,1.3476346375347474,-0.6004375721709615,-0.4690563991774532,1.1115664319326728,11.910735743616897,-0.960157798322736,0.1251728872787433,-1.0023187734986665
1.46,0.2624464199973874,0.6821360015827121,1.631857517300463,0.0137348456100014,0.0692828271263282,0.0120871667484048,-0.2801126215999503,-0.8963442128458349,-0.344586657131079,0.268677187872492,0.6997927024945079,1.6367312105816458,-0.2527200732179838,-0.9304285117006932,-0.3909279818245632,1.0421253576423644,-0.4269827769338291,-0.0363000489237153,0.9499438276504762,11.78954133386469,-0.9589860097921842,0.1382554283402786,-0.998469848908628
1.48,0.2567781382322961,0.6642492904089987,1.6251560114006744,0.0030059780866512,0.0771436954672566,0.0111343572162447,-0.2859137165190648,-0.8923548647264415,-0.3266671649065015,0.2636855295205773,0.6814381089035795,1.62877018389341,-0.2589943844624716,-0.9558261760092412,-0.3766812766501171,0.9626471345526602,-0.2900547459557256,0.1994674059696666,0.895974611228878,11.436178618188023,-0.9552524864530956,0.1498885420374685,-0.997586324783552
1.5,0.2510267784167085,0.6464765471010991,1.6187900817715912,-0.0057496004928165,0.0854193367363345,0.0102706824904875,-0.2886579950021084,-0.8853582923947346,-0.3109198581770764,0.2586938711686625,0.6630835153126511,1.6208091572051744,-0.2652686957069593,-0.9812238403177892,-0.362434571475671,0.8724401956809126,-0.1372139241521797,0.3498286165853459,0.7873653364712546,11.300566723292832,-0.950347707214958,0.1595384800564091,-0.9982516617884756
1.52,0.2452508790859306,0.6288667704706115,1.6127202413185844,-0.0122897347465121,0.0933133629688999,0.0095298550953616,-0.288631061541159,-0.8764753918665055,-0.2968553072299381,0.2533884972545233,0.6434590385062953,1.613560465775661,-0.271543006951447,-1.0066215046263371,-0.3481878663012249,0.8317425090591167,0.0013466730474726,0.4441450264114577,0.7032275473569161,11.210912488726535,-0.945506651196148,0.166672409112928,-0.9995093182194404
1.54,0.2397871415842822,0.6123121415134902,1.607204330381696,-0.0165883848803801,0.0999491750107238,0.0089571128311676,-0.2864355819186508,-0.8670345290560519,-0.2844750133801411,0.2480831233403841,0.6238345616999396,1.6063117743461477,-0.2778173181959348,-1.032019168934885,-0.3339411611267788,0.7861642595316428,0.1097739811254078,0.4720431405226766,0.6190146924898499,11.210912488726535,-0.9408399335349316,0.1722453377594688,-1.0008640366362629
1.56,0.2340984043497267,0.5950773291570336,1.601647726227836,-0.0195162410080965,0.1057310167154915,0.0084885862067343,-0.2824868393326301,-0.8571915950145226,-0.2718548644328536,0.2426208916451327,0.60357514328587,1.5994192505459952,-0.2840916294404226,-1.057416833243433,-0.3196944559523327,0.8242330950772849,0.1974371293010368,0.492146702076468,0.6310074473643734,11.157073001653773,-0.937052610895342,0.176230969748055,-1.0017569242115767
1.58,0.2285024722757339,0.5780415951474527,1.5963403115065165,-0.0211402827670147,0.110153828479104,0.0081517400937483,-0.2772929110547424,-0.8470420560791656,-0.2595286116541442,0.2370018021687691,0.5826807832640869,1.5928828943752045,-0.2903659406849104,-1.082814497551981,-0.3054477507778866,0.839533410771734,0.2596964138943836,0.5074769467678486,0.6163126389354678,11.139777995746954,-0.9343723355068824,0.1790552645135887,-1.001800270506013
1.6,0.2230200323920231,0.5612154984941256,1.5912784401635125,-0.0213726558401643,0.1131723951193605,0.0079625187466122,-0.2712913439524506,-0.8363027787839155,-0.2472701819629243,0.2146378267229968,0.5356894923434944,1.5833638809238093,-0.2588083391060949,-0.8575828394844696,-0.2270640887857494,0.8683604997381097,0.3000783551145886,0.5369638647625075,0.612921484560995,11.128257479951571,-0.9329481501960498,0.1805718184510642,-1.0010137527780527
1.62,0.2178927338965696,0.5452647792258912,1.586694616731563,-0.0254841209519431,0.1159189251757505,0.0075345577810095,-0.2686544340852539,-0.8410290544162815,-0.2359197258209066,0.2146378267229968,0.5356894923434944,1.5833638809238093,-0.2588083391060949,-0.8575828394844696,-0.2270640887857494,0.628736490178287,0.1318454933598334,-0.2363137816183025,0.567522807100887,11.129600394106092,-0.9308999259202616,0.1851310822033775,-1.0009742985654622
1.64,0.2125605079843261,0.5285069841615789,1.582098208090272,-0.03461603636565,0.1196896068224328,0.0067365296004405,-0.2645024888792864,-0.8337633582328854,-0.2243406129877647,0.2146378267229968,0.5356894923434944,1.5833638809238093,-0.2588083391060949,-0.8575828394844696,-0.2270640887857494,0.7143263330323966,0.2075972602983755,0.363284809169806,0.5789556416570931,11.102374274290014,-0.9287614685575588,0.1947637810299375,-0.9994853239417938
1.66,0.2073284105313821,0.5119742165994288,1.5777205774612435,-0.0438289540831,0.1237206567109027,0.0059255738816539,-0.2587925127424728,-0.8199589987230679,-0.2140103143527929,0.2120497433319359,0.5271136639486497,1.581093240035952,-0.2551114247163654,-0.8596909961655304,-0.2205711842120704,0.9081288989551144,0.2854988068406838,0.6902179754908755,0.5165149317485906,11.082514322192765,-0.926692559334686,0.2042407363635694,-0.9976314141124656
1.68,0.2024772075770055,0.4965605765548908,1.5737436580597406,-0.0511646638405127,0.1273729340151041,0.0052657399902552,-0.2520850209061265,-0.803588941074851,-0.2051199799433055,0.206873576549814,0.5099620071589603,1.5765519582602368,-0.2477175959369064,-0.8639073095276519,-0.2075853750647125,0.9899586860737056,0.3353745918173112,0.8185028824108431,0.4445167204743722,11.017041080841407,-0.9245583596042548,0.2128720551664004,-0.9958323748377031
1.7,0.1975200692344298,0.4806887993716772,1.56973611812037,-0.0570094840111964,0.1307393727040572,0.0047385670617959,-0.2439248595708135,-0.7847489889343682,-0.1960984720073268,0.2016974097676921,0.4928103503692709,1.572010676484522,-0.2403237671574474,-0.8681236228897735,-0.1945995659173545,1.1212934886916832,0.4080080667656485,0.941997607024142,0.451075396798932,10.97325230410297,-0.9225988532189928,0.2196983907159873,-0.9942652890055638
1.72,0.1927363050831377,0.4652054718938833,1.565908114831062,-0.0609190375855991,0.1334239392763623,0.0044055613318162,-0.2348398360755663,-0.7648815352229662,-0.1871305676991348,0.1968909344245431,0.4754478779114754,1.5681186851661748,-0.2329299383779884,-0.8723399362518951,-0.1816137567699966,1.1807589472080904,0.4542511747623615,0.9933726855700986,0.4483952154096013,10.964841427329702,-0.9211166081291462,0.224787659196486,-0.9925910835563986
1.74,0.1881422182413933,0.4501275486168013,1.5622622477147816,-0.0629328593759547,0.1352954218677404,0.0042804545119348,-0.2250708182476651,-0.7443869161823571,-0.1778733146018059,0.1920844590813942,0.4580854054536799,1.5642266938478278,-0.2255361095985294,-0.8765562496140167,-0.1686279476226386,1.2259280707382014,0.4884508913950591,1.024730952030456,0.4628626548664472,10.970694740414729,-0.9201914707020546,0.2280738404732828,-0.990852245249322
1.76,0.1839632588756261,0.4361871318055058,1.5589749819024292,-0.0631295477502166,0.1362813495800204,0.0043575294180635,-0.2153780957828429,-0.7243498927463674,-0.1685931910792204,0.1874628294577317,0.4406175251618314,1.5606593477581645,-0.2181422808190704,-0.8807725629761383,-0.1556421384752807,1.2057693286330866,0.4846361232411125,1.0018511717994838,0.4640061761292738,10.99320550390621,-0.9199148716460516,0.2299694427504825,-0.9886854675391776
1.78,0.1797644148669535,0.4219267270851849,1.5557125062038544,-0.061283732199712,0.1365158535833676,0.004658708111358,-0.2050782235349105,-0.7029699184460441,-0.1580837491440622,0.1830260455535557,0.4230442370359299,1.5574166468971853,-0.2107484520396114,-0.8849888763382598,-0.1426563293279228,1.2977278597559216,0.5149936123966178,1.0689987150161673,0.5254720967579063,11.02748699247786,-0.9204634104147876,0.2300303229215636,-0.9861078402913012
1.8,0.1757711922611505,0.4080841886755127,1.5526699119052774,-0.057326430504853,0.1360017881070783,0.0051739205984319,-0.1948332759155465,-0.683052533437709,-0.1466103257019307,0.169510503690208,0.3867782311628827,1.5478083187466514,-0.1778436301285909,-0.6872949678910771,-0.1078513200867025,1.2582732441487197,0.5122473809682032,0.9958692504167532,0.5736711721065768,11.07409062865645,-0.9222690540554732,0.2282614886192577,-0.982674298838198
1.82,0.1719769696666894,0.394497124838196,1.549858751437332,-0.0559574355626565,0.1349028034001374,0.0055596381367799,-0.1852063852287406,-0.6749594200291469,-0.1351754113992848,0.169510503690208,0.3867782311628827,1.5478083187466514,-0.1778436301285909,-0.6872949678910771,-0.1078513200867025,0.849901132556626,0.4813445343402944,0.4046556704281057,0.5717457151322963,11.119074424185785,-0.9247217995828952,0.2285924706529156,-0.9784467016230588
1.84,0.1685464254064563,0.3817883383969877,1.5474102864739772,-0.0581003726808089,0.1335225983641056,0.0057304121335017,-0.1764532933150714,-0.6629624669574984,-0.1231247737025413,0.169510503690208,0.3867782311628827,1.5478083187466514,-0.1778436301285909,-0.6872949678910771,-0.1078513200867025,0.956244437827814,0.4376545956834579,0.5998476535824249,0.6025318848371763,11.06882669144943,-0.9269944482836936,0.2321906741965546,-0.9736840312072852
1.86,0.1651095421367104,0.3687002035098318,1.5450894992942306,-0.0617817317713803,0.1318765818431677,0.0058572647365827,-0.1677665126060639,-0.6461764319865698,-0.1095487846478866,0.1677320673889221,0.3799052814839719,1.5467298055457843,-0.172396711447327,-0.6841599777800838,-0.0978048342752306,1.1635491050485631,0.4343390354503776,0.8393017485464283,0.6787994527327319,11.218541487732182,-0.9296095087064992,0.2373799964182122,-0.9678705954040724
1.88,0.1618400916879611,0.3559838123974509,1.5430465937445612,-0.0651020692716976,0.1301942867377337,0.0060495782099762,-0.1596769482397465,-0.6264346773489144,-0.0953745947755014,0.1641751947863503,0.3661593821261504,1.5445727791440504,-0.1615028740847992,-0.677889997558097,-0.0777118626522867,1.2807083843996308,0.4044782183158665,0.9870877318827688,0.7087094936192584,11.218541487732182,-0.932436785479738,0.2422641216982039,-0.961643168162755
1.9,0.1587267687294112,0.3436796621314001,1.5412940989357915,-0.0672992176486085,0.1286158029303948,0.0063482108215594,-0.1520907114230147,-0.6053343481356056,-0.0805455243719456,0.1606183221837785,0.3524134827683289,1.5424157527423163,-0.1506090367222713,-0.6716200173361102,-0.0576188910293428,1.3441318861845062,0.3793118408365922,1.0550164606654422,0.7414535201777906,11.256781425163354,-0.935664290749076,0.2466213956009833,-0.9547390375488922
1.92,0.1559060269711981,0.3323904825638544,1.539910315855177,-0.0681201978069477,0.1272688070213805,0.0067374889741791,-0.1452292755321372,-0.5843089267612634,-0.0658278175542902,0.157606141449333,0.3389810824216067,1.5412633749217295,-0.1397151993597434,-0.6653500371141234,-0.037525919406399,1.3283058198544926,0.3430717945438769,1.0512710687171078,0.7358853408827692,11.292559656522826,-0.9384044034716202,0.2498537379898942,-0.9485120681600452
1.94,0.1530746464018116,0.3209450540595456,1.5387633866592976,-0.067283449078235,0.1260402240976356,0.0072761433472773,-0.1382894320800373,-0.5615219636141494,-0.0495792999222927,0.1545939607148876,0.3255486820748845,1.5401109971011426,-0.1288213619972156,-0.6590800568921367,-0.0174329477834551,1.4417189756024915,0.3469921726049901,1.1393481573557018,0.8124258815998749,11.3306370559676,-0.9411080294817368,0.2516490680632233,-0.9425797302485128
1.96,0.1503806220765458,0.3099589834447176,1.5379487613590848,-0.0643122502886547,0.1249816103165916,0.0079690643981304,-0.1314749424704585,-0.53864752649193,-0.0326252502770872,0.1518541259145054,0.312273031233712,1.5394609435711295,-0.1179275246346877,-0.6528100766701499,0.0026600238394887,1.4638279797072469,0.3407244804789405,1.1437218561109683,0.847702482260278,11.375148560792695,-0.943978108998218,0.2519038641550091,-0.9365154341225173
1.98,0.1478224103867746,0.2994041472601138,1.537483700535636,-0.0597405952343998,0.1240192749645685,0.0087772266131576,-0.124710273673368,-0.518483739496537,-0.014679865486805,0.1493866370481864,0.2991541298980891,1.53931321433169,-0.1070336872721599,-0.6465400964481631,0.0227529954624326,1.3913805061890896,0.3382334398545273,1.0081893497696504,0.8972692395141108,11.406862674259171,-0.9467698814909976,0.2509072522463427,-0.931006955592504
2.0,0.145398747681729,0.2892259065639099,1.537386744249905,-0.0547177091693225,0.12309267278839,0.0096206471008222,-0.118026825805168,-0.5005849587975679,0.0041176387680087,0.1415868967031062,0.2734799602852869,1.5367497072612957,-0.1280254598013883,-0.4917634354544361,-0.005263689480607,1.3401315160521363,0.334172393410001,0.8949390349484554,0.9398752127406896,11.444161086236818,-0.9498612786360654,0.2495353567302609,-0.925135019812228
2.02,0.1432440757460988,0.2798049657248635,1.5374844922707298,-0.0518704670703687,0.1207607293787457,0.010369823875268,-0.1091067477704285,-0.4912710680381826,0.0042270448046941,0.1415868967031062,0.2734799602852869,1.5367497072612957,-0.1280254598013883,-0.4917634354544361,-0.005263689480607,0.644841691627619,0.4460039017369722,0.4656945379692662,0.0054703018342691,11.477945560482112,-0.9547818807545084,0.2518037114824527,-0.9139977878914224
2.04,0.1411542662369289,0.270104251455206,1.5375591580041006,-0.0516029741300499,0.1148222284715158,0.0111599330134867,-0.100927249420987,-0.4790626035883401,0.0034299740930929,0.1415868967031062,0.2734799602852869,1.5367497072612957,-0.1280254598013883,-0.4917634354544361,-0.005263689480607,0.7358432563917333,0.4089749174720748,0.6104232224921236,-0.0398535355800618,10.20060317955631,-0.9563916193897554,0.2522547093864423,-0.9119808480948228
2.06,0.1391838725904482,0.2606655875158051,1.5376372797530298,-0.0528509448252688,0.1066798678096642,0.0119819014510367,-0.0969222126271695,-0.4653289667109724,0.0044376819790099,0.1403066421050924,0.2685623259307426,1.5366970703664895,-0.1286884970269923,-0.4864193746460159,-0.0033804542793675,0.7170574885993561,0.2002518396908757,0.6866818438683864,0.0503853942958529,10.282323133150385,-0.9610291238170366,0.2541000529658677,-0.9062692848480388
2.08,0.1372499463775159,0.2515168134799395,1.537749489946942,-0.0549248144060016,0.0979882874822434,0.0128111559323932,-0.0969079654582545,-0.4502191574134327,0.0067524148405507,0.1377461329090646,0.2587270572216538,1.5365917965768774,-0.1300145714782004,-0.4757312530291755,0.0003860161231116,0.7643044684713932,0.0007123584457487,0.7554904648769845,0.1157366430770375,10.444519906165624,-0.967194994250232,0.2567393979067527,-0.8983485133008777
2.1,0.135379520325384,0.243123287533972,1.5379076813141757,-0.0569995235536719,0.0903307346943411,0.0135960687169233,-0.1000594782595337,-0.4341098772240663,0.0098000190153564,0.1351856237130368,0.2488917885125651,1.5364865227872653,-0.1313406459294085,-0.4650431314123352,0.0041524865255908,0.8347586962147107,-0.1575756400639602,0.8054640094683208,0.1523802087402881,10.444519906165624,-0.9738972930307116,0.2596610334054339,-0.8895547685510833
2.12,0.1333185030911811,0.2346308904104302,1.5381437477951685,-0.058655613835931,0.0836872678392153,0.0144120341880502,-0.1060272267786638,-0.4160864060519122,0.0136953442438671,0.1325588107944487,0.2395909258843184,1.536569572517777,-0.1326667203806167,-0.4543550097954948,0.00791895692807,0.9690628128724657,-0.2983874259565026,0.9011735586077012,0.1947662614255347,10.542320847842348,-0.980298719332875,0.2624359615427257,-0.8805964231225871
2.14,0.1311077649330409,0.2265095228847635,1.5384560550615298,-0.0593729966517247,0.079349614392557,0.0151823842418171,-0.1147932703947325,-0.3971364725325226,0.0173596938400529,0.1299319978758605,0.2302900632560716,1.536652622248289,-0.1339927948318248,-0.4436668881786544,0.0116854273305491,1.059918580636238,-0.4383021808034376,0.9474966759694836,0.1832174798092898,10.542320847842348,-0.9844942031888916,0.2644992736233474,-0.8740847782256193
2.16,0.1287012124333998,0.2187762139654088,1.538838700461184,-0.0586850189931311,0.0781473106949793,0.0158788886263367,-0.1250621413615081,-0.3773829691610166,0.0207616165333456,0.1272720330959921,0.2212564036682459,1.5368298337388628,-0.1353188692830329,-0.4329787665618141,0.0154518977330283,1.1260813518475503,-0.513443548338778,0.9876751685752972,0.1700961346646354,10.535258773249552,-0.9878578478397236,0.265565616898014,-0.8687243121816116
2.18,0.1262355907933142,0.2117979954334617,1.5392652612647295,-0.0563646925452372,0.0796436081253293,0.0165114389935837,-0.13365066236237,-0.358416981537129,0.0240045225612206,0.1245789164548435,0.2124899471208413,1.5371012069894985,-0.136644943734241,-0.4222906449449737,0.0192183681355075,1.0535509231135125,-0.4294260500430927,0.948299381194384,0.1621453013937493,10.517917369952556,-0.9890384886052846,0.2652080994061885,-0.8663046775111461
2.2,0.1234844813470565,0.2048210514372807,1.539783669391677,-0.052492633150138,0.0831181442073704,0.0171838474721584,-0.1407351420873632,-0.3407054343483704,0.0277016950283448,0.1195530576751957,0.1938771463566053,1.5404654873927908,-0.1227372102288336,-0.3466615346337214,0.0194725197173042,0.9715423833332268,-0.3542239862496632,0.8855773594379279,0.1848586233562071,10.503707789759574,-0.9880974180851432,0.2635983451488621,-0.8668293535199002
2.22,0.12059021691889,0.1982026044522075,1.540338900755338,-0.0472167403195136,0.0883777880770938,0.0178842402525169,-0.1480156096185241,-0.3227381504866297,0.02748367341469,0.1195530576751957,0.1938771463566053,1.5404654873927908,-0.1227372102288336,-0.3466615346337214,0.0194725197173042,0.9693761270330984,-0.3640233765580453,0.898364193087034,-0.010901080682738,10.498998085246969,-0.9829602366224156,0.2610398113581423,-0.8721155694412677
2.24,0.117578890428885,0.1919019024367216,1.540884805036892,-0.0410719606718822,0.0951889762038563,0.0186085384578524,-0.1524073492019067,-0.3084705567697709,0.0271423318744634,0.1195530576751957,0.1938771463566053,1.5404654873927908,-0.1227372102288336,-0.3466615346337214,0.0194725197173042,0.7466058549942577,-0.2195869791691271,0.7133796858429409,-0.0170670770113326,10.255307181596436,-0.9782165171616718,0.2573016761785749,-0.8781362790817335
2.26,0.1146665339507228,0.1861563550174579,1.5413994794039214,-0.0354506942058354,0.1021485010739364,0.0193014479497836,-0.1537399513523313,-0.2970568893277486,0.0270344437489138,0.1183256855729074,0.190410531010268,1.5406602125899638,-0.1205545198021263,-0.3443104452530399,0.0185661191485209,0.5745852260892856,-0.066630107521233,0.5706833721011134,-0.0053944062774783,10.255358679190977,-0.9721602765521242,0.2535153035449973,-0.8854809961143294
2.28,0.11160077064392,0.1803272678836865,1.5419394354503662,-0.0301223467457822,0.1092367259119247,0.0200376260450046,-0.1525835320820139,-0.2864569616063023,0.0269487062583485,0.1158709413683307,0.1834773003175936,1.54104966298431,-0.1161891389487118,-0.3396082664916768,0.0167533180109544,0.5331583351733727,0.0578209635158741,0.5299963860723178,-0.0042868745282642,10.263866754130504,-0.9656136013621032,0.2501877280798805,-0.8930686451524197
2.3000000000000003,0.1085828973873304,0.1746986081291578,1.5424772075031692,-0.0255011104393364,0.1155164755345991,0.0207813929023772,-0.1492022428289889,-0.276874359572576,0.0268059435506778,0.113416197163754,0.1765440696249192,1.541439113378656,-0.1118237580952973,-0.3349060877303138,0.0149405168733878,0.5081332500931698,0.1690644626512499,0.4791301016863147,-0.007138135383534,10.26945591726053,-0.9595408595275092,0.2475329250445313,-0.8998388918370541
2.32,0.1057949200623855,0.169521676785295,1.54298454091113,-0.0217203141229441,0.1204270800793628,0.0214940076454558,-0.1444413157214887,-0.2684850123253977,0.0265845327737711,0.1111797220018481,0.1698459478703129,1.5417379237161235,-0.1074583772418827,-0.3302039089689508,0.0131277157358212,0.4824328888270326,0.2380463553750059,0.4194673623589162,-0.0110705388453367,10.273918790308926,-0.9536333851954212,0.245225289455193,-0.906198886905218
2.34,0.1029686373189502,0.1642387097914523,1.5435116017503032,-0.0183050786803505,0.1243716707606499,0.0222456660109468,-0.1384306743598265,-0.2602338621669666,0.0261110420454474,0.1089432468399421,0.1631478261157066,1.5420367340535917,-0.1030929963884682,-0.3255017302075877,0.0113149145982547,0.5109635064887481,0.3005320680831119,0.4125575079215543,-0.0236745364161863,10.272518293275423,-0.9484330616742576,0.2433614721118991,-0.9116089899267062
2.36,0.1002704245477113,0.159116127962738,1.5440270652121024,-0.0153699888311993,0.127062776703734,0.022994585645958,-0.1317216736344368,-0.2524317218754111,0.0254446617700346,0.1068159061993715,0.1565672588301344,1.5422902243626202,-0.0987276155350537,-0.3207995514462247,0.0095021134606881,0.5155777015490761,0.3354500362694829,0.3901070145777729,-0.0333190137706397,10.272518293275423,-0.944205120289317,0.2418575191124063,-0.9158746007068814
2.38,0.0977104997116588,0.154145100872378,1.5445278778376437,-0.0128223154155638,0.1285598130854194,0.0237371904380026,-0.1247005891966212,-0.2450461311171131,0.0246631928504813,0.1047977000801363,0.1501042460135963,1.5424983946432096,-0.0943622346816391,-0.3160973726848617,0.0076893123231215,0.5110119157226695,0.35105422189078,0.3692795379149002,-0.0390734459776635,10.269243996451223,-0.9410869951724448,0.2406948685909145,-0.9189204256194016
2.4,0.095408246542234,0.1495558558259267,1.5449886028219113,-0.0106897676809291,0.1290351474350606,0.0244333235053551,-0.1180787110652743,-0.2383941703174964,0.0238708971191018,0.0914754702518277,0.1418927943165223,1.5457610374801678,-0.0985815414207566,-0.2288649694899397,0.0305667958938885,0.4709712968749002,0.3310939065673472,0.3325980399808345,-0.0396147865689732,10.268445358981808,-0.9387087589364836,0.2397652941817468,-0.921050319896154
2.42,0.0931185627987902,0.1448200343350922,1.5455003297041767,-0.0099334185873923,0.1289259692994492,0.0250658826334226,-0.1112690552765349,-0.2351953700992365,0.0275707213380301,0.0914754702518277,0.1418927943165223,1.5457610374801678,-0.0985815414207566,-0.2288649694899397,0.0305667958938885,0.4192029164033196,0.3404827894369709,0.1599400109129928,0.1849912109464112,10.268987840985574,-0.9381553529633152,0.2397597035148457,-0.9215450042447236
2.44,0.0909609465907687,0.140159509934374,1.5460931641690483,-0.0113446659634226,0.12858890997299,0.0255496230528755,-0.1048662880207365,-0.2308478142542553,0.0314918206992215,0.0914754702518277,0.1418927943165223,1.5457610374801678,-0.0985815414207566,-0.2288649694899397,0.0305667958938885,0.4337962959658884,0.3201383627899172,0.2173777922490599,0.1960549680595738,10.559395970134574,-0.9380037365656148,0.242551428866004,-0.9198329457360382
2.46,0.0890263237893225,0.1358271526171112,1.5467248762867916,-0.0140673003537468,0.1282023370330775,0.0259171772091417,-0.0991164513390879,-0.2251173172499034,0.0348119709814271,0.0904896548376202,0.139604144621623,1.5460667054391066,-0.0933577318655837,-0.225628737164505,0.0317475165025699,0.4385276949034938,0.2874918340824303,0.2865248502175996,0.1660075141102782,10.53986036398237,-0.9380816820195504,0.2465218910607841,-0.9174577250906804
2.48,0.0871042523024289,0.1314141269246427,1.5474544436848754,-0.0172662641595919,0.127821188455048,0.0262864494122639,-0.0934039995105416,-0.2164345459431847,0.0379566559089983,0.088518024009205,0.1350268452318241,1.5466780413569845,-0.0829101127552379,-0.2191562725136356,0.0341089577199328,0.5429356931348591,0.2856225914273161,0.4341385653359314,0.1572342463785597,10.513096040591336,-0.9381052148030048,0.2510280047838048,-0.9148442527476394
2.5,0.0852937851031883,0.1271928227373938,1.548243292443158,-0.0199558270421923,0.127536156440146,0.0266952911486871,-0.0879251375971413,-0.2062333288114536,0.0407608829674171,0.0865463931807899,0.1304495458420254,1.5472893772748622,-0.072462493644892,-0.2126838078627662,0.0364703989372957,0.5957064046785128,0.2739430956700123,0.5100608565865555,0.1402113529209377,10.49160357996243,-0.9379547440607794,0.255072402315993,-0.9125368616405584
2.52,0.0835912057160968,0.1231848401683899,1.5490853038608574,-0.0218327023716957,0.1273853655213944,0.0271620866332298,-0.0825844886882923,-0.1952995619150018,0.0433073723009476,0.0850971433078921,0.12619586968477,1.548018785253608,-0.0620148745345462,-0.2062113432118969,0.0388318401546586,0.6215995439978241,0.2670324454424548,0.5466883448225907,0.127324466676525,10.45798495361305,-0.9376402649420494,0.2582538184747597,-0.9107110163347524
2.54,0.0819951446941852,0.1194014300950897,1.5499783951754782,-0.0228178775819682,0.127375271654466,0.0276899669555876,-0.0772659200289773,-0.1837374489831831,0.0458798975770771,0.0836478934349942,0.1219421935275147,1.548748193232354,-0.0515672554242003,-0.1997388785610275,0.0411932813720215,0.6492062737071757,0.2659284329657493,0.5781056465909359,0.1286262638064757,10.45798495361305,-0.9372658294137224,0.2609252849952764,-0.9089718874344024
2.56,0.0805787619198018,0.1160283572382581,1.5508749527691437,-0.0226555763667284,0.1274478246751728,0.0282659757017284,-0.0720818356229652,-0.1720727740273818,0.0483717731529015,0.082459834039855,0.1178503289865311,1.549536637241534,-0.0411196363138545,-0.1932664139101581,0.0435547225893844,0.6502861232537288,0.2592042203006038,0.5832337477900642,0.1245937787912203,10.459921439817665,-0.9368486229065844,0.2626727278057826,-0.9074777416997922
2.58,0.0791954855456601,0.1127182414189381,1.5518708551887233,-0.0210883903552418,0.1275383862974286,0.0289665746301608,-0.0665107083927,-0.1596903741228555,0.0511012503438924,0.0815329651224745,0.1139202760618193,1.550384117281148,-0.0306720172035087,-0.1867939492592888,0.0459161638067472,0.6924798404061221,0.2785563615132609,0.6191199952263151,0.1364738595495466,10.462405772956116,-0.9366592107505765,0.263748295576811,-0.9053693954968738
2.6,0.0779250275264779,0.1096507744214213,1.552922821553795,-0.0180384185072396,0.1275871693196512,0.0297655623630279,-0.0608029518427945,-0.1480884171139777,0.053978290321396,0.0758699501260251,0.1047337227127954,1.554425917705918,-0.0690991627938205,-0.1619445528703902,0.0263370049679015,0.6623089352805696,0.2853878274952745,0.580097850443892,0.1438519988751812,10.466947627934132,-0.936540976352369,0.2640193983786326,-0.9029543857791974
2.62,0.0768156877584422,0.1068325263319069,1.5539556989364358,-0.0129282447695853,0.1257185898641269,0.0307267550014033,-0.0503142413076318,-0.1352421369767001,0.0487857894285141,0.0758699501260251,0.1047337227127954,1.554425917705918,-0.0690991627938205,-0.1619445528703902,0.0263370049679015,0.8689102766949307,0.5244355267581352,0.6423140068638769,-0.2596250446440982,10.46900794445537,-0.9400939625510124,0.2634469797627793,-0.8964816933321635
2.64,0.075954622763642,0.1043483150124531,1.5548252045356403,-0.0067948341701057,0.120194329168668,0.0317402763686871,-0.0414592052355863,-0.1272092053065739,0.0430812964756044,0.0758699501260251,0.1047337227127954,1.554425917705918,-0.0690991627938205,-0.1619445528703902,0.0263370049679015,0.6623460102241508,0.4427518036022745,0.4016465835063126,-0.285224647645484,9.949580434638849,-0.9404926454425544,0.2603597451912344,-0.8947139574687069
