t,x,y,z,roll,pitch,yaw,v_x,v_y,v_z,ref_x,ref_y,ref_z,ref_v_x,ref_v_y,ref_v_z,a_com,a_x,a_y,a_z,thrust,wind_x,wind_y,wind_z
0.0,0.2577892765025623,0.1827030115998933,2.4150373967917345,0.0291689684117707,0.1001122220654172,0.0429119624890251,0.0044570089231938,-0.0076987235610668,0.0153976204177059,0.2579184198905415,0.1825308385171418,2.415505291282912,-0.0788778536992471,-0.0173667795615631,-0.0844571667960449,0.8891315812900132,0.2228504461596915,-0.3849361780533425,0.7698810208852996,10.241977977744682,-0.9437865563868816,0.257239616705286,-0.8724910272718801
0.02,0.2580198861108567,0.1826315493371648,2.415118832648552,0.0288483831189926,0.0945717490633338,0.0427205326175623,0.0184954768232542,-0.000759443422616,-0.0068412119344031,0.2579184198905415,0.1825308385171418,2.415505291282912,-0.0788778536992471,-0.0173667795615631,-0.0844571667960449,1.3599612625054245,0.7019233950030208,0.3469640069225402,-1.1119416176054555,10.241977977744682,-0.9498383128259362,0.2592850549664579,-0.8637062415798773
0.04,0.2584949746675191,0.182686002891374,2.4146998545417144,0.0320355316719063,0.0788384744022574,0.0424499433946395,0.0269604866755403,0.0051550566154773,-0.0339063337014472,0.2579184198905415,0.1825308385171418,2.415505291282912,-0.0788778536992471,-0.0173667795615631,-0.0844571667960449,1.4484116462221914,0.423250492614303,0.2957250019046712,-1.353256088352205,8.927958906885578,-0.9519807918057992,0.2547120508311298,-0.8630557865106738
0.06,0.2590279734359393,0.1828047632895308,2.41373079233429,0.0372582530162344,0.0569834549885522,0.0420219007740533,0.0248936337069501,0.0059677640091538,-0.0616635199677309,0.257129641353549,0.1823571707215262,2.414660719614951,-0.0955229767637651,-0.0195790728213626,-0.1044571670940681,1.3922946562443903,-0.1033426484295078,0.040635369683824,-1.3878593133141843,8.754463388047952,-0.9599258490439878,0.2462244516240094,-0.8598480312347566
0.08,0.2594131950778514,0.1828988045333619,2.4122033931851843,0.0426216934666213,0.0332193351130351,0.0413852638866817,0.0131068593823307,0.0033234018386078,-0.0897205517735536,0.255552084279564,0.1820098351302949,2.41297157627903,-0.1288132228928011,-0.0240036593409615,-0.1444571676901146,1.5273487928609075,-0.5893387162309686,-0.1322181085272986,-1.4028515902911358,8.710732386855398,-0.9713523022406068,0.2361383108831065,-0.8554620375081691
0.1,0.2594811913107192,0.182917081511686,2.410229857639893,0.0471793813950617,0.0116163317723871,0.0406508667575666,-0.0056253009771279,-0.0011850496269243,-0.1166557972083943,0.2539745272055791,0.1816624995390637,2.4112824329431093,-0.162103469021837,-0.0284282458605605,-0.1844571682861611,1.6558437524300422,-0.9366080179729356,-0.2254225732766103,-1.3467622717420336,8.736715450667361,-0.9853856783849392,0.2250981366368756,-0.849862099681579
0.12,0.2591067203296368,0.1828306058594676,2.407594751776488,0.0512252383564823,-0.008336890791597,0.0398429527899019,-0.031090053644674,-0.0071728298566856,-0.1454823759824984,0.2507324578251423,0.1810939346218525,2.407593289577386,-0.195393715150873,-0.0328528323801595,-0.2244571688822075,1.9463290987901112,-1.273237633377308,-0.2993890114880683,-1.441328938705206,8.756078670040552,-0.9992192464128874,0.2139140912543841,-0.8454400120609978
0.14,0.2581743212196677,0.182613619035145,2.4043731620097395,0.0544699803090369,-0.0244550751437127,0.0390912365276575,-0.0609412759746049,-0.0141395690036877,-0.175290010729283,0.2474903884447056,0.1805253697046412,2.403904146211663,-0.2286839612799089,-0.0372774188997584,-0.264457169478254,2.1378295173674724,-1.4925611164965435,-0.3483369573501037,-1.4903817373392303,8.748678408167962,-1.010750800819451,0.2023066628975729,-0.8450497363737112
0.16,0.256606507304029,0.1822469588293362,2.4005469260608336,0.0568626434262055,-0.0360897333081573,0.0384709968985749,-0.0940967491436335,-0.0219716526199875,-0.2058360902429666,0.243416062911043,0.1798461901244401,2.3992150028310384,-0.2619742074089449,-0.0417020054193574,-0.3044571700743004,2.287842820481318,-1.657773658451429,-0.3916041808149902,-1.5273039756841786,8.755918260049384,-1.019010789166591,0.1914503885875529,-0.8484416275033508
0.18,0.2544798585099787,0.181747323690779,2.396341424111718,0.0583445099650984,-0.0426431350922164,0.0380558563698307,-0.1280218081441435,-0.0300767949414677,-0.235320721216253,0.2385094812241544,0.1790563958812489,2.393525859435513,-0.2952644535379808,-0.0461265919389564,-0.3444571706703468,2.283608123053525,-1.6962529500255017,-0.4052571160740073,-1.4742315486643218,8.755918260049384,-1.0243654377531946,0.183016024384355,-0.8525284966819713
0.2,0.2515314036478413,0.1810498150390007,2.3913041504042765,0.0589739841966946,-0.0442976703086688,0.0378486739052973,-0.1645463319601957,-0.039171351479146,-0.2668017852630602,0.2480787681027715,0.1802434839437056,2.384575388050905,-0.1665996031728301,-0.0510759937209314,-0.3353207227063691,2.4534716179964087,-1.8262261908026072,-0.4547278268839168,-1.5740532023403613,8.774172070363875,-1.02728855690423,0.1748580048207394,-0.8601028862695967
0.22,0.2477832191541835,0.1801515240370087,2.385793010639873,0.0584060030644412,-0.0386584288940399,0.0379827003857652,-0.2076358594551474,-0.050128537783437,-0.281685525019134,0.2480787681027715,0.1802434839437056,2.384575388050905,-0.1665996031728301,-0.0510759937209314,-0.3353207227063691,2.344297880268032,-2.1544763747475866,-0.5478593152145522,-0.7441869878036883,8.764069618176563,-1.0277308337828328,0.1684049359924128,-0.869288141193708
0.24,0.2434934811828295,0.179096876207622,2.380286606728096,0.0565811275293217,-0.0265734904106903,0.0383979307312244,-0.2409204837608662,-0.060147115309942,-0.2971465079354062,0.2480787681027715,0.1802434839437056,2.384575388050905,-0.1665996031728301,-0.0510759937209314,-0.3353207227063691,1.9021567387867244,-1.6642312152859398,-0.5009288763252486,-0.7730491458136118,9.52802661134956,-1.024922961274337,0.1681351475317779,-0.874776489625003
0.26,0.2383711347934557,0.1777961888959327,2.374147624695907,0.0534795444283245,-0.0104276751104664,0.0389041402845019,-0.2688668288009486,-0.068950560316608,-0.3160007010998845,0.2464127720710432,0.1797327240064963,2.3812221808238414,-0.1743151621785674,-0.0552758334768242,-0.3553207230043924,1.7421103904231965,-1.3973172520041168,-0.4401722503333,-0.9427096582239114,9.52802661134956,-1.015459396397515,0.1687723168703215,-0.8878233086963645
0.28,0.2327514558546151,0.1763456518173509,2.3676069954182357,0.0500148002189914,0.0071305782297697,0.039397399662919,-0.2911340449952762,-0.0755257914932678,-0.3372043131111442,0.2430807800075866,0.1787112041320776,2.374515766369714,-0.189746280190042,-0.0636755129886097,-0.3953207236004388,1.5721448282485633,-1.1133608097163794,-0.3287615588329871,-1.0601806005629877,9.313598990227549,-1.002615155686293,0.1690492828491356,-0.9050483061278114
0.3,0.2267368407467941,0.1747797616539086,2.360618186916625,0.0466813725327895,0.0249285722325589,0.0398439756575353,-0.3087232600700034,-0.0806937723710797,-0.3606130856245049,0.23974878794413,0.177689684257659,2.3678093519155867,-0.2051773982015166,-0.0720751925003952,-0.4353207241964852,1.4866566044994338,-0.8794607537363636,-0.2583990438905947,-1.1704386256680357,9.1620119876643,-0.9868066094202016,0.168937945009371,-0.9255877627832728
0.32,0.2207355587879362,0.1732065892954248,2.353526674221631,0.0438161666848998,0.0414863001821863,0.0402140407069542,-0.3217350720659421,-0.0846561722045314,-0.3847095696163352,0.2356452399800996,0.1762481804076511,2.3591029374316568,-0.2206085162129912,-0.0804748720121807,-0.4753207247925317,1.383517622426912,-0.6505905997969352,-0.1981199916725878,-1.2048241995915143,9.04813062647463,-0.9703177914121986,0.1690117409241011,-0.9456503941129638
0.34,0.2141876854124353,0.1714770063775768,2.3455550147248885,0.0411860512862261,0.0582351163600335,0.0405465890398444,-0.3319744603290313,-0.0881012736707339,-0.4112661139371671,0.2315416920160693,0.1748066765576432,2.3503965229477277,-0.2360396342244658,-0.0888745515239662,-0.5153207253885782,1.4334955897900663,-0.5119694131544561,-0.1722550733101235,-1.3278272160415965,8.951828941139865,-0.9531411077274388,0.1685698649454713,-0.966082952417444
0.36,0.2074692306594493,0.1696829309385014,2.3370419197560297,0.0389110702140926,0.0741329211842447,0.0408219377182214,-0.3390048758580626,-0.0911400346216065,-0.4387530578224559,0.2270523661017521,0.1731551807198406,2.3406901084488965,-0.2514707522359404,-0.0972742310357517,-0.5553207259846246,1.426703275720292,-0.3515207764515693,-0.1519380475436302,-1.374347194264436,8.901853188196583,-0.9371432083114736,0.1680602090951786,-0.984390538892012
0.38,0.2009843294725868,0.1679262097267129,2.3284369182234683,0.037003356915903,0.0883928280784969,0.04103133474886,-0.3429810228611612,-0.0936300304140707,-0.4657018967980064,0.222177262237148,0.1712936928942435,2.3299836939351644,-0.266901870247415,-0.1056739105475372,-0.595320726580671,1.3677077046712949,-0.1988073501549281,-0.1244997896232093,-1.347441948777525,8.873785865522223,-0.9201678762934836,0.1674035873296306,-1.0031245192285445
0.4,0.1941035842440313,0.1660301213427459,2.31881439076674,0.0352311359358122,0.1025121221183186,0.0412017845330081,-0.3445824956718627,-0.0958397567543265,-0.4952173445246123,0.1838352783295287,0.1632447082060094,2.305151823383568,-0.2708652513887071,-0.0888434836063345,-0.5657018982881226,1.4820671882241392,-0.0800736405350749,-0.1104863170127895,-1.4757723863302956,8.846671958525803,-0.9030982751174274,0.1667788129392045,-1.021118208297436
0.42,0.1872367152163359,0.1640378699607956,2.308736219170841,0.0320318357055968,0.1156741736688076,0.0412026329864951,-0.3416832474394369,-0.1023940198771667,-0.5103829385566573,0.1838352783295287,0.1632447082060094,2.305151823383568,-0.2708652513887071,-0.0888434836063345,-0.5657018982881226,0.8386883326681096,0.1449624116212911,-0.3277131561420093,-0.7582797016022491,8.804672825641319,-0.891029042594291,0.166988723944838,-1.0344347139742467
0.44,0.1804512887549924,0.1619560720877189,2.298350783923208,0.0273185120060011,0.127888315998606,0.0410100889208157,-0.3367585683823415,-0.1050980116053917,-0.5275243113692687,0.1838352783295287,0.1632447082060094,2.305151823383568,-0.2708652513887071,-0.0888434836063345,-0.5657018982881226,0.9019294553658797,0.2462339528547685,-0.1351995864112519,-0.8570686406305705,9.673498482096877,-0.8748567350314079,0.170228364545905,-1.0490407232716747
0.46,0.1741141945687402,0.15995418303382,2.288143737553555,0.0226922442098149,0.1387154023293191,0.0407384913395135,-0.3303318094994235,-0.1054102720688516,-0.5460802728707101,0.1811266258156416,0.162356273369946,2.2994948044006867,-0.2564420970942163,-0.0878861742447873,-0.5857018985861457,0.9819934363059444,0.3213379441458996,-0.0156130231729931,-0.9277980750720728,9.48421672025961,-0.8587918431049589,0.1734524664797284,-1.0634974334416798
0.48,0.1675939684963709,0.1578565004050677,2.276996918576234,0.0181412334992237,0.1493695882961929,0.0404039491408023,-0.3218019149345176,-0.1043000227595,-0.5677555182367221,0.1757093207878675,0.1605794036978193,2.2881807664349245,-0.2275957885052347,-0.0859715555216928,-0.6257018991821922,1.1659845801876512,0.4264947282452941,0.0555124654675776,-1.0837622683005976,9.38055657536097,-0.8426286580825406,0.1762930311272292,-1.07791440492625
0.5,0.1612630034210763,0.1557928486658228,2.26539881631541,0.014090375057417,0.159321551858275,0.0400446532576238,-0.3115083298493392,-0.1021221947607761,-0.59106250377165,0.1702920157600934,0.1588025340256926,2.276866728469162,-0.198749479916253,-0.0840569367985984,-0.6657018997782387,1.278589460521999,0.5146792542589235,0.1088913999361958,-1.1653492767463969,9.285462436383568,-0.8276802587024524,0.1789725843590593,-1.0907064128989
0.52,0.1551557935651283,0.1537815823861744,2.2533218163702777,0.0105906758489772,0.1686193293299902,0.0396764641015031,-0.2995256303761228,-0.0991369711768698,-0.615549440039123,0.1663170261617683,0.1571213952897207,2.263552690473597,-0.1699031713272714,-0.0821423180755039,-0.7057019003742852,1.3712281851305923,0.5991349736608198,0.1492611791953153,-1.22434681337365,9.226275828813414,-0.8141186939286872,0.1811680578807662,-1.1020093307846628
0.54,0.1495923019353748,0.1519328928575778,2.2413915889168403,0.007790225629363,0.1768817085888,0.0393292057510861,-0.2865329383449194,-0.0956864927998065,-0.639080256397437,0.1623420365634432,0.1554402565537487,2.2502386524780325,-0.1410568627382898,-0.0802276993524094,-0.7457019009703316,1.3550047654316346,0.64963460156017,0.1725239188531666,-1.1765408179157,9.18814282143194,-0.7999297337417157,0.1828406438540233,-1.1138601572607725
0.56,0.144019454026552,0.1500620941593554,2.2283481973820467,0.0053432101991252,0.1850115522500341,0.0389713766576034,-0.2712500941835009,-0.09161634503938,-0.6640606788834633,0.1590882046798427,0.1538069832858541,2.2359246144675664,-0.1122105541493081,-0.078313080629315,-0.785701901566378,1.4783038727155149,0.7641422080709254,0.2035073880213234,-1.2490211243013138,9.199193257570188,-0.7861651098372863,0.184065382100182,-1.1251811568978765
0.58,0.1387691280489623,0.1482772361973465,2.2148052433874126,0.0033786462040487,0.1925931325463981,0.0386264695986645,-0.254371444847301,-0.0871280922467034,-0.6890137107930602,0.1565555305109667,0.1522215754860369,2.220610576442199,-0.0833642455603265,-0.0763984619062205,-0.8257019021624245,1.522897746096835,0.8439324668099935,0.2244126396338273,-1.2476515954798428,9.20992532530272,-0.7725532735100636,0.1848087116703684,-1.1362884667768922
0.6,0.1338724670917334,0.1465870563504418,2.200764378883709,0.001918336595894,0.1996592732522249,0.0383021247318677,-0.2359778397311896,-0.0821808326022059,-0.7138742022198922,0.1260505558065972,0.1439208315850114,2.1803545578477594,-0.1988009020349536,-0.0734428071329515,-0.755542828317684,1.5659215506700042,0.9196802558055688,0.2473629822248788,-1.2430245713416,9.23434499905943,-0.7597972716297607,0.1850830749012733,-1.146576410293409
0.62,0.129623081664539,0.1450585139056913,2.187180300633067,0.0004462512799815,0.2058183416868357,0.0379777733072535,-0.2121380285099366,-0.0787407146592842,-0.7148225806268569,0.1260505558065972,0.1439208315850114,2.1803545578477594,-0.1988009020349536,-0.0734428071329515,-0.755542828317684,1.205270127532607,1.1919905610626471,0.1720058971460852,-0.0474189203482355,9.259440045083466,-0.7467397075757891,0.1832480870686289,-1.1598182744215968
0.64,0.12565121664493,0.1435328416595252,2.1728599951994725,-0.0013798068435201,0.2117130742103871,0.0376065641665691,-0.1862102314011489,-0.0739258846792015,-0.7173966495008842,0.1260505558065972,0.1439208315850114,2.1803545578477594,-0.1988009020349536,-0.0734428071329515,-0.755542828317684,1.3248198756999,1.2963898554393851,0.2407414990041337,-0.1287034437013667,10.694812676798392,-0.7345082203394779,0.1856771526582555,-1.1672487909323803
0.66,0.1222036193588231,0.1421139267260288,2.158457357560479,-0.0030641409987281,0.2171392296897075,0.0372369626549146,-0.1597346939376441,-0.0682144996688998,-0.7228792139269274,0.1240625467862477,0.1431864035136819,2.1727991295645825,-0.1876867934724841,-0.0707057501102012,-0.7688486518226089,1.3816950779776478,1.3237768731752433,0.2855692505150851,-0.2741282213021612,10.526703190897932,-0.7231716359878481,0.1876859938184625,-1.1742703896452331
0.68,0.1192919617254795,0.1408170859426267,2.143919313569368,-0.0043518818417515,0.2221794432133276,0.0368900442450972,-0.1326223205457849,-0.0617960714956835,-0.7306798284816878,0.1200865287455486,0.1417175473710228,2.157688272998229,-0.1654585763475451,-0.0652316360647004,-0.7954602988324584,1.4466570071947489,1.3556186695929575,0.3209214086608132,-0.3900307277380166,10.38024997620687,-0.7114720874220779,0.1891840103588964,-1.1817579457789549
0.7000000000000001,0.1170370552337357,0.1397100421802322,2.129947319381881,-0.004993454358538,0.2265890861300064,0.0365999042383195,-0.1060027065615351,-0.0551214303112191,-0.7396952040582736,0.1161105107048496,0.1402486912283638,2.1425774164318754,-0.1432303592226061,-0.0597575220191997,-0.8220719458423079,1.444326556218087,1.3309806992124924,0.3337320592232229,-0.4507687788292913,10.276256137263772,-0.6999918730399823,0.1898980422014524,-1.189275481862556
0.72,0.1152276767613953,0.1386855331050943,2.115040063917183,-0.0048651049355419,0.2304672984901516,0.0363546191465609,-0.0762957353394985,-0.0477406723056081,-0.750631902457894,0.1132459035203974,0.1390535407879798,2.126135977515029,-0.1210021420976672,-0.0542834079736989,-0.8486835928521574,1.6252623632882797,1.4853485611018304,0.3690379002805499,-0.5468349199810207,10.201089724777376,-0.6896550225717849,0.1897144594704142,-1.1960953752681425
0.74,0.1140312706355807,0.1378116346492616,2.0999113310177258,-0.0037243616225889,0.2329532747895638,0.0361890969572513,-0.0449566476162426,-0.0401582106200736,-0.7616917062504491,0.1103812963359453,0.1378583903475958,2.109694538598183,-0.0987739249727282,-0.0488092939281981,-0.8752952398620071,1.7043704148954408,1.5669543861627946,0.3791230842767244,-0.5529901896277556,10.160847631629622,-0.6816582527336528,0.1884585375599429,-1.2014631201878825
0.76,0.1134775646924697,0.1370888684008295,2.084563888563566,-0.0014303786794816,0.2335433762977035,0.0361120623878542,-0.0121408781386068,-0.0327339771918177,-0.7724914417102609,0.1080723945796167,0.1368000927583493,2.0925878085060905,-0.0765457078477892,-0.0433351798826974,-0.9019068868718566,1.766796716099846,1.64078847388179,0.3712116714127942,-0.5399867729905861,10.160847631629622,-0.6763146709074356,0.186078643355853,-1.2053657481406572
0.78,0.1135719706779225,0.1365253940603342,2.069785649391815,0.0015262390982094,0.2317509519641957,0.0360906200129609,0.0203025171705622,-0.0272056462112253,-0.7825581948762903,0.1063191982514115,0.1358786480202403,2.074815787238752,-0.0543174907228503,-0.0378610658371966,-0.928518533881706,1.7208107550830176,1.6221697654584526,0.2764165490296198,-0.5033376583014726,10.214537881253818,-0.6736531581036169,0.1825909795127034,-1.2079750002259233
0.8,0.1143419273092453,0.1360299240573419,2.0540237102171184,0.0048069397468284,0.2267115247742256,0.0360567801073458,0.0545688547239642,-0.0227645027215994,-0.7930421140799087,0.1145870965364506,0.1351651117497729,2.0306577396480003,-0.0214762447229485,-0.0307306600137984,-0.7814238617919529,1.8054211466352752,1.7133168776701009,0.2220571744812915,-0.5241959601809176,10.214537881253818,-0.6732068517820737,0.1786392054455222,-1.2100006754128785
0.8200000000000001,0.1160097464547713,0.1356478211412943,2.038331224565876,0.008946893344286,0.2131305018919781,0.0359923282652355,0.1095150550439739,-0.0163377107229712,-0.7738497304987574,0.1145870965364506,0.1351651117497729,2.0306577396480003,-0.0214762447229485,-0.0307306600137984,-0.7814238617919529,2.927770556467115,2.747310016000481,0.3213395999314123,0.9596191790575636,10.21826082273219,-0.6938691433370782,0.1728554844693779,-1.1991930124632568
0.84,0.1186797189408094,0.1353564888141114,2.023075594279621,0.0137896691338483,0.1882878067395575,0.0357667020094735,0.15277755357765,-0.0134247160840769,-0.7524909692417998,0.1145870965364506,0.1351651117497729,2.0306577396480003,-0.0214762447229485,-0.0307306600137984,-0.7814238617919529,2.4167778133158366,2.163124926683808,0.1456497319447166,1.0679380628478785,12.105682408724531,-0.7099355585869033,0.1684157241805954,-1.191511193950116
0.86,0.1218733501465527,0.1351088593542444,2.0089637568924323,0.0182580729574583,0.1592704987561742,0.0353229992579505,0.1800066362483204,-0.0129022852754829,-0.7338335849164559,0.1143723340892211,0.1348578051496349,2.022843501030081,-0.0298319971016507,-0.031435662774313,-0.7811969951750855,1.650601304751967,1.3614541335335184,0.0261215404296972,0.932869216267196,12.105682408724531,-0.7372248180444806,0.1644400442175506,-1.175316238070972
0.88,0.1256668893700584,0.1348400387604712,1.9944744028898969,0.0225473694598513,0.1266285623502817,0.0346256585159186,0.1966788116606466,-0.0140839516634294,-0.7161019024053619,0.1139428091947621,0.134243191949359,2.0072150237942417,-0.046543501859055,-0.0328456682953422,-0.7807432619413505,1.2183701542491272,0.8336087706163133,-0.0590833193973259,0.8865841255547013,11.807996103104417,-0.7705306612861013,0.1608312779896862,-1.1535514656984152
0.9,0.1296817788919121,0.1345313793923545,1.9803126998629148,0.0262593533184239,0.0938413439189741,0.0337316649970612,0.2029428378257166,-0.0166907566621731,-0.7008587371281217,0.1135132843003032,0.133628578749083,1.9915865465584024,-0.0632550066164593,-0.0342556738163715,-0.7802895287076155,0.8342474809183041,0.3132013082534954,-0.1303402499371848,0.7621582638620061,11.579452164104625,-0.8040868764446385,0.1581718327807244,-1.129424765500752
0.92,0.1335261302408052,0.1341787937113126,1.96712215755295,0.0291968925647793,0.0635420942325222,0.0327443405983872,0.2006102845962495,-0.0202135531885927,-0.6883407111297215,0.112248184167974,0.1329434652727555,1.9759807559842504,-0.0799665113738637,-0.0356656793374007,-0.7798357954738805,0.6605904079523774,-0.1166276614733535,-0.1761398263209786,0.625901299920012,11.228010108943636,-0.8393852727908392,0.1555827534608721,-1.1025603684090295
0.94,0.1374450861560899,0.1337267294307064,1.9534896027633517,0.0316667135969708,0.0330475044867479,0.0316038769260528,0.1905521331039199,-0.024751993433544,-0.6755816316465831,0.1109830840356448,0.1322583517964281,1.960374965410098,-0.096678016131268,-0.0370756848584299,-0.7793820622401455,0.843442292864022,-0.5029075746164791,-0.2269220122475625,0.6379539741569185,11.196715959361429,-0.8737562258799139,0.1529577907657061,-1.0752387012698614
0.96,0.141066870774068,0.1331749852947004,1.9401033868093085,0.0334820340214921,0.0048764884454142,0.0304178765612754,0.1714560911831321,-0.0301089396190445,-0.6637328130340687,0.1093001962843805,0.131537988182075,1.944780518166789,-0.1133895208886723,-0.0384856903794592,-0.7789283290064106,1.155151712965771,-0.9548020960393894,-0.2678473092750291,0.5924409306257206,11.171497121546963,-0.9050603802316454,0.1505062793813129,-1.0493732832227485
0.98,0.144215312833735,0.1325060243246355,1.926939894096373,0.0344986761047095,-0.0194674068617383,0.0292604987361296,0.1441117876202118,-0.036388290233843,-0.6532155769846275,0.1071995209141811,0.1307823744296961,1.929197414254324,-0.1301010256460766,-0.0398956959004884,-0.7784745957726756,1.498126693244243,-1.3672151781460151,-0.3139675307399232,0.5258618024720607,11.171497121546963,-0.9318140485542196,0.1485000847965636,-1.0262208498680412
1.0,0.146637129761229,0.1317459367318245,1.91461821256765,0.0344485849333307,-0.0381122089544751,0.0282334522257703,0.1122070688920552,-0.0431462740685315,-0.6443123758197042,0.1514209022147456,0.1306866098129434,1.8942791152471417,0.0490648725062859,-0.0455340148209855,-0.5995746041617229,1.6903020540836682,-1.5952359364078297,-0.3378991917344219,0.4451600582461634,11.146630131193888,-0.9559604474346426,0.1471126904370702,-1.0043030985449533
1.02,0.1484710495486516,0.1308088758127125,1.902018049995086,0.0334444594070728,-0.0523575884385031,0.0272859149432509,0.0727502610925232,-0.0501961671982035,-0.6151290757462996,0.1514209022147456,0.1306866098129434,1.8942791152471417,0.0490648725062859,-0.0455340148209855,-0.5995746041617229,2.4790147629871986,-1.9728403899766032,-0.3524946564836012,1.459165003670232,11.13042196335391,-0.9800942680174412,0.145372823797999,-0.981536242397716
1.04,0.1494782151992956,0.1297250112382036,1.8900285918964643,0.0314380228646967,-0.0606615208649419,0.0264928909415833,0.0298347435424618,-0.05768113096851,-0.5854450951022222,0.1514209022147456,0.1306866098129434,1.8942791152471417,0.0490648725062859,-0.0455340148209855,-0.5995746041617229,2.6357660348134018,-2.1457758775030658,-0.3742481885153286,1.48419903220387,12.627207015668318,-0.995313051769331,0.1483635885601413,-0.9616217740281734
1.06,0.1496057428563681,0.1285033605871638,1.8786155686240624,0.028370545382394,-0.0626861772886715,0.025849582802656,-0.014201112806429,-0.0636726703400654,-0.5571524199962549,0.1519115509398085,0.1302312696647335,1.8882833692055243,0.0300554894835007,-0.047363159738414,-0.588846409597142,2.634165262978424,-2.201792817444544,-0.2995769685777676,1.4146337552983668,12.5418951029651,-1.00569716377374,0.1525556047197682,-0.9452216709526688
1.08,0.148930848676805,0.1272509824263679,1.8682935505744935,0.0251101894176756,-0.0598108715288258,0.0253637196211413,-0.0540823028726317,-0.067671713209742,-0.5306497152787615,0.1528928483899342,0.1293205893683138,1.87629187712229,-0.0079632765620696,-0.051021449573271,-0.5673900204679801,2.4025481380779588,-1.9940595033101371,-0.1999521434838308,1.3251352358746693,12.308847933611103,-1.012858473770374,0.1576351153635349,-0.9309653245041556
1.1,0.1474345232246543,0.1258660260896714,1.857973259905164,0.0216677267393428,-0.0530914973204791,0.0249427009967619,-0.0929291370521758,-0.0704843784635662,-0.5026916646980558,0.1538741458400599,0.1284099090718941,1.864300385039056,-0.04598204260764,-0.0546797394081279,-0.5459336313388183,2.397206814125745,-1.9423417089772053,-0.1406332626912108,1.3979025290352831,12.308847933611103,-1.0160456657857149,0.1625481884932906,-0.921467871408439
1.12,0.1451982535773001,0.1244380571350673,1.848209215872932,0.0184012169348698,-0.0438003028884938,0.02457758912647,-0.1282523642323369,-0.0720875981629652,-0.4750642051010242,0.1529545049879071,0.1273163142837315,1.8533817124122796,-0.0840008086532103,-0.0583380292429849,-0.5244772422096565,2.243645034097096,-1.7661613590080554,-0.0801609849699479,1.3813729798515777,12.144842734765009,-1.0160643021748454,0.1669588831130144,-0.9162904479469236
1.14,0.142295253310289,0.1229898467391755,1.8389992493208436,0.0154334888193352,-0.0329587929250009,0.0242448319319972,-0.159789212992501,-0.0726277579424282,-0.4472334995649667,0.1520348641357543,0.126222719495569,1.8424630397855029,-0.1220195746987808,-0.0619963190778419,-0.5030208530804946,2.10321942087812,-1.5768424380082051,-0.0270079889731517,1.391535276802877,12.144842734765009,-1.014357340428353,0.1713172749206093,-0.9131182764321868
1.16,0.1389866192300165,0.1216125930037446,1.8307642781868088,0.0129404016518204,-0.0219354881344943,0.0239467310137988,-0.1865175228911589,-0.0723223072862483,-0.4209441414402052,0.1501647541324622,0.125037667461535,1.832080776886956,-0.1600383407443511,-0.0656546089126989,-0.4815644639513328,1.8745840877072004,-1.3364154949328937,0.0152725328089985,1.314467906238073,12.059535558816606,-1.0119012927457252,0.1755150065655228,-0.9108453219518148
1.18,0.1349919815973437,0.1201767817586599,1.822634407316012,0.01067684170492,-0.0101220947736298,0.0236468611857282,-0.2111487256837655,-0.0712689373476501,-0.3934099500427744,0.1473441749780309,0.1237611581816296,1.822234923716637,-0.1980571067899215,-0.0693128987475559,-0.460108074822171,1.8479295408296872,-1.231560139630332,0.0526684969299084,1.3767095698715397,12.059535558816606,-1.0092356691024351,0.1795862174707499,-0.9088077467286548
1.2,0.130540720228628,0.1187694259528573,1.8150487970264235,0.0088032486355059,0.0014131719641144,0.0233615813640084,-0.2324109648545785,-0.0695384613031152,-0.366545855317659,0.1244345453131554,0.1166133348912773,1.802963909813873,-0.1624573002112676,-0.0847101963890787,-0.373765972758343,1.71519455696543,-1.0631119585406468,0.0865238022267463,1.3432047362557709,12.015308103707866,-1.0060965546924412,0.183389156129711,-0.9075620192427654
1.22,0.1256405414269668,0.1174439547299692,1.8078640395515315,0.0086557437808081,0.0141039261261387,0.0232064204324521,-0.255999694097544,-0.0634339921703159,-0.3539007453655711,0.1244345453131554,0.1166133348912773,1.802963909813873,-0.1624573002112676,-0.0847101963890787,-0.373765972758343,1.3725810507868244,-1.1794364621482727,0.3052234566399636,0.6322554976043948,11.017876238209285,-0.9939247400156224,0.1854631589826967,-0.9177832495170448
1.24,0.1205927774233018,0.1162938143948585,1.8012246164114998,0.0110549711569171,0.0281032077729124,0.0232818830303523,-0.2735990104229859,-0.0582363995465205,-0.3455066098014344,0.1244345453131554,0.1166133348912773,1.802963909813873,-0.1624573002112676,-0.0847101963890787,-0.373765972758343,1.0089752426038572,-0.8799658162720964,0.2598796311897713,0.4197067782068381,10.830065776880474,-0.9861108137072072,0.1845949790458828,-0.9241084123922844
1.26,0.1149707006990527,0.1151604324983859,1.7944179362915469,0.015312335410725,0.0435079034879927,0.0235537804686922,-0.2871477012521387,-0.0558496572563686,-0.3355406808932097,0.1228099723110427,0.1157662329273866,1.7992262500862897,-0.152719015116768,-0.0873984481973644,-0.3698371773014567,0.8493869862250035,-0.6774345414576416,0.1193371145075939,0.4982964454112337,10.830065776880474,-0.9767210883525622,0.1815602013265838,-0.9333568475662009
1.28,0.1091250792219155,0.1140429908625865,1.7878228616197027,0.0198579456952249,0.0588125444716358,0.0239250177532198,-0.2962828762885413,-0.0561003052360862,-0.3244840879784695,0.1195608263068174,0.114072028999605,1.7917509306311228,-0.1332424449277688,-0.0927749518139358,-0.3619795863876841,0.7172211901459219,-0.4567587518201299,-0.0125323989858816,0.5528296457370102,10.891849583113071,-0.966847900006358,0.178477443106293,-0.9430266532817136
1.3,0.1034399394281934,0.1129607406461962,1.7817701454834098,0.0238515312775397,0.072877981571871,0.0243172807469123,-0.3013422471000633,-0.057774050640108,-0.313218507180028,0.116311680302592,0.1123778250718234,1.784275611175956,-0.1137658747387697,-0.0981514554305072,-0.3541219954739115,0.6231211106441874,-0.2529685405761012,-0.0836872702010875,0.5632790399220738,10.950920597054392,-0.9559008057134596,0.1755028241838143,-0.9535586631001052
1.32,0.0973877105819366,0.111777426748247,1.7756350450778446,0.0275261734485562,0.0869899982845749,0.0247418989249424,-0.3032335746596592,-0.0604435940260261,-0.3008832779856625,0.1140363628078166,0.1104147959632133,1.7771931712664777,-0.0942893045497705,-0.1035279590470786,-0.3462644045601389,0.6380859289792248,-0.0945663779797933,-0.1334771692959046,0.6167614597182736,11.006279736561735,-0.9446722604265846,0.1730244275509374,-0.9640298463426562
1.34,0.0913313900566861,0.1105329166995121,1.7697441012038415,0.0306083524726519,0.1003105589457671,0.0251585420901968,-0.3019612151798059,-0.0638179034157025,-0.2888698476444691,0.1117610453130412,0.1084517668546031,1.7701107313569997,-0.0748127343607713,-0.1089044626636501,-0.3384068136463664,0.627151040551511,0.0636179739926634,-0.1687154694838221,0.6006715170596699,11.049298919927423,-0.9330999866462176,0.1710176433950187,-0.974562759489229
1.36,0.0853314287788877,0.1092138391855181,1.764088549059965,0.0330483538581864,0.1128242003409851,0.0255491341108574,-0.2977821531039095,-0.0677793554713765,-0.2773188814758439,0.1099726420729908,0.1063543251555787,1.7632247312203655,-0.0553361641717721,-0.1142809662802215,-0.3305492227325938,0.6453341801972163,0.2089531037948233,-0.1980726027836984,0.5775483084312638,11.042177432629614,-0.9220411398857024,0.1695188818707659,-0.9844609688908544
1.38,0.0797346650190601,0.1078839465794437,1.7589263458964512,0.0347898237031748,0.1239785920688949,0.0258862170206772,-0.2913037256365574,-0.0718849767864791,-0.2666790510099778,0.1086711530876654,0.10412247086614,1.756535170856576,-0.035859593982773,-0.1196574698967929,-0.3226916318188212,0.6558051181089161,0.3239213733676055,-0.2052810657551335,0.5319915232933042,11.034547158495116,-0.9104305899858456,0.1683778704733325,-0.9946445183498294
1.4,0.0740021206791968,0.1063970653879467,1.7537080416098725,0.036016709228403,0.1349770867921762,0.0261960635838946,-0.2820103772734084,-0.0765483733939851,-0.2557482841019218,0.0651694787372322,0.1042896977401197,1.7455923933459525,-0.1986584306722438,-0.0837006271750776,-0.2674766316465499,0.7543130267269564,0.4646674181574467,-0.233169830375296,0.5465383454028,11.034486059556002,-0.8988395769803936,0.1677203448152048,-1.004576070664001
1.42,0.0684714619808918,0.1047898992659086,1.7486394038311088,0.0356723103602208,0.1452850401044305,0.0263841127153092,-0.2713149332433665,-0.0836604209641322,-0.2520366415706204,0.0651694787372322,0.1042896977401197,1.7455923933459525,-0.1986584306722438,-0.0837006271750776,-0.2674766316465499,0.6684871612827722,0.5347722015020956,-0.3556023785073553,0.1855821265650675,11.040874197583436,-0.8842186065288901,0.1680036214194995,-1.0172816687425188
1.44,0.0631761883516191,0.1030511347305765,1.7436296538297589,0.0332076744859284,0.154961803887401,0.0263943859714464,-0.258503724335941,-0.0896215458212621,-0.2491231220072063,0.0651694787372322,0.1042896977401197,1.7455923933459525,-0.1986584306722438,-0.0837006271750776,-0.2674766316465499,0.7213714013571444,0.6405604453712771,-0.2980562428564953,0.1456759781707034,10.600808996406158,-0.8723532053970593,0.1698017360359413,-1.0274682317858703
1.46,0.0584030410514049,0.1013137498577855,1.7389276657932884,0.0297302514943501,0.1635784309903403,0.0262858096214661,-0.2443828727394212,-0.0926729900341392,-0.2460008620128545,0.0631828944305097,0.103452691468369,1.7429176270294868,-0.1801293716793811,-0.0860637572527973,-0.2676361477738643,0.739016693092188,0.706042579825987,-0.1525722106438559,0.1561129997175919,10.61864674206936,-0.8602014379013908,0.1731647143148797,-1.0371442030454925
1.48,0.0536885211507497,0.0994483039868012,1.7340450618592942,0.0260795812232175,0.1720613653331763,0.0261315771968785,-0.2275934786185314,-0.0936813663750895,-0.2424463124357879,0.0592097258170649,0.1017786789248674,1.7375680943965557,-0.1430712536936557,-0.0907900174082367,-0.2679551800284931,0.8595571541313909,0.8394697060444906,-0.0504188170475143,0.1777274788533317,10.657290771401676,-0.8479559648337984,0.1766347811492916,-1.046604310306279
1.5,0.049329699718259,0.097577110279612,1.7292360932527882,0.0229342884856408,0.1799713069701793,0.0259788153019104,-0.208923570029865,-0.0934378169348351,-0.2386535449038392,0.05523655720362,0.1001046663813659,1.7322185617636248,-0.1060131357079303,-0.095516277563676,-0.268274212283122,0.9526409194843696,0.9334954294333176,0.0121774720127205,0.1896383765974355,10.69391491969327,-0.8357817340523438,0.1797457057738713,-1.0557673102317258
1.52,0.0453633157845773,0.0957199804969971,1.7245062790668677,0.0204657770060029,0.1873409516682522,0.0258486909827345,-0.1884593031916567,-0.0924283175083025,-0.2345716709535627,0.0531162944894614,0.0981943408300923,1.7268530775179622,-0.0689550177222049,-0.1002425377191154,-0.2685932445377508,1.0445896338556924,1.023213341910416,0.0504749713266292,0.2040936975138227,10.730428830381245,-0.8243374145837622,0.1821956727838224,-1.0642037032263336
1.54,0.0419899593339564,0.0939790079326785,1.7200884347275462,0.0187366761115172,0.1938734275263164,0.0257527422905114,-0.1674988850805241,-0.0910126433774417,-0.2307137876048713,0.0509960317753028,0.0962840152788188,1.7214875932723,-0.0318968997364795,-0.1049687978745548,-0.2689122767923796,1.0679729918991363,1.0480209055566334,0.070783706543042,0.1928941674345693,10.7691105010299,-0.8122805024276787,0.1842339086938731,-1.07294897197333
1.56,0.038885291419861,0.092178276249503,1.715518028795547,0.0175295669033115,0.2002888727459543,0.0256847049937613,-0.1439000730247457,-0.0891596384141538,-0.226553176380942,0.0498022220107873,0.0942555332236593,1.7161141332202718,0.0051612182492458,-0.1096950580299942,-0.2692313090470085,1.2017156939087172,1.179940602788916,0.0926502481643901,0.208030561196465,10.789880198096398,-0.8008463998405738,0.1857728713454281,-1.0810177683461497
1.58,0.0362684783136048,0.0904204591344197,1.7110334887826275,0.0170905107907794,0.2062614023813104,0.0256656849620944,-0.1188076869672379,-0.0867996235639213,-0.2221523995606276,0.049534865195915,0.0921088946646138,1.710732697361878,0.0422193362349712,-0.1144213181854335,-0.2695503413016373,1.2792227569647028,1.2546193028753934,0.1180007425116279,0.2200388410157211,10.820447476547995,-0.7908856058228693,0.1868824732402428,-1.087550205143837
1.6,0.0342624685235987,0.0887969171601467,1.7068569944398306,0.0175149452280118,0.2114963223410338,0.0257058033066226,-0.0934967650917369,-0.0843083040489367,-0.2177323547518738,0.0303280939652429,0.0860804779562236,1.6999258688045962,-0.0788360186940273,-0.0746976594701765,-0.2220480281023356,1.2907228935995982,1.265546093775049,0.1245659757492301,0.2210022404376871,10.85469639112216,-0.7808379256638412,0.187485014463552,-1.093751547560205
1.62,0.0328407737988448,0.0870548217029497,1.7025277536176824,0.0160792125993688,0.2114038779855082,0.0255276202482152,-0.0502325895025302,-0.0893741817983465,-0.2154309963886461,0.0303280939652429,0.0860804779562236,1.6999258688045962,-0.0788360186940273,-0.0746976594701765,-0.2220480281023356,2.1810251357456147,2.163208779460334,-0.2532938874704897,0.1150679181613864,10.890215959134366,-0.784830119245897,0.1897837711789807,-1.089338732528172
1.64,0.0322556363183448,0.0852548839172136,1.6982562680867,0.0116190166601698,0.2014384238152926,0.0250163564194947,-0.0118454290339501,-0.0897141591625456,-0.2116074236164896,0.0303280939652429,0.0860804779562236,1.6999258688045962,-0.0788360186940273,-0.0746976594701765,-0.2220480281023356,1.928930650770438,1.9193580234290069,-0.0169988682099567,0.1911786386078265,10.92335355133946,-0.7852085440252075,0.1955879704414599,-1.0869348983256912
1.66,0.0323312850960933,0.0835786625868673,1.6942868619407996,0.0069605555844068,0.186302652174311,0.024515344529941,0.0169972138113941,-0.0866821965759464,-0.2062715705353267,0.0295397337783026,0.0853335013615218,1.697705388523573,-0.0708416850393852,-0.0722772666514276,-0.2220271538106772,1.474416979295867,1.442132142267211,0.1515981293299592,0.2667926540581469,10.9222972877742,-0.7954429216111897,0.2026112719719561,-1.0764204817466023
1.68,0.0329163431740655,0.0818960080519288,1.6902319432355093,0.002549298596619,0.1674390067634832,0.0241087810126699,0.0391806483945573,-0.0817817676349524,-0.1993780079590843,0.0279630134044221,0.0838395481721183,1.693264427961526,-0.054853017730101,-0.0674364810139297,-0.2219854052273604,1.1870553680260485,1.109171729158161,0.2450214470497022,0.3446781288121162,10.927429871060667,-0.8119279393713087,0.2099223888151023,-1.059743371101415
1.7,0.0338611611354135,0.0803233366335384,1.68632221236303,-0.0010539097541902,0.148023370202301,0.0238609434486788,0.0535815736799628,-0.0758329062601509,-0.1918817503627251,0.0263862930305416,0.0823455949827148,1.6888234673994793,-0.0388643504208168,-0.0625956953764318,-0.2219436566440436,0.8645366948305446,0.7200462642702743,0.297443068740074,0.3748128798179595,10.926481824928487,-0.8311200043366627,0.2165949487346713,-1.0400223756353202
1.72,0.0350183707033852,0.0788769993629219,1.6825623341841418,-0.0037770412569622,0.1299589476962415,0.0237562627709581,0.0611254624674064,-0.0692877728453622,-0.1844370971782525,0.0256090060221252,0.0810936810751862,1.6843845942665985,-0.0228756831115326,-0.0577549097389339,-0.2219019080607268,0.6228400486717679,0.3771944393721821,0.3272566707394356,0.3722326592236313,10.90710600791681,-0.8490181106340908,0.2217641558434792,-1.0213568497394436
1.74,0.0362034574509822,0.0776270903759782,1.6791243079242189,-0.0056336855123654,0.1151861173228629,0.0237543248019436,0.0631652284909218,-0.0627736507052846,-0.1778095436769903,0.0248317190137089,0.0798417671676575,1.6799457211337177,-0.0068870158022484,-0.052914124101436,-0.22186015947741,0.4757071002692427,0.101988301175766,0.3257061070038772,0.3313776750631089,10.873875602038424,-0.8661782132811525,0.2262514561289907,-1.002750922640214
1.76,0.0374540767976663,0.0764479916892003,1.675636327099516,-0.0068656263553559,0.1027364769169129,0.0238240394787597,0.0616882734485848,-0.0555329651729949,-0.1713498334625319,0.0244541486880246,0.0787108729010663,1.6755078917154196,0.0091016515070357,-0.0480733384639381,-0.2218184108940932,0.4907565058900718,-0.073847752116845,0.3620342766144854,0.3229855107229229,10.783668075089736,-0.8807483806696834,0.2296412969447945,-0.9864370787219756
1.78,0.0386415206700333,0.0754204576368371,1.672270156867465,-0.0071375695125373,0.0937766209149756,0.0239596730448351,0.0571775802534391,-0.047720856781458,-0.1655697565126114,0.0244762950450725,0.0777009982754126,1.6710711060117047,0.0250903188163199,-0.0432325528264402,-0.2217766623107764,0.5356880626093345,-0.2255346597572871,0.3906054195768449,0.2890038474960221,10.783668075089736,-0.891031443387215,0.2318111170203858,-0.9743106490378536
1.8,0.0396619824531138,0.0745914146045405,1.669173877740966,-0.0063118134525202,0.0888409127992363,0.0241474995240844,0.0504842226552955,-0.0400808128869973,-0.1606307707707331,0.0415003996827053,0.0730344147977642,1.6639916690418344,0.0377958578180839,-0.0568725129620782,-0.158691457805305,0.5647231330581165,-0.3346678799071786,0.3820021947230367,0.2469492870939144,10.741627697200784,-0.8978185338377326,0.2327630984201576,-0.9657776403406232
1.82,0.0406770609727629,0.0739403075423951,1.6660727603075938,-0.0021045272080989,0.0849938215792288,0.0245642289988939,0.051749071911482,-0.0268281484529047,-0.1494006119161068,0.0415003996827053,0.0730344147977642,1.6639916690418344,0.0377958578180839,-0.0568725129620782,-0.158691457805305,0.8708464648600227,0.0632424628093254,0.6626332217046289,0.5615079427313152,10.714676872282324,-0.9110654464484218,0.2293273084375731,-0.9531437456464996
1.84,0.0417250146677862,0.0734806445839514,1.663199017425535,0.0048727986556595,0.0791110924490116,0.0251433030003743,0.0526326080962231,-0.020329740274885,-0.1386059652737908,0.0415003996827053,0.0730344147977642,1.6639916690418344,0.0377958578180839,-0.0568725129620782,-0.158691457805305,0.6315345223548057,0.0441768092370523,0.3249204089009885,0.5397323321157999,11.040268140160151,-0.9181234070268338,0.2263892231978309,-0.9433254663826474
