t,x,y,z,roll,pitch,yaw,v_x,v_y,v_z,ref_x,ref_y,ref_z,ref_v_x,ref_v_y,ref_v_z,a_com,a_x,a_y,a_z,thrust,wind_x,wind_y,wind_z
0.0,0.2605429924669733,0.1839677605233785,2.422092312763728,0.0294878451977689,0.0999308987148072,0.0428273324318003,0.0030243768276282,0.0065447842739325,0.0126284176744608,0.260634282672087,0.1841874552908152,2.422476290561434,-0.0969633398606658,-0.0223065551929426,-0.0872443694073083,0.7270797572282657,0.1512188413814123,0.3272392136966267,0.6314208837230445,10.239100183723169,-0.9439033799994612,0.2583845752278975,-0.8705637036412862
0.02,0.2607653056790018,0.1841966709477731,2.4221113477531806,0.034524810517212,0.0938689998536073,0.0429690276797575,0.0177357285023772,0.0141906597490295,-0.0107669589111537,0.260634282672087,0.1841874552908152,2.422476290561434,-0.0969633398606658,-0.0223065551929426,-0.0872443694073083,1.4337249783880783,0.7355675837374525,0.3822937737548499,-1.1697688292807331,10.239212781604692,-0.9498331025975136,0.2561728173198689,-0.863346951558372
0.04,0.2612004990972411,0.1844949559423442,2.4216496937483183,0.0418857475989853,0.0786224216658623,0.042864615781115,0.0260039960718175,0.0160670579042584,-0.0365694742871898,0.260634282672087,0.1841874552908152,2.422476290561434,-0.0969633398606658,-0.0223065551929426,-0.0872443694073083,1.357990167828343,0.4134133784720103,0.0938199077614445,-1.290125768801803,8.92591280464103,-0.9516997683890176,0.2473891390341029,-0.8646518574383117
0.06,0.2617174626279879,0.1847879524913899,2.4206254565431635,0.0500762545692858,0.0565899882697118,0.0423514446824534,0.0242053756826892,0.0129274215829913,-0.0645255022192338,0.2596646492734804,0.1839643897388858,2.421603846867361,-0.116963340158689,-0.0281948861293745,-0.1072443697053315,1.4094607561681458,-0.0899310194564149,-0.1569818160633516,-1.397801396602201,8.756439687801503,-0.9596392883916616,0.2359674686815041,-0.862510417730814
0.08,0.2620924345037785,0.184982113643106,2.419039206421437,0.0575450385750653,0.0325226683258226,0.0414681478853767,0.0126394902832913,0.006636209073794,-0.0927397058753162,0.2577253824762671,0.1835182586350269,2.419858959479215,-0.1569633407547355,-0.0399715480022383,-0.147244370301378,1.5567517045556574,-0.5782942699698943,-0.3145606254598687,-1.410710182804118,8.703058964498723,-0.9711546673955662,0.2234901255226976,-0.8590655367969475
0.1,0.2621519448721043,0.1850280011868088,2.4170074206969328,0.0635881825893964,0.0106158735894084,0.0404266896208318,-0.0060698763730691,-0.0013266871460029,-0.1197568738136099,0.2557861156790537,0.183072127531168,2.4181140720910688,-0.1969633413507819,-0.0517482098751021,-0.1872443708974245,1.6906917817090132,-0.935468332818024,-0.3981448109898507,-1.350858396914688,8.742339124978116,-0.9855469417057134,0.2104417643184221,-0.8539248305327336
0.12,0.2617680020702874,0.1849004044042144,2.4143101322868863,0.0688732916779628,-0.0096554733068023,0.0392803171321079,-0.031604604297688,-0.0109363418136984,-0.1485897434995456,0.2518468488520381,0.182037163333666,2.41436918467312,-0.2369633419468284,-0.0635248717479658,-0.2272443714934709,1.9847557578596555,-1.2767363962309446,-0.4804827333847705,-1.4416434842967851,8.742339124978116,-0.999779659246473,0.1975025229952801,-0.8498286973457133
0.14,0.2608238492225783,0.1845689239754763,2.411026932412469,0.0731282072131994,-0.026077451903788,0.0382150707523843,-0.0616072389401371,-0.0216259305703487,-0.1783386671663372,0.2479075820250224,0.181002199136164,2.4106242972551715,-0.2769633425428749,-0.0753015336208296,-0.2672443720895174,2.1791190035236614,-1.5001317321224532,-0.5344794378325173,-1.487446183339579,8.768809530820818,-1.01176439921393,0.184339171935764,-0.8495522479985568
0.16,0.2592404098015739,0.1840103919213094,2.40714112306099,0.0762939786251031,-0.0379907360527023,0.0373325635636207,-0.0949788899182675,-0.0334220143577039,-0.208736946738781,0.2429683151831056,0.1796728183918403,2.405879409822322,-0.3169633431389213,-0.0870781954936934,-0.3072443726855638,2.332847017427906,-1.6685825489065196,-0.5898041893677607,-1.519913978622191,8.767023667350259,-1.0205164689102009,0.1725327657687602,-0.8523995194087342
0.18,0.2570948628060271,0.1832553485568862,2.4028827158210078,0.0783254683516526,-0.0448102419778692,0.0367341434227242,-0.1291230052690238,-0.0452172657707832,-0.2379843786072924,0.2370290483262877,0.1780490211006951,2.400134522374571,-0.3569633437349677,-0.0988548573665571,-0.3472443732816103,2.3239841005731483,-1.7072057675378136,-0.5897625706539629,-1.4623715934255697,8.805287087686338,-1.026522215803005,0.1634423633281103,-0.8555681808824004
0.2,0.2541202655981309,0.1822148145910761,2.397795362057189,0.0794908421017085,-0.0467301447107428,0.0364336984114804,-0.1660799538177242,-0.0581324202723119,-0.2691566336090416,0.2506387125425759,0.180994485268347,2.3909834968906427,-0.1892339020948142,-0.0787410972872875,-0.3379843800974086,2.502162436635423,-1.8478474274350232,-0.6457577250764374,-1.5586127500874585,8.805287087686338,-1.0298058451923575,0.1543786621250217,-0.8629622435905939
0.22,0.2503356271557896,0.1808647454300464,2.392238167115208,0.0785498094780191,-0.0412228658184391,0.0365704887929892,-0.2097261260874304,-0.0759488277243814,-0.2839197141424393,0.2506387125425759,0.180994485268347,2.3909834968906427,-0.1892339020948142,-0.0787410972872875,-0.3379843800974086,2.4700006453089265,-2.182308613485308,-0.8908203726034711,-0.7381540266698822,8.801049408400559,-1.031052437416743,0.1473411746830332,-0.8720966348135193
0.24,0.2457557964241833,0.179171384158494,2.386408226009189,0.0748738402949965,-0.0283975750979725,0.0370631949036724,-0.2451235047835907,-0.0917816983530545,-0.2983851955777859,0.2506387125425759,0.180994485268347,2.3909834968906427,-0.1892339020948142,-0.0787410972872875,-0.3379843800974086,2.0693624404995155,-1.7698689348080152,-0.7916435314336591,-0.7232740717673325,9.64298777932254,-1.0285410149668586,0.149135425432357,-0.8762087636512892
0.26,0.2405470164450135,0.1772052047625812,2.3802632905260954,0.069952187147101,-0.0120859118412287,0.0376602035850637,-0.2732926871679383,-0.1037216770490563,-0.3154556043646936,0.2487463735216277,0.1802070742954741,2.3876036530896685,-0.2012560814599722,-0.0854458635905883,-0.3579843803954318,1.7517596750237676,-1.40845911921738,-0.5969989348000887,-0.8535204393453844,9.416593693049435,-1.0191065682848313,0.1511577451890995,-0.8891111856870861
0.28,0.2348365635612475,0.1750293561670682,2.3737493552273943,0.0649128953828274,0.0055931390115401,0.0382525323934764,-0.2957711298775481,-0.1131292361163131,-0.3351840205716716,0.2449616954797314,0.1786322523497284,2.3808439654877205,-0.2253004401902884,-0.09885539619719,-0.3979843809914782,1.5676359273511902,-1.123922135480493,-0.4703779533628383,-0.9864208103489008,9.416593693049435,-1.00624362114691,0.1525489333003907,-0.906262787946092
0.3,0.229040562808151,0.1728060310164496,2.3671687887967634,0.0604548284224161,0.0226005197170303,0.0387647398988025,-0.3127816108185848,-0.1204247503124613,-0.3565108038896705,0.2411770174378352,0.1770574304039826,2.3740842778857725,-0.2493447989206046,-0.1122649288037918,-0.4379843815875247,1.411924817336644,-0.8505240470518316,-0.3647757098074133,-1.0663391658999433,9.100790350447824,-0.9910222144427387,0.1539567177116506,-0.9254125045866122
0.32,0.2226314931844836,0.1703294138360259,2.3597804499603083,0.0562826810523527,0.0401315663356518,0.0392341567615316,-0.3267924653912916,-0.1268458912923489,-0.3813291989209266,0.2361901214594231,0.1748121318279068,2.365324590254022,-0.2733891576509207,-0.1256744614103935,-0.4779843821835711,1.4607257008663634,-0.7005427286353422,-0.3210570489943762,-1.240919751562808,9.100790350447824,-0.974593292680772,0.1549067135692087,-0.9453488456958112
0.34,0.2159801884857819,0.1677345469082208,2.351879443704377,0.0526973808473349,0.056964764172532,0.0396318337264094,-0.3372464442381847,-0.1323416055718511,-0.4076095386870759,0.231203225481011,0.172566833251831,2.3565649026222717,-0.2974335163812369,-0.1390839940169952,-0.5179843827796177,1.440611682062051,-0.5226989423446543,-0.2747857139751106,-1.3140169883074648,8.917297107039303,-0.958180330953026,0.1550917003274098,-0.9649445362161636
0.36,0.2091541075020804,0.1650349091925108,2.3434399079721357,0.0496028107387041,0.0729441547976902,0.0399578242256266,-0.3444818011364547,-0.1373563726224626,-0.4350682073114189,0.225615220534341,0.1699862963605901,2.34680521497562,-0.321477875111553,-0.1524935266235969,-0.557984383375664,1.4417669373365425,-0.361767844913502,-0.2507383525305745,-1.3729334312171464,8.917297107039303,-0.9408407729097286,0.1550674043457915,-0.9848356964609654
0.38,0.2025635368855743,0.1623823216273817,2.334903047019455,0.0469969589029407,0.087266896249078,0.0402006379103536,-0.3486196218011672,-0.1416143682084731,-0.4622150381875377,0.2194261066194131,0.1670705211541842,2.336045527314067,-0.3455222338418692,-0.1659030592301986,-0.5979843839717105,1.38942660194809,-0.2068910332356205,-0.212899779300528,-1.3573415438059426,8.837407807912314,-0.9237978430206226,0.155042532781438,-1.0035062118407188
0.4,0.1955788200254893,0.1595086312144342,2.325346585818318,0.0445563568784851,0.1010797359055209,0.0403759645491004,-0.3493856986392392,-0.1455189419959912,-0.4921025571954933,0.185132555795516,0.1553016032169581,2.311792295110078,-0.3110984718380267,-0.151086554885631,-0.5622150396776538,1.5075612447218452,-0.0383038419036002,-0.195228689375905,-1.4943759503977805,8.78553677016771,-0.90750360761922,0.1549440281241449,-1.0207556267246518
0.42,0.1886120431827455,0.1565109498883264,2.3153622226609456,0.0410178752046379,0.1137196347840414,0.040380619241361,-0.3469052622299232,-0.1533256934863611,-0.5038992841282455,0.185132555795516,0.1553016032169581,2.311792295110078,-0.3110984718380267,-0.151086554885631,-0.5622150396776538,0.7180889567786349,0.1240218204657972,-0.3903375745184914,-0.5898363466376066,9.88227307514353,-0.8950669470824569,0.1552889558966164,-1.0347724776390377
0.44,0.1817167788780721,0.1533949791982482,2.305131354356137,0.0363330371987759,0.12569444546461,0.0402214670378674,-0.3424714257876578,-0.1575952870075886,-0.5187386628905315,0.185132555795516,0.1553016032169581,2.311792295110078,-0.3110984718380267,-0.151086554885631,-0.5622150396776538,0.8032675402439933,0.2216918221132707,-0.2134796760613747,-0.7419689381143013,9.88227307514353,-0.8802612407480332,0.1584454780117894,-1.0480568204118763
0.46,0.1752663538204509,0.1503791287119687,2.2951030666202623,0.0318672242491627,0.1364509375650657,0.039992323021411,-0.3365115305807625,-0.159591252919665,-0.5361592943323867,0.1820215710771357,0.1537907376681018,2.3061701447133016,-0.3035942418453985,-0.1529809922210626,-0.582215039975677,0.9259895121332368,0.2979947603447636,-0.0997982956038243,-0.8710315720927619,9.603073458158178,-0.8645363647505985,0.1615021357311158,-1.0622518662943374
0.48,0.168617279461177,0.1471786299222783,2.2841604640457454,0.0275360504748271,0.1471277878676354,0.0397052172217625,-0.3284774724426711,-0.1603257365079947,-0.5573443194027673,0.1757996016403752,0.1507690065703892,2.294925843919749,-0.2885857818601424,-0.1567698668919258,-0.6222150405717235,1.1334580313584748,0.4017029069045719,-0.0367241794164835,-1.059251253519028,9.439359448113464,-0.8485925051919443,0.1640553672591695,-1.0765908516673768
0.5,0.1621473423812421,0.1439745417596782,2.272769663112809,0.0237221745952173,0.1571602127182571,0.0393922350579144,-0.3186996828640356,-0.1600571572286475,-0.58079758746646,0.1695776322036147,0.1477472754726765,2.283681543126196,-0.2735773218748862,-0.1605587415627889,-0.66221504116777,1.270563936546285,0.4888894789317727,0.0134289639673615,-1.1726634031846372,9.30478817112362,-0.8335091523560577,0.1659536647834501,-1.0900565925761714
0.52,0.1558902584919483,0.1407846458336143,2.260889541772321,0.0204747564433441,0.1665720754889307,0.0390682839965531,-0.3072832893798193,-0.1590176832986374,-0.6060841214182158,0.1641060857661169,0.1445361006414208,2.2704372423028403,-0.25856886188963,-0.164347616233652,-0.7022150417638164,1.3881852771972871,0.5708196742108179,0.0519736965005054,-1.2643266975877865,9.21265694185604,-0.8192679482609272,0.1679371992067719,-1.1020433077474612
0.54,0.1501739131879549,0.1377791486134458,2.249129346948487,0.0178957553423588,0.1749592349473731,0.0387583117039984,-0.294833774942006,-0.157480709583565,-0.6306085879477419,0.1586345393286192,0.141324925810165,2.257192941479485,-0.2435604019043738,-0.1681364909045152,-0.7422150423598629,1.377318188088714,0.622475721890664,0.0768486857536179,-1.2262233264763056,9.144098255625975,-0.8050403942257826,0.1692115609591566,-1.114109262593734
0.56,0.1444289531815714,0.1346499968570101,2.2362423112374508,0.0156397261493577,0.1832278330457278,0.03843268557157,-0.2801313344269041,-0.1555457757320208,-0.6568542446061248,0.1535382043907529,0.1380190291121376,2.242948640641228,-0.2285519419191176,-0.1719253655753783,-0.7822150429559093,1.5072659184262118,0.7351220257550972,0.0967466925772084,-1.3122828329191485,9.14071630536273,-0.7912136352439638,0.1700563766636819,-1.1256739826444269
0.58,0.1389947491174908,0.1315631865011295,2.222828188423632,0.0137878204789102,0.1909499646932163,0.038109803732764,-0.2638491731210992,-0.1532676363231055,-0.6832824081104187,0.148817080952518,0.1346184105473387,2.2277043397880703,-0.2135434819338614,-0.1757142402462415,-0.8222150435519557,1.5562346562813023,0.8141080652902422,0.1139069704457679,-1.3214081752146944,9.13930985542629,-0.7775142853628138,0.1704744751223695,-1.1370494393021942
0.6,0.1339020018203124,0.1285262933766862,2.2088842073129102,0.0123430490443494,0.1981552563560044,0.0377955231332768,-0.246077813066129,-0.1505735996261955,-0.7098428704391085,0.1258022904614359,0.1238998046849742,2.1886640680181118,-0.2305778902097985,-0.1480536096596531,-0.7529959112327484,1.6035407938694892,0.8885680027485077,0.1347018348454992,-1.3280231164344902,9.16600123173248,-0.7646506284435186,0.17051486898789,-1.1476089598541377
0.62,0.1294579208416924,0.1256534946361427,2.1953711053122222,0.0101236112776429,0.2044380336349568,0.0374197550367615,-0.2225212654426572,-0.1511817588916411,-0.7112831080757399,0.1258022904614359,0.1238998046849742,2.1886640680181118,-0.2305778902097985,-0.1480536096596531,-0.7529959112327484,1.1804184407224134,1.177827381173592,-0.0304079632722775,-0.0720118818315684,9.16600123173248,-0.7515447294495021,0.1687882471049673,-1.1615045242151396
0.64,0.1252783051359388,0.1226502875138714,2.18111456926506,0.0068785703887438,0.2103217628564898,0.0369370242894516,-0.1966118286865147,-0.1489211628603277,-0.7145465490986486,0.1258022904614359,0.1238998046849742,2.1886640680181118,-0.2305778902097985,-0.1480536096596531,-0.7529959112327484,1.3105907587299543,1.2954718378071273,0.1130298015656672,-0.1631720511454326,10.668267763576296,-0.7399775575197763,0.1726270592789211,-1.1683559033565858
0.66,0.1216346060197794,0.1197123892595346,2.166757394203861,0.0036307128298265,0.2150439167656286,0.0364319799485529,-0.1690447371392919,-0.1449410572165316,-0.7211545819130638,0.1234965115593379,0.1224192685883776,2.181134108905784,-0.2239236336275384,-0.1470108043269626,-0.7669386118572143,1.4313034924371602,1.3783545773611363,0.1990052821898041,-0.3304016407207621,10.48307853433107,-0.7296504639263983,0.1763974926008571,-1.1744342384339723
0.68,0.1185554410970458,0.116866380971929,2.152237662387928,0.0007552487888641,0.2179733186795271,0.0359392190484905,-0.1404082292960119,-0.1399207965187796,-0.7304833469132976,0.1188849537551419,0.1194581963951846,2.1660741906811287,-0.2106151204630181,-0.1449251936615817,-0.7948240131061463,1.526661762933445,1.4318253921640032,0.2510130348875997,-0.4664382500116915,10.192223873932562,-0.7208943187405006,0.1793732456046441,-1.1799729598460984
0.7000000000000001,0.1161664295513034,0.1142624789458893,2.1382532752780827,-0.0015210458491431,0.2188261332800482,0.0355017495286571,-0.1126447850484054,-0.1345166994012484,-0.7410856587539707,0.1142733959509459,0.1164971242019915,2.151014272456474,-0.1973066072984979,-0.1428395829962007,-0.8227094143550782,1.5103162901463196,1.3881722123803215,0.2702048558765629,-0.5301155920336531,10.192223873932562,-0.713760753164197,0.1818247841285394,-1.1848432638068895
0.72,0.1142236918075479,0.1116362879402096,2.1233010595974706,-0.0034296017599874,0.2174235802566334,0.0350853759908481,-0.0831665842139221,-0.1284509768699356,-0.7536315950578083,0.110327263804976,0.1136403325420675,2.1345600841693724,-0.1839980941339776,-0.1407539723308198,-0.8505948156040101,1.630305057347365,1.4739100417241648,0.3032861265656411,-0.6272968151918801,10.10523812084284,-0.7093924149382802,0.183662395802245,-1.1882391772630128
0.74,0.1128770627283358,0.1091372645941789,2.1080963053262285,-0.0047787134487718,0.2131403558246447,0.0347288617981497,-0.0532993336797921,-0.1218422209978427,-0.7661702463651783,0.106381131659006,0.1107835408821435,2.118105895882271,-0.1706895809694573,-0.1386683616654388,-0.878480216852942,1.6529867552805926,1.4933625267065032,0.3304377936046411,-0.6269325653684987,10.034041324925964,-0.7080350493307902,0.1846851158499061,-1.1901977048132442
0.76,0.1121371119750931,0.10689073693408,2.0934247614563204,-0.0053663663011893,0.2063936589170596,0.034461776012899,-0.0265663986777257,-0.1150722615669223,-0.7775111956686532,0.1027677123421491,0.107978889488854,2.100954572563946,-0.1573810678049371,-0.1365827510000579,-0.9063656181018738,1.4908884059722596,1.3366467501033186,0.3384979715460187,-0.5670474651737478,10.045972580634045,-0.7104216155131314,0.1851039545423198,-1.1899079342313694
0.78,0.1118774117648992,0.1046669841872172,2.077752094365943,-0.0050543559542331,0.1972131663217907,0.0342616098855193,-0.0012463966377965,-0.1077520852019993,-0.7891006512446533,0.0994870058544051,0.105226378362199,2.083106114214398,-0.1440725546404168,-0.1344971403346769,-0.9342510193508056,1.4396205801040751,1.2660001019964604,0.3660088182461538,-0.5794727788000054,10.064619897752891,-0.7159238693004139,0.1845185388919238,-1.1877714083683035
0.8,0.1120930355609787,0.10258985361376,2.061850666454595,-0.0036131026172109,0.1865803532558561,0.034139561831762,0.0211247957087373,-0.1004558082721799,-0.8004094745837539,0.1118150919330094,0.0992793799271172,2.03829706180371,-0.0441298635669938,-0.0988456518432108,-0.7885426153890062,1.305369094698137,1.118559617326692,0.3648138464909668,-0.5654411669550274,10.058451544924536,-0.723422075215054,0.1828108170065721,-1.1843834687959958
0.8200000000000001,0.1128537156075084,0.1007298548936966,2.046845314408668,-0.0018891886593526,0.1720126412351396,0.034039566394851,0.056253826677889,-0.0955828535755982,-0.7783188913802868,0.1118150919330094,0.0992793799271172,2.03829706180371,-0.0441298635669938,-0.0988456518432108,-0.7885426153890062,2.089131620180895,1.7564515484575849,0.2436477348290881,1.1045291601733565,10.04812021413818,-0.7443935996167644,0.1784439656947602,-1.1737645694711685
0.84,0.1142879471774966,0.0988713618261222,2.0315193747067988,-0.0001565078439449,0.1503578095064205,0.0339049354400139,0.0839955828594646,-0.0906083077646624,-0.755546829896305,0.1118150919330094,0.0992793799271172,2.03829706180371,-0.0441298635669938,-0.0988456518432108,-0.7885426153890062,1.811710466860899,1.38708780907878,0.24872729054679,1.1386030741990905,12.316774626137883,-0.7626479078564029,0.1779726059795368,-1.1616005762524306
0.86,0.1161727996012023,0.0971045012406229,2.016619667539342,0.001632646714124,0.1249830983819265,0.0337278493323698,0.1019653069652927,-0.0864545788604804,-0.7355952167379038,0.1113737932973394,0.0982909234086851,2.0304116356498203,-0.0527065569528332,-0.0970643651714531,-0.7884310082178767,1.3585206254152924,0.8984862052914079,0.2076864452091008,0.9975806579200552,12.005787461773252,-0.7873295595676882,0.1772660916721477,-1.144378780365196
0.88,0.1183144348717385,0.0954102490885375,2.0020872136041583,0.0033397209459817,0.0979523499876766,0.0334905480130088,0.1103047647345619,-0.0832342219581868,-0.7185449058510814,0.1104911960259995,0.0963140103718209,2.01464078334204,-0.0698599437245122,-0.0935017918279377,-0.7882077938756179,0.9625881203828408,0.4169728884634571,0.1610178451146797,0.8525155443411203,11.508578041742112,-0.8136826873523757,0.1764175558497012,-1.1251940076836238
0.9,0.1204149777804051,0.0938522712080919,1.988573586963139,0.0047930574924923,0.0723658060344793,0.0332082255042388,0.1097109833572592,-0.0809423006629182,-0.7047523688059697,0.1096085987546597,0.0943370973349567,1.99886993103426,-0.0870133304961911,-0.0899392184844223,-0.787984579533359,0.6997134372164738,-0.0296890688651331,0.1145960647634301,0.6896268522555871,11.508578041742112,-0.8423493520692021,0.1754115906559454,-1.1032951856044693
0.92,0.1225299409784854,0.0922511831473309,1.974610839790928,0.0060383629955197,0.0468757192626296,0.0328585197293526,0.1011424471878049,-0.0793169133537366,-0.6923380822598169,0.1078683321447358,0.0925383129652683,1.9831102394435929,-0.10416671726787,-0.0863766451409069,-0.7877613651911001,0.758577956511536,-0.428426808472717,0.0812693654590773,0.6207143273076421,11.19206985094752,-0.8703215891538084,0.174450401724008,-1.0807158387520974
0.94,0.1243956460991833,0.0906743126677336,1.9608857482163893,0.0068220123670106,0.0239464512199494,0.0324650583921816,0.0853751563531515,-0.0784506568628786,-0.6808142263890739,0.106128065534812,0.0907395285955798,1.9673505478529252,-0.121320104039549,-0.0828140717973915,-0.7875381508488413,0.9774419608116842,-0.7883645417326689,0.043312824542898,0.5761927935371502,11.19206985094752,-0.8965313050143066,0.1735656471662577,-1.0585194617204714
0.96,0.1258767336248219,0.0891085256791589,1.947383470044469,0.0069758055722248,0.0045373083741172,0.0320420903630727,0.0633773384800307,-0.0781117572764187,-0.6699779469366156,0.1039589642555962,0.0890298085594792,1.9515964366208147,-0.1384734908112279,-0.0792514984538761,-0.7873149365065824,1.2262175545967215,-1.0998908936560414,0.0169449793229962,0.5418139726229121,11.164402614297614,-0.918453529397275,0.173191359210565,-1.0388566217807422
0.98,0.1268293850467918,0.0876243687626718,1.9347507586870871,0.0064344250368728,-0.0101084142196152,0.0316252126375897,0.0380398974904773,-0.0780520205483706,-0.6602998181580799,0.1013610283070885,0.0874091528569666,1.9358479057472608,-0.1556268775829068,-0.0756889251103607,-0.7870917221643235,1.3561486469315382,-1.2668720494776675,0.0029868364024049,0.4839064389267844,11.150794299182053,-0.9379618872766158,0.1734834965514796,-1.02017993978618
1.0,0.1272785790416024,0.0860637614588926,1.9216467399937556,0.0050714951367601,-0.0213090090019827,0.0311769110982744,0.00816079870169,-0.0779297229802835,-0.6506098877302302,0.1287313799213157,0.0837217677352532,1.901735767779183,-0.0276949434390308,-0.0838952948437007,-0.6359487372785109,1.5705653861124629,-1.4939549394393628,0.006114878404357,0.4844965213924856,11.134556802669977,-0.9532403644200618,0.1744805597452077,-1.0046587914792884
1.02,0.1270682033763021,0.0845651028328583,1.9088599510671376,0.0047292913658489,-0.0270442233763565,0.0308467710666551,-0.0277928511203095,-0.0723248209792358,-0.6278607886157872,0.1287313799213157,0.0837217677352532,1.901735767779183,-0.0276949434390308,-0.0838952948437007,-0.6359487372785109,2.145694160687328,-1.797682491099984,0.2802451000523863,1.1374549557221505,12.145715972589642,-0.9654360102642624,0.1738294388492098,-0.9922664187891416
1.04,0.1261357588870769,0.08316503914652,1.896542160133051,0.0066027892344353,-0.0263923706672817,0.0307061133603134,-0.0628759749260491,-0.0681657694606138,-0.6049902315054153,0.1287313799213157,0.0837217677352532,1.901735767779183,-0.0276949434390308,-0.0838952948437007,-0.6359487372785109,2.104272836422468,-1.7541561902869776,0.207952575931096,1.1435278555185946,12.145715972589642,-0.9733015099269418,0.1740438271481962,-0.9793004937231278
1.06,0.1246303856146423,0.0818959925863372,1.8852529113068883,0.0096478933415062,-0.0214080593675286,0.0306991317460447,-0.0932530022506816,-0.0660030519497577,-0.5843946167155687,0.1284544304869254,0.0828828147868162,1.895376280406398,-0.0408419116249324,-0.0850639497027667,-0.6310785211025971,1.8382195765774172,-1.5188513662316263,0.1081358755428057,1.0297807394923308,11.829284502940936,-0.976099253271082,0.1729364782725144,-0.971966047700509
1.08,0.1224626467409357,0.0805788865444388,1.8737847185803789,0.0131014662394366,-0.0130569563964233,0.0307633675115006,-0.1213956057485287,-0.0658846931638844,-0.5634929097474525,0.1279005316181447,0.0812049088899422,1.882657305660828,-0.0671358479967357,-0.0874012594208987,-0.6213380887507695,1.7527845664971409,-1.4071301748923557,0.0059179392936675,1.045085348405811,11.829284502940936,-0.975236473133052,0.1714608226400135,-0.9689447084693628
1.1,0.1197737624626508,0.0792505902903112,1.862723861230924,0.0162482204751472,-0.0027920546546113,0.0308643231066276,-0.1456132295683352,-0.0669289662658776,-0.5436489856135167,0.1273466327493641,0.0795270029930682,1.8699383309152573,-0.093429784368539,-0.0897385691390307,-0.6115976563989418,1.5663373956643245,-1.2108811909903203,-0.0522136550996608,0.9921962066967882,11.717142378360222,-0.9715877004404376,0.1701001581037948,-0.9693528431352793
1.12,0.1166424090342312,0.077893220694819,1.852047034579364,0.0188807684651213,0.0083552963486816,0.03097739546406,-0.1659002415861661,-0.0686541113293376,-0.5249863252259999,0.1254780370619933,0.0777322316102876,1.8577063777872789,-0.1197237207403423,-0.0920758788571627,-0.6018572240471142,1.380972370144845,-1.0143506008915475,-0.0862572531729999,0.9331330193758424,11.606213027704143,-0.9664546419850024,0.1690265669893441,-0.9719437242083668
1.14,0.113328411744064,0.076567690112034,1.8422443443856689,0.0208793723008045,0.0189680458621287,0.0310774405713663,-0.1816564657819773,-0.0706814991710362,-0.5077958360879811,0.1236094413746225,0.075937460227507,1.8454744246593,-0.1460176571121456,-0.0944131885752948,-0.5921167916952865,1.1703437733991606,-0.7878112097905579,-0.1013693920849281,0.8595244569009397,11.507570138820483,-0.9604291675438534,0.1682346902615726,-0.9755729160172804
1.16,0.1095488346848335,0.0751280826695422,1.8322732400983064,0.0224632955600622,0.0296009332678305,0.0311578143745299,-0.1951932081708011,-0.0731181599751226,-0.4902458167155132,0.1210834972779567,0.0740842561017731,1.8334859823401168,-0.1723115934839489,-0.0967504982934268,-0.582376359343459,1.114881036646453,-0.676837119441194,-0.1218330402043242,0.8775009686233903,11.455252627754817,-0.9540869397124816,0.1677903278035659,-0.9797763983706878
1.18,0.1055281773575567,0.0736354473172307,1.8226444841725815,0.0234201358867121,0.0393482889847832,0.0311908366079531,-0.2059779727113652,-0.0759786669967162,-0.4735502013357233,0.1179002047719957,0.0721726192330858,1.8217410508297291,-0.1986055298557522,-0.0990878080115588,-0.5726359269916313,1.0040383701904414,-0.539238227028202,-0.1430253510796765,0.8347807689894959,11.41229251679124,-0.9478825064322302,0.1678131229093472,-0.9839830446383232
1.2,0.1013179990962606,0.0720814026734665,1.8133395423037508,0.0235437968925278,0.0479584994071169,0.0311478912818479,-0.2143778336356325,-0.0791739089042537,-0.4577844305203825,0.0952292787219884,0.0698365139673949,1.7989669741057956,-0.1700783559334683,-0.0780788345599013,-0.4431465276868891,0.9073681223689892,-0.4199930462133641,-0.1597620953768752,0.7882885407670431,11.356302465900626,-0.942584902741463,0.1684524197093791,-0.9874462606792532
1.22,0.0971186962861422,0.070531909071317,1.8048331710106529,0.0224287879145661,0.057077870387753,0.0310428913486218,-0.226508813310668,-0.0834962710520953,-0.4383495264100826,0.0952292787219884,0.0698365139673949,1.7989669741057956,-0.1700783559334683,-0.0780788345599013,-0.4431465276868891,1.1657175689138537,-0.606548983751777,-0.2161181073920833,0.9717452055149928,11.672417399082406,-0.9363806635932904,0.1698829560570523,-0.9920322192251704
1.24,0.0924957969654964,0.0688231265168906,1.7962690227214408,0.0197742062969349,0.0688224622833904,0.0308615010028827,-0.2345917563135717,-0.0868336777785023,-0.4191743806241428,0.0952292787219884,0.0698365139673949,1.7989669741057956,-0.1700783559334683,-0.0780788345599013,-0.4431465276868891,1.0537533714746798,-0.4041471501451857,-0.1668703363203461,0.9587572892969908,11.672417399082406,-0.9290152360175564,0.1736358674041573,-0.9960858109487652
1.26,0.0877573879156774,0.0670755465322441,1.7880768130266107,0.0163859112606082,0.0813970682935083,0.0306135245458727,-0.2384008159813982,-0.0875541018789963,-0.401048008280651,0.0935284951626537,0.0690557256217958,1.7945355088289268,-0.1628984325778889,-0.0784988680725383,-0.4370657929571223,0.926813520580782,-0.190452983391326,-0.0360212050247006,0.9063186171745868,11.454371776185326,-0.9206497499755628,0.1779038350689654,-1.0010213566709996
1.28,0.0829818897084949,0.0653346557323186,1.7802368250066627,0.0131074968149683,0.094037951647469,0.0303383331103259,-0.2385613396893819,-0.0864792107663723,-0.383874843356357,0.0901269280439844,0.0674941489305978,1.785672578275189,-0.1485385858667302,-0.0793389350978123,-0.4249043234975885,0.860376011232627,-0.0080261853991847,0.0537445556311966,0.8586582462147024,11.454371776185326,-0.9106163429064285,0.1822099886168083,-1.00748817308371
1.3,0.0784731995038472,0.0637127593687487,1.7730996245124389,0.0103922429724949,0.1057391637714444,0.0300715273167225,-0.2357172841761388,-0.08435560391015,-0.3682942642170685,0.086725360925315,0.0659325722393998,1.7768096477214512,-0.1341787391555714,-0.0801790021230864,-0.4127428540380549,0.7989881165540474,0.1422027756621549,0.1061803428111185,0.7790289569644226,11.365017170116516,-0.8998537507149031,0.1860652039699855,-1.0146996153303516
1.32,0.0738157355082668,0.0620570318241193,1.765901232499986,0.0080461228480422,0.1175355365607641,0.0297976945165202,-0.2298488021853325,-0.0813703992124816,-0.3524111714423964,0.0840417861422036,0.0643289921969381,1.7685547906406902,-0.1198188924444127,-0.0810190691483604,-0.4005813845785212,0.8596847736994103,0.2934240995403181,0.1492602348834186,0.7941546387336074,11.365017170116516,-0.8888329725024827,0.1894607396189087,-1.022078280936537
1.34,0.0693044165186206,0.0604678094102861,1.7590156758817228,0.0062535788861689,0.1287054208304435,0.0295415335510392,-0.2212756635025973,-0.0777614685762029,-0.3369823930071539,0.0813582113590921,0.0627254121544763,1.760299933559929,-0.1054590457332539,-0.0818591361736344,-0.3884199151189875,0.9007917228953186,0.4286569341367591,0.1804465318139353,0.771438921762127,11.34873458031234,-0.8777059585107275,0.192393090699803,-1.0294490654933206
1.36,0.0649911072983965,0.0589578980542068,1.7524347343901292,0.0050963266814494,0.1392168390025112,0.0293176308808102,-0.2102042670433255,-0.073483522167204,-0.3219223471049302,0.0790336327437597,0.0611008304363828,1.7523491132156563,-0.0910991990220952,-0.0826992031989085,-0.3762584456594538,0.958751307187801,0.5535698229635885,0.2138973204499433,0.7530022951111853,11.339874304218938,-0.8672110720059815,0.1947429330255816,-1.036207992672605
1.38,0.0611207158919296,0.0576088508483002,1.7464588995606796,0.0047560109655884,0.1485944974570914,0.02915497216308,-0.1975316526134843,-0.0688233808104494,-0.3079012902091206,0.0770680502962062,0.0594552470426573,1.744702329607872,-0.0767393523109364,-0.0835392702241825,-0.3640969761999201,0.9732704023393002,0.6336307214920595,0.2330070678377302,0.7010528447904757,11.337772583360676,-0.8562017371491879,0.1964811689779768,-1.0432842013833723
1.4,0.0573348415457502,0.056287651520228,1.7404543585162042,0.0053747713386668,0.1576582319739103,0.0290567747140003,-0.1815031384001502,-0.0636183049659954,-0.2933241334111972,0.0512441332612554,0.0541676818077777,1.7310638350502234,-0.1536731915315027,-0.0727816279467741,-0.3077480720022875,1.1141135296108955,0.8014257106667046,0.2602537922227033,0.7288578398961743,11.339657584036104,-0.8458108044403497,0.1973274177275224,-1.0497954756058148
1.42,0.0539144413216305,0.0550778195067406,1.7346509821993852,0.0073060093863497,0.1645342953427176,0.0290543913647131,-0.1614199888278649,-0.0577883881238161,-0.2882370871179421,0.0512441332612554,0.0541676818077777,1.7310638350502234,-0.1536731915315027,-0.0727816279467741,-0.3077480720022875,1.0761027682326982,1.0041574786142675,0.291495842108962,0.2543523146627535,11.350108395798088,-0.83512634524455,0.1971684485974271,-1.0564332992209982
1.44,0.0509064928118308,0.0539722875760763,1.7289288249020272,0.0105191872973139,0.1681735275621823,0.0291354899709727,-0.1406220214435172,-0.0535256058778725,-0.2841983467537073,0.0512441332612554,0.0541676818077777,1.7310638350502234,-0.1536731915315027,-0.0727816279467741,-0.3077480720022875,1.0805533114178365,1.039898369217383,0.213139112297182,0.2019370182117369,10.74474847090096,-0.826625887248583,0.1942706411822809,-1.0636362115918927
1.46,0.0484353805767591,0.0529780959100245,1.7235714774790976,0.0138608050708001,0.1690921606411143,0.0292152621108626,-0.120695961665675,-0.0514362027129541,-0.2799379767363493,0.0497074013459404,0.05343986552831,1.7279863543302003,-0.1449014993151064,-0.073573277374039,-0.3077174283609209,1.0241633372423018,0.99630298889211,0.1044701582459207,0.2130185008679036,10.76081310518839,-0.8213339515856517,0.1909698790422234,-1.0681964620331634
1.48,0.0462409931772464,0.0519605465789507,1.7180246480745298,0.0171955951967127,0.1676569432603984,0.0292525527395828,-0.0999039800386291,-0.0504741387253806,-0.2749383928046673,0.0466339375153103,0.0519842329693745,1.7218313928901547,-0.1273581148823137,-0.0751565762285688,-0.3076561410781877,1.0703129292238935,1.0395990813522955,0.0481031993786702,0.2499791965840964,10.799152274094922,-0.8191106522071179,0.187892018635315,-1.070238043689513
1.5,0.0444591626659063,0.0509518448982068,1.7125836748217915,0.0201444051045524,0.1638260731915689,0.0292128762597843,-0.0795211820699373,-0.0504207863888505,-0.2693884926958611,0.0435604736846803,0.050528600410439,1.715676431450109,-0.109814730449521,-0.0767398750830987,-0.3075948537954544,1.0562465274760051,1.0191398984345907,0.0026676168265096,0.2774950054403119,10.835129220716226,-0.8198989997856511,0.1855768153142588,-1.0693842915544582
1.52,0.0430672831078972,0.0499366088245013,1.7072593993595182,0.0226551717104113,0.1578827673214977,0.0290861033719273,-0.0611208552307977,-0.0510675222836452,-0.2632768147300141,0.0413641790756899,0.048993802908777,1.7095245343741998,-0.0922713460167284,-0.0783231739376286,-0.3075335665127212,0.9699779670989918,0.9200163419569796,-0.0323367947397356,0.3055838982923525,10.863070263253576,-0.8218321275278124,0.1837732030771738,-1.0676759216739795
1.54,0.0420566708767212,0.0489545701647259,1.702315941796241,0.0246364426708277,0.1511639680359018,0.0288991494784127,-0.0464416327906625,-0.0522187279417154,-0.2573587916628275,0.0391678844666994,0.0474590054071151,1.7033726372982907,-0.0747279615839357,-0.0799064727921584,-0.3074722792299879,0.7934542251098877,0.7339611220067578,-0.0575602829035112,0.2959011533593292,10.885311714492673,-0.8271084447584311,0.1827667014137396,-1.0625411705822518
1.56,0.0412664016800726,0.0478928143581099,1.697234301114117,0.026316934541329,0.143760101163292,0.028653208220763,-0.0336104235471261,-0.0538649960759939,-0.2510945886618728,0.0374101744685288,0.0458846254340898,1.69722227240445,-0.057184577151143,-0.0814897716466883,-0.3074109919472547,0.7186625923521499,0.6415604621768202,-0.0823134067139273,0.3132101500477352,10.87636865271088,-0.8339732660628553,0.1821680318155375,-1.0559559944365866
1.58,0.0407066889782273,0.0467926739745965,1.692277059836236,0.0275407768758139,0.1365750080592107,0.0283722629246749,-0.023197782968069,-0.0560557943947905,-0.244929474345598,0.036091049081178,0.0442706629897014,1.6910734396926774,-0.0396411927183504,-0.0830730705012181,-0.3073497046645214,0.6148807112664331,0.5206320289528589,-0.1095399159398262,0.3082557158137378,10.843122192585724,-0.8412219334822327,0.1821582207372279,-1.0486888965328662
1.6,0.0403318982080067,0.0456425910797601,1.6874410691445114,0.0281348835144905,0.1300294997958201,0.0280620988171839,-0.0149160847305105,-0.058775163328681,-0.238951515965983,0.0395467998298238,0.043989884254857,1.6800305861189562,-0.0249498511402779,-0.0581099979292893,-0.2274352894492481,0.5284824488216134,0.4140849118779203,-0.1359684466945242,0.2988979189807492,10.821503752595165,-0.847861526238196,0.1826979597183076,-1.0418068790532589
1.62,0.0401923352640848,0.0444726043388464,1.6830332566470587,0.0272166366063135,0.1223985781810147,0.0276311690771159,-0.0009617502757789,-0.0638612152059399,-0.2252505128524106,0.0395467998298238,0.043989884254857,1.6800305861189562,-0.0249498511402779,-0.0581099979292893,-0.2274352894492481,1.0103326928428096,0.697716722736582,-0.254302593862948,0.6850501556786209,10.821503752595165,-0.8623840085075637,0.1837547463655887,-1.0287646853156496
1.64,0.0402830148320501,0.0431494405999825,1.678679199583818,0.0242942589758438,0.1117625259175007,0.0270023215394062,0.0087013360504,-0.0678427173562806,-0.21088102519663,0.0395467998298238,0.043989884254857,1.6800305861189562,-0.0249498511402779,-0.0581099979292893,-0.2274352894492481,0.8884111832507299,0.4831543163089505,-0.1990751075170327,0.7184743827890278,11.345709737277502,-0.8742109098792299,0.1891485318559397,-1.0145571365400785
1.66,0.0405109362326696,0.0417781501780964,1.674604627010532,0.0204649581840177,0.1001830173693251,0.0263450240816742,0.0131677571580399,-0.068881832209881,-0.1972979362592999,0.039297301318421,0.0434087842755641,1.6777562332244638,-0.0253002647747197,-0.058520838636189,-0.2239364524699781,0.7168141011956363,0.2233210553819929,-0.051955742680023,0.6791544468665047,11.272537809271851,-0.8879356233700205,0.1957103713221311,-0.9976170052175284
1.68,0.0407769052477144,0.0404087631229955,1.670791363600668,0.0168062618211006,0.0889852565900859,0.0257713655903843,0.0129645226364048,-0.0680272331991582,-0.1846664528224605,0.0387983042956155,0.0422465843169783,1.6732075274354787,-0.0260010920436033,-0.0593425200499886,-0.2169387785114381,0.6330995529043243,-0.0101617260817524,0.0427299505361418,0.6315741718419726,11.19382024829156,-0.900978532495877,0.2013958157586506,-0.9815570853561444
1.7,0.0409879804436999,0.0391350585012926,1.6673945052763348,0.0138373480092883,0.0795590440880395,0.0253342664743799,0.009178286478233,-0.0661828845853881,-0.1735031758951503,0.0382993072728099,0.0410843843583925,1.6686588216464937,-0.0267019193124869,-0.0601642014637881,-0.2099411045528982,0.5965650798747346,-0.1893118079085924,0.092217430688507,0.5581638463655086,11.121755228678012,-0.9138617889638913,0.2064735701427368,-0.965587508025847
1.72,0.041102502884845,0.037838460078625,1.664041240467516,0.011319722785946,0.071477422327397,0.0249848994582461,0.0023419052577902,-0.0636417044900345,-0.1624268865746556,0.0377652688865602,0.0398811003291167,1.6644599995554357,-0.0274027465813705,-0.0609858828775876,-0.2029434305943582,0.6630948076624272,-0.3418190610221397,0.1270590047676795,0.5538144660247337,11.00817430823554,-0.9250713700769392,0.2106236686045509,-0.9514080714192544
1.74,0.0410515648237863,0.0365975125782725,1.6609044964083162,0.0094121332037887,0.0658187680328777,0.0247376876064187,-0.0072481822200138,-0.0606663815907516,-0.1518085183009548,0.0372312305003105,0.038677816299841,1.6602611774643778,-0.0281035738502541,-0.0618075642913871,-0.1959457566358182,0.7307052568971788,-0.4795043738902039,0.1487661449641415,0.5309184136850442,10.986494023921296,-0.933264226134166,0.2138743144145963,-0.9404623478016872
1.76,0.0408005074122577,0.0354779805237549,1.6581166602187027,0.0081775021581059,0.0634593354539029,0.0245919482988381,-0.018531644000764,-0.0574003850202456,-0.1421562023232079,0.0366796714323386,0.0374539902352202,1.6562372972222834,-0.0288044011191376,-0.0626292457051867,-0.1889480826772783,0.7601816346940945,-0.5641730890375094,0.1632998285253001,0.4826157988873425,10.95851154927186,-0.9397487840177264,0.2164026614426582,-0.9315226233799516
1.78,0.0403104401843764,0.0343709306413318,1.65537814282724,0.007581628377127,0.0641350354949651,0.0245277919308055,-0.0295604773681906,-0.0535097887798371,-0.1321926272010119,0.0361105916826447,0.0362096221352545,1.6523883588291524,-0.0295052283880212,-0.0634509271189862,-0.1819504087187383,0.7681873693442047,-0.5514416683713323,0.194529812020425,0.4981787561098016,10.95851154927186,-0.9438858963962844,0.2180221001118283,-0.9254417214578392
