t,x,y,z,roll,pitch,yaw,v_x,v_y,v_z,ref_x,ref_y,ref_z,ref_v_x,ref_v_y,ref_v_z,a_com,a_x,a_y,a_z,thrust,wind_x,wind_y,wind_z
0.0,-1.10047755172877,1.4919356414386968,2.2338273147522734,0.0237754931883386,0.1001336306641793,0.042751020603118,0.0038447845746547,0.005180379707347,0.0203224618762125,-1.1003555645040757,1.4919976857969623,2.2344404909905777,0.0142860647983658,-0.097103535366578,-0.0795909361164739,1.066092349479992,0.1922392287327371,0.2590189853673513,1.0161230938106267,10.233164382261748,-0.9462714820876712,0.2652352392728724,-0.864275281937342
0.02,-1.1004713082468285,1.4922657046729038,2.2340262558378785,0.0324784906568108,0.1014146395895915,0.0433920564021919,-0.002951588870375,0.0239323046522191,-0.0016553744861472,-1.1003555645040757,1.4919976857969623,2.2344404909905777,0.0142860647983658,-0.097103535366578,-0.0795909361164739,1.4839564281954918,-0.3398186722514881,0.9375962472436068,-1.0988918181179907,8.899655967278704,-0.938041430408162,0.264154391234515,-0.8664527727233866
0.04,-1.100595559728509,1.4927727663835586,2.233688138795844,0.0469991757367973,0.1050909402145989,0.044530753280674,-0.008674534150003,0.0251583511990085,-0.0310223105556921,-1.1003555645040757,1.4919976857969623,2.2344404909905777,0.0142860647983658,-0.097103535366578,-0.0795909361164739,1.497224287574551,-0.2861472639814026,0.0613023273394689,-1.468346803477245,8.666229827379084,-0.9247103740103813,0.2450907259043835,-0.8925478524709892
0.06,-1.1007923251745824,1.4932113822842157,2.232820074486203,0.0611219712174302,0.1101065989526856,0.0457469019054791,-0.0114727930772694,0.0206632196044524,-0.0589509327382361,-1.1002127038560918,1.4910266504432963,2.233644581629413,0.0163418332807528,-0.1171035356646012,-0.0995909364144971,1.4213060878041814,-0.1399129463633202,-0.2247565797278026,-1.3964311091272,8.666229827379084,-0.9104492167210242,0.2226400918900972,-0.9215399184714635
0.08,-1.1010287881591112,1.4935458316997647,2.2313342513740464,0.0754515245071991,0.1161394980825826,0.0470932486323709,-0.0117717333569136,0.0127030426208144,-0.0882125474576927,-1.0999269825601243,1.489084579735965,2.232052762907083,0.020453370245527,-0.1571035362606477,-0.1395909370105436,1.5163244036910035,-0.0149470139822098,-0.3980088491819002,-1.4630807359728284,8.760508973599372,-0.8956486348500569,0.2008710318326577,-0.9490060462006344
0.1,-1.1012439251280417,1.4936916960752762,2.229267894492988,0.0891025008421561,0.1222524366310277,0.0484574701116631,-0.0095321054338999,0.0019858505197974,-0.1169987443623098,-1.099641261264157,1.4871425090286334,2.230460944184754,0.0245649072103011,-0.1971035368566941,-0.1795909376065901,1.539902003371508,0.1119813961506861,-0.5358596050508536,-1.439309845230856,8.760508973599372,-0.8807998599187501,0.179689739318782,-0.9748451495475408
0.12,-1.1013894868109864,1.4935957670773692,2.2266320878568115,0.1020746983196647,0.1278985411188646,0.0497820613912713,-0.0050394870811744,-0.0113231361360494,-0.1452425459875325,-1.099149963119951,1.4832004382914996,2.226869125432622,0.0286764441750752,-0.2371035374527406,-0.2195909382026365,1.5772009032726972,0.2246309176362768,-0.6654493327923429,-1.412190081261132,8.826164973839695,-0.8666267116238618,0.1596699855149824,-0.9985227962489824
0.14,-1.1014278139038347,1.4932353624142607,2.223600718224742,0.1137884691841384,0.1325212741599629,0.0509536304827929,0.0008186120005767,-0.0261826640239345,-0.1725216376060235,-1.098658664975745,1.4792583675543656,2.2232773066804903,0.0327879811398494,-0.2771035380487871,-0.259590938798683,1.5805629799477132,0.2929049540875563,-0.7429763943942551,-1.3639545809245537,8.892433743179936,-0.8517684353895885,0.1388273732856254,-1.0223822573804742
0.16,-1.1013341663046516,1.492528070024011,2.219843007971899,0.1254993937242043,0.1364200640035764,0.0520485076318743,0.0082793939753354,-0.0440203014778713,-0.2018934821431615,-1.0980645784074197,1.4743162968023305,2.218685487913457,0.0368995181046235,-0.3171035386448335,-0.2995909393947294,1.7582305232298,0.3730390987379387,-0.8918818726968418,-1.4685922268568965,8.907078291288144,-0.8387284218943953,0.1199188751745593,-1.0421257736947471
0.18,-1.1010785150002254,1.491440603699815,2.2154975766254785,0.1365977930877177,0.1391907762424158,0.0529556805126916,0.0168656430070556,-0.0640795306439333,-0.2312618225389688,-1.097367703414975,1.4683742260353942,2.2130936691315237,0.0410110550693976,-0.3571035392408799,-0.3395909399907758,1.8293412508163416,0.4293124515860092,-1.0029614583030988,-1.468417019790369,8.912789717181113,-0.8272582335495996,0.1019109777415305,-1.0598512970323148
0.2,-1.1006692740442394,1.4900153994947312,2.2108269356942607,0.1465961744887618,0.1407693746790372,0.053615808813567,0.0257173884948755,-0.0851428841927684,-0.2589823124130688,-1.1002352328498726,1.4882366271676182,2.20393448549853,0.0332853647743619,-0.1640795321340494,-0.331261824029085,1.7961373971417387,0.4425872743909964,-1.053167677441754,-1.386024493704996,8.953069903392134,-0.8164289728819232,0.0835722378263671,-1.076650394109587
0.22,-1.10001780690269,1.4879215747761383,2.2054603761578786,0.1526590240360872,0.141091548090473,0.0537632962440134,0.0389576780773252,-0.1213780569509077,-0.275221337284912,-1.1002352328498726,1.4882366271676182,2.20393448549853,0.0332853647743619,-0.1640795321340494,-0.331261824029085,2.0928443216276684,0.6620144791224831,-1.8117586379069652,-0.8119512435921628,8.999441047395521,-0.8118890112367921,0.0671961240767675,-1.0904746555999945
0.24,-1.0991010009504223,1.485164342816214,2.1997934363194447,0.1539800242473924,0.1397421551882705,0.0532804633039046,0.0519380083590551,-0.1521580912113105,-0.2907805539566629,-1.1002352328498726,1.4882366271676182,2.20393448549853,0.0332853647743619,-0.1640795321340494,-0.331261824029085,1.8425449158248857,0.6490165140864923,-1.5390017130201397,-0.777960833587546,9.91182755097816,-0.8083797476494659,0.0613064708075156,-1.0973298552031665
0.26,-1.0979307783312773,1.481807439176294,2.193791893493627,0.1526641984143373,0.1366918152480919,0.0523165193915381,0.0642865781811978,-0.1816733555540803,-0.3085358076760116,-1.099902379202129,1.4865958318462775,2.2006218672582394,0.0365693091278232,-0.1840795324320726,-0.3512618243271082,1.8295402704739467,0.6174284911071356,-1.4757632171384885,-0.8877626859674304,9.81097775095077,-0.8074997297780091,0.0585280849203673,-1.1015270391040053
0.28,-1.0966008987705411,1.4780835533226733,2.187744757849695,0.1493814769517609,0.1322209769021484,0.0510014768909834,0.0748264231031885,-0.2083283394340896,-0.3270250076099609,-1.0992366719066418,1.483314241203597,2.193996630777657,0.0431371978347457,-0.2240795330281191,-0.3912618249231546,1.7054522939829804,0.5269922460995349,-1.3327491940004668,-0.9244599966974688,9.586683090329643,-0.8078019201316423,0.0578252008095671,-1.1049824806623074
0.3,-1.095011470327764,1.4736522316982317,2.180987729720244,0.1449897305429463,0.1263610760247938,0.0493804939274004,0.083276279827538,-0.2331998819796054,-0.3477474707685971,-1.0985709646111546,1.4800326505609156,2.187371394297076,0.0497050865416683,-0.2640795336241656,-0.4312618255192011,1.6728823827577273,0.4224928362174772,-1.243577127275787,-1.036123157931809,9.486127798317284,-0.8103490761526628,0.0585086970129895,-1.1064359743920864
0.32,-1.093280930837592,1.4687434895321738,2.173802733181744,0.1405997609179387,0.1201009941534602,0.0477126841813392,0.0891507036662065,-0.256353999644226,-0.3697647998476462,-1.097576862880321,1.4747510598884324,2.178746157786692,0.0562729752485908,-0.304079534220212,-0.4712618261152475,1.6243343252226072,0.2937211919334256,-1.1577058832310303,-1.1008664539524535,9.404505021237128,-0.8134059256587104,0.058873249569187,-1.1077181855469589
0.34,-1.0915497226293471,1.4636625354109345,2.166561626878113,0.1367362772524431,0.1143489825725714,0.0461889054215979,0.0926962100197484,-0.2773328367234808,-0.3913518251870838,-1.0965827611494878,1.4694694692159491,2.170120921276308,0.0628408639555134,-0.3440795348162585,-0.511261826711294,1.5154882740444116,0.177275317677094,-1.0489418539627398,-1.0793512669718812,9.404505021237128,-0.8168281784746124,0.0585851447543677,-1.1093674048660056
0.36,-1.0896718530750311,1.457884046606616,2.158489202697376,0.1328552549314973,0.1088791885921023,0.0446878009809859,0.0947755385831083,-0.299282631815064,-0.4147699716127146,-1.0954244622009814,1.4631878785285646,2.1604956847510226,0.0694087526624359,-0.3840795354123049,-0.5512618273073404,1.6082029519382646,0.1039664281679939,-1.0974897545791618,-1.170907321281539,9.365981061133423,-0.8205248755854073,0.058145930101733,-1.1108087631307249
0.38,-1.0877696997525697,1.4516701520720394,2.149942975894779,0.1289189625043923,0.1043395314113416,0.0433145193884749,0.0952039412165414,-0.320836617785092,-0.43868231185049,-1.094101966034802,1.455906287826279,2.1498704482108364,0.0759766413693584,-0.4240795360083513,-0.5912618279033869,1.6097809289307237,0.0214201316716546,-1.0776992985013971,-1.1956170118887692,9.304253457119556,-0.823310239114822,0.0578422073919343,-1.1129150826079837
0.4,-1.085876416840302,1.4450311126728717,2.140913015323038,0.124819247377099,0.1011818503652907,0.0421135454574792,0.0940376550399272,-0.341763547802058,-0.4630949411814764,-1.0830095026917426,1.4356283211827847,2.1280088603022547,0.1181772644574176,-0.4208366192752081,-0.5386823133406061,1.608782998288531,-0.0583143088307078,-1.0463465008483024,-1.2206314665493212,9.304253457119556,-0.8247229158469733,0.0575965210453126,-1.1160232133898618
0.42,-1.0841201645290812,1.438339373484351,2.132056568793294,0.1213864695583999,0.1007254869357788,0.0413205182121033,0.0911740763841135,-0.3618318007803817,-0.4669466957631566,-1.0830095026917426,1.4356283211827847,2.1280088603022547,0.1181772644574176,-0.4208366192752081,-0.5386823133406061,1.0317108045347825,-0.1431789327906878,-1.0034126489161823,-0.1925877290840122,9.280282827382509,-0.8251381008208062,0.0550424877046895,-1.1220423431264976
0.44,-1.0823178773020952,1.430892617771299,2.122659244723112,0.1187835860552352,0.1036113456930406,0.0409517682697937,0.0895886166450121,-0.3819123741991674,-0.4729467180457668,-1.0830095026917426,1.4356283211827847,2.1280088603022547,0.1181772644574176,-0.4208366192752081,-0.5386823133406061,1.0508846021369038,-0.0792729869550687,-1.0040286709392887,-0.3000011141305075,10.551488250309376,-0.8233355261159812,0.0572850744280782,-1.1231848403561655
0.46,-1.0805220116625178,1.4230430194228572,2.1130916522379777,0.1167838046078466,0.1086950899769285,0.0408655547021502,0.0904189860180706,-0.4020217754294947,-0.4834984235482246,-1.0818277300471684,1.4314199549900326,2.1226220371688487,0.1227719291055928,-0.4408366195732313,-0.5586823136386293,1.1362394335576893,0.0415184686529235,-1.005470061516364,-0.5275852751228882,10.256292469266556,-0.8186189797891168,0.0584274081679164,-1.1269939546115717
0.48,-1.0786832781733515,1.4147958035941102,2.103277990019488,0.1149460801113317,0.1148168488473669,0.0408886121198009,0.0936549713705174,-0.4216286559994861,-0.4973435749166467,-1.07946418475802,1.4230032226045286,2.111848390902036,0.1319612584019433,-0.4808366201692777,-0.5986823142346758,1.2109805771581117,0.161799267622343,-0.980344028499569,-0.6922575684211063,9.837606334127486,-0.8117622476026097,0.0590487626562883,-1.1328616504879894
0.5,-1.0768556226201165,1.4066040760156993,2.0936735026300206,0.1132562779651577,0.1208131415306841,0.0409129909173181,0.0987060934019799,-0.4396261894208881,-0.5129718080419486,-1.0771006394688716,1.4145864902190244,2.1010747446352243,0.1411505876982938,-0.5208366207653242,-0.6386823148307222,1.218263840112224,0.2525561015731224,-0.8998766710701017,-0.7814116562650963,9.837606334127486,-0.8039039223647036,0.0592919463066273,-1.1397900413088604
0.52,-1.074810543005278,1.397620237249853,2.0832207284423387,0.1115870286530609,0.1267682948326971,0.0408831467673697,0.1056559697872107,-0.4577848042857972,-0.5315974314228269,-1.0742776277149058,1.404169757803718,2.0883010983386097,0.1503399169946442,-0.5608366213613707,-0.6786823154267687,1.3462447046399155,0.3474938192615399,-0.9079307432454552,-0.9312811690439128,9.702545776854096,-0.7959004545610625,0.0590063978984572,-1.1472382143691455
0.54,-1.0726099449413242,1.3882777444390442,2.07238379651241,0.11005717031655,0.1319922300396383,0.0407598114632774,0.1141301844561992,-0.4755270828721632,-0.551206061296022,-1.07145461596094,1.3937530253884114,2.0755274520419955,0.1595292462909947,-0.6008366219574172,-0.7186823160228152,1.3884335860928674,0.4237107334494255,-0.8871139293182978,-0.9804314936597558,9.588022255589747,-0.7883281735820671,0.0582741199979345,-1.1546661289608493
0.56,-1.070224604729222,1.378574672229704,2.0611468694640727,0.1083473040128983,0.1361857715083912,0.0404906300756058,0.1239492140686243,-0.493676559149982,-0.5715007716771149,-1.0684018709745653,1.3823362929582037,2.06175380573048,0.1687185755873452,-0.6408366225534635,-0.7586823166188615,1.4471455534441144,0.4909514806212572,-0.9074738138909412,-1.0147355190546437,9.53403260208961,-0.7818245813599402,0.0575945715118113,-1.1613877864175004
0.58,-1.0677682266077884,1.3690223902313965,2.050089974646105,0.1063144347319763,0.1390714472752563,0.0400702980266172,0.1340590088922794,-0.5106936869686999,-0.5913576828555767,-1.0651193927557818,1.369919560513095,2.046980159404063,0.1779079048836957,-0.68083662314951,-0.798682317214908,1.4018626110681305,0.5054897411827513,-0.8508563909358918,-0.9928455589230888,9.53403260208961,-0.7758566861457781,0.0571713511695377,-1.1680286024497588
0.6,-1.064972047319206,1.3586255786221255,2.038035525262732,0.1037860494563306,0.1409517280342097,0.0394623082353051,0.1449673043388007,-0.5279173390176207,-0.6130718228343106,-1.0610652761631745,1.3434877058829613,2.0205220905033268,0.1622860494364316,-0.610693688458816,-0.6714615719632808,1.489252307759624,0.5454147723260694,-0.8611826024460423,-1.0857069989366974,9.510723132349083,-0.7709608188148692,0.0571438918612602,-1.1739945543543455
0.62,-1.0619092637384226,1.3478518832053543,2.0258209350661747,0.1005815306297963,0.1415222766543244,0.0386594599414062,0.1608731658351922,-0.548363041895087,-0.6057967132946345,-1.0610652761631745,1.3434877058829613,2.0205220905033268,0.1622860494364316,-0.610693688458816,-0.6714615719632808,1.3453163335348926,0.795293074819571,-1.0222851438733138,0.3637554769838069,9.46940949650616,-0.7707324609522213,0.0555917970952565,-1.1787711576215896
0.64,-1.0585280093787446,1.3366936181415412,2.0137658867084443,0.097057949325193,0.1406605950330229,0.0376850565403868,0.1763112455389738,-0.5663641522534842,-0.6002266746993995,-1.0610652761631745,1.3434877058829613,2.0205220905033268,0.1622860494364316,-0.610693688458816,-0.6714615719632808,1.217989746496165,0.7719039851890804,-0.9000555179198622,0.2785019297617486,11.004130491241996,-0.7699183573740265,0.0592807627230526,-1.178998088591609
0.66,-1.0550375880913432,1.3257725059364849,2.002367553641725,0.0938156121779924,0.1384753074804767,0.0366358268929254,0.1902205280218694,-0.5822534691340434,-0.5998499926988156,-1.0594424156688105,1.3373807689983732,2.013807474783694,0.1679314575452621,-0.6306936887568392,-0.6874823497848217,1.0560307990884692,0.695464124144779,-0.7944658440279584,0.0188341000291969,10.68988957216061,-0.7709421259119913,0.0621992227408586,-1.1787109040852424
0.68,-1.0510888101178528,1.3139636907761465,1.9903358805998947,0.0906033853557592,0.1345792266637153,0.0354041866369013,0.2037711282162244,-0.5977406287207223,-0.6035041966199254,-1.0561966946800816,1.3251668952291968,2.000378243344428,0.179222273762923,-0.6706936893528856,-0.7195239054279033,1.045016846739287,0.6775300097177513,-0.774357979333945,-0.1827101960554911,10.68988957216061,-0.7736158515381032,0.0645064412558647,-1.1778098408638376
0.7000000000000001,-1.0468862825240497,1.301854745306802,1.9781931917304003,0.0876516659631407,0.1290490473824437,0.0340570324083165,0.2154335174075701,-0.6123445286811071,-0.610700078713644,-1.052950973691353,1.3129530214600205,1.9869490119051627,0.1905130899805839,-0.7106936899489321,-0.751565461070985,1.0013315320237908,0.583119459567287,-0.7301949980192401,-0.3597941046859287,10.230120438175618,-0.7780068073305801,0.0664065168388184,-1.1759426016267116
0.72,-1.0424820876917529,1.2894623747256164,1.965872645714397,0.0849818191253024,0.1224948680554344,0.0326581091038442,0.2241307080645154,-0.6261711207499113,-0.6209602888192757,-1.0491407118917413,1.2987391476610417,1.9719177026837431,0.2018039061982448,-0.7506936905449786,-0.7836070167140666,0.9644787257530404,0.4348595328472648,-0.6913296034402105,-0.5130105052815859,10.230120438175618,-0.7835164699990843,0.0677383976210288,-1.1734546081623594
0.74,-1.03816233836879,1.2774390250796177,1.9539657567779505,0.0827327699434458,0.1159835696923368,0.0313428637576711,0.229971643673812,-0.6387802941254552,-0.6318672156488028,-1.0453304500921297,1.2845252738620632,1.9568863934623235,0.2130947224159057,-0.7906936911410251,-0.8156485723571484,0.8832735064394441,0.2920467804648302,-0.6304586687771951,-0.5453463414763549,9.988032355783616,-0.7897605511276559,0.0683684861260651,-1.1710338051057816
0.76,-1.0335173051990012,1.2645212965240942,1.9411977505021956,0.0804487538420532,0.1093108650223212,0.0299974232023884,0.2340435664968754,-0.6522173510399567,-0.6443892050820396,-1.0412379178870763,1.269311400048183,1.9410540453498264,0.2243855386335666,-0.8306936917370714,-0.84769012800023,0.9406583776358852,0.2035961411531686,-0.6718528457250739,-0.6260994716618395,9.988032355783616,-0.7960533435935947,0.0687850456454689,-1.1686591669614232
0.78,-1.028811417219115,1.2513357991296212,1.928167334745089,0.0779747232268166,0.1031439361348393,0.0286991651758279,0.2362317507992022,-0.6654610590691822,-0.6579966153426947,-1.0368631152765817,1.2530975262194022,1.9244206583462529,0.2356763548512275,-0.8706936923331179,-0.8797316836433117,0.9557007467116784,0.1094092151163392,-0.6621854014612738,-0.6803705130327575,9.9243425538898,-0.8016690871739564,0.0693099101345191,-1.1666788989652948
0.8,-1.0243167919352614,1.2385688413964842,1.9155264581658091,0.0753897940572828,0.0979758754996005,0.0275230026380383,0.2366788432345488,-0.6775837241688208,-0.6719207776091619,-1.016999829679155,1.2180627461761622,1.8952675039779543,0.2759531466195815,-0.7654610605592983,-0.6802971157654109,0.923365035598937,0.0223546217673314,-0.6061332549819332,-0.69620811332336,9.863949578255417,-0.8067060705657524,0.0700406576341025,-1.1653001959639422
0.8200000000000001,-1.0195841392090388,1.2248424803187428,1.9022967559297277,0.0719024927221585,0.094456011053479,0.0263959623376489,0.236444505834677,-0.6940731766703826,-0.6483474963001424,-1.016999829679155,1.2180627461761622,1.8952675039779543,0.2759531466195815,-0.7654610605592983,-0.6802971157654109,1.4384510327887483,-0.0117168699935887,-0.8244726250780876,1.178664065450974,9.803349714481556,-0.8118333256661157,0.0687331961918977,-1.1668319598025647
0.84,-1.0148698469593926,1.2108100132617428,1.8895694428682936,0.0678190711249551,0.094346648778245,0.0254888864062346,0.235458144564949,-0.708100140873178,-0.6257437627635682,-1.016999829679155,1.2180627461761622,1.8952675039779543,0.2759531466195815,-0.7654610605592983,-0.6802971157654109,1.3310309942797829,-0.0493180634864032,-0.7013482101397683,1.1301866768287094,12.027900258810403,-0.8149689704753776,0.0742625186863648,-1.161642908949788
0.86,-1.0103950997481947,1.1972414714846582,1.8778469484963267,0.0640247606648959,0.0965754832024816,0.0247972908839387,0.2358856299943938,-0.7194078814751718,-0.6093068312052969,-1.014240298212959,1.2104081355705691,1.8884645328203,0.2838974257836573,-0.7854610608573215,-0.6847572158499541,0.9977730959061558,0.0213742714722436,-0.5653870300996899,0.8218465779135653,12.027900258810403,-0.8163846714125331,0.0804865655175323,-1.156663662355253
0.88,-1.0056588456708686,1.1827442809196074,1.865804366763344,0.0604378893657182,0.1003945855368416,0.0241910643231905,0.2379408410249912,-0.7297001939348668,-0.5959949926570428,-1.0087212352805677,1.195098914359383,1.874858590504992,0.299785984111809,-0.825461061453368,-0.6936774160190405,0.8475857385584483,0.1027605515298651,-0.5146156229847543,0.6655919274127065,11.654408103697278,-0.8152448776527618,0.0858069769021133,-1.1542145907633607
0.9,-1.0008640558893598,1.1680534471660466,1.8539898931219745,0.0573910686825717,0.104960666039488,0.0236645135675061,0.24161744197645,-0.7388853716586052,-0.5862661758838823,-1.003202172348176,1.1797896931481973,1.861252648189684,0.3156745424399607,-0.8654610620494144,-0.702597616188127,0.6937844769426907,0.1838300475729415,-0.4592588861869195,0.4864408386580254,11.377062628506792,-0.812296263526573,0.090064695442096,-1.1538542285321056
0.92,-0.9959794457635112,1.1531890996275709,1.842336638487976,0.0549199925501653,0.1096775470367532,0.0231846381687395,0.2467985853311077,-0.7471891178752657,-0.5795468789227133,-0.9968886814993768,1.162480471907209,1.8472006958659213,0.3315631007681124,-0.9054610626454608,-0.7115178163572135,0.5936021381038639,0.2590571677328873,-0.4151873108330206,0.3359648480584509,11.153515232907012,-0.8085272083309802,0.0931251292328006,-1.1548846368259804
0.94,-0.9912279743409036,1.1389198681010413,1.8313832376377863,0.0531004538952537,0.1138957458593285,0.0227515371431683,0.2531676988269415,-0.7545338044088745,-0.5737902141730645,-0.9905751906505774,1.1451712506662206,1.8331487435421587,0.3474516590962642,-0.9454610632415074,-0.7204380165262999,0.5649097627932187,0.31845567479169,-0.3672343266804434,0.2878332374824377,10.983213287636318,-0.804257766563618,0.0952770454851016,-1.156916495247417
0.96,-0.986081131466799,1.123745042726987,1.8199670880317949,0.0514818411247004,0.1177254916685208,0.022287134395521,0.2612368408662296,-0.7625201865380997,-0.5681498208390734,-0.9838644858435744,1.126862029410331,1.818873786214169,0.3633402174244158,-0.9854610638375536,-0.7293582166953864,0.6338520918288921,0.4034571019644023,-0.39931910646126,0.2820196666995567,10.953032672819973,-0.8003729063428012,0.0970127290426028,-1.1588540845385369
0.98,-0.9807612106087006,1.108411118732623,1.808658162752176,0.0498908146962995,0.1206632007250046,0.0217841706181041,0.2703525220342714,-0.7703948685500243,-0.5630490440907245,-0.9767565670783676,1.1075528081395405,1.8043758238819525,0.3792287757525675,-1.0254610644336002,-0.7382784168644728,0.6540722119590772,0.4557840584020894,-0.3937341005962269,0.2550388374174428,10.933797795210012,-0.7974199604366717,0.0986262848970636,-1.1602301720878376
1.0,-0.975532030598519,1.0937009393284185,1.798002887807538,0.0483131188449237,0.122488688039224,0.021260512209202,0.2795957262298131,-0.7775733540748481,-0.5588407394564,-0.967243584506987,1.069891375305122,1.7805057105476398,0.3292972837873537,-0.8703948700401404,-0.5593839160664296,0.6218466573960617,0.4621602097770849,-0.3589242762411904,0.2104152317162266,10.905441673034147,-0.7952185967376931,0.1003711241269974,-1.161132557217352
1.02,-0.969817290556124,1.078034875163463,1.7870655945095248,0.0456431728049538,0.123599679749365,0.0206092152115197,0.2914700535341884,-0.7880979953872197,-0.5340338225783696,-0.967243584506987,1.069891375305122,1.7805057105476398,0.3292972837873537,-0.8703948700401404,-0.5593839160664296,1.4723712581063086,0.593716365218766,-0.5262320656185815,1.2403458439015191,10.86744254000132,-0.7944392541463124,0.101196627272935,-1.163372960347076
1.04,-0.9638637133256748,1.0621955266496748,1.7766410298182256,0.0422986071375928,0.1241678838816132,0.0198988861078673,0.3032254854930089,-0.7952095746742827,-0.5099267030243548,-0.967243584506987,1.069891375305122,1.7805057105476398,0.3292972837873537,-0.8703948700401404,-0.5593839160664296,1.3873697719842064,0.5877715979410253,-0.3555789643531482,1.2053559777007394,12.325234497952806,-0.7967783817942921,0.1071761189133525,-1.157449441626705
1.06,-0.9576801496577816,1.046237141978954,1.7666588333149158,0.0393806084137832,0.1242016305563837,0.0192113633336888,0.3144773183422144,-0.8004050072828112,-0.4894783836964894,-0.9639506116691134,1.0611874266047203,1.7749118713869756,0.3410862361379701,-0.8903948703381636,-0.5586508904615706,1.1955438362839037,0.5625916424602723,-0.2597716304264252,1.0224159663932697,12.082763421531126,-0.7989208113524302,0.1121603780011732,-1.152335580342311
1.08,-0.9516028965241268,1.030991394948065,1.7575270646706431,0.0373048223098396,0.123790435519027,0.0186051438235781,0.3246107714897103,-0.8043438206650354,-0.4727746011069106,-0.9573646659933664,1.0437795292039178,1.7637241930656469,0.364664140839203,-0.93039487093421,-0.5571848392518526,0.9965157755304226,0.5066726573747987,-0.1969406691112118,0.8351891294789388,11.843368306006596,-0.8012192168029726,0.1162408759704615,-1.1475390916477564
1.1,-0.945004658190612,1.0148702876379367,1.7482366873567026,0.0360045148637984,0.1229998605534964,0.0180319513433869,0.3346099984678189,-0.8076490670125308,-0.4572276466221757,-0.9507787203176192,1.026371631803115,1.7525365147443184,0.3882420455404359,-0.9703948715302564,-0.5557187880421346,0.9389049303946928,0.4999613489054283,-0.1652623173747702,0.777347724236746,11.653277367178816,-0.8038862341533347,0.1190859019500515,-1.142888110262067
1.12,-0.9382133491832784,0.9986912652875752,1.7392376966580811,0.0359100863873167,0.121959162496952,0.0175489672277993,0.3439572369600118,-0.8102011964462149,-0.4435185634494638,-0.9430138794068106,1.00696373437251,1.7414221389834756,0.4118199502416688,-1.010394872126303,-0.5542527368324166,0.8393795230891452,0.4673619246096466,-0.1276064716842051,0.6854541586355983,11.51355858140596,-0.8064409514124457,0.1204160658486019,-1.1388357460614782
1.14,-0.9315934945832706,0.9832790189041394,1.7309353737624849,0.0372569693875456,0.1208224624568375,0.0171955336541378,0.3523574834680605,-0.8122279514011238,-0.4310829891871602,-0.9352490384960018,0.9875558369419049,1.730307763222633,0.4353978549429018,-1.0503948727223495,-0.5527866856226986,0.7571581477414379,0.4200123254024357,-0.1013377477454446,0.6217787131151759,11.359195382726284,-0.8092172866559124,0.1201312796767353,-1.1347933441137668
1.16,-0.9244551946230636,0.9670008070997548,1.722449365184203,0.0400361226253201,0.1194832097893076,0.0169192536778847,0.3609746125082514,-0.8157990568754526,-0.4181805657813139,-0.9268947499676624,0.9671479394963984,1.7192300387420332,0.4589757596441347,-1.090394873318396,-0.5513206344129806,0.7960531341371214,0.4308564520095426,-0.1785552737164408,0.6451211702923176,11.359195382726284,-0.8119938446295178,0.1183637308337801,-1.130927138567337
1.18,-0.9171469518088756,0.9506229534789246,1.7142188683855917,0.0432025123484327,0.1179352848313172,0.0166642406656908,0.3693571448437914,-0.8218772362443056,-0.4055147587898549,-0.917951013821792,0.9457400420359912,1.7081889655416764,0.4825536643453675,-1.1303948739144425,-0.5498545832032626,0.8179758241250429,0.4191266167770019,-0.303908968442651,0.6332903495729514,11.343091306547649,-0.815129226398766,0.1162291465754619,-1.1269719887317684
1.2,-0.9100515173018086,0.9349356988152204,1.7066318393531288,0.0458221105110337,0.1161996993508042,0.0163852438305862,0.3770403966690798,-0.8289975161753967,-0.3937354030144447,-0.8986790945666862,0.9095290916667093,1.693943130446099,0.4189263157658324,-0.9218772377344218,-0.4101320810261544,0.7881687119386056,0.384162591264417,-0.356013996554555,0.5889677887705086,11.32735761015556,-0.8189412699793457,0.1143592346335561,-1.1224224787191075
1.22,-0.902398067960599,0.918202001948002,1.6989587880018555,0.0458910368496355,0.1133499436465745,0.0158629972694761,0.3879154394446337,-0.8433440445798386,-0.3737381847858358,-0.8986790945666862,0.9095290916667093,1.693943130446099,0.4189263157658324,-0.9218772377344218,-0.4101320810261544,1.3453421214622243,0.543752138777695,-0.7173264202220919,0.9998609114304446,11.308288962882216,-0.8261322162481166,0.1148594031509877,-1.1152984050128814
1.24,-0.8945365189340415,0.9012182795520924,1.6916831545613198,0.0425404198247456,0.1086627246864593,0.0150445053460002,0.3974654688312098,-0.853799016220357,-0.3549346597182857,-0.8986790945666862,0.9095290916667093,1.693943130446099,0.4189263157658324,-0.9218772377344218,-0.4101320810261544,1.176947373775161,0.4775014693288087,-0.5227485820259226,0.940176253377506,11.85909923604413,-0.8344249318224248,0.1203291569275604,-1.1053233076039368
1.26,-0.8865117092464164,0.8840762417401411,1.684750140836513,0.038132898537803,0.1025559384704891,0.014138740142891,0.404174520452941,-0.8597401482130671,-0.3392581270751786,-0.8944898314090278,0.900310319289365,1.6898418096358374,0.4288401499502405,-0.9418772380324448,-0.4110555454734143,0.9028594834306432,0.3354525810865594,-0.2970565996355034,0.7838266321553544,11.45392774208267,-0.8423947136239264,0.1265614611251049,-1.0957162990174238
1.28,-0.8787983976500043,0.8677096120537587,1.678426696312237,0.0343885768733571,0.0963226962963045,0.0133418184961759,0.4072483772224711,-0.8629327426615697,-0.3271299823485656,-0.8861113050937112,0.8818727745346766,1.6816391680153144,0.4486678183190569,-0.9818772386284914,-0.4129024743679341,0.6456259545237211,0.1536928384765046,-0.1596297224251308,0.60640723633065,11.45392774208267,-0.8510449013009764,0.1323146046002032,-1.0857267072598584
1.3,-0.8706470692005178,0.8504302406799416,1.6719964617748335,0.0314127771460461,0.090171033280094,0.0126305015732121,0.407532413183956,-0.8650185436992257,-0.3166283388345492,-0.8777327787783945,0.8634352297799882,1.6734365263947912,0.4684954866878733,-1.021877239224538,-0.4147494032624539,0.5355272142748321,0.0142017980742426,-0.1042900518827993,0.5250821757008167,11.258246872029304,-0.8589972672676948,0.1365632449790742,-1.0768999093842206
1.32,-0.8625216722009847,0.8331182810009157,1.6657518129007811,0.0296025732578479,0.0852746876699328,0.0120762088048288,0.4048884160799694,-0.866358838479236,-0.3083478383876384,-0.868362869044637,0.8429976849954974,1.6651415383295425,0.4883231550566897,-1.0618772398205842,-0.4165963321569737,0.4397550410015289,-0.1321998551993303,-0.0670147390005149,0.4140250223455405,11.107330408552116,-0.8648191672489995,0.1390659406145374,-1.0705832324218123
1.34,-0.8544763591742548,0.8157861209605217,1.659659701815582,0.0290682635675737,0.0825485558520135,0.0117002310828156,0.3997400283967595,-0.8670125825269785,-0.3012723748635161,-0.8589929593108795,0.8225601402110067,1.656846550264293,0.5081508234255061,-1.1018772404166308,-0.4184432610514935,0.4387352877811715,-0.2574193841604927,-0.0326872023871271,0.3537731762061152,10.98363697046534,-0.8687468137264301,0.1400047093343495,-1.0664307756216505
1.36,-0.8469340880840813,0.79930389442629,1.653996588790816,0.0297214596575614,0.082400038824802,0.0115113232553142,0.3947494778400699,-0.868019732787917,-0.295184203226625,-0.8491273578679016,0.8011225954116148,1.648505388976681,0.5279784917943224,-1.1418772410126772,-0.4202901899460133,0.3968179065617809,-0.249527527834481,-0.0503575130469224,0.3044085818445591,10.921897276333766,-0.8714247133231513,0.1397056722237436,-1.0631513491225582
1.38,-0.8390822974199583,0.781928731668925,1.648158203125368,0.0314507187054673,0.0841473154772205,0.0114576631128386,0.3909074013443738,-0.8695296578568209,-0.2889791226258404,-0.8387660647157034,0.7786850505973217,1.640118054466706,0.5478061601631388,-1.1818772416087235,-0.4221371188405331,0.372640747821268,-0.1921038247848033,-0.0754962534451952,0.3102540300392281,10.870248410106797,-0.8716403540120321,0.1383143542357971,-1.0621567876997948
1.4,-0.8312905153682952,0.764512995698715,1.642442985214434,0.0340101759191086,0.0871169090583881,0.0115188995710605,0.3886530275486836,-0.8722105434857204,-0.2828607019811313,-0.8195369273527396,0.738452248776084,1.633709246994076,0.4385420290144235,-0.9473617680829752,-0.3002710875367648,0.3525068089822432,-0.1127186897845133,-0.1340442814449727,0.3059210322354566,10.838739678382808,-0.870290444908747,0.1363074106925914,-1.0625582706897996
1.42,-0.8234937645440334,0.746877840631552,1.636946260595507,0.032101030572998,0.0899757707338004,0.01128360692617,0.3910325688251267,-0.8889939955643373,-0.2670357201958204,-0.8195369273527396,0.738452248776084,1.633709246994076,0.4385420290144235,-0.9473617680829752,-0.3002710875367648,1.1595004623403011,0.1189770638221565,-0.8391726039308489,0.7912490892655416,10.838739678382808,-0.870528416805447,0.1372482821122986,-1.062153641855335
1.44,-0.8160437787929085,0.7299091131408383,1.6320088591532376,0.025588491164741,0.0919381225992562,0.0107211398508702,0.3930345831220388,-0.8955028860332331,-0.2534731371435471,-0.8195369273527396,0.738452248776084,1.633709246994076,0.4385420290144235,-0.9473617680829752,-0.3002710875367648,0.7588105419519023,0.1001007148456051,-0.32544452344479,0.6781291526136685,11.494794784668557,-0.8712897916442158,0.1454860105858314,-1.0580135862007296
1.46,-0.8081650522281554,0.7119882712068604,1.6270605868550252,0.0181353642223213,0.0935206267057519,0.0100907662697024,0.3947248776476689,-0.8961376261108933,-0.2422150906841183,-0.8151515070625954,0.7289786310952542,1.6307065361187083,0.4480689545484334,-0.962928190128206,-0.3025294805189497,0.5700956074033073,0.0845147262815038,-0.0317370038830089,0.5629023229714355,11.315738044662794,-0.8719163572680796,0.1548417678091455,-1.0533050007516136
1.48,-0.8002568151552029,0.6940940893798405,1.6223009629177263,0.0117314455695085,0.0948333144051166,0.0095484458087928,0.3960439290959416,-0.8935251685035355,-0.2343021919646116,-0.8063806664823069,0.7100313957335948,1.624701114367973,0.4671228056164533,-0.994061034218668,-0.3070462664833195,0.4218376394378646,0.0659525724136356,0.1306228803678921,0.395644935975338,11.104465799951868,-0.8718922655535329,0.162413826837843,-1.0500125233405817
1.5,-0.7927218287437245,0.6771609485112908,1.6179018274349457,0.0070732867922881,0.0959854143410476,0.0091514704648066,0.3970858716957158,-0.8894018317930231,-0.2291599012689522,-0.7976098259020185,0.6910841603719352,1.6186956926172378,0.4861766566844732,-1.0251938783091297,-0.3115630524476893,0.3336566483982756,0.0520971299887124,0.2061668355256174,0.2571145347829692,10.911193349431414,-0.8713948074332338,0.168515522249846,-1.0477637325791105
1.52,-0.784769656461107,0.6594289000303304,1.6133593877989347,0.0036975834554655,0.0972149018572212,0.0088613959304077,0.398114157331285,-0.8843001443044791,-0.2254298549282962,-0.787886292768329,0.6705802828057527,1.612464431568284,0.505230507752493,-1.0563267223995914,-0.316079838412059,0.3201477482449512,0.0514142817784585,0.2550843744272002,0.1865023170327967,10.765480161962842,-0.8705027190082673,0.1727807627618839,-1.04653482192748
1.54,-0.7767959656533692,0.6418057648013387,1.6088800677488873,0.00186548626935,0.0985300453843189,0.0087004082468641,0.3992662699526209,-0.8786457879020706,-0.2226841232874634,-0.7781627596346395,0.65007640523957,1.6062331705193302,0.5242843588205129,-1.0874595664900533,-0.3205966243764288,0.3195236769832973,0.0576056310667955,0.2827178201204261,0.1372865820416444,10.66584719338698,-0.8694074268155186,0.1752068628150291,-1.0461381540793302
1.56,-0.7691948861326354,0.625165651172683,1.6046710067160113,0.0013390342552059,0.0997915984585705,0.0086511061928961,0.4008197488396035,-0.8733789052434215,-0.2205124558843093,-0.7679628802242495,0.6287942065711258,1.5998889898212674,0.5433382098885328,-1.118592410580515,-0.3251134103407986,0.2952519640163324,0.0776739443491297,0.2633441329324526,0.1085833701577027,10.617325112451,-0.8682356668319748,0.1764308591775856,-1.046074855165814
1.58,-0.7611576215468095,0.6077578812457882,1.6002822816607378,0.0020081600465673,0.1010103395199429,0.0087035364342417,0.402851278018775,-0.8677820508643835,-0.2184861538812566,-0.757286654537159,0.6067336868004202,1.593431889474095,0.5623920609565527,-1.1497252546709766,-0.3296301963051684,0.3144749177341399,0.1015764589585743,0.2798427189519004,0.1013151001526366,10.591953074566844,-0.8669961992551369,0.1763811446711896,-1.0463844435563612
1.6,-0.7530757818145862,0.5904599588947095,1.5959321609291306,0.0039829533889473,0.1020304985893446,0.0088649326425717,0.4052439054903565,-0.862418952616441,-0.2166338773710769,-0.7410150576458708,0.5643687787025691,1.589357973966675,0.4545575995562697,-0.9221588802799432,-0.1958320880189586,0.3078896608568338,0.1196313735790738,0.2681549123971283,0.0926138255089845,10.577148955004304,-0.8659035017494505,0.1751370173648582,-1.0468575067333823
1.62,-0.7448938327667569,0.5731257047715536,1.5918185120477704,0.002857593464115,0.1018972809446589,0.0088243515189061,0.4125955056207332,-0.8696107920885259,-0.1947939023370624,-0.7410150576458708,0.5643687787025691,1.589357973966675,0.4545575995562697,-0.9221588802799432,-0.1958320880189586,1.207013969425757,0.3675800065188361,-0.3595919736042452,1.0919987517007237,10.567623666149302,-0.8703168740572033,0.1751297955776731,-1.0434510802318182
1.64,-0.7369939812873507,0.5565929637189467,1.588315838859625,-0.0022352073962112,0.1001678007411449,0.0085298534574439,0.4184459313018492,-0.8694584597522673,-0.1750289716129003,-0.7410150576458708,0.5643687787025691,1.589357973966675,0.4545575995562697,-0.9221588802799432,-0.1958320880189586,1.030658978908469,0.2925212840558022,0.0076166168129276,0.9882465362081052,11.863431041532747,-0.8748765990422701,0.1828043286480316,-1.0349072545246676
1.66,-0.7285771850924151,0.5392621760028378,1.5850039396463314,-0.0081043769601843,0.097192556397168,0.0082314105202675,0.4227764491974938,-0.8636567060811197,-0.1571745505677462,-0.7364694816503081,0.5551471898997696,1.5873996530864851,0.4648988638637686,-0.9330342461630552,-0.191301274846499,0.9633198868532912,0.2165258947822268,0.2900876835573829,0.8927210522577056,11.692845295357984,-0.8796515012863886,0.1908728135476098,-1.0259438893428838
1.68,-0.7205211355040365,0.5229357108094195,1.582160867785874,-0.0127386702935504,0.0938109791538143,0.0080634903775013,0.4248953831950397,-0.8555124891577929,-0.1429631043307752,-0.7273783296591828,0.5367040122941708,1.5834830113261062,0.4855813924787664,-0.9547849779292792,-0.1822396485015797,0.8258077178230946,0.1059466998772962,0.4072108461663393,0.7105723118485493,11.494136578236976,-0.8847145695413896,0.1981449849953877,-1.016969432714204
1.7,-0.7120198187567234,0.5059299014270974,1.579439122934266,-0.0162030423713599,0.0903300494587534,0.0080271898070613,0.4249607419098932,-0.8457712315062637,-0.1300317753500281,-0.7182871776680574,0.5182608346885719,1.5795663695657272,0.5062639210937643,-0.9765357096955032,-0.1731780221566606,0.8094992921605833,0.0032679357426762,0.4870628825764611,0.6465664490373557,11.30950286957068,-0.889359607281375,0.2036155946096281,-1.00913337820161
1.72,-0.703540321136801,0.4891261792080313,1.576957270535232,-0.0181500559206514,0.0876927364626642,0.0081176253169409,0.4228606733164168,-0.8353579156318822,-0.1188549048854419,-0.7081618992461821,0.4987301204946618,1.576102809122594,0.5269464497087621,-0.998286441461727,-0.1641163958117414,0.7709894113719874,-0.1050034296738222,0.5206657937190717,0.558843523229309,11.078825928781043,-0.8929540648443955,0.2071537983176,-1.0031824477579403
1.74,-0.6951197216193914,0.4725391989437961,1.5746925017643845,-0.0183909516827808,0.0866178455054394,0.0083236391297523,0.4195064667878381,-0.8241771065099043,-0.1081477877874476,-0.6980366208243068,0.4791994063007517,1.5726392486794607,0.54762897832376,-1.0200371732279507,-0.1550547694668221,0.7919967654741821,-0.1677103264289353,0.5590404560988971,0.535355854899714,11.056479780724658,-0.8960240763502046,0.2088384813448565,-0.9982140738670432
1.76,-0.687177032377285,0.4569876726578397,1.5727403727112357,-0.0169173173486277,0.0869384409714652,0.0086305809497715,0.4168746696337539,-0.8136097632980523,-0.0978561668265549,-0.6873942791870566,0.4591249238126861,1.5694022288949503,0.5683115069387579,-1.0417879049941747,-0.1459931431219029,0.7491871608950693,-0.1315898577042062,0.5283671605925966,0.5145810480446384,11.056479780724658,-0.8981648239955479,0.2090058902648956,-0.994198696191222
1.78,-0.6788609238728572,0.4408255334637005,1.5709010855042806,-0.0136730059588441,0.0882290382329814,0.0090719485179451,0.41499932480183,-0.8036534934429025,-0.086578306320072,-0.6762348743344314,0.4385066730304648,1.5663917497690631,0.5889940355537557,-1.0635386367603985,-0.1369315167769837,0.7580144544645491,-0.0937672415961987,0.4978134927574928,0.5638930253241421,11.05470303428956,-0.8991625006037837,0.2076737570220525,-0.991466166553446
1.8,-0.6705715185660232,0.4248326762362551,1.569293071045294,-0.0096673435758405,0.0900782019563002,0.009576270911023,0.4141352803977373,-0.7963422688165267,-0.0747781429809794,-0.6581109576327657,0.4006428587915553,1.566572170188277,0.4582651778790032,-0.8179942918134426,-0.0756352912140497,0.695421514440762,-0.0432022202046356,0.3655612313187895,0.5900081669546309,11.091343910205978,-0.8997114719183664,0.2058189339453708,-0.9893091788490326
1.82,-0.6626692295712269,0.4095818442069345,1.567981572941887,-0.0115559766877713,0.0909554783432068,0.0096848807722321,0.4174642134206091,-0.8063782053435848,-0.063889736002481,-0.6581109576327657,0.4006428587915553,1.566572170188277,0.4582651778790032,-0.8179942918134426,-0.0756352912140497,0.7588794758973918,0.1664466511435924,-0.5017968263529071,0.5444203489249219,11.091343910205978,-0.9029559068770682,0.2093287168347526,-0.983017695030432
1.84,-0.6542949718223546,0.3934658444953287,1.5668162480663212,-0.0198834360724469,0.0901364003451873,0.0094083062934686,0.4196197118433279,-0.8036209386424658,-0.0532497302518832,-0.6581109576327657,0.4006428587915553,1.566572170188277,0.4582651778790032,-0.8179942918134426,-0.0756352912140497,0.5600411044829579,0.1077749211359391,0.1378633350559543,0.5320002875298876,11.055949295297069,-0.9049119500921424,0.2180867586815313,-0.9781047735939216
1.86,-0.6458949922835688,0.3774975486352723,1.5658433859722691,-0.0290895996022611,0.0882685576495136,0.0091392885207854,0.4201325154856414,-0.7932287019061923,-0.0446596700358514,-0.6535283058539757,0.3924629158734209,1.5658158172761365,0.4669183484944378,-0.8208624514875507,-0.0734466881928452,0.6746307999072032,0.0256401821156743,0.5196118368136715,0.4295030108015896,10.98743762342292,-0.9073189039131796,0.2282003176084421,-0.9717036395276832
1.88,-0.6375043077986734,0.3617850023281551,1.565019185004233,-0.0370010080759183,0.0860462182999852,0.0090244216926459,0.4188217830793819,-0.7789006508638199,-0.0381658178956934,-0.6443630022963956,0.376103030037152,1.5643031114518555,0.4842246897253072,-0.8265987708357667,-0.0690694821504362,0.7892736878483338,-0.0655366203129753,0.7164025521186224,0.3246926070079002,10.861356018297556,-0.909529290646992,0.2367611363429073,-0.9657828402890736
1.9,-0.6295745331870305,0.3471443802549942,1.56434285815268,-0.042737662767998,0.0842678708435227,0.0090713304348746,0.4159103519116012,-0.7633855673203538,-0.0333274641871142,-0.6351976987388156,0.3597431442008832,1.5627904056275743,0.5015310309561765,-0.8323350901839828,-0.0646922761080273,0.8255360613183099,-0.1455715583890349,0.7757541771733045,0.2419176854289602,10.75358564243561,-0.9114050630344556,0.2439808304021146,-0.960467853640372
1.92,-0.621299064018507,0.3320587858197004,1.5637231397578062,-0.0469307226379106,0.0833297762996068,0.0092455095695161,0.41188393990487,-0.7463129080980104,-0.0289047240276292,-0.6251670781196921,0.3430964423972035,1.561496560105414,0.5188373721870457,-0.8380714095321988,-0.0603150700656184,0.9045003000117467,-0.2013206003365575,0.8536329611171678,0.2211370079742506,10.682341696462572,-0.912829283109057,0.2492479518646025,-0.9562475832480116
1.94,-0.6131057768781014,0.317321305468001,1.5631874154836922,-0.0493502322654095,0.0834589230842534,0.0095205961717238,0.4077906011871397,-0.7287784480721526,-0.0248560831933337,-0.6151364575005686,0.3264497405935239,1.5602027145832535,0.5361437134179151,-0.8438077288804149,-0.0559378640232094,0.9227732696356128,-0.204666935886516,0.8767230012928895,0.2024320417147743,10.645009187698632,-0.9132242173905954,0.2528771136117019,-0.953488510696866
1.96,-0.6053927154730104,0.3036472823383127,1.5627536016234196,-0.0501968420140249,0.084387185454492,0.0098631933480435,0.4044235645484499,-0.711724164122155,-0.0209931905974536,-0.6046731783506732,0.3096596308061388,1.559018299212153,0.5534500546487844,-0.8495440482286309,-0.0515606579808005,0.8903755892609749,-0.1683518319344878,0.852714197499882,0.193144629794003,10.624866871182348,-0.9130093067187856,0.2550452937597003,-0.9517385871076268
1.98,-0.5973352262416275,0.2896067410639527,1.5623786359378105,-0.0494008249747174,0.0859262541169583,0.0103313391658424,0.4015994830260397,-0.6933997506445598,-0.0166825268746607,-0.5937772406700063,0.2927261130350483,1.557943313992113,0.5707563958796537,-0.855280367576847,-0.0471834519383915,0.9517633469961078,-0.1412040761205102,0.9162206738797584,0.2155331861396471,10.624866871182348,-0.9121362118478794,0.2558895344797191,-0.9508722916123294
2.0,-0.589325770677714,0.2759338183380377,1.562093683154964,-0.0466182777984151,0.0877740282739339,0.0109403307731484,0.3995721920889069,-0.675147940495193,-0.0119929100180733,-0.5772552520903255,0.2549367535317247,1.5615445095940774,0.4418583264777781,-0.6743105733936977,-0.0170116568255026,0.947669494779034,-0.1013645468566415,0.9125905074683416,0.2344808428293703,10.656379409863804,-0.9107446552641684,0.255055187288124,-0.9509190709348108
2.02,-0.5813239593292177,0.2624845728870513,1.561903077573807,-0.046113146678156,0.088931447108528,0.0114395923351,0.4006367550296725,-0.6696907094353949,-0.0073940081442653,-0.5772552520903255,0.2549367535317247,1.5615445095940774,0.4418583264777781,-0.6743105733936977,-0.0170116568255026,0.3607788919123167,0.0532281470382811,0.2728615529899059,0.2299450936904003,10.656379409863804,-0.9107838198317098,0.2559662167983351,-0.949240799202883
2.04,-0.5737092513654282,0.2498453122972639,1.56180073642891,-0.0499123829610991,0.0888886212095488,0.0116872525409859,0.4007479909106911,-0.6601250458253433,-0.0036371208298999,-0.5772552520903255,0.2549367535317247,1.5615445095940774,0.4418583264777781,-0.6743105733936977,-0.0170116568255026,0.5138786238372134,0.0055617940509289,0.4782831805025811,0.1878443657182687,10.609392654170732,-0.9106772165089438,0.2607763125414603,-0.946971397716445
2.06,-0.5657032509373077,0.2368029411530624,1.56175939851943,-0.0551697690425646,0.0882970325006148,0.011913841771941,0.3997811202292807,-0.6444500604113355,-0.0007402593068433,-0.5728366688255477,0.2481936477977877,1.5613743930258224,0.4499100951681258,-0.6704927379435253,-0.017077482815671,0.7984857752767016,-0.048343534070519,0.7837492707003901,0.1448430761528298,10.580189217769655,-0.9107594843520308,0.2670249797547237,-0.9438288962891732
2.08,-0.5577265872686399,0.2241091554308604,1.5617649607739337,-0.0598593367384628,0.08761000180669,0.0122142325052334,0.397912164194756,-0.6258454787534623,0.0011238882075599,-0.5639995022959922,0.2347074363299138,1.5610341598893125,0.4660136325488211,-0.6628570670431805,-0.0172091347960077,0.9395457696127856,-0.0934478017262374,0.9302290828936576,0.0932073757201635,10.529274915233144,-0.9106861526767188,0.2728075781555734,-0.9409241729183216
2.1,-0.5497948218064902,0.2118052602926272,1.5617994856492907,-0.0632879580548357,0.0871721283321124,0.0126137697289195,0.3954059648983105,-0.605834587202528,0.0022629564486145,-0.5551623357664366,0.2212212248620398,1.5606939267528024,0.4821171699295165,-0.6552213961428356,-0.0173407867763445,1.0099681827099003,-0.1253099648222733,1.0005445775467137,0.0569534120527311,10.480247260861688,-0.9103279873003608,0.2772312235044675,-0.9387998312538176
2.12,-0.5423093144625103,0.2004930657495133,1.5618503965924708,-0.0653159445131341,0.0871628711157979,0.0130734736828623,0.3927352959593564,-0.5862618125819452,0.003065354661087,-0.5455199923678462,0.2081167969391831,1.5603471110172755,0.4982207073102118,-0.6475857252424907,-0.0174724387566812,0.988521398125762,-0.1335334469477062,0.9786387310291412,0.0401199106236238,10.448258021139736,-0.9098004074134408,0.2810564121564671,-0.936533489963232
2.14,-0.5344848210257029,0.1889895124429614,1.5619200451451336,-0.0662068127926049,0.0876542647355183,0.0136288367918783,0.3899187407235374,-0.5652458612095719,0.0038684220673868,-0.5358776489692559,0.1950123690163264,1.5600002952817489,0.5143242446909072,-0.6399500543421459,-0.017604090737018,1.0609525351558398,-0.1408277617909514,1.0507975686186666,0.0401533703149943,10.434591772553176,-0.908985013194068,0.2838221507324801,-0.9347589042569382
2.16,-0.5267127883022752,0.1779152840634338,1.5620065042787,-0.0654856268247464,0.0885914721982994,0.0142821330538533,0.3874954749076574,-0.543403868634424,0.0047589817531541,-0.5258327171361482,0.1820988328659783,1.5596501882467133,0.5304277820716025,-0.632314383441801,-0.0177357427173547,1.0997021794799038,-0.1211632907939991,1.0920996287573923,0.0445279842883646,10.433490165363764,-0.9080686389053052,0.2852835354774708,-0.9333179367824976
2.18,-0.5189839984640414,0.1672822079347798,1.5621137614870757,-0.0627083887990719,0.0898057859612224,0.0150734072453164,0.385575183059651,-0.5214244821256078,0.0059547598835958,-0.5153851968685231,0.1693761884881389,1.5592967899121697,0.5465313194522978,-0.6246787125414562,-0.0178673946976915,1.1047746799944054,-0.0960145924003202,1.0989693254408128,0.0597889065220813,10.453984329221385,-0.9067397681237116,0.2850785386053032,-0.932857945869842
2.2,-0.511671523560171,0.1575653202104804,1.562243159543518,-0.0586329579928464,0.0910667201036578,0.0159288264015591,0.384304020837823,-0.5029327818327465,0.0076339113717983,-0.4997052393110588,0.1412109838284994,1.5624114994812557,0.4082858304936472,-0.4940393627768433,0.0060489268404377,0.930562172607964,-0.0635581110913996,0.9245850146430644,0.0839575744101256,10.453984329221385,-0.9050945069972716,0.2834439503155073,-0.933207536700448
2.22,-0.5039361210031366,0.1476601760290797,1.5624403019586437,-0.0549928528602305,0.0905562525305286,0.0168963243529596,0.3893683284042593,-0.488146504483422,0.0120906193582323,-0.4997052393110588,0.1412109838284994,1.5624114994812557,0.4082858304936472,-0.4940393627768433,0.0060489268404377,0.8126245366941511,0.2532153783218166,0.7393138674662209,0.2228353993217017,10.474075512230227,-0.9103400552743962,0.282202684194364,-0.9262869301163972
2.24,-0.4961022237673465,0.138059562037596,1.5627295376942825,-0.0525016807027762,0.08624024453171,0.0179912830828201,0.3933051175869681,-0.4725675965304532,0.0166028080116031,-0.4997052393110588,0.1412109838284994,1.5624114994812557,0.4082858304936472,-0.4940393627768433,0.0060489268404377,0.8345066334664079,0.1968394591354394,0.7789453976484395,0.2256094326685382,10.61310001676793,-0.913633947023568,0.2832994553447079,-0.9195655666323012
2.26,-0.488231717705784,0.1287744289087716,1.563102275345343,-0.0504609384547098,0.0794604022872997,0.0191766203681403,0.3931465475302739,-0.4567435041545445,0.0204725144188257,-0.4956223810061224,0.1362705902007309,1.56247198874966,0.4128279599804464,-0.4885623389070904,0.0060677602318061,0.8145576585826686,-0.0079285028347114,0.7912046187954352,0.1934853203611305,10.59145622520009,-0.9188137318982962,0.2848042767686527,-0.9108460778351284
2.28,-0.4807981001869159,0.1202456741484903,1.5635210348604436,-0.0486596419970172,0.0723086851989467,0.0203197637423953,0.3891591965255079,-0.4418676002632763,0.0234434875919199,-0.4874566643962494,0.126389802945194,1.5625929672864685,0.4219122189540449,-0.4776082911675847,0.0061054270145429,0.7842483124188117,-0.1993675502382969,0.7437951945634097,0.1485486586547105,10.545033283269731,-0.9263760625491524,0.2868252165094117,-0.8987469904523699
2.3000000000000003,-0.4730899871362827,0.1115693571480392,1.564016827293081,-0.0468301841611702,0.0652532526317746,0.0214854886990422,0.3817020063050093,-0.4266028219178487,0.0259701578107215,-0.4792909477863765,0.1165090156896572,1.5627139458232773,0.4309964779276434,-0.4666542434280789,0.0061430937972797,0.8587886909978446,-0.3728595110249311,0.7632389172713833,0.12633351094008,10.49571092678525,-0.9340134246254947,0.2887996796096003,-0.886512855707146
2.32,-0.4655627795110447,0.1031945923054871,1.5645566585674096,-0.0450377465761654,0.0596309021085603,0.0225729314577063,0.3712088847774116,-0.41170473888726,0.0278720614137094,-0.4706710182278236,0.1071759308210956,1.562836807699223,0.4400807369012419,-0.4557001956885732,0.0061807605800164,0.916072751879329,-0.5246560763798869,0.7449041515294325,0.0950951801493925,10.45345266950335,-0.9399169599404638,0.2904712892701788,-0.8765401384762478
2.34,-0.458277922063977,0.0951133094012455,1.565129344806068,-0.0432633669192064,0.0565957689191206,0.023537252076294,0.3577851856576418,-0.3972386637880379,0.0293181128374442,-0.4620510886692707,0.097842845952534,1.5629596695751686,0.4491649958748404,-0.4447461479490673,0.0062184273627532,0.9893862890126992,-0.671184955988488,0.7233037549611077,0.0723025711867405,10.420531668536569,-0.9431667079607282,0.2914976020503104,-0.8704723621252697
2.36,-0.4516137194745782,0.0877019960114812,1.56569869346471,-0.0415461595168434,0.0567215046617315,0.0243245152699297,0.3447848198753346,-0.3837117498401217,0.030568729063608,-0.4532040526363779,0.0887836122774601,1.5630834731206826,0.4582492548484388,-0.4337921002095616,0.00625609414549,0.9401475314721344,-0.6500182891153616,0.676345697395811,0.0625308113081904,10.386387691845812,-0.9452252648315124,0.2910241607716135,-0.8679138297527637
2.38,-0.4448469901296903,0.0801741866099,1.5663252020363512,-0.0396885777889677,0.0593166998244946,0.0250578861186684,0.3328629990337258,-0.369854763965816,0.0320357611834082,-0.4441299101291451,0.0799982297958738,1.563208218335765,0.4673335138220373,-0.4228380524700558,0.0062937609282268,0.9169215519070444,-0.5960910420804405,0.6928492937152808,0.0733516059900121,10.386387691845812,-0.944730574017741,0.2905313481669765,-0.8681502284209045
2.4,-0.4382970329843476,0.0729201299591188,1.5669834249825474,-0.0377844652036707,0.0635640592926589,0.0257357044410662,0.3229911613655812,-0.3563211597880847,0.0337301183445353,-0.428203840178004,0.0616814484116092,1.5679269900955215,0.3585079607782727,-0.3298034527113147,0.0333756054949957,0.8418468791519762,-0.4935918834072295,0.6766802088865681,0.0847178580563545,10.38293475309365,-0.9425489175610698,0.2901573335463538,-0.8700111200472597
2.42,-0.4319051322808381,0.0658910987783159,1.5677062686881418,-0.0372163435983952,0.0682480971421456,0.0263106540642557,0.3168437428107166,-0.3469183118890486,0.0386066878856962,-0.428203840178004,0.0616814484116092,1.5679269900955215,0.3585079607782727,-0.3298034527113147,0.0333756054949957,0.6123422939640856,-0.3073709277432307,0.4701423949518057,0.2438284770580428,10.38293475309365,-0.94070220845542,0.2897148427073733,-0.8728492692375599
2.44,-0.4259342593610167,0.0593955137300019,1.5684849660571425,-0.0387691980989277,0.0723201224173816,0.0267254935618158,0.3120327327898383,-0.3370787774054105,0.0430978736662513,-0.428203840178004,0.0616814484116092,1.5679269900955215,0.3585079607782727,-0.3298034527113147,0.0333756054949957,0.5918889380431841,-0.2405505010439151,0.4919767241819056,0.2245592890277547,10.565259624544524,-0.9387230028367916,0.2934879087822485,-0.8714626844497957
2.46,-0.4197394392738383,0.0527790244238557,1.569391288872128,-0.0419167673377879,0.0761861988690299,0.0270687019719816,0.3077633245279934,-0.3246703588350728,0.0472644600340184,-0.4246187605702213,0.0583834138844961,1.5682607461504714,0.3636369531271821,-0.3217931904604144,0.0336435743573132,0.6883987585024275,-0.2134704130922426,0.6204209285168849,0.2083293183883564,10.535721307510356,-0.9374135506790526,0.2988372278303669,-0.8684200669138521
2.48,-0.4136231689704772,0.0464449386959681,1.570374042737081,-0.0452922851996143,0.0795983195974384,0.0274097984984438,0.3041335819980428,-0.3093451794851052,0.0507822972112781,-0.4174486013546559,0.0517873448302698,1.5689282582603714,0.3738949378250008,-0.3057726659586139,0.0341795120819482,0.8068632649775818,-0.1814871264975287,0.7662589674983761,0.1758918588629844,10.501454045866012,-0.936207731319039,0.3046952115618936,-0.8646700281372528
2.5,-0.4075736903061955,0.0404360202132742,1.5714212294750194,-0.0480273287137299,0.0825634578804549,0.0278128881333261,0.3010397100458763,-0.2925069388638849,0.0537760142260753,-0.4102784421390904,0.0451912757760435,1.5695957703702712,0.3841529225228196,-0.2897521414568134,0.0347154498065832,0.8689947244362373,-0.1546935976083269,0.8419120310610179,0.149685850739863,10.467355711143682,-0.9353065473222252,0.3098222746612472,-0.8609301889958976
2.52,-0.4018798284161644,0.0350470902307435,1.5724683826972112,-0.049823945451703,0.0850050465123121,0.028269521214153,0.2985035590082783,-0.2758053397577257,0.0563170369933795,-0.402595383688634,0.0393962329469072,1.5702900793664027,0.3944109072206383,-0.2737316169550128,0.0352513875312182,0.8541549500710091,-0.1268075518798983,0.8350799553079574,0.1270511383652059,10.44039690761656,-0.9346157869711982,0.3146081470578618,-0.856859172751641
2.54,-0.3959347611420161,0.0297211940470541,1.573622158161155,-0.0508327640104088,0.0872392250034293,0.0288300680852007,0.2961727358305921,-0.2577310372427556,0.0589355832121718,-0.3949123252381776,0.0336011901177709,1.5709843883625343,0.4046688919184571,-0.2577110924532123,0.0357873252558533,0.9205568048581324,-0.116541158884309,0.9037151257485054,0.1309273109396172,10.42158027563528,-0.9343195609088236,0.3187728314156183,-0.8524714373613915
2.56,-0.3900319135024121,0.0247693645574542,1.5748275079114706,-0.05052486299522,0.0891444930815299,0.0295017322034832,0.2942496100109825,-0.238589494131192,0.0614908218109144,-0.3869728171702758,0.0282066604011797,1.571692095801782,0.4149268766162758,-0.2416905679514117,0.0363232629804883,0.9703431479461314,-0.0961562909804814,0.9570771555781828,0.1277619299371278,10.416882931571308,-0.934441864258185,0.3221257135480628,-0.847689345185136
2.58,-0.3841642328103861,0.0202052281466212,1.5760841106680543,-0.0484729278811,0.0907134927564083,0.0303145508501511,0.2926279939513996,-0.2190523406761753,0.0640690219047982,-0.3787768594849284,0.0232126437971334,1.5724132016841454,0.4251848613140946,-0.2256700434496112,0.0368592007051233,0.9886570683175084,-0.0810808029791471,0.9768576727508318,0.1289100046941903,10.41169293326493,-0.9348182195749551,0.324199862719984,-0.8431577582297101
2.6,-0.3786175403436093,0.0162207121079546,1.5773267645840292,-0.0449484590817437,0.0919113718809129,0.0312118805782657,0.2913345304989244,-0.2019114289061017,0.066644354086313,-0.3695328331128161,0.0092526111128124,1.5792875617632942,0.3144886437606409,-0.194041065712558,0.0587420816923994,0.8690745650654546,-0.0646731726237609,0.8570455885036812,0.1287666090757422,10.408279183909144,-0.9350652680117348,0.3247893130410204,-0.8395881670946819
2.62,-0.3727747393099294,0.0123950453203453,1.5786941213048769,-0.039220746454838,0.0919500420916263,0.0323467599489983,0.2930305734425182,-0.1825169906586025,0.0700499735918855,-0.3695328331128161,0.0092526111128124,1.5792875617632942,0.3144886437606409,-0.194041065712558,0.0587420816923994,0.9882042309402824,0.0848021471796939,0.96972191237496,0.1702809752786228,10.40369820961223,-0.9382354853143386,0.3239013189829089,-0.8334179586160064
2.64,-0.3669025273666531,0.0089009194438424,1.5801299213098998,-0.0322222671133368,0.0899544582781638,0.0336306800740017,0.2939428072550692,-0.1681475013564815,0.0733875661039905,-0.3695328331128161,0.0092526111128124,1.5792875617632942,0.3144886437606409,-0.194041065712558,0.0587420816923994,0.7390093319934974,0.0456116906275477,0.718474465106049,0.1668796256052519,10.4342490812478,-0.940815463956852,0.3226605925211302,-0.8275621845706486
