t,x,y,z,roll,pitch,yaw,v_x,v_y,v_z,ref_x,ref_y,ref_z,ref_v_x,ref_v_y,ref_v_z,a_com,a_x,a_y,a_z,thrust,wind_x,wind_y,wind_z
0.0,0.5234410289115682,-1.608523356294942,2.456499228509323,0.0319500471240855,0.0999543227706167,0.0429203319993909,0.0040880964077695,-0.0048964869880479,0.0099274138044476,0.5235572264369808,-1.6085704350073788,2.4568034114348114,-0.0613831206705436,0.0975477524273615,-0.0899163128447627,0.590003520981184,0.2044048203884754,-0.2448243494023954,0.4963706902223814,10.246045297559249,-0.9422115159990452,0.2538045063784956,-0.8760806134636318
0.02,0.5236111129267332,-1.6088979587086696,2.456439500286016,0.0213191173742499,0.0966888140733016,0.0420886342729618,0.0122071516283096,-0.0261682173230648,-0.0156273914776772,0.5235572264369808,-1.6085704350073788,2.4568034114348114,-0.0613831206705436,0.0975477524273615,-0.0899163128447627,1.71132524825585,0.4059527610270075,-1.063586516750846,-1.2777402641062456,10.247149112064108,-0.9390587355822704,0.2578240296957975,-0.8821960333794358
0.04,0.5239076259630663,-1.609432139965878,2.4558199412164616,0.0042913307377812,0.0874989269707901,0.0408251552590802,0.0160903048307492,-0.0255903861242736,-0.0449848708830741,0.5235572264369808,-1.6085704350073788,2.4568034114348114,-0.0613831206705436,0.0975477524273615,-0.0899163128447627,1.480940887346801,0.1941576601219802,0.0288915599395585,-1.4678739702698411,8.860223748431054,-0.9374161556892674,0.2680117164192672,-0.8831461137688448
0.06,0.5241967124707676,-1.6098588610858335,2.4546867820792797,-0.0121411895708288,0.0755044210808883,0.0398158479962166,0.0136417351629787,-0.0190611284036106,-0.0728370168372495,0.5229433952302753,-1.6075949574831052,2.455904248306364,-0.074445822789894,0.1175477527253847,-0.1099163131427859,1.4355911100078738,-0.1224284833885258,0.3264628860331487,-1.3926072977087731,8.663734964636205,-0.9393470824168924,0.2780057561792313,-0.8822058701869333
0.08,0.5243909877095067,-1.610138436515211,2.4529237571823232,-0.0287463805072343,0.0617969510345432,0.0390891671715661,0.0054824414351041,-0.0089148516486063,-0.1020175032792671,0.5217157328168645,-1.605644002434558,2.4541059220494685,-0.1005712270285949,0.1575477533214312,-0.1499163137388323,1.5976715832107402,-0.4079646863937288,0.5073138377502178,-1.4590243221008776,8.671679059367762,-0.9443593395743742,0.2874144134886864,-0.8788239179496218
0.1,0.5243681451384906,-1.6101857330392872,2.450581672484578,-0.0445257801210904,0.0487661701929773,0.0386742731732548,-0.007527557543371,0.0039864306845667,-0.1307761789365648,0.5204880704034536,-1.6036930473860107,2.4523075957925733,-0.1266966312672957,0.1975477539174777,-0.1899163143348788,1.7049667040897143,-0.6504999489237593,0.6450641166586547,-1.4379337828648855,8.693697516131579,-0.9500303233633476,0.2956863657008918,-0.8752928728862887
0.12,0.5240692115759299,-1.6099671427483495,2.4478277299952755,-0.0587761123482896,0.0380735553801139,0.0384802281317271,-0.0233022186062901,0.0186376555615973,-0.1577150958709971,0.5179541377781076,-1.599742092307661,2.448509269505876,-0.1528220355059966,0.2375477545135241,-0.2299163149309252,1.7242415489480718,-0.7887330531459584,0.7325612438515278,-1.346945846721613,8.738378528523299,-0.9555787738983682,0.3036321066684215,-0.8727805078002322
0.14,0.5234058187696853,-1.6094105603732434,2.4443681616181334,-0.0730064701519937,0.0291358847194726,0.0383843294533476,-0.0422318992639332,0.0365138352334775,-0.1868948391437236,0.5154202051527618,-1.5957911372293114,2.4447109432191785,-0.1789474397446975,0.2775477551095706,-0.2699163155269717,1.955343976723736,-0.9464840328821534,0.8938089835940122,-1.4589871636363243,8.786654483184975,-0.9596161001557562,0.3111076209266794,-0.8722192839534676
0.16,0.522337933900181,-1.6084452202118948,2.4403169373025637,-0.0856063986875968,0.0229882540463622,0.0383428052076671,-0.0637018345150453,0.0589021633997473,-0.2168017177662062,0.5122331374214483,-1.5908401821360607,2.43991261691758,-0.2050728439833984,0.317547755705617,-0.3099163161230182,2.1544237899653345,-1.0734967625556022,1.1194164083134863,-1.495343931124131,8.767440654154598,-0.9609901287081212,0.317958332553699,-0.8743135173518481
0.18,0.5208134117046368,-1.6070025434573263,2.435663014744314,-0.0957441313678516,0.0205421026604418,0.0382379455185183,-0.087447422357827,0.0837009361825451,-0.247080365155115,0.5083929345841673,-1.584889227027909,2.43411429060108,-0.2311982482220992,0.3575477563016634,-0.3499163167190646,2.288901789742176,-1.1872793921390852,1.2399386391398932,-1.513932369445442,8.801275205008551,-0.9597457355484852,0.3223558429748894,-0.8805924252610817
0.2,0.5189298643060498,-1.6051598525296469,2.430681133437389,-0.1031651499091357,0.0217754805410465,0.037979420570562,-0.1091725975608877,0.1085520957925556,-0.2757626415098336,0.5164410405867454,-1.6028174966481992,2.423308996486558,-0.1229764584327037,0.1837009376726612,-0.3470803666452312,2.1864562358153585,-1.0862587601530354,1.2425579805005242,-1.434113817735927,8.801275205008551,-0.9568382929237635,0.3256733744870863,-0.8884652464902727
0.22,0.5164571574510854,-1.6025641307735214,2.4249840781794623,-0.1048783106305881,0.0279250758092198,0.0376303953926626,-0.136208900568791,0.1480454168896298,-0.291394705826232,0.5164410405867454,-1.6028174966481992,2.423308996486558,-0.1229764584327037,0.1837009376726612,-0.3470803666452312,2.5174617804466206,-1.3518151503951663,1.9746660548537105,-0.7816032158199232,8.819856532316408,-0.9549223453838112,0.3262005342701122,-0.8913200257062405
0.24,0.5135076579819783,-1.599261225564555,2.4189996502896687,-0.1000301606555239,0.0390574674297521,0.0372448812598642,-0.1566001830349415,0.1789982477168415,-0.306300644971411,0.5164410405867454,-1.6028174966481992,2.423308996486558,-0.1229764584327037,0.1837009376726612,-0.3470803666452312,1.9975417133517517,-1.0195641233075246,1.5476415413605835,-0.745296957258948,9.809444447633725,-0.9469238286769112,0.3208819087195952,-0.9037219340605996
0.26,0.5102131283905368,-1.5954161434705196,2.4126947994564194,-0.0932626104513797,0.0524874022778413,0.0368390079968281,-0.1712842408003719,0.2036312916753525,-0.3235361856864653,0.5152112760024185,-1.6009804872714726,2.419838192820106,-0.1300822656476791,0.2037009379706844,-0.3670803669432544,1.6729257835157585,-0.734202888271522,1.231652197925548,-0.8617770357527144,9.619720176835472,-0.9361369281991008,0.3149966278665732,-0.9179097412079322
0.28,0.5068544957906508,-1.591343418186592,2.406358943393535,-0.0868312656590208,0.0660246782052237,0.0364694271289147,-0.1811278956943877,0.2238302134156816,-0.3425341890023223,0.5127517468337643,-1.5973064685180194,2.4128965854872013,-0.1442938800776298,0.2437009385667309,-0.4070803675393008,1.471239367959661,-0.4921827447007906,1.0099460870164585,-0.9499001657928496,9.433697496903733,-0.922247471295614,0.3086965712584656,-0.9352591964148456
0.3,0.5031549334828913,-1.5866645136113116,2.399275103645745,-0.0807794469354271,0.0803212556754827,0.0361165506766579,-0.1879244374844342,0.2430419952581341,-0.3649957385678339,0.5102922176651102,-1.5936324497645662,2.4059549781542966,-0.1585054945075805,0.2837009391627774,-0.4470803681353473,1.516415799467422,-0.3398270895023231,0.9605890921226226,-1.1230774782755804,9.279392099994766,-0.9067267035710862,0.3028391490122127,-0.953800946918226
0.32,0.4993551167310319,-1.5816156660760434,2.391716728088971,-0.0756851704399979,0.0941759673544435,0.0358111840055262,-0.1913981684021788,0.2610343444188392,-0.3897628362276032,0.5071221077749586,-1.5879584309813106,2.3970133707915897,-0.1727171089375312,0.3237009397588238,-0.4870803687313937,1.540454933857344,-0.1736865458872305,0.8996174580352553,-1.2383548829884683,9.146746538474872,-0.8904040786124748,0.2976094422867084,-0.972564134967802
0.34,0.4957189727327276,-1.5764934937957895,2.38406554238843,-0.0716901620154029,0.1063208436476489,0.0355960799874194,-0.1910418342082209,0.2773880104033535,-0.4144408332174238,0.5039519978848069,-1.582284412198055,2.388071763428883,-0.186928723367482,0.3637009403548703,-0.5270803693274402,1.4803486925556053,0.0178167096978945,0.817683299225716,-1.233899849491027,9.004202399280075,-0.8754522914591911,0.2931821674825181,-0.9893539841478732
0.36,0.4919285924401956,-1.5707637853237966,2.375493714891422,-0.0680538796508987,0.1174380208332527,0.0354932885585136,-0.1878684743208584,0.2946876009570947,-0.4415194034963344,0.5004265976339066,-1.5756103933998984,2.378130156051274,-0.2011403377974327,0.4037009409509167,-0.5670803699234865,1.6144619960312716,0.1586679943681279,0.864979527687057,-1.3539285139455293,9.004202399280075,-0.8613419773134354,0.2894023098917204,-1.0042376348407145
0.38,0.4882262087244516,-1.564689832747447,2.3663716471503475,-0.0646544033002195,0.1265606923410869,0.035542898484465,-0.1824582720366471,0.3117545899161214,-0.4693846354905807,0.4965459070222574,-1.5679363745868409,2.3671885486587656,-0.2153519522273834,0.4437009415469631,-0.607080370519533,1.6560672955656088,0.2705101142105634,0.8533494479513376,-1.393261599712317,8.949232254961316,-0.848373489804494,0.2858389394701155,-1.0177641294258366
0.4,0.4846505021988489,-1.5582788747637712,2.3566852522274417,-0.0613242531925342,0.1335670024576108,0.0357483146300476,-0.1754397155956423,0.3283635098744858,-0.4978875243224885,0.4791032951226193,-1.549102103251641,2.3429024153758187,-0.2006821500328534,0.4117545914062375,-0.5366460482303345,1.68636519507417,0.3509278220502398,0.8304459979182194,-1.4251444415953884,8.949232254961316,-0.8374530751083221,0.2825147034128709,-1.0291917302114404
0.42,0.4814276438482734,-1.5518675517770089,2.3472167028697326,-0.058126440516506,0.1383752194854565,0.0360735861284713,-0.164212810540626,0.3455247437852625,-0.4973800788940436,0.4791032951226193,-1.549102103251641,2.3429024153758187,-0.2006821500328534,0.4117545914062375,-0.5366460482303345,1.025681294698302,0.5613452527508167,0.8580616955388365,0.0253722714222442,8.93502736786013,-0.8309976528393768,0.2776755884486996,-1.038369260673039
0.44,0.4782733205379285,-1.5447873031367203,2.33725484411858,-0.055122489396241,0.1416577517378156,0.0365016170395016,-0.1519082380150345,0.3616697633482517,-0.4991249852289712,0.4791032951226193,-1.549102103251641,2.3429024153758187,-0.2006821500328534,0.4117545914062375,-0.5366460482303345,1.018711023603496,0.6152286262795736,0.8072509781494569,-0.0872453167463815,10.623132749876277,-0.8236517273379256,0.2765404404086283,-1.0433862961228524
0.46,0.4753653822374776,-1.537389351514875,2.3272160851284767,-0.0526791967640718,0.1431916461887219,0.036987650056908,-0.1396333153023641,0.3773444863921253,-0.5048169516218789,0.4770964736222907,-1.544984557337579,2.3375359548935157,-0.2043269256320946,0.4317545917042607,-0.5500983307782852,1.0353370846277146,0.6137461356335194,0.7837361521936842,-0.2845983196453822,10.163112285720672,-0.8198973900598414,0.2760503628549238,-1.0449185540000734
0.48,0.4727011057233256,-1.529683028839657,2.3170273757522644,-0.0506632786437302,0.1429756670393837,0.0375316023155111,-0.1275364347961391,0.3925590787708145,-0.5137463812616577,0.4730828306216337,-1.5367494655094538,2.3268030339289085,-0.2116164768305772,0.4717545923003072,-0.5770028958741867,1.0695244888773154,0.6048440253112491,0.7607296189344581,-0.4464714819889415,10.163112285720672,-0.8187601190478572,0.2758917544374979,-1.0443658247009595
0.5,0.4703920467020551,-1.5220842636577014,2.3071604815531312,-0.0490898686435628,0.1410435182737544,0.0381045913657668,-0.1162448387886534,0.4065848325681002,-0.5244095325582151,0.4690691876209766,-1.5285143736813291,2.3160701129643018,-0.2189060280290597,0.5117545928963536,-0.6039074609700882,1.0463325302593995,0.5645798003742853,0.7012876898642856,-0.5331575648278686,9.995946580286727,-0.8197353536010796,0.2758643761388721,-1.042267988634887
0.52,0.4681874898804294,-1.513804086955248,2.296537515433864,-0.04788519637542,0.1370209443069006,0.0387638256292198,-0.104953786399475,0.4207036888941377,-0.537388017673572,0.4646910670603954,-1.518279281823402,2.3039919637449,-0.2261955792275422,0.5517545934924001,-0.6308120260659896,1.112734294317384,0.5645526194589224,0.7059428163018744,-0.6489242557678465,9.867585769007746,-0.8224743393799933,0.2761583683994507,-1.0389241092479942
0.54,0.4661924185708495,-1.505246234610097,2.285651068765184,-0.0473048807785511,0.1310784475435042,0.0394618213921371,-0.0955010115168957,0.4343928681728474,-0.5505764725408979,0.4603129464998142,-1.508044189965475,2.2919138145254982,-0.2334851304260247,0.5917545940884466,-0.6577165911618912,1.0614658780347894,0.4726387441289607,0.6844589639354831,-0.6594227433662947,9.746864419771557,-0.8269163806131371,0.2771468956839208,-1.033968902201695
0.56,0.464357986023805,-1.4964074932933566,2.2745021526119538,-0.0471329309705043,0.1240032843514336,0.0401783502414418,-0.0887110213453028,0.4487199876277257,-0.5636194835985973,0.4557525871592709,-1.4968090980926467,2.2791630511786987,-0.2407746816245072,0.6317545946844929,-0.6846211562577926,1.0265116363879545,0.3394995085796485,0.7163559727439178,-0.6521505528849669,9.744018341357332,-0.8332882324794594,0.2785741689661893,-1.027014825825426
0.58,0.4627162729830378,-1.4877405056434396,2.2636693085195443,-0.0469687077154888,0.1169057643323356,0.0408718141743331,-0.0846375902075335,0.4627766424003493,-0.5759999633366306,0.4510099890387656,-1.4845740062049173,2.265739673704502,-0.2480642328229897,0.6717545952805394,-0.7115257213536941,0.9584605667093504,0.2036715568884621,0.7028327386311789,-0.6190239869016678,9.744018341357332,-0.8408131707241256,0.2799671901465684,-1.0190222441023689
0.6,0.4610477634523963,-1.4783273194938813,2.2520095768581445,-0.0465472565642565,0.1095667748729725,0.0416059120478095,-0.0826213657588741,0.4777292684223834,-0.589319326525519,0.4584843934726611,-1.4646016735234222,2.2348693103527126,-0.1460596215803191,0.5627766438904654,-0.6162044808799465,1.0062947154533022,0.1008112224329706,0.7476313011017033,-0.6659681594444189,9.733124373467035,-0.8485407348296226,0.280986360603565,-1.010935828419283
0.62,0.4594635091158381,-1.4685647518259968,2.2402987846670666,-0.0444870615083166,0.1013390646398838,0.0424788230994843,-0.076140190120507,0.4973698977450318,-0.5798841729990232,0.4584843934726611,-1.4646016735234222,2.2348693103527126,-0.1460596215803191,0.5627766438904654,-0.6162044808799465,1.1366420719751529,0.3240587819183571,0.9820314661324214,0.471757676324791,9.705038829749356,-0.8555777431544058,0.2764482696674898,-1.0102421270691029
0.64,0.4579817038915695,-1.4584492966832328,2.228792778337932,-0.0407932498175401,0.0913501798772705,0.043499952449121,-0.0728699364983862,0.5128807741971204,-0.5712596054679379,0.4584843934726611,-1.4646016735234222,2.2348693103527126,-0.1460596215803191,0.5627766438904654,-0.6162044808799465,0.9023095535391408,0.1635126811060379,0.7755438226044298,0.4312283765542657,10.905652564430966,-0.8660642219745245,0.2770942017577112,-0.9962894111785586
0.66,0.4565959939860512,-1.4485786274780303,2.217988290444461,-0.0372640189145093,0.0811109306044604,0.0444492834456384,-0.0734977058038334,0.5253442006336146,-0.5664442714529101,0.4570237972568579,-1.4589739070845176,2.228707265543913,-0.1583440278548762,0.5827766441884886,-0.6242453843886097,0.6688021652832926,-0.0313884652723597,0.6231713218247115,0.240766700751388,10.905652564430966,-0.8785219862508495,0.2775326461149292,-0.9803347813764934
0.68,0.4550864774081534,-1.4379491721215667,2.206685818554793,-0.034024225664705,0.07028789215795,0.0453632225417339,-0.0777631786516582,0.5369817426600211,-0.564165285628617,0.4541026048252515,-1.447718374206708,2.2163831759263144,-0.1829128404039905,0.6227766447845351,-0.6403271914059361,0.6301198683965518,-0.213273642391238,0.5818771013203217,0.1139492912146544,10.672488837205492,-0.8912596029263046,0.2782769191071815,-0.9638627278200776
0.7000000000000001,0.4534553096654665,-1.4270967357933,2.1954023004710908,-0.0314275747252672,0.0600215832369081,0.0461667723121016,-0.085402299619557,0.5477456210088069,-0.5643879694098902,0.4511814123936452,-1.436462841328899,2.2040590863087157,-0.2074816529531047,0.6627766453805816,-0.6564089984232624,0.6600508206496176,-0.3819560483949428,0.5381939174392891,-0.0111341890636607,10.334336981246452,-0.9026539549130436,0.2787074755955897,-0.9497215453862172
0.72,0.4516393763245966,-1.4160367261632651,2.1840904805172845,-0.0294977515298325,0.050807476396395,0.0468547461510907,-0.0959460719061382,0.5578635114338557,-0.5667579516768824,0.4470317793345831,-1.4232073084212873,2.1909309063402502,-0.2320504655022189,0.702776645976628,-0.6724908054405887,0.7402020950903038,-0.5271886143290598,0.5058945212524424,-0.1184991133496071,10.334336981246452,-0.9136976239039069,0.2789196473430386,-0.9365713761798522
0.74,0.4496967105124498,-1.405348211927287,2.173293520766566,-0.0283067769104359,0.0433088698970585,0.0474024028456146,-0.1080730938315409,0.5668288321442354,-0.5696306452593615,0.442882146275521,-1.4099517755136757,2.1778027263717847,-0.2566192780513332,0.7427766465726745,-0.6885726124579151,0.7676164482311085,-0.6063510962701336,0.4482660355189849,-0.1436346791239551,10.176381836029575,-0.9232485426512028,0.2788167896750121,-0.9259418386609856
0.76,0.4473811644112542,-1.39391092271679,2.161864473604598,-0.0276549303757353,0.0370056633688685,0.0478753314163955,-0.1229909282788008,0.5764190030995077,-0.5731389473568133,0.4381182929027311,-1.3956962425911628,2.1642725012278863,-0.2811880906004474,0.7827766471687209,-0.7046544194752414,0.9039100441335228,-0.7458917223629957,0.4795085477636129,-0.1754151048725893,10.176381836029575,-0.931164101960956,0.2791016389586271,-0.916855561812044
0.78,0.4447409917834456,-1.382280443867003,2.150359177712658,-0.027388219443459,0.0329602714294641,0.048247355714769,-0.1403243082945,0.58611517455707,-0.5772064734472945,0.4327402192162132,-1.3804407096537488,2.150340230908555,-0.3057569031495616,0.8227766477647673,-0.7207362264925679,1.013664851171027,-0.8666690007849608,0.4848085728781148,-0.203376304524061,10.130050480089269,-0.9367008351055436,0.279519376949858,-0.9102954409367562
0.8,0.4418950168668021,-1.3710507005851644,2.139348417998643,-0.0273341909073716,0.0318568496553857,0.0485033996600108,-0.1580849871037724,0.5954520838816079,-0.5815935804218012,0.4377247763687206,-1.3529746851391495,2.121498854040293,-0.1977570082430493,0.6861151760471861,-0.6068184763415768,1.02696920000863,-0.88803394046362,0.466845466226895,-0.2193553487253363,10.130050480089269,-0.940394398956822,0.2790906822707969,-0.9071173302585132
0.8200000000000001,0.4385159386802212,-1.3589930968629769,2.1278237359127514,-0.0260498786202351,0.0343701868477703,0.0487501090883993,-0.1784093065099497,0.6094979203343395,-0.5697511049929712,0.4377247763687206,-1.3529746851391495,2.121498854040293,-0.1977570082430493,0.6861151760471861,-0.6068184763415768,1.3698610379009626,-1.016215970308865,0.7022918226365804,0.5921237714414995,10.097517492308723,-0.9419177670651062,0.2744583113220392,-0.9114747840811498
0.84,0.434764052306305,-1.346684650910932,2.116546499151001,-0.0232300336295603,0.040486794219655,0.0490082539486035,-0.195256557788428,0.6203513875651815,-0.5587726389605497,0.4377247763687206,-1.3529746851391495,2.121498854040293,-0.1977570082430493,0.6861151760471861,-0.6068184763415768,1.1425348386331382,-0.8423625639239124,0.5426733615421009,0.5489233016210737,11.199702269899715,-0.9398207109803772,0.2738528198382218,-0.9114499742575756
0.86,0.4307143883046457,-1.33418531153909,2.1054493978750126,-0.0204668682712364,0.0486419955937488,0.0492228613982091,-0.2084517488813418,0.6291365735656227,-0.5514593854090196,0.4357472062862901,-1.3461135333786778,2.1154306692768774,-0.2092435482327591,0.7061151763452093,-0.6127408769204333,0.8728920874739146,-0.6597595546456891,0.4392593000220601,0.3656626775765059,10.966285503551262,-0.935253036723117,0.272914677205171,-0.9148062188081788
0.88,0.4266564199863499,-1.3221578837054362,2.09501363324885,-0.0183658947046791,0.0571642416251482,0.0493832360939245,-0.217780891397556,0.6366354549310177,-0.5474062091586017,0.4317920661214292,-1.332391229857734,2.1032942997500457,-0.2322166282121789,0.7461151769412557,-0.6245856780781462,0.6318511682687931,-0.4664571258107097,0.3749440682697502,0.202658812520895,10.730829167895536,-0.9291224612118628,0.2719766733412401,-0.92019060323391
0.9,0.4222253955720959,-1.3093491495017715,2.084087298841673,-0.01689234483598,0.0660624868400731,0.0495074013604407,-0.2245919961025766,0.6439439061517951,-0.5455602720560617,0.4278369259565682,-1.3186689263367903,2.0911579302232144,-0.2551897081915986,0.7861151775373022,-0.6364304792358592,0.5079667566282544,-0.3405552352510346,0.3654225610388695,0.0922968551269998,10.54277555092176,-0.9223444805788682,0.2715160772117234,-0.926253762790486
0.92,0.4176863643026556,-1.296399185659914,2.073174708429208,-0.0163937495684057,0.0742306073625999,0.0495745245690682,-0.2288146354272621,0.65077873405345,-0.5458905999488511,0.4227331317927362,-1.3029466227860442,2.0784293206384974,-0.2781627881710183,0.8261151781333487,-0.6482752803935721,0.4020406441778463,-0.2111319662342722,0.3417413950827452,-0.0165163946394708,10.396579289909823,-0.9155907765439448,0.2717983254495698,-0.9321269146868668
0.94,0.413087147426202,-1.2833166463949537,2.062242571571865,-0.0171438397023818,0.0811937366295607,0.0495650489412035,-0.2308679852610588,0.6573156310167972,-0.5473182915310313,0.4176293376289042,-1.2872243192352983,2.06570071105378,-0.301135868150438,0.8661151787293951,-0.660120081551285,0.3499484630027671,-0.1026674916898368,0.3268448481673625,-0.0713845791090073,10.279306769903087,-0.9097924068845497,0.2728350380823442,-0.9370969897761344
0.96,0.40869290254927,-1.2707561298407335,2.0518247505167637,-0.018852208272827,0.0865283504795746,0.0494945882426183,-0.2315883783191535,0.6645627307226643,-0.5492331445453001,0.4119512164655868,-1.2705020156696512,2.05267598144012,-0.3241089481298577,0.9061151793254416,-0.671964882708998,0.376517205354494,-0.0360196529047354,0.3623549852933505,-0.0957426507134429,10.23317277116621,-0.9047355004024052,0.2750907476518386,-0.9406269506053332
0.98,0.4040615197870443,-1.2573740232275394,2.0408146433483045,-0.0212807244455517,0.0908175456428766,0.0493860477332801,-0.2315167521835848,0.6734584767693481,-0.5517038458863348,0.4056987683027838,-1.2527797120891029,2.039355131797517,-0.3470820281092774,0.946115179921488,-0.6838096838667109,0.461637826512783,0.0035813067784384,0.444787302334193,-0.1235350670517332,10.208704094908173,-0.9009557358981636,0.2781585647116203,-0.942360749389032
1.0,0.3994372299594531,-1.2437935527481718,2.029751194438934,-0.0236242344439264,0.0938238554386525,0.049297597200842,-0.2309418599523109,0.6841071071472441,-0.5545290741695007,0.392485682177865,-1.223701099389072,2.013229451053988,-0.2511098960192486,0.7734584782594642,-0.5575381645837874,0.5516016335513989,0.0287446115636927,0.5324315188947992,-0.1412614141582946,10.174780948657826,-0.8986758709973071,0.2813349878333664,-0.9422532917287244
1.02,0.3947770064252001,-1.2299207667813872,2.0188268694610065,-0.0232559822279005,0.0977779735629399,0.0493658828778992,-0.2344624142124679,0.7016226413443654,-0.5377089407050915,0.392485682177865,-1.223701099389072,2.013229451053988,-0.2511098960192486,0.7734584782594642,-0.5575381645837874,1.2268915297101182,-0.176027713007848,0.8757767098560632,0.8410066732204624,10.174780948657826,-0.8964759693055966,0.2797022889085718,-0.946722674188748
1.04,0.3903145467194686,-1.2164495332237848,2.0087560505753403,-0.0198063415041326,0.1034755776719607,0.0496035391253713,-0.2347574365494021,0.7149867541705351,-0.5232498379438646,0.392485682177865,-1.223701099389072,2.013229451053988,-0.2511098960192486,0.7734584782594642,-0.5575381645837874,0.9845712296091178,-0.014751116846709,0.6682056413084891,0.722955138061343,11.237378703272045,-0.8939715840907012,0.2808302846878631,-0.9437125405721716
1.06,0.3856442388660808,-1.202042869800724,1.9984226994234329,-0.0151143043812671,0.1102153432517528,0.0499285745125266,-0.2320023473707626,0.7248053866051872,-0.5109906227341826,0.3899745832176726,-1.215966514606477,2.00765406940815,-0.2550285247863814,0.7934584785574874,-0.5587050283232778,0.7973148951737266,0.1377544589319726,0.4909316217326043,0.6129607604840992,11.237378703272045,-0.8897543540339419,0.2802583112739714,-0.9438127713535162
1.08,0.3810573771009731,-1.187465793369605,1.9883023382584848,-0.0107459966616055,0.1167605131710274,0.0502527687833308,-0.22666946492216,0.73245099437404,-0.501793228764041,0.3849523852972876,-1.200497345041288,1.9965033061164743,-0.2628657823206469,0.8334584791535339,-0.5610387558022589,0.6547652426781556,0.2666441224301291,0.3822803884426407,0.4598696985070816,11.03066789159402,-0.8846795763215032,0.2794555283110581,-0.9454505432417876
1.1,0.3766001198349852,-1.172749786736863,1.978336488399436,-0.0071761951053487,0.1224044363273275,0.0505441732647284,-0.2193081240112748,0.7389496335541088,-0.4952531643397808,0.3799301873769026,-1.1850281754760987,1.9853525428247984,-0.2707030398549124,0.8734584797495804,-0.5633724832812399,0.5899027332375865,0.3680670455442597,0.3249319590034383,0.3270032212130069,10.847963144113235,-0.8799533579917795,0.2789946903168877,-0.947232790692137
1.12,0.3725164819252303,-1.1586554084490297,1.9689718875231768,-0.0045985472033752,0.1265544011554769,0.0507779849346655,-0.2109750602156845,0.7445348939653644,-0.4908247222497309,0.3745161265798044,-1.1675590058811072,1.9740850931591736,-0.2785402973891779,0.9134584803456268,-0.5657062107602209,0.5482841084416086,0.4166531897795172,0.2792630205627811,0.2214221045024972,10.605378315643064,-0.8757008000348027,0.2789693876288889,-0.9486114807150507
1.14,0.3683984405195502,-1.1437084593257263,1.9591990921420623,-0.0027384461097386,0.1294692738098776,0.0509699520661676,-0.2013223681301266,0.7500006630049036,-0.4867057011878446,0.3691020657827061,-1.1500898362861154,1.962817643493549,-0.2863775549234434,0.9534584809416732,-0.568039938239202,0.591640579660575,0.4826346042778956,0.2732884519769607,0.2059510530943137,10.605378315643064,-0.8726128533751453,0.2793649741236201,-0.9491716748215604
1.16,0.3644779381474822,-1.1286465597422146,1.9495055770748773,-0.0015017547215126,0.1308731218008557,0.0511170534851505,-0.1913061390156484,0.7559138139699079,-0.4828527050339765,0.3634920735472512,-1.1316206666762227,1.951491850640949,-0.294214812457709,0.9934584815377197,-0.5703736657181829,0.6126495314826692,0.5008114557239096,0.295657548250211,0.1926498076934069,10.569525901285488,-0.8711572996475856,0.2805562587727683,-0.947729240964972
1.18,0.3607593052585164,-1.1134650921670912,1.9398871916140108,-0.0006043023114453,0.1308030034680981,0.0512352536234392,-0.1811983040288879,0.7619086893537581,-0.4791634728684764,0.3576861498734397,-1.1121514970514288,1.940107714601376,-0.3020520699919745,1.033458482133766,-0.572707393197164,0.6158678692674924,0.5053917493380217,0.299743769192512,0.184461608275005,10.569525901285488,-0.8713279792923518,0.2820727369761891,-0.944709458103606
1.2,0.3574129893595955,-1.098931442536979,1.930816824664764,3.682664830844068e-05,0.1293705253871952,0.0513260917259524,-0.1716587252380715,0.7676171348437958,-0.4757797220163569,0.351699390057072,-1.0753696576994034,1.915929017970587,-0.205819662170191,0.8619086908438742,-0.469980366855834,0.5810328804124285,0.4769789395408216,0.2854222745018842,0.1691875426059724,10.558289930899264,-0.873029584083733,0.2838876678535465,-0.9400378479896944
1.22,0.3540887796027857,-1.083477606481846,1.9214453762524115,0.0017946662094746,0.1265267429578204,0.0514865444888654,-0.1613285576755393,0.7770543120732442,-0.4609440064141474,0.351699390057072,-1.0753696576994034,1.915929017970587,-0.205819662170191,0.8619086908438742,-0.469980366855834,1.0196459353124174,0.516508378126608,0.4718588614724184,0.7417857801104766,10.545220843529023,-0.8773531558916868,0.2827866880559923,-0.9359750774809812
1.24,0.3509677299111448,-1.0678727778506178,1.912382093829428,0.0046229221876393,0.1224207487950353,0.0516987432054886,-0.1514429428482874,0.7828434641604013,-0.446234034899546,0.351699390057072,-1.0753696576994034,1.915929017970587,-0.205819662170191,0.8619086908438742,-0.469980366855834,0.9322324339474092,0.4942807413625974,0.2894576043578567,0.7354985757300703,11.289177913812637,-0.8837315356564904,0.2856123748783459,-0.9235520141983392
1.26,0.3480336054831682,-1.052174365579566,1.9035930026591783,0.0070418241876224,0.1168863385517142,0.0518513812026196,-0.1427968113152889,0.7868752645813976,-0.4333588850038672,0.3496411934353701,-1.0667505707909646,1.9112292143020289,-0.2107439337984516,0.8819086911418974,-0.4681437456533055,0.8012185874604567,0.4323065766499226,0.2015900210498133,0.6437574947839364,11.17263373004971,-0.8903945593000607,0.2881776271038878,-0.9115999648106112
1.28,0.3453832407532025,-1.0371960418287067,1.895468936763112,0.0085786076528767,0.1106222546333111,0.0519159839751013,-0.136908168373577,0.789771681684388,-0.4224100757146167,0.3455248001919663,-1.0495123969740872,1.901829606964912,-0.2205924770549728,0.921908691737944,-0.4644705032482485,0.6382432384715286,0.2944321470855993,0.1448208551495244,0.5474404644625286,11.04700886295177,-0.8981834942377686,0.2909499873222382,-0.8987465061368703
1.3,0.3426877283675896,-1.021378015003742,1.8871330873957544,0.0091049290886778,0.1035688314834459,0.0518901437488931,-0.1332226830973562,0.79198482548745,-0.4117670803823806,0.3414084069485624,-1.0322742231572095,1.8924299996277956,-0.2304410203114941,0.9619086923339903,-0.4607972608431916,0.5739210678661991,0.1842742638110392,0.1106571901530961,0.5321497666118058,10.948735596655752,-0.906378892610644,0.2939793936133102,-0.8859492600285487
1.32,0.3400399538785097,-1.0055221539127843,1.879002059491646,0.0081418006976263,0.0965503907201321,0.0517594492210559,-0.1319601083711452,0.7936427876256419,-0.4018765574840401,0.3367995865423325,-1.01303604931053,1.8832140544109317,-0.2402895635680153,1.0019086929300367,-0.4571240184381346,0.505384449190764,0.0631287363105498,0.0828981069095957,0.4945261449170207,10.87806027883289,-0.9145362209656966,0.2976505367473937,-0.8733796730602696
1.34,0.3373940527072546,-0.9896343938132628,1.8710676541893947,0.0054003107232381,0.0899799308632338,0.0515232370302293,-0.1328508579912382,0.7954766688497052,-0.3920231969659693,0.3321907661361027,-0.99379787546385,1.873998109194068,-0.2501381068245366,1.0419086935260833,-0.4534507760330777,0.5031035398621868,-0.0445374810046486,0.091694061203168,0.4926680259035421,10.809399994102932,-0.9220853944386458,0.301822249018652,-0.8618944570628135
1.36,0.3348424669734089,-0.9744767217442944,1.8637149492571643,0.0019513558268594,0.0844856977822682,0.0512690903599732,-0.1358220545272243,0.8001180055819763,-0.3824163160284954,0.3273357321484598,-0.9735597016022692,1.8648739950373303,-0.2599866500810577,1.0819086941221296,-0.4497775336280207,0.5537647895645395,-0.1485598267993076,0.2320668366135536,0.480344046873693,10.809399994102932,-0.929865702182172,0.3072061703405846,-0.8491426615134952
1.38,0.3320736879045507,-0.9584056599150008,1.8561751075116144,-0.0014875223322169,0.079967874757684,0.0510428123135702,-0.1410571393135054,0.8067399395857113,-0.372050760843918,0.3222344845794038,-0.952321527725787,1.8558417119407196,-0.269835193337579,1.121908694718176,-0.4461042912229638,0.6683951992532068,-0.2617542393140534,0.3310967001867504,0.5182777592288718,10.81506781873668,-0.9368236070632224,0.3125906697845754,-0.8369041641548511
1.4,0.3291789018176497,-0.9421896813611552,1.8488431181458012,-0.0043356206569575,0.0773516607748531,0.0508732798543118,-0.1482546290176873,0.8144420054937225,-0.3616571362004502,0.3250208309388754,-0.9180686629357152,1.8375725694694187,-0.1679367721590264,0.9067399410758274,-0.3599997345070693,0.7401910404119558,-0.359874485209094,0.3851032954005573,0.5196812321733912,10.824956350477803,-0.9422777901829256,0.3174036475410111,-0.826502878655278
1.42,0.3261103343823737,-0.9257365341571036,1.841775281274777,-0.0039984413644629,0.0777358509581514,0.0509201707900321,-0.1576575816147677,0.8292868330055385,-0.3456034185140987,0.3250208309388754,-0.9180686629357152,1.8375725694694187,-0.1679367721590264,0.9067399410758274,-0.3599997345070693,1.190069612408858,-0.4701476298540244,0.7422413755908019,0.8026858843175749,11.19097964986304,-0.9472643323484368,0.3190267135465939,-0.8190068958723007
1.44,0.3230446966505037,-0.9098753467528627,1.8353513473188816,-0.0003915004166023,0.0806272798131085,0.0511858480778396,-0.1642418449089375,0.8390136297332935,-0.3313954875247823,0.3250208309388754,-0.9180686629357152,1.8375725694694187,-0.1679367721590264,0.9067399410758274,-0.3599997345070693,0.9217217594089796,-0.3292131647084889,0.4863398363877502,0.7103965494658193,11.062770707600066,-0.948651864350043,0.3195514280166448,-0.8143231630655411
1.46,0.3197100605615454,-0.8930312756408563,1.8288627323599311,0.004236258022025,0.0851501410078854,0.051533804342626,-0.1686200145135299,0.844797121625794,-0.3183003913168931,0.3233414632172852,-0.9090012635249568,1.833972572124348,-0.1733126987281305,0.9267399413738506,-0.3575895292396995,0.748496313035457,-0.2189084802296195,0.2891745946250246,0.6547548103944589,11.062770707600066,-0.9476164620601076,0.3187882209667283,-0.8135397360639351
1.48,0.3163128469738912,-0.8760971799652942,1.8226146686586688,0.008276272188283,0.0902632970238982,0.0518592002281344,-0.1707037151712429,0.8484524393731231,-0.3072463704277234,0.3199827277741047,-0.8908664647034403,1.8267725774342063,-0.1840645518663389,0.9667399419698972,-0.35276911870496,0.591385098905722,-0.1041850328856508,0.1827658873664539,0.552701044458484,10.925662342019676,-0.9455286407253892,0.3179780221109408,-0.8144639726697344
1.5,0.312895877507658,-0.859102372827954,1.8165680146770895,0.011258045687402,0.0952418447896058,0.0521234521925566,-0.1708093792046221,0.8511410363958508,-0.2979664177264635,0.3166239923309241,-0.8727316658819237,1.8195725827440647,-0.1948164050045473,1.0067399425659436,-0.3479487081702205,0.4831077544818356,-0.0052832016689569,0.1344298511363861,0.4639976350629987,10.798444193877003,-0.9430994117269256,0.3176417068642543,-0.8159142262862676
1.52,0.309663540163487,-0.8429118025417719,1.810983944126902,0.0130691028183971,0.0993907724428339,0.0523047926206112,-0.1694240494413318,0.8532505583395094,-0.2902936383104768,0.3127276642308332,-0.8525968670306049,1.8126136085806608,-0.2055682581427557,1.04673994316199,-0.3431282976354811,0.4038587790002348,0.0692664881645155,0.1054760971829271,0.3836389707993354,10.7011228597421,-0.9406469807741836,0.3179059582806242,-0.8171842191365561
1.54,0.3063016480122096,-0.8258298123181387,1.8052579711951808,0.0138106805951938,0.1028578696688367,0.0524064424738069,-0.1668279235135275,0.8549595095647565,-0.2827268741387285,0.3088313361307422,-0.8324620681792859,1.8056546344172564,-0.2163201112809641,1.0867399437580365,-0.3383078871007415,0.4090119318373997,0.1298062963902113,0.0854475612623584,0.3783382085874143,10.634180817804918,-0.9386981925478004,0.3189039903748091,-0.8176978135661763
1.56,0.3029990223307892,-0.8087081574762816,1.7996797934315414,0.0133835378973559,0.1052822914362795,0.0524129732908353,-0.1635936516826861,0.8571922422214592,-0.2754777418762382,0.3046662117021961,-0.811327269313066,1.7988161705172203,-0.2270719644191725,1.1267399443540829,-0.3334874765660021,0.4122970044493368,0.1617135915420717,0.1116366328351325,0.3624566131245149,10.608508299656023,-0.9376035476974168,0.3209222712585444,-0.8166870628781743
1.58,0.2997650529120486,-0.7915354330225243,1.7942453104725726,0.0120539637156438,0.1066620497907146,0.0523430525732591,-0.1600571699155518,0.8600273516050413,-0.2683244297112976,0.3002322909451947,-0.7891924704319448,1.792098216880553,-0.2378238175573809,1.1667399449501292,-0.3286670660312625,0.4234218447223628,0.176824088356714,0.1417554691791056,0.3576656082470292,10.586251784955492,-0.9374580139012032,0.3235787134554938,-0.8143158171815368
1.6,0.2967580893989152,-0.7751607539886587,1.7892154450941986,0.0101887118698357,0.1070944955027152,0.0522261830177445,-0.156733051385173,0.8635090027881777,-0.2614830408848479,0.291762194416271,-0.7485340654422722,1.7808290889870078,-0.1918776049925038,0.9244335602990223,-0.2611604980956469,0.4182590705523119,0.1662059265189419,0.1740825591568184,0.3420694413224845,10.586251784955492,-0.9382383586494578,0.3270238132719426,-0.8103411895374134
1.62,0.2936595073929906,-0.7576729410438984,1.7840928821483373,0.0133288209224569,0.1065082143581025,0.0524477006582273,-0.1532475907950305,0.8832011722458338,-0.2509763147088039,0.291762194416271,-0.7485340654422722,1.7808290889870078,-0.1918776049925038,0.9244335602990223,-0.2611604980956469,1.1295145731827143,0.1742730295071229,0.9846084728828086,0.5253363088022017,10.585926475914675,-0.9427016376974025,0.3283672995220183,-0.8020303883407668
1.64,0.2906351114269159,-0.7399116306841399,1.779175608625247,0.022608134923236,0.104612308217289,0.0530556032476025,-0.1494415406487235,0.8908191464160956,-0.2412747355053116,0.291762194416271,-0.7485340654422722,1.7808290889870078,-0.1918776049925038,0.9244335602990223,-0.2611604980956469,0.6454459450965128,0.1903025073153499,0.3808987085130888,0.4850789601746119,10.788615414510788,-0.946293393323142,0.3259510406817439,-0.7956079933276597
1.66,0.2878279232645999,-0.7229770761605109,1.7746622648674706,0.0320712429230437,0.1016324938986715,0.0536099692460513,-0.1463604538426834,0.8913289683058634,-0.2342869140717918,0.289843418366346,-0.739289729839282,1.7782174840060514,-0.1982416920078942,0.9373148020378188,-0.2597277117725168,0.3826965594710775,0.1540543403020081,0.025491094488389,0.3493910716759904,10.694939510967744,-0.9501246584372628,0.3219459261420222,-0.7901124806661358
1.68,0.2849260041430659,-0.7051826982030076,1.7700356278216838,0.0409217769767522,0.0973677511107368,0.0540252761318336,-0.1441598764013597,0.8881893509952805,-0.2288135779378063,0.2860058662664959,-0.7208010586333015,1.7729942740441385,-0.210969866038675,0.9630772855154112,-0.2568621391262565,0.3341300134968644,0.1100288720661854,-0.1569808655291438,0.2736668066992756,10.549002494722115,-0.9540983378661848,0.3176114349475314,-0.7854257919562398
1.7,0.2820524506753151,-0.6874760869891766,1.76550120491106,0.0480357488527744,0.0921711257744722,0.0542248523177065,-0.1435212013444722,0.8828586212392631,-0.2249453475829734,0.2821683141666458,-0.702312387427321,1.7677710640822255,-0.2236980400694558,0.9888397689930036,-0.2539965664799963,0.3308617220155211,0.0319337528443736,-0.2665364878008724,0.1934115177416429,10.436360054955005,-0.957983116010996,0.3139098448159516,-0.7811342644142056
1.72,0.2791688391721466,-0.6698925386333534,1.7610315051536078,0.0532732568533158,0.0865322376042878,0.0542236131373524,-0.1450860830180053,0.8761883286292954,-0.2221825591872339,0.2776943533652567,-0.682535592047461,1.7626911327526256,-0.2364262141002366,1.014602252470596,-0.251130993833736,0.3693733134458349,-0.078244083676654,-0.3335146304983827,0.1381394197869784,10.347625752742715,-0.96218431433927,0.3105343183594393,-0.7768366951872646
1.74,0.2763795356274599,-0.6533188143130835,1.756832266701158,0.056679517901152,0.0813492940939352,0.0540887127061082,-0.1485873816385594,0.8691292408918223,-0.2199532882874198,0.2732203925638676,-0.6627587966676008,1.7576112014230256,-0.2491543881310174,1.0403647359481885,-0.2482654211874757,0.4094492046041715,-0.1750649310277088,-0.3529543868736551,0.1114635449907031,10.292592759965371,-0.9664065503909872,0.3077016261687221,-0.7728711088478041
1.76,0.2733494316593084,-0.6360142110146281,1.752457153141801,0.0590262061648382,0.0766793154524071,0.0538824193788158,-0.1544190879653292,0.8618736901980828,-0.2176661799181232,0.2684282274117089,-0.642337939200801,1.7526029094095823,-0.2618825621617981,1.066127219425781,-0.2453998485412155,0.4792772664231452,-0.2915853163384885,-0.3627775346869755,0.1143554184648301,10.272817279473202,-0.97002782783869,0.3054151253668512,-0.7697161460473984
1.78,0.270180232688737,-0.618857121621825,1.748127168767827,0.0604145332717417,0.0735516700539212,0.0536874210030743,-0.1623357211612311,0.8542799832301942,-0.2154451671242326,0.2633178579087808,-0.6212730196470613,1.7476662567122954,-0.274610736192579,1.0918897029033734,-0.2425342758949552,0.559621221236385,-0.3958316597950928,-0.3796853483944318,0.1110506396945279,10.273067451283168,-0.9725008668718832,0.3034358813881079,-0.7681949667505018
1.8,0.2668372184814356,-0.6018585918623655,1.7438407744789706,0.0607480135986828,0.0726623599809304,0.0535488647645094,-0.1713128017264671,0.8461145515921779,-0.213290656429669,0.2620634466306754,-0.5761431224603153,1.7373549104116155,-0.1963284698687639,0.8754888786005584,-0.2068174581229299,0.6162470398363886,-0.4488540282617997,-0.4082715819008153,0.1077255347281827,10.278225036904589,-0.97411852452729,0.3016204529410859,-0.7684871684490242
1.82,0.2634879345550958,-0.5857109350375004,1.7398420901626477,0.0648938613208159,0.0739539048642003,0.053812469226304,-0.1803318142549032,0.8511034192108391,-0.2078956529104151,0.2620634466306754,-0.5761431224603153,1.7373549104116155,-0.1963284698687639,0.8754888786005584,-0.2068174581229299,0.5816731257273628,-0.4509506264218046,0.249443380933062,0.2697501759626963,10.438015330436428,-0.9757081613159756,0.2983484335313043,-0.7689217786647335
1.84,0.259804819387285,-0.5687387156434603,1.7357325411326294,0.0730824413612868,0.077010361591761,0.0544704096525233,-0.1872467741066607,0.8453390786702595,-0.2034220263251507,0.2620634466306754,-0.5761431224603153,1.7373549104116155,-0.1963284698687639,0.8754888786005584,-0.2068174581229299,0.5026371117505473,-0.3457479925878789,-0.2882170270289808,0.2236813292632172,10.438015330436428,-0.9748440602775114,0.2923456761877537,-0.7730473920204666
1.86,0.2560068225303729,-0.5519449129043966,1.7316936288921456,0.081291527421802,0.0809187915903987,0.0552065437876525,-0.1920319964008091,0.8343387711276877,-0.2007752429065231,0.2601001619319878,-0.5673882336743097,1.7352867358303865,-0.2031270196102705,0.8797306576746312,-0.2050919163226694,0.6142283388543246,-0.2392611147074161,-0.5500153771285876,0.1323391709313809,10.3757433031069,-0.9719212277482948,0.2851984530052056,-0.780537557155811
1.88,0.2521338179610446,-0.5354040941859511,1.7276903882264545,0.0881233954834979,0.0849960159368642,0.055876295915737,-0.1949411483807374,0.8206426576899623,-0.1996720230696853,0.2561735925346125,-0.5498784561022986,1.7311503866679276,-0.2167241190932837,0.8882142158227768,-0.2016408327221483,0.7022531284190868,-0.1454575989964165,-0.6848056718862738,0.0551609918418904,10.225114261485032,-0.9680027964742264,0.2779501901159523,-0.7896864693569412
1.9,0.2482198321660259,-0.5191526162941869,1.7236994188267316,0.0932518289969057,0.0887364896824585,0.0564075530122483,-0.1962897274441049,0.8056060275231965,-0.1994675032956681,0.2522470231372372,-0.5323686785302874,1.727014037505469,-0.2303212185762968,0.8966977739709225,-0.1981897491216272,0.7549184402970394,-0.0674289531683774,-0.7518315083382854,0.0102259887008571,10.225114261485032,-0.9639917012510528,0.2716463175094696,-0.7985902365144983
1.92,0.2444886710258032,-0.5039991365782062,1.7199076926146415,0.0965781657217248,0.0916638001929136,0.0567480804033011,-0.1964283047918864,0.7906404299557258,-0.1996530091784763,0.2476405987657113,-0.5144347230508689,1.7230502425230363,-0.24391831805931,0.9051813321190684,-0.1947386655211061,0.7483694386219959,-0.0069288673890735,-0.7482798783735367,-0.0092752941404081,10.19316787889784,-0.9604359146346,0.2663718869372813,-0.806403932557842
1.94,0.240566799847555,-0.4883565732635996,1.7159132906255503,0.09864128220168,0.0939024345380063,0.0569206055238985,-0.1957748632562452,0.7746406632610415,-0.1997554082857922,0.2430341743941853,-0.4965007675714504,1.7190864475406038,-0.2575154175423231,0.913664890267214,-0.191287581920585,0.8006716020036063,0.0326720767820587,-0.799988334734214,-0.0051199553657968,10.186130690111897,-0.957514022756116,0.2621717295935438,-0.8129787229223221
1.96,0.2366628890402067,-0.473039233548149,1.7119201011579692,0.0992426336495072,0.0952347851813018,0.056893910306249,-0.1947319952555467,0.758131457712172,-0.1995488525099856,0.238087822535584,-0.4783547231383284,1.7152089296481845,-0.2711125170253363,0.9221484484153596,-0.1878364983200639,0.8271700351351933,0.0521434000349263,-0.8254602774434738,0.0103277887903333,10.20388698129591,-0.9551991417059044,0.2590750076255094,-0.8183434188895491
1.98,0.2329747575830937,-0.4587982808456599,1.708134434693454,0.0982848754086436,0.0957556537618106,0.0566802932611851,-0.1936253534587476,0.741965024899211,-0.198938811528721,0.2328015431899075,-0.4599965897515026,1.711417688845778,-0.2847096165083494,0.9306320065635052,-0.1843854147195429,0.8107872038353041,0.0553320898399559,-0.808321640648052,0.0305020490632274,10.2319295574207,-0.9535045735657994,0.2570379368242478,-0.8227087328215665
2.0,0.2291140271122483,-0.4441378488339749,1.704167865562239,0.0954983189592997,0.0956452994467611,0.0562614887601766,-0.1925834464472223,0.7252732974615508,-0.1976908099541572,0.2232934899101563,-0.4217000296006994,1.698187494117018,-0.2033717634113881,0.7233371149557496,-0.1753404534936334,0.8385356924483279,0.0520953505762658,-0.8345863718830115,0.0624000787281905,10.26634892150014,-0.9529270509256272,0.2567405301124408,-0.8250920350453228
2.02,0.2252217967624117,-0.4296412281995359,1.7002634663795964,0.0963216595380292,0.0963190345934218,0.0561653489959675,-0.1964815387954389,0.7239056796823456,-0.192839189199169,0.2232934899101563,-0.4217000296006994,1.698187494117018,-0.2033717634113881,0.7233371149557496,-0.1753404534936334,0.3186052663385192,-0.1949046174108321,-0.0683808889602566,0.2425810377494106,10.304153257272446,-0.9543134667512922,0.2576688873326551,-0.8222675649068159
2.04,0.2212694038158859,-0.4152555923195911,1.6964571076576682,0.1027119847040384,0.0987695559220463,0.0566236202474996,-0.1982637566101512,0.7136544672446096,-0.1881381537893545,0.2232934899101563,-0.4217000296006994,1.698187494117018,-0.2033717634113881,0.7233371149557496,-0.1753404534936334,0.5708839433435726,-0.0891108907356164,-0.512560621886804,0.2350517704907267,10.459416024203165,-0.9521741133565774,0.2512384619828585,-0.828113628576061
2.06,0.217503932715039,-0.4018498139195603,1.6929202212556702,0.1096135472859996,0.1018992989474076,0.0572006228415163,-0.1978787059457628,0.6979748511452437,-0.1844219063965867,0.2212597722760424,-0.4144666584511419,1.6964340895820815,-0.2053210454019162,0.7196115329670573,-0.1706207818866159,0.8059297731841962,0.0192525332194215,-0.7839808049682928,0.185812369638387,10.46768267733296,-0.949117854919195,0.2433591132549271,-0.8356842691515153
2.08,0.2135680524383831,-0.3880945742298662,1.6892690579598726,0.1160317817739294,0.1053712912306039,0.0577720728579182,-0.1956215393745241,0.6784983840949936,-0.1808927854737277,0.2171923370078147,-0.3999999161520269,1.6929272805122089,-0.2092196093829725,0.7121603689896727,-0.1611814386725809,0.9960952065163696,0.1128583285619364,-0.973823352512504,0.176456046142949,10.455599045336385,-0.9453766887368666,0.2355801786050394,-0.8440854595319426
2.1,0.2096946725443296,-0.3747492408018071,1.6856870463562137,0.1209871698517984,0.108510023849273,0.0582023152149014,-0.1917838831633085,0.6572582670171914,-0.1774627514609925,0.2131249017395869,-0.3855331738529119,1.6894204714423362,-0.2131181733640287,0.7047092050122882,-0.1517420954585459,1.0927434648657814,0.1918828105607783,-1.0620058538901134,0.17150170063676,10.461167967047912,-0.9415284789054608,0.2286839224356612,-0.8522366430347351
2.12,0.2059121788814061,-0.3618408709699919,1.68217647386426,0.1242978981721174,0.1109329497615837,0.0584240669402774,-0.1867183241858809,0.6350723929490645,-0.1737308808060669,0.2088625382723064,-0.3714389897526661,1.6863856295331654,-0.2170167373450849,0.6972580410349036,-0.1423027522445108,1.153039195458764,0.253277948871379,-1.1092937034063444,0.1865935327462833,10.479212457745234,-0.9381155912404748,0.2230339273771247,-0.8593841667393328
2.14,0.2022398955047969,-0.3493820952448551,1.6787468037152078,0.1260610458808393,0.1124420805779118,0.0584118549359546,-0.180862680234904,0.6122775334785595,-0.1693902538403193,0.2046001748050258,-0.3573448056524204,1.6833507876239944,-0.2209153013261411,0.6898068770575191,-0.1328634090304758,1.196594361946079,0.2927821975488451,-1.1397429735252484,0.2170313482873803,10.563399199341802,-0.935489366232206,0.2187324941837168,-0.8651429635113657
2.16,0.1988634992459301,-0.3379763386338202,1.6755756108280528,0.1261593660856433,0.11298692000173,0.0581648032521373,-0.1749489576258994,0.5897453588101237,-0.1646090640457563,0.2002403472382188,-0.3434369006516092,1.6805519292951745,-0.2248138653071973,0.6823557130801344,-0.1234240658164407,1.1890445599690391,0.2956861304502331,-1.1266087334217911,0.2390594897281467,10.563399199341802,-0.93352943118232,0.2155194362741957,-0.8699256565331706
2.18,0.1954308310762169,-0.3264370275462246,1.6723439589388482,0.1242618173759553,0.1126934624580818,0.0576437719392325,-0.1687167583637842,0.5655818043412794,-0.1587394885347655,0.1957830555718854,-0.3297152747502327,1.677989054546705,-0.2287124292882535,0.6749045491027499,-0.1139847226024057,1.281765958444383,0.3116099631057578,-1.2081777234422164,0.2934787755495438,10.618557669024996,-0.9327733270294282,0.2141151897960919,-0.872920778676352
2.2,0.192122170340375,-0.315373791067583,1.6692421575086689,0.1202471384733929,0.1115548643015903,0.0568650118613194,-0.1625958346219216,0.5427386527476454,-0.151632108464035,0.1869949931580277,-0.2981579373291606,1.66440698451211,-0.1855199782782206,0.5607856979729761,-0.1307262442634871,1.2346964542482235,0.3060461870931313,-1.1421575796816965,0.3553690035365237,10.678511150671511,-0.9340709682587632,0.2153158615684814,-0.8725459336853909
2.22,0.1890870974146739,-0.3052786100239611,1.6663695797114733,0.1146483973286947,0.1095427595497398,0.0558947986275404,-0.1573192440545593,0.521978089767013,-0.1509856071217339,0.1869949931580277,-0.2981579373291606,1.66440698451211,-0.1855199782782206,0.5607856979729761,-0.1307262442634871,1.071519187035374,0.2638295283681119,-1.0380281490316223,0.0323250671150535,10.336193752004874,-0.9331297299459324,0.2180625140162519,-0.873381516368126
2.24,0.1859968726572787,-0.2950338414860714,1.6633786652583902,0.1077186900704127,0.1061902504109625,0.0546817229211303,-0.1520949567424528,0.5038888250250351,-0.1479690503176439,0.1869949931580277,-0.2981579373291606,1.66440698451211,-0.1855199782782206,0.5607856979729761,-0.1307262442634871,0.9534336523548772,0.261214365605325,-0.904463237098896,0.1508278402045024,10.336193752004874,-0.9359572446978542,0.2209901230755509,-0.8714727575322403
2.26,0.1830029391492026,-0.2851248778341615,1.6604756421044375,0.1008047712350239,0.1015231146795994,0.053364008497042,-0.1477249033574893,0.4880578437669377,-0.1423667549959592,0.1851397933752455,-0.2925500803494308,1.663099722069475,-0.1888806222611078,0.5598264766993154,-0.1251235954092314,0.867616054273188,0.2185026692481759,-0.7915490629048672,0.2801147660842329,10.475386265117775,-0.9405245267294312,0.2249729578077375,-0.8665934624531282
2.28,0.1800785218056663,-0.2755153603356268,1.6577084541579656,0.0943267809379808,0.0958092646931905,0.0520157499171497,-0.1452423700227426,0.4737531465646651,-0.1346177763972017,0.1814293938096811,-0.2813343663899713,1.6604851971842054,-0.1956019102268824,0.5579080341519941,-0.11391829770072,0.8228517532502997,0.1241266667373383,-0.715234860113631,0.3874489299378753,10.603308442000523,-0.9461944981192172,0.229465027187288,-0.8594202740368599
2.3000000000000003,0.1773224506353936,-0.2666395090348965,1.6552381650756764,0.0886923852217386,0.090059143548008,0.0507845321103613,-0.1451613725594541,0.4612916905931838,-0.1257857264110372,0.1777189942441167,-0.2701186524305118,1.6578706722989356,-0.2023231981926569,0.5559895916046728,-0.1027129999922087,0.763707326919699,0.0040498731644245,-0.623072798574062,0.4416024993082246,10.705344749328106,-0.9533618853993754,0.2342646092804574,-0.850127383517038
2.32,0.1744002919464982,-0.2575417487302081,1.6528310549822205,0.0833250435564403,0.0842630992774748,0.0495939427702118,-0.1472383713647222,0.4491869743038625,-0.1153299567732451,0.1736725302802635,-0.2589988605984183,1.6558164122990915,-0.2090444861584314,0.5540711490573514,-0.0915077022836973,0.8064756648539099,-0.1038499402634077,-0.605235814466068,0.522788481889605,10.781748889354276,-0.960794534451946,0.2387312560967419,-0.8404366599677352
2.34,0.1714125976091237,-0.2486761773348249,1.650639862088932,0.0785113757955275,0.0792995419044015,0.0485494437926469,-0.1516104336871107,0.438014373770744,-0.1042864044926586,0.1696260663164104,-0.2478790687663248,1.6537621522992472,-0.215765774124206,0.5521527065100301,-0.080302404575186,0.8153250557255322,-0.2186031161194257,-0.5586300266559263,0.5521776140293249,10.840753671524908,-0.9675898642203258,0.2429394780532609,-0.8312165152964685
2.36,0.168311631032955,-0.2400247354661099,1.648673154284868,0.0742237955411525,0.0759375175151004,0.0476964796816915,-0.1583513898238764,0.4276956541779596,-0.0929278794914779,0.1654115701534129,-0.2368072379979144,1.651988024742116,-0.2224870620899805,0.5502342639627088,-0.0690971068666746,0.8380521372127715,-0.3370478068382837,-0.5159359796392177,0.5679262500590351,10.865566663599566,-0.9729320058511142,0.2465138345860227,-0.8238179335605267
2.38,0.1652251036316516,-0.2319897165051099,1.6470169582588092,0.0705944916208158,0.0748769396532672,0.0470927739069439,-0.1659801163449761,0.4186227108320248,-0.0819632221123355,0.161029041791271,-0.225783368293187,1.650494029627697,-0.229208350055755,0.5483158214153875,-0.0578918091581633,0.8073714769767606,-0.3814363260549847,-0.4536471672967418,0.5482328689571186,10.882381116452052,-0.9775431702142088,0.2495156382501062,-0.8179809202386906
2.4,0.1618287130889872,-0.2237102681049126,1.6455008508886335,0.0671992963302979,0.0757727348020892,0.0466377030957528,-0.1730550629860196,0.4098305561000002,-0.070208480907577,0.1569260978144028,-0.2110585809635087,1.6429187971531924,-0.1669366276445676,0.412144465927596,-0.0758975079393166,0.8147557848771657,-0.3537473320521733,-0.4396077366012302,0.5877370602379257,10.88303747788359,-0.9805762432546392,0.2521687425186349,-0.8141536145305989
2.42,0.1582537213253835,-0.2155398770616957,1.6441196345077644,0.065928892643009,0.0793469787842833,0.0465126319772347,-0.1837292475140408,0.4070868803015812,-0.0690981194055158,0.1569260978144028,-0.2110585809635087,1.6429187971531924,-0.1669366276445676,0.412144465927596,-0.0758975079393166,0.5538476209444636,-0.5337092264010607,-0.1371837899209471,0.0555180751030601,10.191609728894036,-0.9763182863329158,0.2554431357796242,-0.815364223947919
2.44,0.1544956860000129,-0.2074448434643695,1.642740254556899,0.067395135661311,0.0858497192378514,0.0467769659057767,-0.1910733197226766,0.4023534742771202,-0.0688262401714049,0.1569260978144028,-0.2110585809635087,1.6429187971531924,-0.1669366276445676,0.412144465927596,-0.0758975079393166,0.4370767882077495,-0.3672036104317891,-0.2366703012230492,0.013593961705547,10.191609728894036,-0.9726926389023336,0.2517178033035597,-0.8235543416893116
2.46,0.1508262569974102,-0.1998592951345964,1.6414392049588065,0.0703374921442501,0.0933599402868304,0.0472417050543894,-0.1945130843139167,0.3960361189633168,-0.0681853324721576,0.1552567315379571,-0.2069371363042327,1.6421598220737992,-0.1671279299044859,0.4108488169467103,-0.0746843651047128,0.3610807433350075,-0.1719882295620076,-0.3158677656901726,0.0320453849623619,10.211321986918849,-0.9664407327076118,0.2464047657812635,-0.8351250435223435
2.48,0.1469296649386741,-0.19203511104692,1.640083073376976,0.0738012871086039,0.1015427424902408,0.04780064183498,-0.1947037487906925,0.3866686114876063,-0.0674780786001293,0.1519179989850657,-0.1986942469856808,1.6406418719150129,-0.1675105344243225,0.4082575189849388,-0.0722580794355052,0.4698051651740717,-0.009533223838791,-0.4683753737855234,0.0353626936014143,10.235956347386493,-0.9591398875383886,0.2408858202461667,-0.8474153279845111
2.5,0.1430620441653436,-0.1844159543595137,1.638741351479397,0.0767593838009624,0.1091526865240823,0.048304733695721,-0.191889453097514,0.3758186941539098,-0.066738554481388,0.1485792664321744,-0.1904513576671289,1.6391239217562266,-0.1678931389441591,0.4056662210231673,-0.0698317937662977,0.5616668548145163,0.1407147846589268,-0.5424958666848279,0.0369762059370649,10.257273634132616,-0.9521126293388504,0.2362426765308191,-0.8584202340049966
2.52,0.1392778125508567,-0.1770228589722737,1.6374160519770211,0.0788959579368892,0.1155584434387515,0.0486733108308151,-0.1866729057215952,0.3642568094176195,-0.0658416183343998,0.1452214036532912,-0.1823380332466655,1.6377272858809009,-0.1682757434639957,0.4030749230613958,-0.0674055080970901,0.6357948561293983,0.2608273687959378,-0.5780942368145137,0.04484680734941,10.279310153231563,-0.9452275162799672,0.2323459075221578,-0.8684889522763872
2.54,0.1357956366128403,-0.170218277888838,1.636171822014436,0.0800970767860656,0.120234379643105,0.0488597459378502,-0.1801901074813452,0.3527331643775868,-0.0651855597326736,0.141863540874408,-0.1742247088262021,1.6363306500055743,-0.1686583479838323,0.4004836250996244,-0.0649792224278825,0.6619129114191666,0.3241399120125027,-0.5761822520016363,0.0328029300863105,10.306489581035748,-0.9388542545013272,0.2292904652046111,-0.8772863473045532
2.56,0.1322726998948353,-0.1632966031441104,1.6348747290708676,0.080292815422226,0.1236024560884089,0.0488563211790302,-0.1724866138785156,0.3401297988688014,-0.0645605719671633,0.1384961129825289,-0.1661761668547831,1.6349946712719787,-0.169040952503669,0.3978923271378529,-0.0625529367586749,0.7392212888302016,0.3851746801414799,-0.6301682754392662,0.0312493882755157,10.311485485775847,-0.9336021801835724,0.2272209981819579,-0.884354319181665
2.58,0.1289094180462922,-0.1566308168552418,1.6335912765205909,0.0791445055599644,0.1254485444367809,0.0486333839538494,-0.1643094750609849,0.3272056050240738,-0.0638017578783385,0.1351191199776539,-0.1581924073324083,1.6337193496801132,-0.1694235570235056,0.3953010291760814,-0.0601266510894674,0.7656307605475733,0.4088569408765341,-0.6462096922363825,0.0379407044412409,10.32381663706201,-0.9299322972618392,0.2263615134786099,-0.8892675443297492
2.6,0.1257110482089654,-0.1502220280539003,1.632326896984008,0.076487879653987,0.1259086047991369,0.0481935796753403,-0.1560956082653406,0.3146564427082413,-0.0626458006483427,0.120693944293243,-0.1402705366040381,1.630401188626674,-0.1545892082643364,0.3083160735308868,-0.0662508531275145,0.752139148833641,0.4106933397822157,-0.6274581157916237,0.0577978614997878,10.36834337277196,-0.9282972567977285,0.2274899856725749,-0.8910369834421956
2.62,0.1228039166936954,-0.144297686219447,1.631122181615511,0.0745887859518927,0.1255994826035591,0.0477637607195778,-0.150327974750947,0.3088873182515009,-0.0642913649696615,0.120693944293243,-0.1402705366040381,1.630401188626674,-0.1545892082643364,0.3083160735308868,-0.0662508531275145,0.4161017762798962,0.2883816757196789,-0.2884562228370219,-0.0822782160659382,10.36834337277196,-0.927242977725107,0.2302016097633706,-0.8898920098121053
2.64,0.1198591126179002,-0.1381937579092158,1.629819539934406,0.0742366565962612,0.1249996149842707,0.0474060843340664,-0.144482163395988,0.3016847607055624,-0.0658654140469064,0.120693944293243,-0.1402705366040381,1.630401188626674,-0.1545892082643364,0.3083160735308868,-0.0662508531275145,0.4704465328225354,0.2922905677479492,-0.3601278772969229,-0.0787024538622449,10.16495237635172,-0.9261753831390174,0.2291797758176937,-0.8918433289710813
