t,x,y,z,roll,pitch,yaw,v_x,v_y,v_z,ref_x,ref_y,ref_z,ref_v_x,ref_v_y,ref_v_z,a_com,a_x,a_y,a_z,thrust,wind_x,wind_y,wind_z
0.0,2.2949799267438458,-2.513509468871233,2.5870137951588394,0.0330845203265206,0.0996111855217968,0.0428636116645421,0.0043646045029301,0.0026628309179246,0.0054197572853504,2.2951079137633505,-2.5133477496100767,2.587181151595171,-0.0957087036863131,0.104684671160847,-0.0527257542717031,0.3725392932180542,0.2182302251465053,0.1331415458962329,0.2709878642675244,10.24798154695145,-0.9414844942718824,0.2529592383668984,-0.876744297385275
0.02,2.2952314486936083,-2.5137514387456936,2.5869753717022226,0.0246158242540873,0.0942008193532193,0.0421094119807088,0.0205094248709224,-0.0219439059404052,-0.009152889521904,2.2951079137633505,-2.5133477496100767,2.587181151595171,-0.0957087036863131,0.104684671160847,-0.0527257542717031,1.6420328548013408,0.8072410183996164,-1.2303368429164956,-0.7286323403627251,10.248945433023437,-0.9464207996053556,0.253340267714932,-0.8780392131218462
0.04,2.2957525169182555,-2.514224467402968,2.58659886247402,0.0078277692220417,0.0788192867413157,0.0407351385824382,0.0293725659496997,-0.0232266007294414,-0.027807978061236,2.2951079137633505,-2.5133477496100767,2.587181151595171,-0.0957087036863131,0.104684671160847,-0.0527257542717031,1.0346652890119208,0.4431570539388649,-0.0641347394518078,-0.9327544269666032,9.461847368525014,-0.9517565897711232,0.2679221437800615,-0.8656656985940513
0.06,2.2963360838192,-2.5146307177279845,2.5858498397071057,-0.0095424497026391,0.0575768020010096,0.0396572252598569,0.0274970791332749,-0.0169652331733752,-0.0461084975621482,2.2941508267264874,-2.512300902898468,2.586653894052454,-0.1157087039843364,0.1246846714588702,-0.0643784399735502,0.971636748576864,-0.0937743408212409,0.3130683778033086,-0.9150259750456086,9.18063693296972,-0.9631834905366832,0.2808333026478341,-0.8491605273432852
0.08,2.296774290526082,-2.514871571472631,2.584744710852235,-0.0262331337282534,0.0344632976888172,0.0390968003061959,0.0157526634915061,-0.0070931749090888,-0.063512029944442,2.292236652652761,-2.5102072094752512,2.58559937896702,-0.1557087045803828,0.1646846720549167,-0.0876838113772444,1.160034237125825,-0.587220782088438,0.4936029132143208,-0.8701766191146907,9.235121910545786,-0.9776695803160924,0.2916798141223094,-0.8303964725189715
0.1,2.2968904174541467,-2.5148898495440477,2.58337818057656,-0.0413284377664932,0.0134466627917847,0.0390034420985508,-0.0032347151885572,0.0049617893655967,-0.0795026291709657,2.290322478579035,-2.5081135160520343,2.5845448638815856,-0.1957087051764293,0.2046846726509631,-0.1109891827809385,1.3798025007472727,-0.9493689340031712,0.6027482137342767,-0.7995299613261835,9.297375229180034,-0.994100296969902,0.3016451423821397,-0.8098805435085424
0.12,2.29655726818376,-2.514634057649503,2.5816149854964605,-0.0564473003313667,-0.0059033175063868,0.0392251176320434,-0.0293619529752222,0.020302207648728,-0.0959877586437291,2.2864083044755064,-2.504019822599015,2.5823250802259667,-0.2357087057724757,0.2446846732470096,-0.1342945541846327,1.7246162480361682,-1.30636188933325,0.7670209141565693,-0.8242564736381707,9.297375229180034,-1.0097237759487774,0.3102249533221634,-0.7908483443569072
0.14,2.295648252898396,-2.514043937217234,2.579522196396684,-0.070819846526949,-0.0213630568604082,0.0395978656842621,-0.0603108276060996,0.0382474237524235,-0.1124890451817111,2.282494130371978,-2.499926129145996,2.580105296570348,-0.2757087063685222,0.2846846738430561,-0.1575999255883269,1.969870604465356,-1.54744373154387,0.8972608051847732,-0.8250643268990977,9.359975443997882,-1.0229760484808754,0.3175720999767306,-0.7753895307558653
0.16,2.2940739300292177,-2.513036622459697,2.577097134046796,-0.0834619534558597,-0.0321187660532269,0.0399885056070623,-0.095352839967914,0.0611604210685168,-0.1291799467092777,2.277579956253548,-2.494832435678076,2.5773028786296366,-0.3157087069645686,0.3246846744391025,-0.180905296992021,2.2536272263707304,-1.752100618090716,1.1456498658046654,-0.8345450763783319,9.401941809912389,-1.032251902942682,0.3235089145237342,-0.7648532496206191
0.18,2.291898726327076,-2.5116271486545885,2.5744834402955235,-0.0930958559136862,-0.0372865937050684,0.0402247618352996,-0.1316851649577333,0.0855023616455617,-0.1450779747124623,2.271665782120217,-2.488738742195254,2.573917826403833,-0.355708707560615,0.3646846750351489,-0.2042106683957151,2.326647375845917,-1.816616249490968,1.2170970288522427,-0.7949014001592299,9.452966748608103,-1.0378387188575415,0.3276856461141084,-0.7606736953599788
0.2,2.2888631724537563,-2.50963338802855,2.571408747157347,-0.1008043543039484,-0.0371605065632945,0.0401689266957638,-0.1693760043752692,0.1122564221358532,-0.161436898081985,2.285314468079189,-2.5073520305723105,2.5672295415599,-0.2316851664478494,0.1855023631356778,-0.1842178378160905,2.4515268214556465,-1.884541970876795,1.337703024514575,-0.8179461684761343,9.50953331754954,-1.0405810525942754,0.3292939294200829,-0.7627022560702031
0.22,2.2850513531687278,-2.506940406559233,2.568110034410397,-0.1016856588190768,-0.0313105526880822,0.0400148008380662,-0.2091877096264089,0.1538731260189989,-0.1666950900426115,2.285314468079189,-2.5073520305723105,2.5672295415599,-0.2316851664478494,0.1855023631356778,-0.1842178378160905,2.8916130877919386,-1.9905852625569835,2.0808351941572845,-0.2629095980313245,9.529745358403034,-1.041507858342564,0.3281371645483648,-0.7648147815332283
0.24,2.280499646490978,-2.5035164889928017,2.5647479610975705,-0.0953644051093368,-0.020407594845866,0.0398832334305583,-0.2431444204171372,0.1849686236036812,-0.16906096429713,2.285314468079189,-2.5073520305723105,2.5672295415599,-0.2316851664478494,0.1855023631356778,-0.1842178378160905,2.3052036454250326,-1.6978355395364173,1.5547748792341152,-0.1182937127259253,10.340632863883911,-1.0378591356115252,0.3223843588356149,-0.7749561098535774
0.26,2.2756060299059016,-2.499766520915394,2.561508445670738,-0.0877605007685679,-0.0076183557850326,0.0397169026953298,-0.269757912353862,0.2079645415375139,-0.1717466992175993,2.2829976164147103,-2.5054970069409537,2.565387363181739,-0.2516851667458727,0.205502363433701,-0.1920458104368161,1.7637342251234411,-1.3306745968362386,1.1497958966916382,-0.1342867460234681,10.265970236516296,-1.0327343848927624,0.3163861095342477,-0.784978669446828
0.28,2.269966983112877,-2.495389690212712,2.5580323895532677,-0.0800848250912337,0.0066179814667607,0.0395537615728558,-0.2922847736142962,0.2284956042483127,-0.1757928321105857,2.2783639130857534,-2.50178695967824,2.5617030064254176,-0.2916851673419191,0.2455023640297475,-0.2077017556782674,1.5373314587860578,-1.126343063021709,1.0265531355399384,-0.2023066446493152,10.140722785266917,-1.0253803663538683,0.3106671147321646,-0.7975891314856015
0.3,2.263930426480041,-2.490626748919853,2.5544555625698604,-0.0734926709263159,0.0202427730165589,0.0394592784821356,-0.3100022449350419,0.2469595414379111,-0.1817120248331705,2.2737302097567964,-2.4980769124155264,2.5580186496690955,-0.3316851679379656,0.285502364625794,-0.2233577009197186,1.3132617875256087,-0.8858735660372846,0.9231968594799204,-0.2959596361292435,9.899667442948155,-1.0173763440377868,0.3061167397244951,-0.8100117748220722
0.32,2.257905453719767,-2.485772475561724,2.5509313255616157,-0.0683417571659144,0.0317661928322886,0.0394636835131038,-0.3232307074866871,0.2632965835555985,-0.189004809031032,2.267096506398037,-2.49236686512301,2.553551495650701,-0.371685168534012,0.3255023652218404,-0.2390136461611699,1.1125150201142762,-0.6614231275822613,0.8168521058843664,-0.3646392098930723,9.800025211447974,-1.0088324449289046,0.3024492254218094,-0.8220828873111332
0.34,2.251321951423077,-2.480335644166886,2.547060437556292,-0.0640498762300377,0.0418692362280226,0.0395748065727113,-0.3343309562445003,0.2796749852910747,-0.197785371700058,2.2604628030392777,-2.486656817830495,2.549084341632307,-0.4116851691300585,0.3655023658178869,-0.2546695914026212,1.0823190919025203,-0.555012437890659,0.8189200867738139,-0.439028133451301,9.800025211447974,-1.0010168242219424,0.2996103725006556,-0.8327050287770381
0.36,2.244534347323519,-2.4745681286299126,2.543003482582173,-0.0605319588762828,0.0497787381394417,0.0398006421450226,-0.3438461529113892,0.2962504105175467,-0.2075262685691719,2.2528290996656173,-2.4799467705230778,2.5442257889828763,-0.4516851697261049,0.4055023664139333,-0.2703255366440724,1.072577224332412,-0.4757598333444468,0.8287712613235965,-0.4870448434556931,9.743710248859315,-0.994098010101972,0.2973551958341482,-0.8417987886894732
0.38,2.237567970585705,-2.468470902804578,2.538743628003369,-0.0573632278348635,0.0556986068596897,0.0401380712731356,-0.352364459126603,0.3125853327870926,-0.217990556492726,2.244195396277056,-2.4722367232007594,2.5389758377024094,-0.4916851703221513,0.4455023670099797,-0.2859814818855237,1.0593542231889417,-0.4259153107606883,0.8167461134772958,-0.5232143961777083,9.704664044117637,-0.9887189622140788,0.2953850364213375,-0.848903500455583
0.4,2.23079726131944,-2.4623800840290078,2.534497657953382,-0.0545213135347996,0.0597670682747256,0.0405430558498974,-0.3599638500476824,0.3276684361375196,-0.2284420828107202,2.2199497476293746,-2.4528416361652234,2.527844100178733,-0.4523644606167191,0.4125853342772087,-0.2604468667351405,0.993082513473544,-0.3799695460539709,0.7541551675213531,-0.5225763158997073,9.676782752117106,-0.984231695665573,0.2933718679872274,-0.8549710494575324
0.42,2.2235305878242166,-2.455664383892328,2.529891254274118,-0.0518005850909302,0.0624160087869292,0.041040297001609,-0.3663580432531919,0.3431321777158008,-0.2312444004040764,2.2199497476293746,-2.4528416361652234,2.527844100178733,-0.4523644606167191,0.4125853342772087,-0.2604468667351405,0.8483307053314734,-0.3197096602754745,0.773187078914056,-0.1401158796678125,9.65451312940604,-0.9848752655619788,0.2915291050206776,-0.8551351457193421
0.44,2.2161432832855663,-2.4486584746130164,2.525224781240746,-0.0498773816881804,0.0631702609087819,0.0415753257687405,-0.3722438577950858,0.3569762315667663,-0.2353317737291663,2.2199497476293746,-2.4528416361652234,2.527844100178733,-0.4523644606167191,0.4125853342772087,-0.2604468667351405,0.7794345074293605,-0.2942907270946954,0.6922026925482772,-0.2043686662544938,10.149868404497283,-0.9841470459221112,0.2910119070947872,-0.8555030958876333
0.46,2.2090119699726745,-2.441747265874214,2.520697442787936,-0.0489205822652327,0.0622194797281515,0.0420987970467711,-0.3782446620422668,0.369927406670142,-0.2410250402506897,2.215426103023207,-2.4487157828224517,2.5252396315113814,-0.4723644609147424,0.4325853345752319,-0.2689381287836234,0.7683681927571967,-0.3000402123590512,0.6475587551687867,-0.2846633260761691,10.018099582246576,-0.9846512971652852,0.2910075878558784,-0.8544593540920288
0.48,2.2013760153966344,-2.434210766500289,2.515801330855729,-0.0488869401535046,0.0596031455266898,0.0426538668589737,-0.3851568632661989,0.3831139052321908,-0.2483437093032744,2.206378813810873,-2.4404640761369074,2.5200306941766786,-0.5123644615107888,0.4725853351712784,-0.2859206528805892,0.8294956099767865,-0.3456100611966051,0.6593249281024394,-0.3659334526292357,9.915005244379245,-0.9866433147695997,0.2915727636069627,-0.8517721454734589
0.5,2.1935915709348266,-2.4264121807454857,2.5107478553300404,-0.0499934040537352,0.055457039986097,0.0432019286156176,-0.3931124803829678,0.396213538920544,-0.2566292022361464,2.1973315245985385,-2.432212369451363,2.514821756841976,-0.5523644621068353,0.5125853357673249,-0.302903176977555,0.8711223215173846,-0.3977808558384449,0.6549816844176576,-0.4142746466436003,9.78823936671779,-0.9899706435302378,0.2929081652329549,-0.8473983288277381
0.52,2.18562985942885,-2.418348410887674,2.505522998614873,-0.0522274787912868,0.0501266320935842,0.0437369913852859,-0.4029576870203029,0.4096695724210495,-0.2654457938754143,2.186284235356402,-2.4219606627360166,2.508763693302425,-0.5923644627028818,0.5525853363633714,-0.3198857010745207,0.9430339593993428,-0.4922603318667534,0.6728016750252752,-0.4408295819633923,9.78823936671779,-0.9937912231734912,0.2949787459785505,-0.8421453160780231
0.54,2.1778597487437183,-2.410423389557409,2.500396045165691,-0.0549939285418153,0.0446511338476219,0.0442360218202553,-0.4146157969158915,0.4240404278982295,-0.273793520527042,2.175236946114265,-2.41170895602067,2.5027056297628736,-0.6323644632989283,0.5925853369594178,-0.3368682251714865,1.0150339326026392,-0.5829054947794315,0.7185427738589989,-0.4173863325813876,9.769878268501998,-0.9991302341112618,0.2977162312603565,-0.8347562870637747
0.56,2.169414601981897,-2.401764746128685,2.494828305773388,-0.0576659084109005,0.0392329210815417,0.0447756409564426,-0.4294511713666212,0.4409778757620993,-0.2825257319785665,2.1631896568572277,-2.4004572492904224,2.4962230031208983,-0.6723644638949746,0.6325853375554642,-0.3538507492684523,1.2074942981944112,-0.7417687225364816,0.8468723931934902,-0.4366105725762265,9.783540406389877,-1.004383973205368,0.300330622695511,-0.8273123238438571
0.58,2.1606450576063367,-2.3927562607989064,2.489087243244779,-0.0595626886560585,0.0350764452984276,0.0453071732812936,-0.446914125140266,0.4588442749950162,-0.2911246184063544,2.150142367585288,-2.3882055425452733,2.489315813376499,-0.7123644644910211,0.6725853381515107,-0.3708332733654181,1.3210827224746635,-0.8731476886822437,0.893319961645847,-0.4299443213893944,9.804574595304077,-1.008759521834171,0.3023588822482431,-0.8210346990874057
0.6,2.1514991015954155,-2.383382471167325,2.48317375308742,-0.0603661916830221,0.0332642362283649,0.0457765620996254,-0.4667284246948335,0.4774326219180738,-0.2997700268635289,2.138299351349324,-2.3698140470491555,2.4745310123244613,-0.5469141266303822,0.5588442764851324,-0.3402346882773032,1.4255491885247764,-0.990714977728374,0.9294173461528776,-0.4322704228587215,9.804574595304077,-1.0123812694663317,0.3035484478657173,-0.8159311161076193
0.62,2.142409460671172,-2.374082034038137,2.4774711825624447,-0.0584651033151687,0.0351340440983935,0.0461871168482591,-0.488398846041003,0.4998873922609695,-0.299956375335108,2.138299351349324,-2.3698140470491555,2.4745310123244613,-0.5469141266303822,0.5588442764851324,-0.3402346882773032,1.5603353791938186,-1.083521067308474,1.122738517144786,-0.0093174235789555,10.345749591993808,-1.0163258934781942,0.3030135425076674,-0.8108502661458515
0.64,2.132437184471408,-2.3638832632935003,2.471458445863954,-0.0538088995898106,0.0405910794951711,0.046603182120312,-0.5072083477963104,0.5182137856244619,-0.3013819023495273,2.138299351349324,-2.3698140470491555,2.4745310123244613,-0.5469141266303822,0.5588442764851324,-0.3402346882773032,1.3149963662166588,-0.9404750877653688,0.9163196681746172,-0.071276350720964,10.345749591993808,-1.015411637658634,0.3004839908435446,-0.8124947861347191
0.66,2.122127383874808,-2.3533596409718203,2.4653891244667783,-0.0488562192298632,0.0479083058523308,0.0469573376990497,-0.5224837740645994,0.5331733466769508,-0.3055969543896659,2.13283021008302,-2.364225604284304,2.471128665441688,-0.5669141269284054,0.5788442767831555,-0.350056702251493,1.0896028843828336,-0.7637713134144519,0.7479780526244484,-0.2107526020069305,10.169574749957974,-1.01151542312451,0.2976695810788587,-0.8179345231827303
0.68,2.111546888993658,-2.342557801993894,2.459203844930077,-0.0444418384726044,0.0558725543877592,0.0472649566339768,-0.5345626146867456,0.5463774939827313,-0.3127160222981162,2.121891927550412,-2.353048718754602,2.4643239716761425,-0.6069141275244518,0.618844277379202,-0.3697007301998725,0.9629758885001806,-0.6039420311073074,0.6602073652890228,-0.3559533954225174,9.81927185522636,-1.0061511578618811,0.2950406422389438,-0.8253518238139484
0.7000000000000001,2.1012986926102006,-2.3320615688868127,2.453173122699069,-0.0409714201176492,0.0632076537600852,0.0475346195383546,-0.5434756610428741,0.5579792795058437,-0.3217571875654303,2.1109536450178044,-2.341871833224899,2.4575192779105963,-0.6469141281204983,0.6588442779752485,-0.389344758148252,0.8599222233168601,-0.4456523178064275,0.5800892761556209,-0.4520582633657066,9.81927185522636,-0.9997991192259268,0.2925322917188054,-0.8340532179329807
0.72,2.090351131330551,-2.320781221300084,2.4466195106228152,-0.0381216797070396,0.0700851295957295,0.0478081359333442,-0.5507103085408976,0.5695668163072842,-0.3332358231058627,2.0980153624553943,-2.328694947665394,2.4497323827476314,-0.6869141287165448,0.6988442785712949,-0.4089887860966315,0.8921465790657279,-0.3617323749011747,0.5793768400720267,-0.5739317770216162,9.688406809688786,-0.99351436815219,0.2904258806658208,-0.8425640492468243
0.74,2.0792779604036475,-2.309272706753659,2.439820937808092,-0.0360530137692763,0.075687702397955,0.0480791933716712,-0.5562690121676952,0.5808742670849109,-0.3460672120512412,2.0850770798929843,-2.3155180621058893,2.4419454875846665,-0.7269141293125913,0.7388442791673414,-0.4286328140450111,0.8991692990847222,-0.2779351813398778,0.5653725388813313,-0.6415694472689276,9.525343199910822,-0.988118730742232,0.2888087445110761,-0.8498664291729601
0.76,2.068661959518906,-2.298123104816155,2.4331165619932467,-0.0344093239167504,0.079813473305054,0.0483550829824107,-0.5609403710556785,0.5921473080670009,-0.3590259901785096,2.071138797315673,-2.301341176531483,2.433667491722992,-0.7669141299086376,0.7788442797633878,-0.4482768419933906,0.8899901367374684,-0.2335679443991656,0.5636520491045016,-0.6479389063634183,9.525343199910822,-0.9831015577578908,0.2872989793540497,-0.8566515775714072
0.78,2.057395624730922,-2.286156161036668,2.4257865365013727,-0.0327188645115165,0.0830883725862186,0.0486739343999129,-0.5654456074579975,0.6038837030564316,-0.3733305179976542,2.0562005147234608,-2.2861642909421755,2.424898395162608,-0.8069141305046841,0.8188442803594342,-0.46792086994177,0.9521812308029864,-0.2252618201159517,0.5868197494715344,-0.7152263909572298,9.49264078899978,-0.9788733260248852,0.2857387205326009,-0.8625399202776681
0.8,2.0460418588005505,-2.273956423136512,2.418165013978518,-0.0309671631820289,0.0854611662504459,0.0490188779800773,-0.5697109741860241,0.6154087782041777,-0.388129160653926,2.0291233443580223,-2.255961975883846,2.40712001060149,-0.6654456089481137,0.7038837045465477,-0.4116770395540316,0.9617958917485804,-0.2132683364013288,0.5762537573873072,-0.7399321328135894,9.443333120852913,-0.9755201633049122,0.2841654260310626,-0.8673904082566574
0.8200000000000001,2.0351821611449306,-2.2621363271109,2.410796988740985,-0.0287154374881279,0.0872847593868182,0.049392374817437,-0.573127789281045,0.6277876764836884,-0.3866929011316468,2.0291233443580223,-2.255961975883846,2.40712001060149,-0.6654456089481137,0.7038837045465477,-0.4116770395540316,0.6460932390595268,-0.1708407547510448,0.6189449139755332,0.0718129761139579,9.443333120852913,-0.9777565110019324,0.2824520722521236,-0.8660173852423259
0.84,2.0236931662329285,-2.249472654474752,2.4030632246232653,-0.0262835577031978,0.0888008720047342,0.049791327091522,-0.5756091966715782,0.638011820712505,-0.386949729770346,2.0291233443580223,-2.255961975883846,2.40712001060149,-0.6654456089481137,0.7038837045465477,-0.4116770395540316,0.5262044963678373,-0.1240703695266576,0.5112072114408284,-0.0128414319349567,10.391007343459933,-0.9763298939629552,0.2814255770799803,-0.8672134719602541
0.86,2.012158561922008,-2.236612570536573,2.3952938748235826,-0.0244271182358893,0.0895549622448637,0.0501586352507055,-0.5777933671514415,0.6475672975129722,-0.3900916837213586,2.0224688882685413,-2.2489231388383804,2.4030032402059494,-0.6854456092461368,0.7238837048445709,-0.4193463438653071,0.5146591401103681,-0.109208523993165,0.47777384002336,-0.1570976975506344,10.056496228786273,-0.9749447605797672,0.2805693057952553,-0.8685580501083923
0.88,2.000580881444661,-2.223568241042166,2.387435587248692,-0.0232538596002388,0.0894422370519375,0.0504868671606571,-0.5799823283452936,0.6564817580263772,-0.3955698701259382,2.009159976089579,-2.2348454647474494,2.394769699414869,-0.7254456098421833,0.7638837054406173,-0.434684952487858,0.53448499426216,-0.1094480596926072,0.4457230256702527,-0.2739093202289766,10.056496228786273,-0.9743340739171102,0.2800760149634957,-0.8691389131936644
0.9,1.989540191883344,-2.2110164261248726,2.379853641045297,-0.0229543552957571,0.0885089579334164,0.0507498093840063,-0.5821643728604725,0.6644186751538959,-0.4022519420692785,1.9958510639106168,-2.2207677906565184,2.3865361586237883,-0.7654456104382298,0.8038837060366638,-0.450023561110409,0.5301086143690199,-0.1091022257589446,0.3968458563759325,-0.3341035971670153,9.938002657361722,-0.9748425823959348,0.28018722723694,-0.8683392244290156
0.92,1.977872210204042,-2.1976449437461723,2.3717243598634106,-0.0237274883073051,0.0865438262299963,0.0509641780468719,-0.5845929389357414,0.6724107761318743,-0.410370068765484,1.980542151701852,-2.2046901165357853,2.37753568740158,-0.8054456110342763,0.8438837066327103,-0.46536216973296,0.5823993309572814,-0.1214283037634433,0.3996050488989211,-0.405906334810277,9.789626671592488,-0.9763213544372203,0.2810801773641718,-0.8663154844752614
0.94,1.9661531389270688,-2.1841127904005115,2.363431512446216,-0.0257831107419291,0.0834050580676972,0.051113889706505,-0.5873249487973996,0.680565251369994,-0.4184981063330635,1.9652332394930876,-2.188612442415052,2.368535216179372,-0.8454456116303227,0.8838837072287568,-0.4807007783555109,0.5916594015844099,-0.1366004930829112,0.407723761905987,-0.406401878378973,9.791850684177916,-0.9789868118783592,0.2828813854334672,-0.8627784059845242
0.96,1.954365888381748,-2.1703943140638007,2.3549802373787574,-0.0285443099281144,0.0792007802641704,0.051247017623033,-0.591416199918446,0.6910065084711755,-0.4262163952928414,1.9489243272694217,-2.1715347682794177,2.3591512797416,-0.8854456122263691,0.9238837078248032,-0.4960393869780619,0.6806801195404952,-0.2045625560523178,0.5220628550590745,-0.3859144479888943,9.791850684177916,-0.9821885879103026,0.2851855351902317,-0.8583201963995746
0.98,1.9430755993754587,-2.1571496300742674,2.346813156030447,-0.0308438679241901,0.0746115454868914,0.0514207418529249,-0.5969585819316731,0.7024883515376286,-0.4330768818376647,1.9316154150308549,-2.153457094128882,2.349383878088264,-0.9254456128224156,0.9638837084208496,-0.5113779956006129,0.7239077880070459,-0.2771191006613549,0.5740921533226528,-0.3430243272411676,9.81459847473434,-0.9865737507936626,0.2875075608611382,-0.8522969522380427
1.0,1.931057749561277,-2.1429663735785422,2.338078098133938,-0.0325978256715359,0.0696814107992472,0.0516587357176809,-0.6047098329863222,0.7151100923827318,-0.4400468271560921,1.913227670278875,-2.122025212497386,2.325159311938564,-0.6969585834217892,0.8024883530277447,-0.4500429397789823,0.8184900314222141,-0.3875625527324566,0.6310870422551629,-0.3484972659213686,9.842124790529851,-0.9913318232096848,0.2893646485712899,-0.8458527992326724
1.02,1.918824934471887,-2.128476165996383,2.3293498491967424,-0.0320235046175432,0.0667277640788925,0.0519916044069264,-0.6184433697721611,0.7328332025237164,-0.4316234583219365,1.913227670278875,-2.122025212497386,2.325159311938564,-0.6969585834217892,0.8024883530277447,-0.4500429397789823,1.1975723446139748,-0.6866768392919442,0.88615550704923,0.421168441707781,9.85548613028459,-0.9970195862724276,0.2893934381038546,-0.839186846181915
1.04,1.9063142241018691,-2.113657451954662,2.320805747561839,-0.0284348278155106,0.0676761037296734,0.0523961834664434,-0.6313955372372853,0.7476091665790702,-0.4232377004514386,1.913227670278875,-2.122025212497386,2.325159311938564,-0.6969585834217892,0.8024883530277447,-0.4500429397789823,1.068186185634723,-0.6476083732562088,0.7387982027676876,0.4192878935248917,10.893120981672835,-1.0004699849257506,0.2886098356481577,-0.8339232977638154
1.06,1.8942161922279688,-2.0993460046342745,2.3128177814787003,-0.0240861115279459,0.0708503260236989,0.0527745334802378,-0.6411630562068665,0.7579911399191727,-0.4179991806197217,1.9062580844446573,-2.1140003289671085,2.3206588825407737,-0.7169585837198124,0.8224883533257679,-0.4534361513672458,0.7593284652951916,-0.4883759484790639,0.5190986670051245,0.2619259915858457,10.73209903334464,-1.0004536805651898,0.2866069882763967,-0.833484286072457
1.08,1.8813079634476064,-2.084093874213658,2.304490339991006,-0.019833131997949,0.075346952888906,0.0531235527414779,-0.6489348534489425,0.7667252692252616,-0.415145252769598,1.8923189127762212,-2.0979505619065537,2.3116580237451942,-0.7569585843158588,0.8624883539218143,-0.4602225745437728,0.601728242816335,-0.3885898621037997,0.4367064653044483,0.1426963925061836,10.53030718393802,-0.99853339811824,0.2845131490903304,-0.8356375497501322
1.1,1.8682677923596216,-2.06868020069811,2.296190234538377,-0.0163726128671259,0.0800656836837538,0.0534155009721574,-0.6545902895838577,0.7743850465454769,-0.4150056710772847,1.8783797411077856,-2.081900794845999,2.3026571649496144,-0.7969585849119053,0.9024883545178608,-0.4670089977202998,0.4761187601854641,-0.2827718067457574,0.3829888660107639,0.0069790846156686,10.356140207642056,-0.9957012469298128,0.2827699447178935,-0.8390132643188283
1.12,1.8551331904840684,-2.0531195890677267,2.287871275928778,-0.0137477597372956,0.0843481582456928,0.053655899680224,-0.6585623603847082,0.7814857439372505,-0.416906122828527,1.8624405694095476,-2.063851027755642,2.2933169849952084,-0.8369585855079518,0.9424883551139072,-0.4737954208968268,0.4177588022870036,-0.1986035400425245,0.3550348695886773,-0.0950225875621157,10.20785248332595,-0.9925160365535732,0.2812828028455253,-0.8428665563742989
1.14,1.842594855481104,-2.0382087388520587,2.279923986120993,-0.0119941495529801,0.0876166611358277,0.0538395096712387,-0.6611029417662734,0.7878858865864881,-0.4195636575472107,1.8465013977113092,-2.0458012606652844,2.2839768050408025,-0.8769585861039982,0.9824883557099536,-0.4805818440733539,0.3690490159448847,-0.1270290690782605,0.3200071324618803,-0.1328767359341842,10.052269418826654,-0.9898012487789783,0.2802041910666267,-0.8461732432714
1.16,1.8293486461711428,-2.022376012146076,2.271498657570289,-0.0106481321127727,0.090119394151853,0.0540015186295915,-0.6633968312865146,0.7950340340356282,-0.4228529379622628,1.82956222599817,-2.026751493560026,2.2744669645069835,-0.9169585867000446,1.022488356306,-0.4873682672498809,0.409808817421511,-0.1146944760120616,0.3574073724570081,-0.1644640207526054,10.029302721972272,-0.987578020792182,0.2794547274679241,-0.8487854631519104
1.18,1.8160586560793168,-2.0063988774512382,2.2630039357504983,-0.0095261871477696,0.0917897864005003,0.0541471630256576,-0.6655101478555928,0.8022784132071001,-0.4264682322037816,1.8116230542701293,-2.0067017264398666,2.264787463393751,-0.9569585872960912,1.0624883569020465,-0.4941546904264079,0.4183822682486542,-0.1056658284539102,0.3622189585735957,-0.1807647120759398,10.029302721972272,-0.9860425621155756,0.278845430925502,-0.8505582072604615
1.2,1.8027270851023875,-1.990276819964811,2.254434076748883,-0.0084660581604848,0.0927660872997008,0.0542845245381932,-0.6675850033074784,0.8094941365322873,-0.4303372241455481,1.782783148686537,-1.9662849567908836,2.241680524140309,-0.7655101493457089,0.9022784146972164,-0.4435053202552199,0.4223173773873264,-0.1037427725942785,0.3607861662593581,-0.1934495970883271,10.015091839936758,-0.9851369320777827,0.2782894899994559,-0.8516001744976449
1.22,1.7900046540499777,-1.9748032741333497,2.2462895860617813,-0.0066210122553256,0.0939349120513069,0.0544612354355066,-0.6712934937398753,0.8184214919992007,-0.4267679175004977,1.782783148686537,-1.9662849567908836,2.241680524140309,-0.7655101493457089,0.9022784146972164,-0.4435053202552199,0.5152439394262893,-0.185424521619848,0.4463677733456683,0.1784653322525198,10.003854221367874,-0.9852892128091106,0.2769529601855928,-0.8520008437663019
1.24,1.776555634114393,-1.9583706302737096,2.237782996685675,-0.0042517485938696,0.0956972477734755,0.0546630306755404,-0.6733330700139096,0.824429758185303,-0.4241869792708396,1.782783148686537,-1.9662849567908836,2.241680524140309,-0.7655101493457089,0.9022784146972164,-0.4435053202552199,0.3424922484012389,-0.1019788137017141,0.3004133093051142,0.1290469114829051,10.466324249591707,-0.9849705932706864,0.2759674261155795,-0.8520132790856628
1.26,1.7630780091978342,-1.941829157149384,2.229307198498205,-0.002447642644285,0.0972309643421944,0.054816362791051,-0.6743289569431703,0.8295216609881583,-0.4236078925967802,1.77512804719308,-1.9572621726439112,2.237245470937757,-0.7855101496437321,0.9222784149952394,-0.4469127378655076,0.261029721993834,-0.0497943464630334,0.2545951401427659,0.0289543337029712,10.354517369695714,-0.983926925233656,0.2751518791177185,-0.852921296637836
1.28,1.7495883713211478,-1.9251939160240856,2.2208246488854035,-0.0014780750096038,0.0981219644865335,0.0549026475329063,-0.6746735039677338,0.833885454850765,-0.424669646024152,1.7598178442061658,-1.9392166043499668,2.2283753645326523,-0.8255101502397786,0.962278415591286,-0.4537275730860829,0.2252150631507352,-0.0172273512281773,0.2181896931303384,-0.0530876713685901,10.154456513626428,-0.9833017946273508,0.2749207590695824,-0.8532060839060893
1.3,1.7367697331578027,-1.9093151505106392,2.212736537146457,-0.001596418997111,0.0981867250933506,0.0549040685917126,-0.6747535405813587,0.8374918416368103,-0.4266549659663874,1.7445076412192515,-1.9211710360560224,2.219505258127548,-0.865510150835825,1.0022784161873324,-0.4605424083066582,0.2058757318330661,-0.0040018306812439,0.180319339302265,-0.0992659971117693,10.154456513626428,-0.9831791221551848,0.2753288136439134,-0.8528443191039452
1.32,1.7232754060452105,-1.892529265380251,2.204175907800146,-0.0030887402400302,0.0973220445818986,0.0548047947185978,-0.6747346564655384,0.8410485999438706,-0.4293251708340034,1.7271974382025352,-1.901125467732276,2.210294409961415,-0.9055101514318716,1.0422784167833787,-0.4673572435272336,0.222378507840307,0.0009442057910147,0.1778379153530129,-0.1335102433807994,10.098538474647285,-0.9839377789951484,0.2766338954728983,-0.8513878166913184
1.34,1.7097823391107076,-1.875666336887164,2.1955626717281884,-0.0060640502530598,0.0952887311497672,0.0546052873208842,-0.6746650792730849,0.8454997555845197,-0.4318490745254955,1.7098872351858188,-1.8810798994085292,2.201083561795282,-0.945510152027918,1.082278417379425,-0.4741720787478089,0.2558696805354222,0.0034788596226742,0.2225577820324564,-0.126195184574604,10.072890419249234,-0.9855548128490822,0.278890237784172,-0.8488023779641093
1.36,1.6962826053830733,-1.858680821430457,2.1869048029151514,-0.0094443153568019,0.0920126901959661,0.0543926574511544,-0.6754392160003885,0.8528608115119672,-0.4337741239963399,1.6915770321542012,-1.8600343310698813,2.191702342748634,-0.9855101526239644,1.1222784179754717,-0.4809869139683843,0.3823945851629204,-0.0387068363651765,0.3680527963723756,-0.0962524735422215,10.105702256063523,-0.9885021794034028,0.2818887456404124,-0.8439547845576846
1.38,1.6827547001555128,-1.8415308943968296,2.1782160753028483,-0.012312156779958,0.0877056956197322,0.054236628031032,-0.6774628371014183,0.8616574982111889,-0.4349584639167361,1.6722668291076823,-1.8379887627163325,2.1821507528214723,-1.0255101532200108,1.162278418571518,-0.4878017491889596,0.4551906202126751,-0.1011810550514913,0.4398343349610811,-0.0592169960198118,10.105702256063523,-0.9927640924065758,0.2848020376322105,-0.8372510564682125
1.4,1.669169026915623,-1.8241964240664603,2.169510965420612,-0.0143699265361702,0.0827290102487143,0.0541551455579213,-0.6811585482575349,0.8711187399363917,-0.4354752317887003,1.648881558300442,-1.7984480194862702,2.156468152107012,-0.7774628385915344,0.961657499701305,-0.431050836024987,0.508528330001528,-0.1847855578058277,0.4730620862601398,-0.0258383935982098,10.143008212643508,-0.9976173283788654,0.287177365103863,-0.8298083025328733
1.42,1.6561350086173925,-1.8074987275195944,2.1613411144572248,-0.0138684242694767,0.079326241549065,0.0542305621880716,-0.6906950546669182,0.885223691642976,-0.4244499203653006,1.648881558300442,-1.7984480194862702,2.156468152107012,-0.7774628385915344,0.961657499701305,-0.431050836024987,1.014214115860445,-0.4768253204691652,0.7052475853292162,0.5512655711699871,10.173057668423098,-1.002851650974558,0.2877432533877054,-0.822713844830165
1.44,1.642213633570602,-1.7896705197487746,2.152971489216213,-0.0103332047339787,0.0790787210314418,0.0544604823242596,-0.7004970671266109,0.8963733031109076,-0.4131518236348793,1.648881558300442,-1.7984480194862702,2.156468152107012,-0.7774628385915344,0.961657499701305,-0.431050836024987,0.9327918764061992,-0.4901006229846349,0.5574805733965793,0.5649048365210657,10.963678957239608,-1.00749304589039,0.2874017488863819,-0.815487046082348
1.46,1.6281212955570463,-1.7716644346050878,2.1448036394378254,-0.0058632690872123,0.0810759788185483,0.0547223464652669,-0.7079978878577846,0.9035632566002876,-0.4041793067806727,1.641106929914527,-1.7888314444892572,2.152157643746762,-0.7974628388895576,0.9816574999993282,-0.4302693104466372,0.6864105941775571,-0.3750410365586876,0.3594976744690004,0.448625842710329,10.85447306318656,-1.008869349229872,0.2860094543101272,-0.8129694899937248
1.48,1.6139020153904626,-1.7535404100614456,2.136790797298364,-0.0018341733760365,0.084132710224579,0.0549446855920664,-0.7134129064996243,0.9086279518778352,-0.3975493405945478,1.625557673142696,-1.769598294495231,2.143536627026262,-0.8374628394856041,1.0216575005953747,-0.4287062592899375,0.4973178479982457,-0.2707509320919843,0.2532347638773746,0.331498309306244,10.69265096896288,-1.008436871723606,0.2842335341987634,-0.8132369032285007
1.5,1.600310799398082,-1.736239792990479,2.1292821594965803,0.0011828103910113,0.0872146283365301,0.0550985438190149,-0.7169262346492913,0.9124479661870838,-0.3931655786085336,1.6100084163708652,-1.750365144501205,2.1349156103057623,-0.8774628400816505,1.061657501191421,-0.4271432081332378,0.339681296070784,-0.1756664074833491,0.191000715462436,0.2191880993007128,10.544963307574108,-1.0071027841258424,0.2827361138858335,-0.8147379569269779
1.52,1.5859464480379557,-1.7179552764856838,2.1214537276550063,0.0034231898526962,0.0900538802688757,0.0551926008790171,-0.7192999133005479,0.9159816648878798,-0.3899745986057535,1.592459159569232,-1.7291319944773764,2.126372746143097,-0.917462840677697,1.1016575017874677,-0.4255801569765382,0.266006250986612,-0.1186839325628297,0.1766849350398003,0.1595490001390032,10.426165341304111,-1.005636600297161,0.2816970081253008,-0.8163844401906055
1.54,1.571546138290838,-1.6996050359513952,2.113680562955291,0.0046509391589494,0.092060960443219,0.0552084566051534,-0.720691971223716,0.9190417969695422,-0.3874995449482441,1.5749099027675992,-1.707898844453548,2.1178298819804326,-0.9574628412737436,1.141657502383514,-0.4240171058198385,0.2087350247695952,-0.0696028961584049,0.1530066040831224,0.1237526828754692,10.342738216782893,-1.0046982137798386,0.2812696557364861,-0.8172635419170529
1.56,1.5571186906521235,-1.6811876646650776,2.1059546468986285,0.005057665609393,0.0931991912213166,0.0551567916763053,-0.7220483034932283,0.9225666939857122,-0.3852147725384156,1.556360645951065,-1.6856656944148185,2.1093260940966854,-0.9974628418697898,1.1816575029795604,-0.4224540546631389,0.2207075053358977,-0.0678166134756186,0.176244850808499,0.1142386204914247,10.301826545460244,-1.0042635826535111,0.281407544240545,-0.8173088923854337
1.58,1.54338645682152,-1.6636227920979407,2.0986576922283864,0.0049306288799561,0.093633448302678,0.0550628897038964,-0.7234383468557642,0.9261886712209874,-0.3829975981979517,1.5368113891196296,-1.6624325443611876,2.100861382491856,-1.0374628424658363,1.2216575035756068,-0.4208910035064392,0.2234211365258053,-0.0695021681267948,0.1810988617637565,0.1108587170231961,10.305294431313088,-1.0044658396931136,0.2819696055244784,-0.8164070922093921
1.6,1.5289008199165466,-1.6450566387038947,2.09102330881994,0.0043951162775677,0.0935592254690668,0.0549282637191675,-0.7251030836857361,0.9302454263675096,-0.3805490019784052,1.507214539478732,-1.6173133585368913,2.079507812318489,-0.8234383483458804,1.0261886727111036,-0.4028002821623234,0.2511186695482714,-0.0832368414985906,0.2028377573261186,0.122429810977323,10.305294431313088,-1.005229023807247,0.2828699622789652,-0.8146854487096349
1.62,1.5143371494731013,-1.626366645096522,2.083412341920387,0.0048851127824811,0.0942628317740842,0.0548633938513029,-0.7310490101110658,0.9382338540143568,-0.3808013309511895,1.507214539478732,-1.6173133585368913,2.079507812318489,-0.8234383483458804,1.0261886727111036,-0.4028002821623234,0.4980780240957517,-0.2972963212664881,0.399421382342352,-0.012616448639216,10.311176237638392,-1.0047547622049948,0.2841231911243645,-0.813050828411585
1.64,1.500409551965645,-1.6084908923960013,2.0761650925648345,0.0065521142225231,0.0962358732864748,0.054886743973294,-0.7345898307036038,0.9430776917083624,-0.3820421912655791,1.507214539478732,-1.6173133585368913,2.079507812318489,-0.8234383483458804,1.0261886727111036,-0.4028002821623234,0.3063490998609145,-0.1770410296269009,0.2421918847002768,-0.0620430157194762,10.153738382728989,-1.0041903181083018,0.2828987759846748,-0.8142995756664595
1.66,1.4856936437811163,-1.5895874155827094,2.0684985316412963,0.0084488041354476,0.0986189388626229,0.054919280443949,-0.7367357524136964,0.947028603371975,-0.3846124438252495,1.4989801559952731,-1.6070514718097804,2.0754798094968656,-0.8434383486439035,1.0461886730091268,-0.4067608189551977,0.2589444012718276,-0.1072960855046267,0.1975455831806361,-0.1285126279835236,10.09854589054703,-1.0025815957470203,0.2815593460075907,-0.8166380910565033
1.68,1.4709487563230912,-1.5706167621632972,2.0607670145537966,0.0099817333968777,0.1006993618501764,0.0549199183100146,-0.7376658737776534,0.9499394307968992,-0.3884111801323585,1.4825113890283557,-1.5865276983555583,2.0674238038536195,-0.88343834923995,1.0861886736051731,-0.4146818925409464,0.2437644333179421,-0.046506068197849,0.145541371246205,-0.1899368153554459,10.022005723331858,-1.0008750947482334,0.2803679970522809,-0.8190855794616311
1.7,1.4569321629722003,-1.5525493286309249,2.0533435971578937,0.0107110447648342,0.1020517422977249,0.0548592228733244,-0.7377857408629085,0.9518746148010144,-0.3928136162413387,1.466042622061438,-1.5660039249013362,2.059367798210373,-0.9234383498359964,1.1261886742012197,-0.422602966126695,0.2405241616842488,-0.0059933542627566,0.0967592002057593,-0.2201218054490139,9.96036998119598,-0.999336708231995,0.279493833958379,-0.821300727305603
1.72,1.442179965618929,-1.533497769626461,2.0454338819308195,0.0103268872508659,0.1026208022411199,0.0547012465510496,-0.7374995057974074,0.953292049736016,-0.3979480455456022,1.447573855064718,-1.5434801514173118,2.050915738887839,-0.963438350432043,1.166188674797266,-0.4305240397124437,0.2667087202744085,0.0143117532750536,0.0708717467500785,-0.2567214652131749,9.893173597864916,-0.9983706958739818,0.2793567350605412,-0.8226568953270004
1.74,1.42743546592473,-1.5144197340521144,2.037419215969222,0.0084616457504897,0.1022070236581505,0.0544276459228635,-0.7370347566399167,0.9545912326267996,-0.4032640431632986,1.429105088067998,-1.5209563779332875,2.042463679565305,-1.0034383510280895,1.2061886753933126,-0.4384451132981924,0.2746074408790073,0.0232374578745364,0.0649591445391783,-0.2657998808848205,9.893173597864916,-0.9982101914847596,0.2801102648997863,-0.8228675203240401
1.76,1.413432875158268,-1.496255019752913,2.0297098316734905,0.005623682029458,0.1009172981144348,0.0540886808601815,-0.7370424917577724,0.9576954460450028,-0.4079782853633606,1.409636321056377,-1.497432604434362,2.0338135934031274,-1.043438351624136,1.246188675989359,-0.4463661868839411,0.2822245573060863,-0.0003867558927839,0.1552106709101608,-0.2357121100031001,9.88588155123034,-0.9987844867348246,0.2818397080716152,-0.8217646992143904
1.78,1.3986863147882016,-1.4770466118737224,2.021502977036539,0.0026086272835888,0.0987795000650122,0.0537331434034382,-0.7376997056408878,0.9629780357491592,-0.4124304217382721,1.3891675540298547,-1.4729088309205352,2.024965480401306,-1.0834383522201825,1.2861886765854054,-0.4542872604696897,0.3469841580368983,-0.0328606941557729,0.2641294852078257,-0.2226068187455743,9.905232032258937,-1.0005588131201602,0.2840333855045538,-0.8187229977165742
1.8,1.383917901401589,-1.4577189084060989,2.013214197815835,0.0001450365401526,0.0960180616796628,0.0534235362373343,-0.7392046419100559,0.969363253310135,-0.4162170230383625,1.3618013295061573,-1.4288977100862643,2.0008814559496257,-0.837699707131004,1.0629780372392754,-0.4121077516154308,0.3787287481862744,-0.0752468134584016,0.3192608780487882,-0.1893300650045198,9.932680825476382,-1.0030272419970845,0.2859777035014089,-0.8147237586377937
1.82,1.3698175020482863,-1.4391844531743077,2.005377433862883,0.000119642001026,0.0943236490647533,0.0532943878280337,-0.7448826057991477,0.980467154885332,-0.4084976113387533,1.3618013295061573,-1.4288977100862643,2.0008814559496257,-0.837699707131004,1.0629780372392754,-0.4121077516154308,0.7333573840658464,-0.2838981944545904,0.555195078759857,0.3859705849804634,9.965288654658252,-1.0061027658083057,0.2853201936437258,-0.8122442643447525
1.84,1.3548692719349416,-1.4194828334688918,1.9972902819958376,0.0028783170309189,0.0946282723068191,0.0533470545070764,-0.7494095768620296,0.9888888689840212,-0.4006994222563623,1.3618013295061573,-1.4288977100862643,2.0008814559496257,-0.837699707131004,1.0629780372392754,-0.4121077516154308,0.6169086000554513,-0.2263485531440956,0.4210857049344541,0.3899094541195497,10.6123550545517,-1.008654490698018,0.2849800429459164,-0.8080135606698322
1.86,1.3398486674388703,-1.3996487231582388,1.989338250580274,0.0067372035265196,0.0959456380374664,0.0534734014003889,-0.7523134344642692,0.9938887620144188,-0.3949876180205701,1.3534243324348472,-1.4182679297138718,1.9967603784334715,-0.8576997074290271,1.0829780375372986,-0.4120432175908625,0.4063742945780271,-0.1451928801119828,0.2499946515198747,0.2855902117896075,10.6123550545517,-1.0094134885201198,0.2836766661956095,-0.8062856284173281
1.88,1.325538363271778,-1.380738569324559,1.981867498898616,0.0100773987109767,0.0974059257744963,0.0535687577918812,-0.7538800308894243,0.9965509991584616,-0.3916839937083977,1.3366703382922271,-1.3970083689690862,1.988518223401163,-0.8976997080250736,1.1229780381333452,-0.4119141495417259,0.22613969447228,-0.0783298212577554,0.1331118572021394,0.1651812156086202,10.473999929411548,-1.0091656183656812,0.2821421746282324,-0.8063011129639293
1.9,1.3104523454966894,-1.3607896893266065,1.9740553255281248,0.0127660891932433,0.0986407078028756,0.0536050272903233,-0.7546535791215617,0.9983610645168226,-0.3897756850372981,1.3199163441496071,-1.3757488082243008,1.9802760683688545,-0.93769970862112,1.1629780387293915,-0.4117850814925894,0.1370798622443867,-0.0386774116068688,0.0905032679180573,0.0954154335549822,10.349160772258074,-1.0086931727242836,0.2807184539973792,-0.8068018806806597
1.92,1.2953567320670896,-1.340810285194655,1.966268139268284,0.0144757055518398,0.0992295875149524,0.05356055608793,-0.7549288448650927,0.9996324662856466,-0.3890822035427645,1.3011623499771847,-1.352489247449713,1.9720403667390023,-0.9776997092171664,1.202978039325438,-0.4116560134434529,0.0737080434991821,-0.0137632871765491,0.0635700884412004,0.034674074726676,10.191963891084924,-1.0085069192962903,0.2798296811108292,-0.8069170534977582
1.94,1.2802592600692706,-1.3208124564139534,1.958490692626198,0.0150277389532303,0.0989750883869136,0.053419022595291,-0.7549325866583427,1.0002743389882311,-0.3886876891264394,1.2824083558047623,-1.3292296866751252,1.9638046651091507,-1.017699709813213,1.2429780399214845,-0.4115269453943163,0.0376714809912046,-0.0001870896625011,0.0320936351292266,0.0197257208162576,10.191963891084924,-1.0089183046495311,0.2794119959381634,-0.806380410333572
1.96,1.265911889918791,-1.3017968501642228,1.951111565858454,0.0145756662467734,0.0980177117841748,0.053203696972232,-0.7553935477369285,1.0013865211962354,-0.3880765179324081,1.2626543616174388,-1.304970125885636,1.9555721901805272,-1.0576997104092594,1.2829780405175308,-0.4113978773451797,0.0675086033070175,-0.0230480539292865,0.0556091104002121,0.0305585597015628,10.18161020561729,-1.009996571982524,0.2797396128760985,-0.8047865812789107
1.98,1.2507946667669472,-1.2817529407993378,1.9433606658350109,0.0133157914675954,0.0964366456213334,0.0529148948731297,-0.756378906557973,1.0029928504630334,-0.387020899338011,1.241900367415214,-1.279710565081246,1.9473429419531323,-1.0976997110053055,1.3229780411135772,-0.4112688092960432,0.1079994946332993,-0.0492679410522278,0.0803164633399022,0.0527809297198561,10.195558143732342,-1.0117666461067434,0.2806922159632652,-0.802122868298974
2.0,1.2356509956604105,-1.2616693318285963,1.935636341474565,0.0114758587517373,0.0944197835775211,0.0525841766712189,-0.7580212011165874,1.0053258483783707,-0.385435819322139,1.2129757214390484,-1.2316032982761862,1.9240096208681103,-0.8563789080480891,1.1029928519531496,-0.3482536695723574,0.163190757603942,-0.082114727930721,0.1166498957668626,0.0792540007936021,10.217574241265538,-1.0140911114704578,0.2821658567512249,-0.7985147897403797
2.02,1.2204451313481992,-1.2414917402538015,1.9280632176138823,0.0106653221359118,0.0931078713045449,0.0523372815663506,-0.7624523372405285,1.0120091844608523,-0.3713215507487796,1.2129757214390484,-1.2316032982761862,1.9240096208681103,-0.8563789080480891,1.1029928519531496,-0.3482536695723574,0.811656525109632,-0.2215568061970541,0.3341668041240808,0.70571342866797,10.24418420819893,-1.0173892474811204,0.281355806978785,-0.7965978155516028
2.04,1.205926556362867,-1.2222144911163595,1.9211546948684333,0.0115105309129678,0.09320967294854,0.0522283648375234,-0.7654905794397409,1.0167778656490367,-0.3566522183030387,1.2129757214390484,-1.2316032982761862,1.9240096208681103,-0.8563789080480891,1.1029928519531496,-0.3482536695723574,0.7860670301241559,-0.1519121099606168,0.2384340594092204,0.7334666222870434,11.065604538590378,-1.020925227278623,0.2829854774723565,-0.790123662937997
2.06,1.190595343073957,-1.20183948475693,1.9141759819212656,0.0131478631602413,0.0938300612557379,0.0521689475557805,-0.7674260342410587,1.0204662399586055,-0.3420245244435706,1.2044119323585676,-1.2205733697566548,1.9205270841723867,-0.8763789083461123,1.1229928522511727,-0.3405002236192267,0.7604595945573841,-0.0967727400658924,0.1844187154784404,0.7313846929734052,11.04341797116922,-1.0234578692012564,0.2840935122914893,-0.7849309942842367
2.08,1.175235871234263,-1.1814043006749422,1.90747778314764,0.0149056613632392,0.0943211366558805,0.0521135300527966,-0.7684779103410873,1.022952903969661,-0.3285111622054427,1.1872843541976057,-1.1985135127175917,1.91356201078094,-0.9163789089421588,1.162992852847219,-0.3249933317129652,0.689022677806311,-0.0525938050014274,0.124333200552773,0.6756681119063968,10.904259400274896,-1.025527391500226,0.2849364999113331,-0.7805247621749329
2.1,1.1606299816199412,-1.1619559219690814,1.9013566064186025,0.0161980307082873,0.0943076316415553,0.0520250134394241,-0.7690254764159856,1.024239980792033,-0.3164865358627658,1.170156776036644,-1.1764536556785288,1.9065969373894924,-0.9563789095382051,1.2029928534432657,-0.3094864398067038,0.6052851270972717,-0.0273783037449182,0.0643538411186028,0.6012313171338407,10.848139203952089,-1.0278707403211598,0.2859279732778957,-0.7757395047873633
2.12,1.145246091493032,-1.1414673746493404,1.895155857776879,0.0166596120124292,0.0935660581960052,0.0518557501108717,-0.7694153979280296,1.0246500359992994,-0.3042269486173679,1.15102919784588,-1.1523937986096635,1.9004072085933583,-0.9963789101342516,1.242992854039312,-0.2939795479004424,0.6136319407553809,-0.0194960756021989,0.0205027603633167,0.6129793622698998,10.848139203952089,-1.0307936650195255,0.2874130232189896,-0.7701551329351674
2.14,1.1298549738161032,-1.1209765630985995,1.889202949309328,0.0157629044738882,0.0918879643989193,0.0515779600897146,-0.7697549513595187,1.0245586665548552,-0.2916419379384414,1.131901619655116,-1.1283339415407982,1.894217479797224,-1.036378910730298,1.2829928546353586,-0.2784726559941809,0.6294961054226379,-0.0169776715744529,-0.0045684722222105,0.6292505339463239,10.818709112100803,-1.0351791515186766,0.2898818512102622,-0.7624583326185683
2.16,1.114450126373983,-1.1004773050572827,1.8835098325332835,0.013573005207092,0.0892260840104537,0.0512029839560142,-0.7708455116535239,1.02547409741216,-0.2782747059276002,1.1117740414494506,-1.1032740844570317,1.888415423298747,-1.0763789113263444,1.322992855231405,-0.2629657640879195,0.6721425203054476,-0.0545280147002613,0.0457715428652472,0.6683616005420584,10.833658678057873,-1.040019577589752,0.2931437247693964,-0.7536969006957197
2.18,1.0997843999908072,-1.080968107665906,1.87835870761574,0.0108952117317561,0.0859925993810023,0.0508099105223361,-0.7729879672601034,1.028225581015437,-0.264593774681528,1.090646463228884,-1.077214227358364,1.8830010390979257,-1.1163789119223908,1.362992855827451,-0.247458872181658,0.7059190070486508,-0.1071227803289776,0.1375741801638463,0.6840465623036113,10.869107479940794,-1.0460148416372237,0.2972369312756475,-0.7427565938332862
2.2,1.0842884158857773,-1.0603579457439916,1.8732278050609528,0.0082830683270554,0.0821463974250719,0.0504240431676617,-0.7766508357372678,1.032614798914153,-0.2491517515943321,1.061135001627802,-1.029556828615134,1.865129018881664,-0.8267333674206545,1.1282255825055532,-0.2435671335510806,0.8233133004344436,-0.1831434238582174,0.2194608949357968,0.772101154359793,10.918578103840446,-1.0529125937279793,0.301635492937201,-0.7300477093163321
2.22,1.0685758208404093,-1.0395875751258907,1.8683241579727443,0.008384486720901,0.0819643300074091,0.0502695588767039,-0.794154042270793,1.0435400884668402,-0.2424229194524605,1.061135001627802,-1.029556828615134,1.865129018881664,-0.8267333674206545,1.1282255825055532,-0.2435671335510806,1.0851283020440263,-0.8751603266762609,0.5462644776343617,0.3364416070935794,10.9712072337079,-1.0526898218762897,0.3066778355827348,-0.7227665919805084
2.24,1.0525555809716036,-1.018640129138084,1.8635430930484915,0.0118270894317585,0.0880054249694181,0.0504114699529521,-0.8062096431099415,1.050227327778915,-0.2359529622953648,1.061135001627802,-1.029556828615134,1.865129018881664,-0.8267333674206545,1.1282255825055532,-0.2435671335510806,0.7614411120114427,-0.6027800419574236,0.3343619656037355,0.3234978578547862,10.484560252726624,-1.052672521318102,0.3041035363063434,-0.7261757388977265
2.26,1.037166696573992,-0.998656668422182,1.859112120739512,0.0158587689853876,0.0966464405086448,0.0506614037305545,-0.8126314570193821,1.052942266776454,-0.2307978021402121,1.0528676679535955,-1.0182745727900784,1.862693347546153,-0.8374824474527647,1.1482255828035763,-0.2393618053249911,0.4335500659471669,-0.3210906954720316,0.135746949876947,0.2577580077576358,10.462602493308625,-1.0490595171385704,0.3015257122309599,-0.7335790960831114
2.28,1.0208794073288772,-0.9775889561359268,1.854541704755556,0.0195359113304624,0.1071043158715618,0.0509452725850691,-0.8153523470020712,1.0538389738643563,-0.2265877302212948,1.0363330006051823,-0.9957100611399674,1.8578220048751315,-0.8589806075169851,1.188225583399623,-0.2309511488728121,0.2546175144302154,-0.1360444991344522,0.044835354395134,0.2105035959458642,10.374065457043798,-1.0425874369542312,0.2990757176619367,-0.7442263166154642
2.3000000000000003,1.004573751357985,-0.9565137458064392,1.850041074008923,0.0221640033298188,0.1180057190001486,0.0511993690618034,-0.8147400829984027,1.0539510956006344,-0.2237107257527787,1.0197983332567693,-0.9731455494898564,1.8529506622041096,-0.8804787675812056,1.2282255839956693,-0.2225404924206332,0.1471784053945727,0.0306132001834213,0.0056060868138918,0.1438502234258051,10.302131750505396,-1.0349498577408576,0.2972859931585234,-0.7555355331358383
2.32,0.9891223790606194,-0.9364939329727916,1.8458101912766651,0.0236374039409853,0.1282897661526999,0.0513901970878498,-0.8114932339146415,1.0536256109396445,-0.2218177930896351,1.0021887579051452,-0.948581037809943,1.8484998523556968,-0.901976927645426,1.2682255845917156,-0.2141298359684542,0.1886210705651471,0.1623424541880636,-0.0162742330494958,0.0946466331571777,10.241695434313442,-1.0261751936331658,0.2960056941558088,-0.7676957189074456
2.34,0.972957082137157,-0.915430523421676,1.841387212154307,0.0239382299428264,0.1385583865392996,0.0515020589483725,-0.8049673547677493,1.0528704169131435,-0.2206409636456731,0.9845791825535212,-0.9240165261300296,1.8440490425072844,-0.9234750877096464,1.3082255851877622,-0.2057191795162753,0.333700255460199,0.3262939573446088,-0.0377597013250463,0.0588414721981012,10.209429940773587,-1.0173554967546936,0.2956047241835544,-0.7791204608973971
2.36,0.9569571067279192,-0.8943735686813394,1.836981463161825,0.0230048594615415,0.1475600080504105,0.051496479949745,-0.795221280623449,1.0529443157898866,-0.2200358278253797,0.9664321532002914,-0.8984520144352149,1.839808499070176,-0.9449732477738668,1.3482255857838086,-0.1973085230640963,0.4882561101286512,0.4873037072150143,0.0036949438371514,0.0302567910146711,10.181974847375386,-1.009116311362008,0.296192052608025,-0.788919756285177
2.38,0.9411808127560272,-0.8733047314489224,1.8325867654621124,0.0212000702237581,0.1546273003647081,0.0513775830925722,-0.7829606981618997,1.0539755555339665,-0.2194875918703288,0.9477476698454564,-0.8718875027254993,1.8357782220443728,-0.9664714078380872,1.388225586379855,-0.1888978666119174,0.6158041498086658,0.6130291230774632,0.0515619872039851,0.0274117977525439,10.172235021171218,-1.0024231392766028,0.2976206974049468,-0.7959343670403404
2.4,0.9264367036534608,-0.8532583831948392,1.828425846152889,0.0190400104147021,0.1592891885016026,0.0511823066553364,-0.7697967345773071,1.0561971522706577,-0.2185393319852754,0.9020327778479322,-0.8206059536722241,1.821612385868596,-0.791001384299874,1.1521444874354212,-0.2063041694836825,0.6691872423443221,0.6581981792296299,0.1110798368345711,0.0474129942526685,10.190473347894113,-0.9970195757963468,0.2998401437896447,-0.8005401160767741
2.42,0.9111178639501986,-0.8320388593878005,1.8240132730114305,0.0188009561745725,0.1640775787127151,0.0511124892581639,-0.7626121744533124,1.065080716793207,-0.2230882711289865,0.9020327778479322,-0.8206059536722241,1.821612385868596,-0.791001384299874,1.1521444874354212,-0.2063041694836825,0.6148749265801524,0.3592280061997355,0.4441782261274674,-0.2274469571855536,10.231166532089446,-0.9884509777599928,0.3025570229405995,-0.8056525639148983
2.44,0.8959641119117632,-0.8106739921849986,1.819507497616507,0.021415502960596,0.170377515688,0.0512798380176012,-0.752761455364688,1.070789281307856,-0.2271983991119356,0.9020327778479322,-0.8206059536722241,1.821612385868596,-0.791001384299874,1.1521444874354212,-0.2063041694836825,0.6052221233091244,0.4925359544312224,0.2854282257324536,-0.2055063991474551,9.882592873758767,-0.9824882256402082,0.3005899905683548,-0.8132173303925745
2.46,0.8810370846358092,-0.7892269508674908,1.814924366866617,0.0251110512317706,0.1772755977053725,0.0515560906889721,-0.7401742586622369,1.073407137217728,-0.2309316427122678,0.8941227640049335,-0.8090845087978699,1.8195493441737591,-0.7926095215274689,1.171778273815712,-0.2036674850063533,0.6693799335401186,0.629359835122556,0.1308927954935979,-0.1866621800166112,9.958762626899444,-0.9753725756919004,0.2980771138310872,-0.8217712907036395
2.48,0.8671188260346651,-0.768827950843589,1.810501526425015,0.0283177198751925,0.1836875419691206,0.0518145979359993,-0.7254343555833449,1.0738805273867984,-0.2344767035011133,0.878302736318936,-0.7860416190491615,1.8154232607840852,-0.7958257959826586,1.211045846576294,-0.1983941160516948,0.7583803416227078,0.7369951539445974,0.0236695084535165,-0.1772530394422711,9.991566149152275,-0.9672972101279858,0.2954638633360345,-0.8311756132641943
2.5,0.8527976918736935,-0.7473557015282498,1.8057733942593912,0.0308806373021792,0.189544612945564,0.0520208288732084,-0.7073738758117165,1.0734879575493748,-0.238157530993678,0.8624827086329385,-0.7629987293004531,1.811297177394412,-0.7990420704378483,1.250313419336876,-0.1931207470970363,0.921796522678234,0.9030239885814196,-0.0196284918711819,-0.1840413746282382,10.011541148916876,-0.959465999604713,0.2935336263874381,-0.8396282754543062
2.52,0.8388603667336706,-0.7258966213343943,1.800975193707789,0.0324612691855594,0.1939053148048392,0.0521208359759969,-0.6872739216668544,1.072570820687932,-0.2414620082667805,0.8465018672241815,-0.7379924609137155,1.8074347624524711,-0.8022583448930379,1.289580992097458,-0.1878473781423777,1.0195205572922832,1.0049977072431049,-0.045856843072134,-0.1652238636551256,10.039249897903574,-0.9526552900659302,0.2925542720857305,-0.846181154079982
2.54,0.8253415911898326,-0.7044625997703344,1.7961173162390598,0.032837009343499,0.1963892077420999,0.0520779455289227,-0.66579739418576,1.0710651017858763,-0.2441550107579751,0.8305210258154246,-0.712986192526978,1.8035723475105303,-0.8054746193482276,1.32884856485804,-0.1825740091877193,1.084851008751653,1.0738263740547205,-0.0752859451027876,-0.1346501245597278,10.083019313795376,-0.947621550747406,0.2927162954737276,-0.8501172279465458
2.56,0.8129040737895848,-0.6841217800263262,1.791462655533821,0.0321640594307402,0.1968977775413382,0.0519045492816047,-0.6446374199501876,1.0702049362011412,-0.2456627997107245,0.8144597775452879,-0.6869982348212259,1.799841766792456,-0.8086908938034174,1.368116137618622,-0.1773006402330607,1.0615528978921425,1.0579987117786185,-0.0430082792367558,-0.0753894476374694,10.131377637792866,-0.944350614771716,0.2940138216178352,-0.8514648953170126
2.58,0.8002507283941448,-0.6627220053128372,1.7865455750085453,0.0306337540313927,0.1953402484082716,0.0516003278798765,-0.621886903994033,1.0698715421189884,-0.2458856276283954,0.7983181224137714,-0.6600285877964593,1.7962430202982482,-0.8119071682586071,1.407383710379204,-0.1720272712784022,1.1377024876545652,1.137525797807731,-0.0166697041076413,-0.0111413958835474,10.201639500218334,-0.943594070412488,0.2964065413506383,-0.8494881739290304
2.6,0.788056130141668,-0.6413196779056962,1.781641793563458,0.0285272165253325,0.1913412812607695,0.0511911204410581,-0.5988553740652457,1.070430057244652,-0.2443770064117524,0.7691563831944431,-0.6092284282068878,1.7742512936271255,-0.6499728659319374,1.090693713240824,-0.2431467599748616,1.1543821377489416,1.151576496439366,0.0279257562831758,0.075431060832154,10.376194640793074,-0.9455153875492452,0.2999316325746902,-0.8437146850462117
2.62,0.776280878955575,-0.6196096636474964,1.776676999095403,0.0353564314909053,0.1846469078628647,0.0513171331306465,-0.5801066157093222,1.0948167007601668,-0.2522083258120494,0.7691563831944431,-0.6092284282068878,1.7742512936271255,-0.6499728659319374,1.090693713240824,-0.2431467599748616,1.5870994655275104,0.9374379177961744,1.2193321757757447,-0.3915659700148496,10.376194640793074,-0.9493424256427238,0.3026050319938081,-0.8313019267855202
2.64,0.7654236841915812,-0.5987668604799009,1.7718166574349934,0.0486786949325829,0.1764283922862871,0.0517374609554481,-0.5640477418560585,1.097311665027896,-0.2589531477452856,0.7691563831944431,-0.6092284282068878,1.7742512936271255,-0.6499728659319374,1.090693713240824,-0.2431467599748616,0.8797796585556878,0.8029436926631828,0.1247482133864608,-0.3372410966618111,9.762671655300435,-0.9547882682114446,0.2943104479373177,-0.8253990087293668
