t,x,y,z,roll,pitch,yaw,v_x,v_y,v_z,ref_x,ref_y,ref_z,ref_v_x,ref_v_y,ref_v_z,a_com,a_x,a_y,a_z,thrust,wind_x,wind_y,wind_z
0.0,2.48886311568676,-1.9504904326977488,2.5166830862444707,0.0334704699244969,0.0995212263598178,0.0427408103840903,0.0041935595449471,0.0011576310086992,0.0024081277539572,2.4889848816781037,-1.9503581642823629,2.5167597433613387,-0.0959056372891484,0.1035549144643117,-0.0377197252363472,0.2486218538699811,0.2096779772473585,0.0578815504349606,0.1204063876978607,10.251862482758952,-0.940577847857094,0.2514729613658888,-0.8790610764056798
0.02,2.4891297620897377,-1.950757790544801,2.5166710404113783,0.0246779574086492,0.0937576529694072,0.0419529915471368,0.0221339894636771,-0.0231007247915017,-0.003340283692587,2.4889848816781037,-1.9503581642823629,2.5167597433613387,-0.0959056372891484,0.1035549144643117,-0.0377197252363472,1.5357173290980075,0.8970214959364975,-1.2129177900100503,-0.2874205723272111,10.00602524030728,-0.9494444276633904,0.2516652362203217,-0.8771705036144235
0.04,2.489692466662027,-1.9512533973235648,2.5165186039838705,0.0078277967243011,0.0776681858350847,0.0405637235127274,0.0317474663879535,-0.0243491446574402,-0.0116644611447587,2.4889848816781037,-1.9503581642823629,2.5167597433613387,-0.0959056372891484,0.1035549144643117,-0.0377197252363472,0.638884615933329,0.4806738462138233,-0.0624209932969207,-0.4162088726085891,9.723034858538083,-0.9579046919453374,0.2688998109406488,-0.8578489698334619
0.06,2.49032718523362,-1.9516813898549288,2.516203495996055,-0.0095493491376245,0.0557159811016016,0.039489103624181,0.0301487395113366,-0.0179942936232574,-0.0193566955538166,2.488025825305212,-1.94932261513772,2.516382546108975,-0.1159056375871716,0.1235549147623349,-0.0457670891434459,0.5052487741117374,-0.0799363438308452,0.3177425517091386,-0.3846117204528948,9.723034858538083,-0.9728376935712943,0.2841219964961538,-0.8335471084526569
0.08,2.490816199517751,-1.9519402641094368,2.5157444018965904,-0.0262379818482624,0.031935394516889,0.0389458723510746,0.0181233156015254,-0.0078472279594607,-0.0261752668425189,2.486107712559429,-1.9472515168484332,2.515628151604248,-0.1559056381832181,0.1635549153583813,-0.0618618169576435,0.8574186203587735,-0.6012711954905604,0.507353283189837,-0.3409285644351143,9.72773008029344,-0.9902809848246338,0.2969796094719275,-0.8070961865512646
0.1,2.490969838501817,-1.9519687970227733,2.5151875568178474,-0.0413311439784602,0.0104018023434835,0.0388767935745772,-0.0016643889267929,0.0046426699377653,-0.0321255609918919,2.484189599813646,-1.9451804185591477,2.514873757099521,-0.1959056387792645,0.2035549159544278,-0.077956544771841,1.2072249173696126,-0.98938522641592,0.6244948948613037,-0.297514707468649,9.834824130770356,-1.0093342337697304,0.3087413490316478,-0.7786409488593404
0.12,2.490654648158615,-1.951712997326266,2.514483465216696,-0.0564491849445354,-0.0092875502146742,0.0391239597274996,-0.0291135212622141,0.0206214195192625,-0.0379698192242611,2.4802714870380607,-1.9411093202400589,2.5133146262040844,-0.2359056393753109,0.2435549165504742,-0.0940512725860386,1.6147218479062226,-1.3724566167710588,0.7989374790748578,-0.2922129116184578,9.834824130770356,-1.0273334266656435,0.3188058617045364,-0.7517325659812223
0.14,2.4897322735903704,-1.9510979471106848,2.513664833539333,-0.0704979290232214,-0.0247988880751249,0.0395310365227301,-0.06182074823987,0.0402344937111702,-0.0435905703681731,2.4763533742624757,-1.93703822192097,2.511755495308648,-0.2759056399713575,0.2835549171465207,-0.1101460004002361,1.927451827703464,-1.6353613488827987,0.9806537095953836,-0.2810375571956024,9.901953468503052,-1.0418997846280784,0.3270717099642489,-0.7293936506511745
0.16,2.4881051152085294,-1.950034866950521,2.5127342375476385,-0.0823827249461204,-0.0352080188548996,0.0399502934465224,-0.099059055026244,0.0645434832797155,-0.0491555847664281,2.471435261471989,-1.9319671235869804,2.509793996217856,-0.3159056405674039,0.3235549177425671,-0.1262407282144337,2.240863589898175,-1.8619153393186976,1.215449478427265,-0.2782507199127499,9.962443284289291,-1.053440159672239,0.3342644627276143,-0.7109201047235012
0.18,2.4858401245132438,-1.9485524139141135,2.511748313240145,-0.0911797925452783,-0.0396295058168701,0.0401800777100253,-0.137328824288179,0.0899187335231128,-0.0542713064691678,2.465517148666601,-1.9258960252380892,2.5074301289317096,-0.3559056411634503,0.3635549183386136,-0.1423354560286312,2.31011318598065,-1.913488463096752,1.268762512169869,-0.2557860851369827,10.029314947524654,-1.0610045583641217,0.3385629817114476,-0.700811011868006
0.2,2.482675102551035,-1.9464586128145829,2.510612531583385,-0.0978099066888324,-0.0384730473071663,0.0401091204527267,-0.1765559617756698,0.1177188756093421,-0.0588921556640141,2.4789736832988343,-1.944056477237958,2.509034747916687,-0.2373288257782952,0.1899187350132289,-0.0998893003902093,2.415040611852392,-1.9613568743745369,1.390007104311465,-0.2310424597423144,10.0898256650471,-1.0653602309971324,0.3402396460148248,-0.6980999016079962
0.22,2.4787113264817697,-1.9436802275703675,2.5093281266131005,-0.0980830983027194,-0.0314255483872416,0.0399052664141882,-0.2170509131843536,0.1570563144242319,-0.0692928624872127,2.4789736832988343,-1.944056477237958,2.509034747916687,-0.2373288257782952,0.1899187350132289,-0.0998893003902093,2.870300456628621,-2.0247475704341893,1.966871940744489,-0.5200353411599311,9.85723456001233,-1.0632433307853069,0.3416086720949048,-0.6997757469741552
0.24,2.4742541402031413,-1.9403999616640268,2.507925026129032,-0.0921826979706613,-0.0199828315243547,0.0397126259379838,-0.2493888548739601,0.1851875367869365,-0.0776556451790951,2.4789736832988343,-1.944056477237958,2.509034747916687,-0.2373288257782952,0.1899187350132289,-0.0998893003902093,2.183485904861749,-1.6168970844803288,1.4065611181352289,-0.4181391345941191,9.85723456001233,-1.0573565760934638,0.3336876000725327,-0.7195001857020765
0.26,2.4689668688126583,-1.9364496431007128,2.5062849495790998,-0.0845107136409355,-0.0055469966948053,0.0394828021305124,-0.2770253887430706,0.2081349497816607,-0.0858964088077024,2.476600395041052,-1.9421572898878257,2.508035854912785,-0.2573288260763184,0.2099187353112521,-0.1090128991744175,1.8427370625183503,-1.3818266934555206,1.1473706497362124,-0.4120381814303665,9.77515773045161,-1.0489001364482635,0.3260908462465641,-0.7398663584088001
0.28,2.463489508198637,-1.9323082061349677,2.5045696506064297,-0.0776863179824855,0.0086344051696668,0.0392927262578402,-0.2978289481946143,0.2267773143156143,-0.0942678909681397,2.471853818525485,-1.938358915187561,2.5060380689049806,-0.2973288266723648,0.2499187359072986,-0.1272600967428342,1.4580874072164236,-1.0401779725771858,0.93211822669768,-0.4185741080218664,9.77515773045161,-1.039498874543639,0.3198696154208413,-0.7587761061948964
0.3,2.4573476611216947,-1.9275858505875476,2.5025825951898133,-0.0716129179118447,0.0226879815816584,0.0391746455584448,-0.3149583116819743,0.2446094524287568,-0.1040929700206764,2.46710724200992,-1.9345605404872963,2.5040402828971766,-0.3373288272684113,0.2899187365033451,-0.1455072943112507,1.330349974214386,-0.8564681743680025,0.8916069056571232,-0.4912539526268348,9.70876570017117,-1.0288338030257334,0.3143536763048464,-0.7779807508881089
0.32,2.450907179867015,-1.92251943595419,2.500385502210124,-0.0668312183467571,0.0348643739481526,0.0391687653054916,-0.3281741807153328,0.2614003426195587,-0.1151816997430838,2.460360665464551,-1.9287621657572296,2.501130137010952,-0.3773288278644577,0.3299187370993915,-0.1637544918796673,1.203695470793018,-0.6607934516679237,0.8395445095400924,-0.5544364861203694,9.641348933941115,-1.0201202380915568,0.3106007935388984,-0.7922312728238163
0.34,2.4445709877243464,-1.917400437172191,2.498080746005872,-0.0633396430489862,0.0442403669760098,0.0392757171791096,-0.3381708649205684,0.2768090816802722,-0.1269210460079266,2.453614088919183,-1.9229637910271624,2.4982199911247265,-0.4173288284605042,0.369918737695438,-0.1820016894480839,1.0899256686424117,-0.499834210261782,0.7704369530356747,-0.5869673132421378,9.580528451925602,-1.0116268165690114,0.3075460601627708,-0.8053610324773793
0.36,2.437709617047878,-1.911691484209291,2.495402357381112,-0.0603569889024617,0.0518034164667444,0.0395088022914733,-0.3474336644296341,0.2932791619452119,-0.1403688039065769,2.4458675123589138,-1.9161654162821944,2.494853665299291,-0.4573288290565506,0.4099187382914844,-0.2002488870165005,1.1596391585094654,-0.4631399754532805,0.8235040132469867,-0.6723878949325176,9.522115672482869,-1.0041659186933845,0.3051658978447004,-0.8163641772474225
0.38,2.4306713355365166,-1.9056533709958088,2.492446791345361,-0.0576827441109042,0.0573080942371916,0.0398568890133805,-0.3559524935680108,0.3096507438960032,-0.1545557945962448,2.437120935783743,-1.9083670415223253,2.491031159534645,-0.497328829652597,0.4499187388875308,-0.2184960845849171,1.1639049040719098,-0.425941456918838,0.8185790975395651,-0.7093495344833958,9.451214567956413,-0.9983859106549472,0.303055089780762,-0.825011492378509
0.4,2.4238311229976564,-1.899616923220381,2.489371044233597,-0.0552536604788381,0.0609556960513132,0.0402760047545041,-0.3637039908015966,0.3248710047523251,-0.1685102415205823,2.412873710858116,-1.8901708338010088,2.4847190016155487,-0.4559524950581269,0.4096507453861193,-0.2006808675821324,1.102801703459107,-0.3875748616792879,0.7610130428160944,-0.6977223462168738,9.43486936312638,-0.9934971950446094,0.300862511386237,-0.8325728933540537
0.42,2.41648758156659,-1.892949630502994,2.4859385376820287,-0.0527583660450458,0.0631788900433718,0.0408017527484898,-0.3702997000520011,0.3410035420869804,-0.1735189308227296,2.412873710858116,-1.8901708338010088,2.4847190016155487,-0.4559524950581269,0.4096507453861193,-0.2006808675821324,0.9067098624909772,-0.329785462520224,0.8066268667327653,-0.2504344651073617,9.43486936312638,-0.99444324817143,0.2982891204412531,-0.8340437337069716
0.44,2.409017100744367,-1.8859799937563824,2.482407911698028,-0.0508084396809727,0.0635889557468235,0.0413799285031876,-0.3765226470930149,0.3553112233549539,-0.1794647843090594,2.412873710858116,-1.8901708338010088,2.4847190016155487,-0.4559524950581269,0.4096507453861193,-0.2006808675821324,0.8348472716941756,-0.3111473520506919,0.7153840633986747,-0.2972926743164933,10.01622671037785,-0.9939440968752908,0.2978160685880848,-0.8341758509162331
0.46,2.401801499193994,-1.8790976978121887,2.4789229810565585,-0.0497727763448131,0.0623284833401046,0.0419487310054273,-0.3828233861662822,0.368527006504686,-0.1870660555067589,2.408314185907535,-1.8860743263471476,2.482712192939728,-0.4759524953561502,0.4296507456841426,-0.2099058821793099,0.8248265892766722,-0.315036953663364,0.6607891574866048,-0.380063559884973,9.888066653837996,-0.9944714557200648,0.2978513538356404,-0.8329895281033491
0.48,2.394069613291769,-1.8715865424389715,2.475084633602551,-0.0496108490312929,0.059418831090582,0.0425543658230549,-0.3901614091858494,0.381958960733873,-0.1964279828258751,2.399195136006372,-1.877881311439425,2.478698575588085,-0.5159524959521966,0.469650746280189,-0.2283559113736649,0.8970920512677184,-0.3669011509783632,0.6715977114593513,-0.4680963659558113,9.705029258599096,-0.9963230314428074,0.2982606248726258,-0.8305229270397843
0.5,2.386179108429153,-1.863808932521796,2.471047781613479,-0.0505474917540118,0.0550707027683543,0.0431522173410992,-0.3986911647584367,0.3952506249804928,-0.2067818976310148,2.3900760861052097,-1.8696882965317023,2.474684958236442,-0.5559524965482431,0.5096507468762355,-0.2468059405680199,0.944230666157697,-0.4264877786293614,0.664583212330988,-0.5176957402569834,9.705029258599096,-0.9991702815928368,0.2992458613835294,-0.8268600418847204
0.52,2.378507099676016,-1.8561718383550896,2.4670156320888905,-0.0524541990819975,0.0500038138037141,0.0437016523652988,-0.4086934792841197,0.4080903398112639,-0.2171390223092978,2.3789570361742447,-1.8594952815941777,2.469748839425081,-0.5959524971442896,0.5496507474722819,-0.265255969762375,0.9645913699693144,-0.5001157262841505,0.641985741538556,-0.517856233914149,9.655168191560731,-1.0027839592948375,0.3011024257288108,-0.8218846953515765
0.54,2.370202413519505,-1.8478581817834487,2.4625578902120124,-0.0552895395626949,0.0443938760647724,0.0442505623303899,-0.4214401104516307,0.4228871590524348,-0.228097635977922,2.36783798624328,-1.8493022666566528,2.4648127206137214,-0.635952497740336,0.5896507480683284,-0.28370599895673,1.1197250547730524,-0.6373315583755534,0.7398409620585439,-0.5479306834312094,9.6284285942711,-1.0076339224234565,0.3034423833008794,-0.8154124304250262
0.56,2.3616141965131345,-1.839221887542238,2.4578825076509747,-0.0579584467216538,0.0392906542242528,0.0447994859519173,-0.4369149978365714,0.4398937676306867,-0.2388715113728284,2.355718936297414,-1.8381092517042277,2.459415351072502,-0.6759524983363824,0.6296507486643748,-0.302156028151085,1.2696192991753863,-0.7737443692470342,0.850330428912599,-0.53869376974532,9.657246264561763,-1.0118924684819748,0.3057274784796191,-0.8093507758992814
0.58,2.352686959242905,-1.8302334579765345,2.4529936022248644,-0.0597917905078422,0.0357685379192678,0.0453244151656616,-0.4550901976636543,0.4578285823529655,-0.2494659616141684,2.3425998863366466,-1.8259162367369004,2.453556730801424,-0.7159524989324288,0.6696507492604212,-0.32060605734544,1.3822426015293858,-0.908759991354144,0.8967407361139379,-0.5297225120670004,9.657246264561763,-1.0155182167960108,0.3074922843915404,-0.8042869946684473
0.6,2.343849067391963,-1.821356206868046,2.4481523053373024,-0.0605276726905581,0.034816880557259,0.0457502466689794,-0.4740650881418964,0.4755407656145461,-0.2595841464493639,2.329932449359722,-1.8073420288588864,2.440520304144156,-0.5550901991537704,0.5578285838430816,-0.3092487534969217,1.3929694620775797,-0.9487445239121068,0.8856091630790291,-0.5059092417597777,9.681211308811726,-1.0183887981433832,0.3080150749559157,-0.8012981656305658
0.62,2.334132859201934,-1.8116046107435897,2.4429043103201344,-0.0587541996460867,0.0373701551854015,0.0461563609497297,-0.4961009064333551,0.4982824112632591,-0.264300117227537,2.329932449359722,-1.8073420288588864,2.440520304144156,-0.5550901991537704,0.5578285838430816,-0.3092487534969217,1.6007811491318789,-1.101790914572931,1.13708228243565,-0.235798538908652,9.685038496410924,-1.0197961146206969,0.3067159232844028,-0.8008808981135865
0.64,2.3240123951788028,-1.80143917004581,2.437559432960055,-0.0543782068783388,0.0433013411609348,0.0465492253117409,-0.5143643167080137,0.5165269873997679,-0.2700365328129861,2.329932449359722,-1.8073420288588864,2.440520304144156,-0.5550901991537704,0.5578285838430816,-0.3092487534969217,1.3222359632742904,-0.9131705137329332,0.912228806825438,-0.2868207792724564,10.08014301681942,-1.0182437478996542,0.3040523137713417,-0.8042109091408698
0.66,2.314094302531446,-1.791480925686169,2.432348018580014,-0.0499292072965741,0.0505217551452581,0.0468730078224285,-0.5284323801723654,0.5307852002204425,-0.2782292096840413,2.3243815473681844,-1.8017637430204556,2.4374278166091865,-0.5750901994517936,0.5778285841411048,-0.3212053118734724,1.0820432024533473,-0.7034031732175816,0.7129106410337316,-0.4096338435527591,9.91770530239046,-1.0133674439282228,0.3008826548690733,-0.8118579355484673
0.68,2.303399208852407,-1.7807253679971595,2.426668718502427,-0.0457529981530342,0.0586361887920399,0.0471742669469222,-0.5400822604329264,0.5440850189120314,-0.2894002364799567,2.313279743385109,-1.7906071713435936,2.431242841539248,-0.6150902000478401,0.6178285847371513,-0.3451184286265737,1.0457015910258616,-0.5824940130280509,0.6649909345794458,-0.5585513397957709,9.73948155072776,-1.0070004746824122,0.29799821658293,-0.8210765504702913
0.7000000000000001,2.292500239770244,-1.7697135781456856,2.4207406165821883,-0.0423416511523986,0.0664056372719467,0.0474555402476085,-0.5490674386286922,0.5565241318872416,-0.3029674299359751,2.302177939402034,-1.779450599666732,2.42505786646931,-0.6550902006438866,0.6578285853331978,-0.3690315453796751,1.024126087321204,-0.4492589097882915,0.6219556487605082,-0.6783596728009184,9.586938062186164,-1.000167760826312,0.2954757014786922,-0.8307808795460497
0.72,2.281445536212365,-1.7584594095064097,2.414518458391141,-0.0397091574797382,0.0732217315800104,0.04773264179268,-0.5559136960971911,0.5684341149099025,-0.3185937591415529,2.289076135389156,-1.766294027960068,2.417677235561716,-0.695090201239933,0.6978285859292442,-0.3929446621327764,1.0403137764229378,-0.3423128734249436,0.5954991511330443,-0.7813164602788913,9.462746670556951,-0.9929464745220636,0.2931233445530549,-0.8409405419675555
0.74,2.270832423027544,-1.7475500222481213,2.4083059993908846,-0.0378428999035212,0.0785063564486916,0.0480010358641303,-0.5609378364102201,0.5794643451557528,-0.3345909805272402,2.275974331376278,-1.753137456253404,2.4102966046541225,-0.7350902018359795,0.7378285865252907,-0.4168577788858778,1.0035176346534294,-0.2512070156514501,0.5515115122925185,-0.7998610692843633,9.367793673970482,-0.986762680868771,0.2912306382972766,-0.849596220591011
0.76,2.259563924092612,-1.7358340049248515,2.401428857655394,-0.0362114526381706,0.0828091527482064,0.0483047833858041,-0.5656385380433749,0.591518968066397,-0.3523297836725257,2.2618725273484994,-1.738980884531839,2.4023181458277016,-0.7750902024320259,0.7778285871213371,-0.4407708956389792,1.0978110793631162,-0.2350350816577417,0.6027311455322093,-0.8869401572642766,9.275866656388644,-0.9812202683833736,0.2895212986513076,-0.8573621416072811
0.78,2.2482058670783958,-1.7238753751941331,2.394190105644371,-0.0345770029087073,0.086015419915385,0.0486421860737614,-0.5699505547021056,0.6036269126800716,-0.3706673781197708,2.2467707233058194,-1.723824312795373,2.393741859082453,-0.8150902030280723,0.8178285877173835,-0.4646840123920805,1.1196686792804118,-0.2156008329365355,0.6053972306837296,-0.9168797223622543,9.275866656388644,-0.9767659351607832,0.2878365487407375,-0.8637946195760519
0.8,2.237337870101665,-1.712292426628345,2.386969489136004,-0.0329057506448215,0.0882503589947246,0.0489914741177081,-0.5738466437790374,0.6149070150719859,-0.3884876781028127,2.21970833934329,-1.6936940295601297,2.3756567367383825,-0.6699505561922218,0.7036269141701877,-0.4093177082758586,1.0723610767286589,-0.1948044538465865,0.5640051195957119,-0.8910149991520955,9.255389629770434,-0.9727516407715368,0.2859250399919002,-0.8698069966736341
0.8200000000000001,2.225829068440026,-1.699852877181161,2.3791832931422694,-0.0305863295491627,0.0900884251204698,0.0494056429896289,-0.5767176948720324,0.6281509009756462,-0.3882226936524092,2.21970833934329,-1.6936940295601297,2.3756567367383825,-0.6699505561922218,0.7036269141701877,-0.4093177082758586,0.6777050703785463,-0.1435525546497507,0.6621942951830162,0.0132492225201757,9.239798545226222,-0.9757932152350008,0.2840224850349322,-0.8679454475390597
0.84,2.2142749301829543,-1.6871754615582768,2.371418810508314,-0.0281436176745093,0.0914259194337738,0.0498326096785674,-0.5785851017816179,0.6389714228128497,-0.3884868047171523,2.21970833934329,-1.6936940295601297,2.3756567367383825,-0.6699505561922218,0.7036269141701877,-0.4093177082758586,0.5491827019532876,-0.0933703454792767,0.541026091860175,-0.0132055532371583,10.219038980369987,-0.9743389110332178,0.2830302676660028,-0.8691109937986968
0.86,2.202686497865331,-1.6742906168733722,2.3636174555745626,-0.0261927193183752,0.0919714698443316,0.0502350444713114,-0.5802392122024745,0.6490432530394182,-0.3917611411690747,2.213008833781368,-1.6866577604184276,2.371563559655624,-0.689950556490245,0.7236269144682109,-0.4170477743070762,0.5359550461503126,-0.0827055210428306,0.5035915113284273,-0.163716822596116,10.219038980369987,-0.9730110319361308,0.2821888296194677,-0.8703527247407009
0.88,2.191647089554685,-1.6618697102096471,2.356120418616722,-0.0248982710220042,0.0916563366255403,0.0505875299470941,-0.5818180866171009,0.6579963756051321,-0.3972248461382477,2.199609822657524,-1.672585222135024,2.3633772054901065,-0.7299505570862914,0.7636269150642574,-0.4325079063695114,0.5303379113452663,-0.078943720731317,0.447656128285695,-0.2731852484586544,10.051582687441623,-0.9724832287565442,0.2815777475139065,-0.8708135433339004
0.9,2.1799929102687923,-1.648617951580499,2.34809970806713,-0.0243267744318932,0.0903739809799012,0.0509138965250829,-0.5835800166389287,0.6667658329135272,-0.4046299096206612,2.186210811533679,-1.6585126838516202,2.3551908513245894,-0.7699505576823379,0.8036269156603039,-0.4479680384319465,0.5806090424376689,-0.0880965010913892,0.4384728654197534,-0.3702531741206716,9.92502900940599,-0.9731864404894244,0.2815615213812748,-0.869792910825116
0.92,2.168301486593765,-1.635194463008106,2.339918173987934,-0.0247889831932869,0.0879691359586176,0.0511846527534098,-0.5855611592574167,0.6752252325045659,-0.4131922065082125,2.170811800380032,-1.642440145538414,2.3462314905559505,-0.8099505582783844,0.8436269162563503,-0.4634281704943817,0.6099165834485617,-0.0990571309244014,0.4229699795519348,-0.4281148443775667,9.829919462287762,-0.9749050337283944,0.282234459100026,-0.8675579872935947
0.94,2.156566811584001,-1.621602245253476,2.33156527935289,-0.0264246267556744,0.0842939176906417,0.0514002209943008,-0.5879537829555195,0.6837161175275654,-0.421656977613132,2.155412789226385,-1.626367607225208,2.337272129787312,-0.8499505588744308,0.8836269168523968,-0.4788883025568168,0.6112939687523532,-0.119631184905139,0.4245442511499775,-0.423238555245975,9.775182081767523,-0.9777996043480368,0.283633730741194,-0.863890092808135
0.96,2.145361213173379,-1.6085172915967187,2.323477969959346,-0.0287203520814188,0.0797444936730217,0.0515842968129981,-0.5916140348469623,0.6933231952905805,-0.4292081280969131,2.139013778057837,-1.6092950688971008,2.327926265717112,-0.8899505594704772,0.9236269174484432,-0.494348434619252,0.637795540675335,-0.1830125945721405,0.480353888150753,-0.3775575241890566,9.775182081767523,-0.9815965212807972,0.2857740839529846,-0.8588386247262715
0.98,2.1334696498921373,-1.5945279302765107,2.314814191645767,-0.0310725539278038,0.0743436851009687,0.0518079005344262,-0.5975736371113081,0.7050616969217238,-0.4367443369009562,2.1216147668743885,-1.5912225305540926,2.318193898345351,-0.9299505600665235,0.9636269180444896,-0.5098085666816872,0.7584585071572563,-0.2979801132172888,0.5869250815571658,-0.3768104402021521,9.80245952840596,-0.9863241068755076,0.2880159499534164,-0.8524757069652473
1.0,2.121433630236952,-1.580291892755067,2.306004931421193,-0.0327833778126527,0.0690582415790556,0.0520784534648649,-0.6058482928345943,0.7177487134521001,-0.443788656858736,2.103590968036572,-1.5592748454304246,2.292976974800719,-0.6975736386014242,0.8050616984118399,-0.4478173925780721,0.8352436163307834,-0.4137327861643114,0.6343508265188147,-0.352215997888991,9.826285187322355,-0.9912112634202188,0.2897573922432912,-0.8459680701044797
1.02,2.109788668721441,-1.5664805968917188,2.2976618931290007,-0.0321864345028799,0.0662086737955102,0.0524157616760126,-0.6195189637034038,0.7347075841650593,-0.4340314492611881,2.103590968036572,-1.5592748454304246,2.292976974800719,-0.6975736386014242,0.8050616984118399,-0.4478173925780721,1.193412793173246,-0.6835335434404732,0.8479435356479603,0.4878603798773945,10.959767443157943,-0.9974240803496492,0.2898253722404308,-0.838730919730528
1.04,2.097254493404683,-1.5516257115843068,2.289083456613364,-0.0287700710909619,0.0671606385207668,0.0528242441251077,-0.632675066503743,0.7494497404342602,-0.4244195069037707,2.103590968036572,-1.5592748454304246,2.292976974800719,-0.6975736386014242,0.8050616984118399,-0.4478173925780721,1.098639668227199,-0.6578051400169649,0.7371078134600417,0.4805971178708706,10.959767443157943,-1.0011714864810932,0.2891815164542415,-0.8329334306750941
1.06,2.0844880362319684,-1.5365171005408886,2.280669873537388,-0.0243502993013787,0.0706264719451098,0.0532226911984514,-0.6430134174748082,0.7604979468458243,-0.4175312900192227,2.0966152316505577,-1.5512242284463065,2.2884988008749385,-0.7175736388994474,0.8250616987098631,-0.4500320037134953,0.8312519136249003,-0.5169175485532584,0.552410320578206,0.3444108442274024,10.79783366817901,-1.0011675420417772,0.2874957610423179,-0.8323439733742276
1.08,2.07219355405187,-1.5219825301002332,2.2727754240399296,-0.020424941701012,0.0750559469052707,0.0535550774565199,-0.6504451976859761,0.7689953872587337,-0.4137940973176446,2.082663758878529,-1.535122994478069,2.2795424530233768,-0.7575736394954938,0.8650616993059096,-0.4544612259843417,0.5945680364070653,-0.371589010558393,0.4248720206454726,0.1868596350789036,10.601075699589272,-0.999250078096598,0.2855931909150317,-0.8343502768478978
1.1,2.059123215872114,-1.506520858588068,2.264519309064281,-0.017010262615412,0.0799599871897354,0.0538523815653427,-0.656056129264955,0.7768357961539399,-0.4121234167823971,2.068712286106501,-1.5190217605098326,2.2705861051718155,-0.7975736400915403,0.905061699901956,-0.458890448255188,0.4892487564594994,-0.2805465789489481,0.3920204447603104,0.0835340267623718,10.424709872778294,-0.9963436236065164,0.2839221289826916,-0.8376972393279933
1.12,2.0459601505205467,-1.490908409421542,2.2562749082828955,-0.0144213027173375,0.0844192684075278,0.0540991047410862,-0.6599036736051531,0.7841433219087902,-0.4124896804286411,2.05276081330467,-1.5009205265117935,2.2614082962067115,-0.8375736406875868,0.9450617004980024,-0.4633196705260344,0.4133330351125778,-0.1923772170099036,0.3653762877425137,-0.0183131823121962,10.286026738545845,-0.9931624304155214,0.2826280313079673,-0.8413807950526719
1.14,2.0327352256365305,-1.4751533294554569,2.2480126274598957,-0.0126135937219841,0.0879842896442557,0.0542993992959656,-0.6623881465007151,0.7911080248862059,-0.4137546980175656,2.036809340502839,-1.4828192925137544,2.252230487241608,-0.8775736412836332,0.985061701094049,-0.4677488927968807,0.375099862145714,-0.1242236447780986,0.3482351488707846,-0.0632508794462249,10.174376670019228,-0.9906374572680976,0.2817620996205374,-0.8443178643713564
1.16,2.0201307384094487,-1.460051515412774,2.2401351110645287,-0.0113490115159774,0.0904199550215758,0.0544624727653601,-0.6643152473643187,0.7981823435299344,-0.415396363952024,2.019857867686107,-1.463718058500814,2.242941947719733,-0.9175736418796796,1.0250617016900954,-0.4721781150677271,0.3756819434437464,-0.0963550431801796,0.3537159321864269,-0.0820832967229207,10.133616668157629,-0.988451329401926,0.2811611837139225,-0.8467226156226689
1.18,2.0068254231818194,-1.4440095212749329,2.231806751538861,-0.0102132267254169,0.0921154415514326,0.0546205034628308,-0.6661413551622553,0.8056044921287263,-0.4173646895240763,2.001906394854474,-1.4436168244729726,2.2335426776410867,-0.957573642475726,1.0650617022861415,-0.4766073373385735,0.394643082638692,-0.0913053898968285,0.3711074299395933,-0.0984162786026143,10.11504169532509,-0.9870489179402852,0.2806931850511687,-0.8481750032933713
1.2,1.993483913461061,-1.4278189295384498,2.223436874415252,-0.0091495189208434,0.0930623989898041,0.0547700737015485,-0.6679537108163631,0.813029201514125,-0.4195321623756177,1.9735183554237068,-1.4037292966684969,2.2109385170626576,-0.7661413566523714,0.9056044936188424,-0.432894925589464,0.3972054916437268,-0.0906177827053933,0.3712354692699371,-0.1083736425770698,10.104109106550824,-0.9862680403554788,0.2802620403917789,-0.8488922970439786
1.22,1.980080909571332,-1.4114537054982168,2.2150739885230344,-0.0071492121281608,0.0943007740124835,0.0549708492869339,-0.6719990242347109,0.8225347956439291,-0.416629772751628,1.9735183554237068,-1.4037292966684969,2.2109385170626576,-0.7661413566523714,0.9056044936188424,-0.432894925589464,0.5365275993429234,-0.2022656709173897,0.4752797064902003,0.1451194811994849,10.094782284927533,-0.9859703191619186,0.2791462696490955,-0.8494476772724417
1.24,1.967291779530164,-1.3957669586600503,2.2071753596900323,-0.004859093091501,0.0960203208641384,0.0551745302333574,-0.6739908966384309,0.8283562656675484,-0.4149673868840374,1.9735183554237068,-1.4037292966684969,2.2109385170626576,-0.7661413566523714,0.9056044936188424,-0.432894925589464,0.3186714439723327,-0.0995936201860003,0.2910735011809662,0.0831192933795299,10.31067862940654,-0.9857415137423384,0.2782424805741431,-0.8492504402267059
1.26,1.953801319354648,-1.3791466741722245,2.198877539118872,-0.0030373266532256,0.0976043572333102,0.055338872222098,-0.6749830148148539,0.8335445816909111,-0.414903727178673,1.9658569418571832,-1.3946732517323082,2.206609567806763,-0.7861413569503946,0.9256044939168656,-0.4360009728025416,0.2641352598213544,-0.0496059088211486,0.2594158011681335,0.0031829852682185,10.31067862940654,-0.984829333091866,0.2775573741107895,-0.8499191985625447
1.28,1.9409740453702864,-1.3632670109001586,2.1909832737716104,-0.0020637509956054,0.0985275098745014,0.0554340012927675,-0.675282652025381,0.8378590730424964,-0.4160741796606449,1.950534114724136,-1.3765611618599314,2.197951669294974,-0.826141357546441,0.9656044945129122,-0.4422130672286966,0.2240233084602554,-0.0149818605263529,0.2157245675792674,-0.0585226240985975,10.142347741599224,-0.984121747704182,0.2772611461694376,-0.8503279450566471
1.3,1.9274688305429604,-1.3464690713888603,2.18264074986414,-0.0021278718937119,0.0986783815844656,0.0554497338558323,-0.675306059578911,0.84180785813317,-0.4181531248172882,1.9352112875910883,-1.3584490719875546,2.1892937707831845,-0.8661413581424875,1.0056044951089589,-0.4484251616548517,0.2231337299144795,-0.0011703776765015,0.1974392545336822,-0.1039472578321626,10.142347741599224,-0.9839654423869144,0.2776469590555664,-0.8500290565804145
1.32,1.913965180654235,-1.3295951977871765,2.1742509833835326,-0.0036074407280156,0.0978358983791038,0.0553612909108007,-0.6751671036730343,0.8455759580348094,-0.4207129121359809,1.9178884604282385,-1.3383369820853754,2.1803252675500877,-0.906141358738534,1.045604495705005,-0.4546372560810068,0.2278727535789032,0.0069477952938323,0.1884049950819699,-0.1279893659346331,10.094286395387826,-0.9846429023633252,0.2788585960881568,-0.8486959364041775
1.34,1.901140122937341,-1.3134903114312158,2.166235062894321,-0.006365432563873,0.0959369533117181,0.0551858036623051,-0.6749630076971591,0.8498905090494294,-0.4229354218116278,1.9005656332653889,-1.3182248921831965,2.1713567643169904,-0.9461413593345804,1.0856044963010516,-0.4608493505071619,0.2428814262323854,0.0102047987937614,0.2157275507309985,-0.1111254837823483,10.0697335285422,-0.986222791465943,0.2810694748876698,-0.8461157284071453
1.36,1.887636199464101,-1.2964173623435944,2.157756536441485,-0.0097099940589214,0.0927119215719007,0.0549847423659359,-0.67556552210725,0.8572350825844423,-0.4247665804473626,1.882242806087638,-1.297112802266116,2.1622329587232394,-0.9861413599306268,1.125604496897098,-0.467061444933317,0.3796673740750051,-0.0301257205045424,0.3672286767506416,-0.0915579317867371,10.07988406043387,-0.9891003671222626,0.2840549472471336,-0.8413126293632632
1.38,1.874107753963028,-1.2791791601993274,2.149249074108688,-0.0125824017856599,0.0884196762260313,0.0548374909793275,-0.6773990207766423,0.8661138102943075,-0.4258422823487665,1.8629199788949855,-1.2750007123341345,2.1529538507688346,-1.0261413605266732,1.1656044974931443,-0.4732735393594721,0.4564829068466731,-0.0916749334696154,0.4439363854932598,-0.053785095070194,10.146304088858416,-0.9930812480851025,0.286840063643738,-0.8349907311651646
1.4,1.8612063646171717,-1.262629926288447,2.1411541288244584,-0.0145558742606997,0.0836753792766355,0.0547674248684033,-0.6806861478945944,0.875247036233857,-0.426187439252686,1.840237802924196,-1.235873469684612,2.127956959991249,-0.7773990222667584,0.9661138117844236,-0.4380773948370363,0.4856442989492425,-0.1643563558976046,0.4566612969774786,-0.0172578451959753,10.179002228280297,-0.9981844632418688,0.2893872680783859,-0.8270996141052211
1.42,1.8474883217117568,-1.2449711990304468,2.132687720336716,-0.0141940049157885,0.08014126095549,0.054843109646173,-0.6912804770976307,0.8896417237416603,-0.4200917499393011,1.840237802924196,-1.235873469684612,2.127956959991249,-0.7773990222667584,0.9661138117844236,-0.4380773948370363,0.9441984271260616,-0.529716460151819,0.719734375390163,0.3047844656692444,10.179002228280297,-1.0026608294496002,0.2907814228261696,-0.8195958551571004
1.44,1.833549058568828,-1.2270558686314073,2.124349128921104,-0.010803383469992,0.0803331108187574,0.0550649179417488,-0.7015999585199032,0.900742323555242,-0.4141306102433199,1.840237802924196,-1.235873469684612,2.127956959991249,-0.7773990222667584,0.9661138117844236,-0.4380773948370363,0.8143251800124461,-0.5159740711136229,0.5550299906790901,0.2980569847990583,10.543230999343905,-1.0059745050452964,0.2897845180976902,-0.8150840717197503
1.46,1.8201408613731516,-1.2098687729604765,2.1165170554180026,-0.0066706404113312,0.0827410460887539,0.0553074893707807,-0.7090293212439966,0.9077594795201028,-0.4105845965061764,1.832463812701528,-1.226212331566768,2.1235761860428783,-0.7973990225647816,0.9861138120824468,-0.4405244173346902,0.5408560847058544,-0.3714681362046723,0.3508577982430316,0.1773006868571736,10.543230999343905,-1.006274832556948,0.2876185935741254,-0.814837966301013
1.48,1.8058995616110625,-1.1916578982553685,2.108324521610564,-0.0026983241981239,0.0864016788330843,0.0555285991496027,-0.7145269672246207,0.9130361540237616,-0.408956062584757,1.816915832256193,-1.2068900553310793,2.1148146381461377,-0.837399023160828,1.0261138126784932,-0.4454184623299981,0.3896136800699169,-0.2748822990312038,0.2638337251829437,0.0814266960709714,10.392019091764269,-1.0047203840214955,0.2853201495211618,-0.8171662586363602
1.5,1.791569529093096,-1.1733528164619038,2.1001430243716066,0.0004453150556955,0.090288075511607,0.0556925678873138,-0.7180968444346076,0.9173465947414624,-0.4093640368360953,1.801367851810858,-1.187567779095391,2.106053090249397,-0.8773990237568745,1.0661138132745398,-0.4503125073253061,0.280581385095983,-0.1784938604993458,0.2155220358850407,-0.0203987125669158,10.257524387927331,-1.0023187350919374,0.2834066318574312,-0.8205326400329868
1.52,1.777905588082694,-1.1558888425437646,2.092346307154413,0.0025734170210681,0.0935734698670181,0.0557873695892445,-0.7200425159940321,0.920966672159728,-0.4113240399899941,1.7838198713357205,-1.1662455028299,2.097046840102891,-0.917399024352921,1.1061138138705862,-0.455206552320614,0.2276631870476829,-0.0972835779712244,0.1810038709132821,-0.0980001576949385,10.143352390072325,-0.999619105806868,0.2818573027951763,-0.8241685343646861
1.54,1.7634941702687752,-1.13743506690261,2.084090726172035,0.0039156698052737,0.0962060543296147,0.0558182682403627,-0.7210082963344483,0.9243165212473666,-0.414168275550891,1.766271890860583,-1.1449232265644094,2.088040589956385,-0.9573990249489674,1.1461138144666327,-0.4601005973159219,0.2249660891209937,-0.0482890170208083,0.1674924543819289,-0.1422117780448456,10.060111997812784,-0.9974393725655836,0.2808671514776755,-0.8270408716418883
1.56,1.7490664225255792,-1.1189092436615262,2.075773855777073,0.0044757059877639,0.0979013999725684,0.0557844878056672,-0.7217550163768263,0.9281110496158776,-0.4173901088881239,1.7477239103705444,-1.1226009502840173,2.078911988684996,-0.9973990255450138,1.186113815062679,-0.4649946423112298,0.251675616687577,-0.0373360021188984,0.1897264184255509,-0.161091666861643,10.005949299422356,-0.9958084921453796,0.2804419403389042,-0.8290009058625664
1.58,1.735346822152566,-1.101236431052626,2.0678120638268167,0.0045592202695921,0.0987728029739902,0.0557112109397302,-0.7224309477677385,0.9319791814521042,-0.4205325044077664,1.7281759298656043,-1.099278673988724,2.0696610362887244,-1.0373990261410602,1.2261138156587257,-0.4698886873065377,0.2514655878520953,-0.0337965695456132,0.1934065918113292,-0.1571197759821285,10.005949299422356,-0.9948012396693994,0.280354034121924,-0.8300889498073029
1.6,1.7208900937905751,-1.0825523273843711,2.0593666047996195,0.0043177790324871,0.0990596714283699,0.0556016496453244,-0.7232536522783273,0.93622374846432,-0.4238475163300751,1.6992252747641792,-1.054637471980021,2.0467854386064284,-0.8224309492578546,1.0319791829422202,-0.436136680034998,0.2724082225171542,-0.0411352255294372,0.212228350610788,-0.1657505961154354,10.004902545858386,-0.994450549495422,0.280561685202663,-0.8302663487830153
1.62,1.7063870273225494,-1.0637462859425264,2.0509019907340256,0.0050124300155991,0.0998089060496618,0.0555525463723502,-0.7268779440810148,0.9438756265081608,-0.4221937966077013,1.6992252747641792,-1.054637471980021,2.0467854386064284,-0.8224309492578546,1.0319791829422202,-0.436136680034998,0.4313395344418634,-0.1812145901343764,0.382593902192041,0.0826859861186912,10.3247664559467,-0.9943007827843756,0.2799656238828408,-0.8307240099945534
1.64,1.6918294638992966,-1.0448135819883342,2.042471012243574,0.0069096519014672,0.1015332953882839,0.0555848862485677,-0.7285674754423602,0.9489756915809584,-0.4210711421126359,1.6992252747641792,-1.054637471980021,2.0467854386064284,-0.8224309492578546,1.0319791829422202,-0.436136680034998,0.2744336581171763,-0.084476568067271,0.2550032536398794,0.0561327247532689,10.3247664559467,-0.9940071341886776,0.2791517746546065,-0.8309245754391205
1.66,1.6779826008249936,-1.0267467087532334,2.034465266998986,0.0088186288486844,0.1031891570042325,0.0556173000682448,-0.7289150446493559,0.9525587190486202,-0.4216923725037243,1.6910009652716007,-1.044317680150599,2.0424240718060784,-0.8424309495558778,1.0519791832402434,-0.4392575151604443,0.1826527948491509,-0.0173784603497817,0.1791513733830907,-0.0310615195544178,10.148125946529037,-0.9929667866269284,0.2781780912737034,-0.8318822151669549
1.68,1.6634094437494704,-1.0076685272013872,2.0260114863527177,0.0103606133836684,0.1044606160772671,0.05560830149754,-0.7284053195479694,0.9551532490327354,-0.4237148208015272,1.6745523462864436,-1.0236780964917542,2.033701338205378,-0.8824309501519243,1.09197918383629,-0.445499185411337,0.166445956955567,0.0254862550693235,0.1297264992057567,-0.1011224148901451,10.148125946529037,-0.9918702880199596,0.2772455527563751,-0.8330929139196128
1.7,1.6488521270989174,-0.988546571424305,2.0175057840372737,0.0110093781058013,0.1049441888655992,0.0555220048796351,-0.7274224830126105,0.956992850786687,-0.4267933684517687,1.6581037273012864,-1.0030385128329098,2.0249786046046783,-0.9224309507479708,1.1319791844323364,-0.4517408556622296,0.1859271221687817,0.0491418267679455,0.0919800876975851,-0.1539273825120757,10.070294999126418,-0.9912197868049069,0.2767930273687408,-0.8337619418884076
1.72,1.634317896778242,-0.9693947345539848,2.0089313598837206,0.0103883803317126,0.1044458421793124,0.0553308334262243,-0.7261684985502884,0.9582862848955828,-0.4304875867194396,1.6396551082863269,-0.9803989291442632,2.015943787491434,-0.9624309513440172,1.1719791850283827,-0.4579825259131223,0.2055036340006713,0.0626992231161027,0.0646717054447798,-0.1847109133835428,9.98630867733118,-0.9912283386535836,0.2769899830283742,-0.833648363658924
1.74,1.6205353196243706,-0.9511774676719555,2.000718088443819,0.0083975467656854,0.1028892469067173,0.0550394384819711,-0.7247936645488223,0.9594483107768034,-0.4338743512975362,1.6212064892713676,-0.9577593454556164,2.006908970378189,-1.0024309519400638,1.2119791856244293,-0.4642241961640149,0.1917723063144415,0.0687417000733048,0.0581012940610359,-0.1693382289048306,9.98630867733118,-0.9922774185274824,0.2781314937573558,-0.8321956381326533
1.76,1.6060494485307808,-0.9319562686582372,1.9920081654505304,0.0052464354615821,0.1000214930838254,0.0546558959314934,-0.7239921477129531,0.9629184471281972,-0.4369049488389211,1.601757870241507,-0.9341197617520683,1.997718111508672,-1.0424309525361102,1.2519791862204757,-0.4704658664149075,0.2338204278570161,0.0400758417934632,0.1735068175696907,-0.151529877069248,9.993813075737307,-0.9944074371394483,0.2803079422497288,-0.8288762364267379
1.78,1.5915689866753802,-0.9126404885430232,1.9832466652945984,0.002186124424619,0.0960266307905767,0.0542861239558717,-0.7242343307926281,0.968446560644738,-0.4390441034225428,1.5813092511967453,-0.9094801780336196,1.988371210882883,-1.0824309531321563,1.291979186816522,-0.4767075366658002,0.2966254963268994,-0.0121091539837525,0.2764056758270405,-0.1069577291810841,10.020816238383304,-0.9980946965424442,0.2829018125628298,-0.8231363711907395
1.8,1.5777948404375763,-0.8941770449494753,1.9748925249766132,-0.000142569390221,0.0914284524818454,0.0539868999628507,-0.7258013299455227,0.9746302748889896,-0.4402201525888051,1.5553572701357488,-0.8642181605107864,1.9612944601234712,-0.8242343322827442,1.068446562134854,-0.4208821323005164,0.3243335468356602,-0.0783499576447299,0.309185712212584,-0.0588024583131147,10.06641497149758,-1.0026317988193345,0.2852224209974056,-0.81618286543167
1.82,1.563212860658315,-0.8745640257462983,1.966205200348502,-0.0003132541182489,0.0874606249807424,0.0538374942392319,-0.7325900122446916,0.9858273247706348,-0.4277500265510757,1.5553572701357488,-0.8642181605107864,1.9612944601234712,-0.8242343322827442,1.068446562134854,-0.4208821323005164,0.9041075389686128,-0.3394341149584423,0.5598524940822525,0.62350630188647,10.108053978651697,-1.0081218116752542,0.2847255278888481,-0.8106808334471678
1.84,1.5492199675266378,-0.8557485824401706,1.9582061343352275,0.0022223123002839,0.0863676019683061,0.0538750301382428,-0.7397679931090569,0.9939942074551158,-0.4149722660027916,1.5553572701357488,-0.8642181605107864,1.9612944601234712,-0.8242343322827442,1.068446562134854,-0.4208821323005164,0.8388869809166164,-0.3588990432182692,0.4083441342240534,0.6388880274142056,11.021692371266909,-1.012651721031815,0.2849275618648453,-0.8035561126667721
1.86,1.534361742771989,-0.8358114716104932,1.9500313765471475,0.0060709449148345,0.0872777817656062,0.0539921423852076,-0.7454644179348368,0.999044997797386,-0.4032519812852965,1.5471149268129214,-0.8535336948894379,1.957085638800466,-0.8442343325807674,1.0884465624328772,-0.4172497380761111,0.6987932683141692,-0.2848212412889905,0.2525395171135036,0.5860142358747572,10.958731341559542,-1.0149850407275496,0.2839951151782942,-0.7996657448160996
1.88,1.5194090475149395,-0.8158011750801982,1.94206930008596,0.0096019733244751,0.0891851284054004,0.0540890019187689,-0.7494063689872575,1.0018237760448814,-0.3936285675166113,1.5306302401672665,-0.8321647636467407,1.948667996154456,-0.8842343331768139,1.1284465630289238,-0.4099849496273005,0.5382162186606659,-0.1970975526210394,0.1389389123747753,0.481170688434257,10.691132623910562,-1.015525872098832,0.2828039358525058,-0.7984083838333849
1.9,1.504393501998733,-0.7957482112598949,1.934278581707612,0.0122533636395618,0.0912584383125608,0.0541244327958,-0.7519344468022822,1.0035866432558869,-0.3859140809636791,1.5141455535216115,-0.8107958324040436,1.9402503535084452,-0.9242343337728604,1.16844656362497,-0.4027201611784899,0.415367852083638,-0.126403890751231,0.0881433605502746,0.385724327646611,10.58338819707933,-1.0153534228470322,0.2819389760839207,-0.798177216144159
1.92,1.4900924579428907,-0.7766705315320799,1.927007806397559,0.0138488587461112,0.0928697588822198,0.0540874476602322,-0.7533569742206507,1.0047160530449022,-0.3798118838779562,1.4956608668461542,-0.7874269011315442,1.932195950284876,-0.9642343343689068,1.2084465642210165,-0.3954553727296794,0.3183392844142044,-0.0711263709184284,0.0564704894507661,0.3051098542861452,10.58338819707933,-1.0151424969478875,0.2814742233522193,-0.7979738763186303
1.94,1.475017131109218,-0.7565708134517315,1.919476829805057,0.014390586154087,0.0938486296518348,0.0539565867232546,-0.7541509164175506,1.0053098602479331,-0.3736087697215435,1.477176180170697,-0.7640579698590448,1.9241415470613057,-1.0042343349649532,1.248446564817063,-0.3881905842808688,0.3140922493626588,-0.0396971098449938,0.0296903601515574,0.3101557078206363,10.508910766359804,-1.015478641795196,0.2816460004512169,-0.7970499049486504
1.96,1.4599247365908234,-0.7364534750211822,1.9120709590707927,0.0137962911067935,0.0940497095545248,0.0537333255393355,-0.7551181910314009,1.0064562018410914,-0.367275430299029,1.4576914934803389,-0.7396890385716443,1.916268763548956,-1.0442343355609995,1.2884465654131094,-0.3809257958320582,0.3254262876120331,-0.0483637306925133,0.0573170796579036,0.3166669711257258,10.49894861356097,-1.0164813153950476,0.2827586780134698,-0.7948239222800184
1.98,1.4448095779432009,-0.7163066270590224,1.9047957542122225,0.0123688527109473,0.0936641375515982,0.0534440300874881,-0.7564152633211293,1.008220643659457,-0.3605368115176302,1.4372068067750792,-0.7143201072693426,1.908577599747827,-1.084234336157046,1.3284465660091558,-0.3736610073832476,0.3542761441876889,-0.0648536144864209,0.0882220909182773,0.3369309390699376,10.5067120690328,-1.0181637305794826,0.2845304442479078,-0.7914861397481039
2.0,1.429664086003018,-0.6961158523627718,1.8976604500971896,0.0103798312613215,0.092864603156742,0.053113331257238,-0.7581320740280403,1.0108107885129456,-0.353302812517869,1.4069888147771443,-0.6658955948760495,1.8867689136363408,-0.8564152648112454,1.044756811966523,-0.3339554701168877,0.393659214594183,-0.0858405353455493,0.1295072426744314,0.3616999499880591,10.528372928334647,-1.0203716987161924,0.2868230922757767,-0.7872001304909665
2.02,1.4144400936517498,-0.6755925126573598,1.8906959362653164,0.0169044547534704,0.0926579700170831,0.053378660767256,-0.7636875576038938,1.0359848711237023,-0.3434762856384779,1.4069888147771443,-0.6658955948760495,1.8867689136363408,-0.8564152648112454,1.044756811966523,-0.3339554701168877,1.3794550224329345,-0.2777741787926779,1.2587041305378357,0.4913263439695586,10.552873549459036,-1.0236457941106474,0.2857968452086948,-0.7809729270058463
2.04,1.39989720318968,-0.6558307247693368,1.8842601860099,0.0303766498716775,0.09330330393546,0.0541336502004766,-0.766738641997002,1.041974693981477,-0.3345052550881179,1.4069888147771443,-0.6658955948760495,1.8867689136363408,-0.8564152648112454,1.044756811966523,-0.3339554701168877,0.5605053143746264,-0.1525542196554097,0.2994911428887303,0.4485515275179985,10.715638766475422,-1.026231479063513,0.2788584703889286,-0.7781626477195337
2.06,1.3845412417094074,-0.6350142077639166,1.8776460364231005,0.0455399354971393,0.0941060761124508,0.0549832700385746,-0.7686669076376322,1.0390324966685496,-0.3275153083964499,1.398424662129032,-0.6554480267563844,1.883429358935172,-0.8764152651092686,1.0520640456279362,-0.3286392018367391,0.3912610642569503,-0.09641328203151,-0.1471098656463665,0.3494973345834012,10.489108172910164,-1.0266872519812216,0.2695136970488109,-0.7798627917006685
2.08,1.3691560116080113,-0.6143214414960206,1.8711413942340505,0.0592178394716097,0.0945919917965995,0.0556954129922202,-0.7698269737323028,1.0306262539567412,-0.323299328407826,1.381296356832807,-0.6345528905170539,1.876750249532834,-0.9164152657053152,1.0666785129507623,-0.3180066652764421,0.4737751500931432,-0.0580033047335282,-0.4203121355904171,0.2107989994311943,10.489108172910164,-1.0262277952511991,0.2602437752695984,-0.7834638504423772
2.1,1.354523017503074,-0.5948530615614435,1.865022333600652,0.0700629852774466,0.0945245506144824,0.0561681483334997,-0.770534744014546,1.019501242789022,-0.321014057064558,1.364168051536582,-0.6136577542777234,1.8700711401304964,-0.9564152663013616,1.0812929802735889,-0.3073741287161451,0.5689667770763647,-0.0353885141121612,-0.5562505583859623,0.1142635671633973,10.355685737446038,-1.025548640515909,0.2508942639161298,-0.7879662714818205
2.12,1.3391075404599675,-0.5746078553906664,1.858619518998588,0.0791270240002984,0.0937407152661348,0.0564229169344129,-0.7710497014120021,1.005891576529576,-0.319403164698647,1.3450397462105548,-0.5920318946722516,1.8639236575561733,-0.996415266897408,1.0959074475964152,-0.2967415921558481,0.6857170900401438,-0.0257478698728053,-0.680483312972302,0.0805446182955499,10.2749049057893,-1.025280924255417,0.2424952586953739,-0.7920423212729946
2.14,1.3236833895029647,-0.5546509125793976,1.8522467951126809,0.085891516064111,0.0920439460884184,0.0564126377910383,-0.7714153633860809,0.9908149074749064,-0.3179267156000289,1.3259114408845276,-0.5704060350667798,1.8577761749818509,-1.0364152674934546,1.1105219149192416,-0.2861090555955511,0.7576601487542595,-0.0182830987039361,-0.7538334527334822,0.0738224549309052,10.25439441056824,-1.0261157054948042,0.235463305509134,-0.7945138169733518
2.16,1.3082464129126343,-0.5350020960301989,1.8459084319104213,0.0906881126279835,0.0893924100091183,0.0561508647673276,-0.7723834936464089,0.975091571413192,-0.3159349194836161,1.3057831355435991,-0.5484148137782374,1.851894505821535,-1.076415268089501,1.125136382242068,-0.2754765190352541,0.7939266730623303,-0.0484065130164024,-0.7861668030857194,0.0995898058206407,10.25439441056824,-1.0278649030811169,0.2300397590539658,-0.7953066554322892
2.18,1.2935548989914032,-0.5166337023857971,1.8399327161382104,0.0937092880949437,0.0861860471884482,0.0557059805177235,-0.7741685720094221,0.9595632066725468,-0.3131594637716178,1.2846548301877696,-0.5260582308066243,1.846278650075227,-1.1164152686855473,1.1397508495648945,-0.2648439824749571,0.7937565286186197,-0.0892539181506613,-0.7764182370322559,0.1387727855999165,10.292860869991271,-1.0306220629382965,0.225626918666156,-0.7945230709741102
2.2,1.2780417960747577,-0.4976193934346862,1.8337096884300608,0.0955799048244557,0.0823573949628259,0.0550813109919877,-0.7771962267153492,0.9428757642497996,-0.3092217954249856,1.254846470390932,-0.4686555420521697,1.824274742949629,-0.8741685734995382,0.9453655292986608,-0.2962809147620562,0.870549624718342,-0.1513827352963515,-0.8343721211373667,0.1968834173316086,10.348725170972102,-1.0342685621584138,0.2225365803756452,-0.7920578819724209
2.22,1.262392090297613,-0.4787989823868728,1.8274974415817529,0.1006531092883015,0.0799108184736437,0.0547918758933679,-0.7878144623205986,0.9379260755835428,-0.3128197122742656,1.254846470390932,-0.4686555420521697,1.824274742949629,-0.8741685734995382,0.9453655292986608,-0.2962809147620562,0.612762904629085,-0.5309117802624719,-0.2474844333128334,-0.1798958424639979,10.411051967544154,-1.033031965794066,0.2190172257577505,-0.7930109351264547
2.24,1.247334947649312,-0.4611081211416315,1.8215168691772528,0.1085975643524483,0.080374947486256,0.0549904113112844,-0.7962755861423618,0.924132246309912,-0.3165274342979303,1.254846470390932,-0.4686555420521697,1.824274742949629,-0.8741685734995382,0.9453655292986608,-0.2962809147620562,0.8300716007701519,-0.4230561910881614,-0.6896914636815354,-0.1853861011832352,9.904188138389143,-1.0339703464870436,0.2097574334646942,-0.797407079542282
2.26,1.2313380998219692,-0.4428252576598966,1.815146139877534,0.1168026513732243,0.0824548892576647,0.0553495804694437,-0.8027728447459136,0.904874580364239,-0.3203459237959299,1.2461047846559368,-0.4592018867591831,1.8213119338020087,-0.8941685737975614,0.9425259938238836,-0.2929052049601439,1.0339885505687425,-0.3248629301775885,-0.9628832972836564,-0.1909244748999811,9.999452473111887,-1.0328272304084978,0.200552022026969,-0.8039852482536288
2.28,1.2152344178537815,-0.4249608238644912,1.808700775016376,0.1236394010209656,0.0851721589814926,0.0556840184563508,-0.8071888548460994,0.8828689035775834,-0.3239891187380039,1.228621413185946,-0.4402945761732099,1.815386315506768,-0.934168574393608,0.936846922874329,-0.2861537853563193,1.1369078958183545,-0.2208005050092887,-1.1002838393327774,-0.1821597471036995,10.028111413688748,-1.0307990303101235,0.1923597287873465,-0.8112241075520193
2.3000000000000003,1.1998712396666784,-0.4084130256036742,1.802513951294267,0.1285586887556926,0.0876705023741823,0.0558776729065569,-0.8097690002987701,0.8604896543701588,-0.3270524695701107,1.2111380417159552,-0.4213872655872367,1.8094606972115264,-0.9741685749896544,0.9311678519247746,-0.2794023657524947,1.1367410258778412,-0.1290072726335356,-1.1189624603712311,-0.1531675416053424,10.028111413688748,-1.0278480180018912,0.1846190190483985,-0.8193613792501301
2.32,1.1836601297525338,-0.391459869465782,1.7959455593885598,0.1321492750005349,0.0897176078921285,0.0558872698606138,-0.8112127358377614,0.8362679127887275,-0.3295714184844459,1.191654670216162,-0.4027639085487412,1.8038726498964768,-1.0141685755857008,0.92548878097522,-0.2726509461486701,1.2197563703227945,-0.0721867769495676,-1.2110870790715655,-0.1259474457167564,10.069412419483342,-1.0251186485739294,0.1779676538619554,-0.8267955560596342
2.34,1.1674295130143588,-0.3749981031611847,1.7893334663747993,0.1342076836319239,0.0908521333907005,0.0556563158048025,-0.8118409164509748,0.8113820314734193,-0.3314600599193046,1.172171298716369,-0.3841405515102457,1.7982846025814267,-1.0541685761817472,0.9198097100256656,-0.2658995265448455,1.248267465521602,-0.0314090306606673,-1.2442940657654111,-0.0944320717429392,10.124896689610068,-1.023616488529973,0.1734639745936108,-0.8315083861544049
2.36,1.151998859907658,-0.3598280046510038,1.7830253216017964,0.1346545189236544,0.0910900060314972,0.055205469686407,-0.8124743447469903,0.7868567495515454,-0.3324020798074006,1.151687927201675,-0.3656591712454891,1.7928653407564723,-1.0941685767777936,0.9141306390761113,-0.2591481069410208,1.227576969300861,-0.0316714148007768,-1.2262640960936932,-0.0471009944047973,10.236178591492717,-1.0230951066226324,0.1705349319818532,-0.8343040119083873
2.38,1.1357413712484,-0.3443712079227757,1.7763778263358447,0.1331317736943309,0.0906596695121826,0.0544885729198095,-0.8133214880822122,0.7603266115379705,-0.3322195968190495,1.1302045556720794,-0.3473197677544713,1.7876148644216137,-1.13416857737384,0.9084515681265568,-0.2523966873371963,1.3272143524039148,-0.0423571667610922,-1.3265069006787422,0.0091241494175525,10.236178591492717,-1.0234294928087708,0.1692047416350377,-0.8357535628499192
2.4,1.1194636819010562,-0.3294432203106991,1.7697498195515908,0.1293814666191361,0.0897062338719854,0.0535416447331141,-0.8144927403336766,0.7344914719637935,-0.3304326514195976,1.0950752968442896,-0.3063548773458772,1.7597668464948923,-0.9133214895723284,0.7389665662390366,-0.3045029545733992,1.2961668898278411,-0.0585626125732208,-1.2917569787088523,0.089347269972595,10.396141976316358,-1.0250605344165584,0.1701509436673592,-0.8349576957423044
2.42,1.1031168091037933,-0.3149572551996712,1.7631016225420388,0.1256017032527308,0.0893754217489256,0.0526732954039936,-0.8198834622515452,0.7149764671307933,-0.3345396865786386,1.0950752968442896,-0.3063548773458772,1.7597668464948923,-0.9133214895723284,0.7389665662390366,-0.3045029545733992,1.0329121867629985,-0.2695360958934301,-0.9757502416500086,-0.2053517579520491,10.396141976316358,-1.022417046394266,0.1700320360957455,-0.8390287870535927
2.44,1.087506069592248,-0.3015679025994534,1.756729833658594,0.1225862607940765,0.0899587817022044,0.0519991935031161,-0.8230460065116989,0.695489297058927,-0.3359442255450683,1.0950752968442896,-0.3063548773458772,1.7597668464948923,-0.9133214895723284,0.7389665662390366,-0.3045029545733992,0.989601199114436,-0.158127213007686,-0.9743585035933144,-0.0702269483214862,10.010272734328282,-1.0243573259211658,0.1709305119103572,-0.8381901066211022
2.46,1.0710223620624857,-0.2878738258346506,1.750017496381282,0.1195220042003358,0.0906503023990573,0.0513024011828024,-0.8251404474113652,0.6750434122406812,-0.3351084491793159,1.0859420819485663,-0.2989652116834869,1.7567218169491583,-0.9333214898703516,0.7346945571792498,-0.2989596261242692,1.0284933286326174,-0.104722044983313,-1.0222942409122917,0.0417888182876219,10.18422342384747,-1.0254982060095177,0.1717505544935617,-0.8380462034959716
2.48,1.0545070744443374,-0.2745871871515798,1.743345814765421,0.1164064444371048,0.0909420803012632,0.0505509512566174,-0.8263700286660575,0.6548111193911645,-0.3320966818685449,1.0676756521571198,-0.2841858803587061,1.7506317578576904,-0.973321490466398,0.7261505390596762,-0.2878729692260091,1.024607591159565,-0.0614790627346151,-1.0116146424758332,0.1505883655385481,10.314367734817097,-1.0268035813066587,0.172745839174579,-0.8373862368064804
2.5,1.038799325443987,-0.2623357344366748,1.73708023833979,0.1133429876883003,0.0905995136299566,0.049757186499476,-0.8271244362064146,0.6359836273353832,-0.3275758893539872,1.0494092223656732,-0.2694065490339254,1.7445416987662223,-1.0133214910624444,0.7176065209401026,-0.276786312327749,0.9688668030322078,-0.037720377017858,-0.941374602789069,0.226039625727889,10.426576599960754,-1.0286419603934198,0.1740398123684395,-0.835871783773234
2.52,1.0222514159813505,-0.2498191463304199,1.7305929595867673,0.1100396843182904,0.0894006297031709,0.0488244815619552,-0.8276807928335609,0.6167939354089867,-0.3213096164267814,1.0291427925444243,-0.2550544186151233,1.7390059725196674,-1.0533214916584908,0.709062502820529,-0.2656996554294888,1.0097276678946712,-0.0278178313573129,-0.9594845963198206,0.3133136463602859,10.520950883890691,-1.0314670947290985,0.1756599280756522,-0.8329066030720386
2.54,1.0056934136890128,-0.2376801341369708,1.724243845133895,0.1066804373170298,0.0870846143861133,0.0477731483305335,-0.8281772277475701,0.5981988147877848,-0.3138531826932005,1.0088763627231754,-0.2407022881963212,1.7334702462731124,-1.0933214922545371,0.7005184847009553,-0.2546129985312287,1.0020271485396255,-0.0248217457004595,-0.9297560310600972,0.3728216866790479,10.66048273897286,-1.0351588014645612,0.1774627553548017,-0.8286256348810972
2.56,0.9891171636511096,-0.2259075922094636,1.7180570794744223,0.1032528650320835,0.0836028991922405,0.0466065824512098,-0.8295760098962803,0.5801492378416685,-0.3051724915442048,0.9876099328870254,-0.2265637582305086,1.728211686449014,-1.1333214928505837,0.6919744665813818,-0.2435263416329686,1.003865302540106,-0.0699391074355126,-0.9024788473058154,0.4340345574497833,10.66048273897286,-1.039098555844744,0.1791451505681107,-0.8238581342505964
2.58,0.9733305670362428,-0.2150522347151527,1.7123520754909265,0.0999555829589085,0.0794931768782315,0.0454304813031096,-0.8322470281658352,0.5635589263539549,-0.2957648166570418,0.9653435030359742,-0.2126388287176852,1.723230293047372,-1.17332149344663,0.6834304484618082,-0.2324396847347085,0.9629085115396688,-0.1335509134777424,-0.8295155743856808,0.4703837443581521,10.72072892293545,-1.044040581706407,0.1810701663867774,-0.8176496988802509
2.6,0.9566406421070076,-0.203958773786898,1.70655166373017,0.0964991389343449,0.0747397933296352,0.0441733613063629,-0.8367953485359518,0.5467707056930508,-0.28470330873364,0.9317182156279508,-0.1868742883974549,1.697563834658074,-0.8581822663930834,0.5209166682462927,-0.2590640501234286,1.030641218717632,-0.2274160185058327,-0.8394110330452065,0.5530753961700885,10.784452731843883,-1.0496158952457868,0.1831079130075888,-0.8105044215020905
2.62,0.9397111187580812,-0.1930889097082965,1.7009194582362532,0.0964671987242142,0.0738922808480632,0.0435468831028401,-0.8557848981933531,0.5400947792703025,-0.2794859344117789,0.9317182156279508,-0.1868742883974549,1.697563834658074,-0.8581822663930834,0.5209166682462927,-0.2590640501234286,1.0397018618422234,-0.9494774828700648,-0.333796321137414,0.2608687160930573,10.84773616145958,-1.044175684425246,0.1799180069728666,-0.8183386528433935
2.64,0.9224427654531724,-0.182402493825428,1.6953846418671594,0.1010614281574555,0.0797784037972715,0.043904163105057,-0.8692365139264312,0.5279157251102949,-0.274226543248511,0.9317182156279508,-0.1868742883974549,1.697563834658074,-0.8581822663930834,0.5209166682462927,-0.2590640501234286,0.94463818665012,-0.6725807866539035,-0.6089527080003765,0.262969558163395,10.532406632200036,-1.0457240300153885,0.1773680425568843,-0.8180465998852456
