t,x,y,z,roll,pitch,yaw,v_x,v_y,v_z,ref_x,ref_y,ref_z,ref_v_x,ref_v_y,ref_v_z,a_com,a_x,a_y,a_z,thrust,wind_x,wind_y,wind_z
0.0,1.0529760935297574,0.4628567977159382,1.7316586600768915,0.021055447477268,0.0993160768062538,0.0414190777344566,0.0007129846762095,0.001773210142405,-0.0012460726326685,1.0530058086357452,0.4628026449490116,1.7316184385922997,-0.0990827528232998,-0.1008596319158504,-0.0485440796089252,0.1140758340263519,0.0356492338104776,0.0886605071202501,-0.062303631633427,10.2586710923415,-0.9408102727816616,0.2600269733161517,-0.8773308877602888
0.02,1.0531564088825949,0.4631429296142316,1.7315438132152143,0.0290371913107164,0.0932465576898603,0.0418228149262049,0.0169090855649184,0.0230639911660165,-0.0108779810066703,1.0530058086357452,0.4628026449490116,1.7316184385922997,-0.0990827528232998,-0.1008596319158504,-0.0485440796089252,1.421605342137702,0.8098050444354438,1.0645390511805777,-0.4815954187000917,10.257933410700389,-0.9536637141253302,0.257365277947799,-0.8613679759292581
0.04,1.0536078156855806,0.4636448215169013,1.731176004574394,0.0434888439315711,0.0764884489567047,0.0421758953971026,0.025972120702938,0.0252450384526503,-0.0255200890492189,1.0530058086357452,0.4628026449490116,1.7316184385922997,-0.0990827528232998,-0.1008596319158504,-0.0485440796089252,0.867880897803924,0.4531517569009829,0.1090523643316883,-0.7321054021274301,9.662245968554998,-0.9581035895629568,0.2467811132042524,-0.8569911072257487
0.06,1.0541260665901035,0.4641067896531772,1.7305150614071656,0.0583146771745767,0.0537397261434992,0.0419447582871756,0.0243235817007673,0.0204342768552118,-0.0398120805087577,1.052014981107512,0.461794048629853,1.7311329977962102,-0.119082753121323,-0.1208596322138736,-0.0579896649193843,0.7584888395167643,-0.0824269501085389,-0.2405380798719254,-0.7145995729769361,9.389027970813911,-0.9697943253415492,0.2338119896311719,-0.848194779209305
0.08,1.0544907503839462,0.4644173423338121,1.729632892107844,0.0718679776857246,0.0302430371674675,0.0411975086204585,0.0135208006152706,0.012181412819311,-0.0523694529304076,1.0500333260510462,0.459776855991536,1.7301621162040317,-0.1590827537173695,-0.16085963280992,-0.0768808355403026,0.9253343262197792,-0.540139054274834,-0.4126432017950392,-0.6278686210824995,9.45945219099758,-0.9863532141346268,0.2188536034342953,-0.8361276145151163
0.1,1.0545630954213805,0.4645408314763594,1.7284528267472037,0.0854793029176773,0.0063295896257859,0.0400282817208765,-0.0062753013031905,0.0002526100825005,-0.0650009043415245,1.0480516709945802,0.457759663353219,1.7291912346118532,-0.1990827543134159,-0.2008596334059665,-0.0957720061612209,1.3169430043202754,-0.9898050959230588,-0.5964401368405259,-0.6315725705558405,9.45945219099758,-1.0040539341397376,0.2027390468543909,-0.8243987446978722
0.12,1.0541614173129494,0.4643928938437914,1.727024762342683,0.0984422826584224,-0.0146960678379612,0.0386985188979665,-0.03319638418493,-0.0147734686182422,-0.0772019403966165,1.0440700159083118,0.4537424706850997,1.7272757944886288,-0.2390827549094623,-0.2408596340020129,-0.1146631767821391,1.6578548077742348,-1.346054144086973,-0.7513039350371392,-0.6100518027546034,9.536127674625275,-1.0210915027969882,0.185828961500532,-0.814644933204639
0.14,1.0531606611254676,0.4639135549293587,1.725355396755261,0.1107830130994914,-0.0314640913231962,0.0374495432909066,-0.0654164924714038,-0.0327034210232991,-0.0891801755264532,1.0400883608220437,0.4497252780169803,1.7253603543654044,-0.2790827555055089,-0.2808596345980594,-0.1335543474030575,1.9384895460547091,-1.6110054143236907,-0.8964976202528446,-0.5989117564918336,9.622554348939047,-1.035693041718862,0.1692815393443495,-0.8081577905201698
0.16,1.0515741545370036,0.46309982919867,1.723549199979318,0.1219441153135379,-0.0428088715771434,0.0365286569382206,-0.0997596429699164,-0.0522979316275017,-0.1003759697621568,1.035106705720874,0.4447080853339599,1.722972634976657,-0.3190827561015553,-0.3208596351941059,-0.1524455180239757,2.0547156984300234,-1.7171575249256332,-0.9797255302101272,-0.5597897117851823,9.693074046179843,-1.0479770738883727,0.1519616155219695,-0.8052373617775734
0.18,1.049172932139087,0.4617969108336438,1.7214168718429457,0.1325371734554662,-0.0493850519169297,0.0359999648051932,-0.1386310474549518,-0.0769290558284502,-0.1122578443268042,1.0291250506048033,0.4386908926360383,1.7201126363223866,-0.3590827566976017,-0.3608596357901523,-0.171336688644894,2.376371871788898,-1.9435702242517656,-1.2315562100474262,-0.5940937282323665,9.767638227026056,-1.056140292975355,0.1358926740198173,-0.8066175845683294
0.2,1.0459835320781528,0.4599585258428009,1.7190493822351331,0.1409873802716879,-0.050024459044171,0.036051472167985,-0.1777798751855461,-0.1052885640531334,-0.1237111852029663,1.0231433954887328,0.4326736999381166,1.7172526376681163,-0.3990827572936481,-0.4008596363861987,-0.1902278592658123,2.4839844185557984,-1.957441386529718,-1.4179754112341605,-0.5726670438081074,9.840538874048889,-1.0622823067335505,0.1228654910564475,-0.8088220753640797
0.22,1.042035379923513,0.4575289071777921,1.7164636378040183,0.1467612293032837,-0.0457767535600351,0.0366042412812541,-0.2144694042437941,-0.1355258085173015,-0.1340991106962689,1.0422413797663397,0.4579504580422213,1.7158039796266051,-0.2386310489450679,-0.1605404100602846,-0.142850647238801,2.43327017168064,-1.8344764529123996,-1.5118622232084045,-0.5193962746651293,9.892250943740692,-1.0641425615150335,0.1133820954634318,-0.8142881977971134
0.24,1.037593635765172,0.4544345866996346,1.71384876970125,0.1432440737895372,-0.0368543367568785,0.0372124249940566,-0.2504622978234509,-0.1840395114517277,-0.1397319642536854,1.0422413797663397,0.4579504580422213,1.7158039796266051,-0.2386310489450679,-0.1605404100602846,-0.142850647238801,3.0334785312597594,-1.7996446789828382,-2.4256851467213085,-0.2816426778708233,9.933485685690355,-1.0619809617702192,0.1085813867699696,-0.8262734839467455
0.26,1.0322429562818698,0.45038362386579,1.7110378143808966,0.131152583981501,-0.0230584533144941,0.0377872146601071,-0.2820038659537923,-0.2171059394191576,-0.1407516665222661,1.0422413797663397,0.4579504580422213,1.7158039796266051,-0.2386310489450679,-0.1605404100602846,-0.142850647238801,2.285442501662833,-1.577078406517071,-1.6533213983714947,-0.0509851134290348,10.43313837114647,-1.0589950312690246,0.1163790268049011,-0.8318963370784276
0.28,1.026328214829603,0.4457860665937981,1.708216564591755,0.1173070132750304,-0.0075344332891104,0.0382685594104293,-0.3073798990997702,-0.2405249487453858,-0.1412413678427098,1.0398550692768889,0.4563450539416184,1.7143754731542171,-0.2586310492430911,-0.1772626809066515,-0.1489692078212004,1.7267258492816533,-1.268801657298893,-1.1709504663114143,-0.0244850660221881,10.407812316033414,-1.052474084801578,0.1256111136517468,-0.8404438228712712
0.3,1.020293246748215,0.441046587608001,1.705518571288531,0.1048846041275467,0.0070902829232964,0.0385654482997793,-0.3263186754364123,-0.2572394980069936,-0.1427628586035079,1.0350824482979877,0.4531342457404127,1.711518460209441,-0.2986310498391376,-0.2107072225993853,-0.1612063289859991,1.2652750099121326,-0.9469388168321048,-0.8357274630803851,-0.0760745380399025,10.296014736565668,-1.0437819172167433,0.1345903532391276,-0.8514577696201746
0.32,1.01359941447787,0.4357550218382777,1.7026315543084358,0.0934669832046663,0.0211066042800602,0.0386723579363286,-0.3417933754493154,-0.2711187452810957,-0.1460038508693717,1.030309827319086,0.449923437539207,1.708661447264665,-0.338631050435184,-0.244151764292119,-0.1734434501507979,1.0519076435842711,-0.7737350006451565,-0.6939623637051084,-0.16204961329319,10.171296126557536,-1.0340830344699192,0.1420263662743542,-0.8635630089532912
0.34,1.0066348608893432,0.4302148318685437,1.699659405100865,0.0839993448983439,0.0329104384175156,0.0385750257675764,-0.3537507637088254,-0.2823813448638193,-0.1511990755803263,1.0235372063103825,0.4450404022533646,1.705192578261649,-0.3786310510312304,-0.2775963059848528,-0.1856805713155966,0.8614169187256918,-0.5978694129755019,-0.563129979136176,-0.2597612355477313,10.054396955879383,-1.0251311843774524,0.1474708505470258,-0.8747889998881613
0.36,0.99946003266069,0.4244708557450457,1.6965662847905638,0.0764887518872338,0.0420554146997673,0.0383057684892577,-0.3631970283782133,-0.2918268725251108,-0.157932995725242,1.016764585301679,0.4401573669675223,1.7017237092586333,-0.418631051627277,-0.3110408476775866,-0.1979176924803953,0.7479899556853185,-0.472313233469393,-0.4722763830645765,-0.3366960072457833,9.94716240060916,-1.0170980481809897,0.1517358652077291,-0.8848980333147867
0.38,0.9924792788010246,0.4188435712489228,1.6934920872366137,0.0707638378464155,0.0483865091362425,0.0379234865920727,-0.3712197752597029,-0.3002345238718383,-0.1653787319854336,1.0089919642780738,0.4344382181393615,1.6979489122264972,-0.4586310522233234,-0.3444853893703203,-0.2101548136451941,0.6900942999853568,-0.4011373440744786,-0.4203825673363776,-0.3722868130095785,9.878306473425257,-1.0104843999664066,0.1545947061215448,-0.8935901965387869
0.4,0.984970611047564,0.4127531411977715,1.6900950402385246,0.0658282102084149,0.0529776887784112,0.0374272038061026,-0.3792716566193752,-0.3084519783184418,-0.1739942242969216,1.0002193432395678,0.4278829557688825,1.6938681871652417,-0.4986310528193698,-0.377929931063054,-0.2223919348099928,0.7186550959632012,-0.4025940679836137,-0.4108727223301744,-0.430774615574403,9.833350887683082,-1.0054678379275206,0.1564819250911518,-0.9006276917059213
0.42,0.9773014595339552,0.4065044592486947,1.6865194246228474,0.0617857210933671,0.0558800249493025,0.036872320923819,-0.387298328210813,-0.3160768808690057,-0.1831781005116377,0.9739182900380394,0.4038318450553309,1.6852231506373418,-0.471219776749819,-0.367517953077256,-0.1808285185441809,0.7192186351687803,-0.4013335795718914,-0.381245127528193,-0.4591938107358015,9.801493605754333,-1.0017091522902632,0.1575451055728501,-0.90646928819618
0.44,0.9698935482784192,0.4004039984337781,1.6830604192705332,0.0579286106285126,0.0567859316477458,0.0362303116983988,-0.3922885135337842,-0.3252921521518744,-0.1804537419334526,0.9739182900380394,0.4038318450553309,1.6852231506373418,-0.471219776749819,-0.367517953077256,-0.1808285185441809,0.541399353612916,-0.249509266148562,-0.4607635641434376,0.1362179289092505,10.493763427486556,-1.003313094634965,0.1583348801891487,-0.9070724323178616
0.46,0.9619930834932132,0.3938240935101034,1.679473951048717,0.0540130267280813,0.0552600297031619,0.0354319476338416,-0.3976146389432677,-0.332260911345847,-0.178457671964375,0.9739182900380394,0.4038318450553309,1.6852231506373418,-0.471219776749819,-0.367517953077256,-0.1808285185441809,0.4497652496096614,-0.2663062704741759,-0.3484379596986275,0.0998034984538806,10.493763427486556,-1.0059380507954296,0.1614343230423103,-0.9034023411805834
0.48,0.953977177753042,0.3871179758654267,1.675911242658721,0.0508309063135963,0.0511874850854962,0.0345672879946694,-0.4039262697397479,-0.3381126852772423,-0.177975831113696,0.9692060922705412,0.4001566655245583,1.6834148654519,-0.4912197770478422,-0.3809746389183395,-0.1839184758559303,0.4310223661848003,-0.3155815398240086,-0.2925886965697649,0.0240920425339519,10.384532783626128,-1.0097334933737303,0.1634337988571434,-0.8989133183610398
0.5,0.9458088503044262,0.3803018091040762,1.6723452139023074,0.0484691532342901,0.0451221714102859,0.0336822451130309,-0.4129695844918402,-0.3434184482763066,-0.1786576701063339,0.9597816967355448,0.3928063064630133,1.6797982950810164,-0.5312197776438886,-0.4078880106005065,-0.1900983904794292,0.5253512327946197,-0.4521657376046123,-0.2652881499532161,-0.0340919496318939,10.294782258515625,-1.014539539252826,0.1643515252025386,-0.893927998526221
0.52,0.9378504040083324,0.3737308927640363,1.6689379381518132,0.0469431115712599,0.0385697401992709,0.0328733490566392,-0.4245153391148867,-0.3481383202076724,-0.179970381211698,0.9503573012005484,0.3854559474014681,1.6761817247101327,-0.5712197782399351,-0.4348013822826736,-0.1962783051029281,0.6271061539130397,-0.5772877311523289,-0.2359935965682874,-0.0656355552682064,10.202252237247194,-1.0206276794882905,0.1646328105638893,-0.887604942186472
0.54,0.929208346184724,0.3667207088150615,1.6653198709673795,0.0461637981794958,0.0317029109993061,0.0320965283493363,-0.4392749323607544,-0.3527034127302674,-0.181784690220544,0.9389329056357498,0.3767599197558147,1.6722561586080742,-0.6112197788359816,-0.4617147539648407,-0.2024582197264271,0.7777811062614177,-0.737979662293381,-0.2282546261297507,-0.0907154504423024,10.202252237247194,-1.027148941921873,0.1642937118082723,-0.8807864415932147
0.56,0.920244309261292,0.3596225008902576,1.6616669903066892,0.046435882319095,0.02554994949649,0.0314335364923318,-0.4564826484577603,-0.3570294411261218,-0.1834079880496619,0.9275085100709513,0.3680638921101612,1.6683305925060157,-0.651219779432028,-0.4886281256470077,-0.208638134349926,0.890863500766132,-0.8603858048502971,-0.2163014197927221,-0.081164891455894,10.181227787390526,-1.033111845751418,0.163233370554425,-0.8746253305572756
0.58,0.9113827230226944,0.3527914136404884,1.6581681985269037,0.0475594665050017,0.0211286242011725,0.0309299635417908,-0.4755299329296349,-0.3618616042661808,-0.1848041363533279,0.9150841144912512,0.3586950301724536,1.6642505285383695,-0.6912197800280744,-0.5155414973291748,-0.2148180489734249,0.9850102492493308,-0.9523642235937324,-0.241608157002951,-0.0698074151832983,10.201001820445526,-1.0378601051074343,0.1612974940768692,-0.8701163057286974
0.6,0.9016393942316128,0.3454930934092088,1.654456524109594,0.0493763933932189,0.0190235301545096,0.030563062143062,-0.4978004947858601,-0.3677625770576653,-0.1862784437326298,0.9016597188966502,0.3486533339426917,1.6600159667051362,-0.7312197806241209,-0.5424548690113418,-0.2209979635969238,1.1543103866881437,-1.1135280928112556,-0.2950486395742219,-0.0737153689650937,10.228733670610382,-1.0412857268361717,0.1590126038708051,-0.8671371712254127
0.62,0.8914490049292942,0.3380649730903071,1.6507155250714276,0.0514935031135925,0.0199310891309457,0.0303668052806236,-0.519794293047935,-0.3748382004890357,-0.1877169799750635,0.8876062263762127,0.3346983334271793,1.6489279917092372,-0.5755299344197511,-0.3882703753191374,-0.1763339708100697,1.1574335785005154,-1.0996899131037463,-0.3537811715685207,-0.0719268121216878,10.237051961835276,-1.043410164880681,0.1567813482134309,-0.8655384400317002
0.64,0.8813551997108928,0.3306739528167198,1.6472170951530445,0.0473613143107648,0.0238932370114714,0.0299119416396243,-0.5411270036137193,-0.3993105487872949,-0.1802131846048761,0.8876062263762127,0.3346983334271793,1.6489279917092372,-0.5755299344197511,-0.3882703753191374,-0.1763339708100697,1.6660487059750702,-1.066635528289217,-1.2236174149129586,0.3751897685093736,10.237051961835276,-1.043607709688714,0.1580237286218952,-0.8675129588522311
0.66,0.8703297230124595,0.3225537747527923,1.6437028720837497,0.0364892305007401,0.0307917274340951,0.0290759431972225,-0.5598917748067914,-0.4102733598308387,-0.1715996177972727,0.8876062263762127,0.3346983334271793,1.6489279917092372,-0.5755299344197511,-0.3882703753191374,-0.1763339708100697,1.1688599114669818,-0.9382385596536036,-0.5481405521771898,0.4306783403801695,10.886868757464072,-1.040472082545408,0.166595557779342,-0.8696420548299147
0.68,0.8589657893990724,0.3143133754727206,1.6403442012921918,0.0245993518461658,0.0388403231879491,0.0281448837032667,-0.5752543779407805,-0.4129444502402218,-0.1647974130311321,0.8818509270320152,0.330815629673988,1.6471646520011365,-0.5955299347177743,-0.3935521295297287,-0.1746399377014181,0.850609029913353,-0.7681301566994536,-0.1335545204691562,0.3401102383070259,10.6280146670897,-1.0359085478208787,0.1761889461733678,-0.8728826168173419
0.7000000000000001,0.8473281314062406,0.3060759949858729,1.6370969842322702,0.0138471017150579,0.0469010327911811,0.0272228583224488,-0.587554591756003,-0.4108525963069566,-0.1602759349858218,0.8703403283436201,0.3230502221676052,1.6436379725849353,-0.6355299353138207,-0.4041156379509114,-0.1712518714841148,0.6635414012940933,-0.6150106907611252,0.1045926966632609,0.2260739022655195,10.492586764618864,-1.0311368673581072,0.1844370789018284,-0.8765548242945562
0.72,0.8360694305961884,0.2983187282065874,1.6340779275383277,0.005342693880482,0.0538495607899714,0.0264052112529155,-0.5968794835298832,-0.4061471918530391,-0.1577665548703652,0.8588297296552251,0.3152848146612225,1.6401112931687338,-0.6755299359098672,-0.414679146372094,-0.1678638052668115,0.5371020066834906,-0.4662445886940092,0.2352702226958714,0.1254690057728269,10.492586764618864,-1.0262850910459635,0.1916128992265139,-0.8805247076378422
0.74,0.8240469522645547,0.290265896930494,1.630937914437617,-0.0017311771198041,0.0599386095356258,0.0256370683972173,-0.6048110645013458,-0.3996250070204784,-0.1564399410573211,0.8453191309370277,0.3069912317337806,1.6367540170633976,-0.7155299365059137,-0.4252426547932766,-0.1644757390495082,0.5177083539646461,-0.3965790485731313,0.3261092416280392,0.066330690652204,10.38766043162559,-1.0221230670665389,0.1972516299006965,-0.8839232854087749
0.76,0.8118816137952231,0.2823579091731387,1.627816161040904,-0.0069178037536329,0.0644801063119356,0.0249910069305222,-0.6113849662084623,-0.391933835580083,-0.1558148218744862,0.8318085322188304,0.2986976488063387,1.6333967409580614,-0.7555299371019601,-0.4358061632144593,-0.161087672832205,0.5068556889616871,-0.3286950853558235,0.3845585720197692,0.0312559591417446,10.290370244024416,-1.019170953329997,0.2012159435559864,-0.8862338089254088
0.78,0.8002057861014155,0.2749910676398159,1.6248594452530871,-0.0103806791716329,0.0674735583053338,0.0244909792458802,-0.617363958017591,-0.3842324689830624,-0.1554557129980299,0.8172979334857319,0.2901399781683673,1.6301241665081578,-0.7955299376980065,-0.4463696716356419,-0.1576996066149017,0.4878225848105079,-0.2989495904564376,0.3850683298510265,0.0179554438228188,10.290370244024416,-1.0168746024260198,0.2040987919351931,-0.8880563067619713
0.8,0.7877932790748633,0.2673945481234964,1.6217543803955303,-0.0128118493969475,0.069550858755838,0.0240713271567938,-0.6235997622592978,-0.3760284600740556,-0.1550682166635768,0.8017873347377322,0.2813182198198662,1.6269362937136866,-0.835529938294053,-0.4569331800568245,-0.1543115403975984,0.5156092758309477,-0.3117902120853388,0.4102004454503399,0.0193748167226531,10.284718928490292,-1.015632150322906,0.2060227475356076,-0.8888369555547205
0.8200000000000001,0.7752549136390097,0.2599652194173822,1.6186579719853686,-0.0141575143661573,0.0708209814059583,0.0237523856670813,-0.6299528416461215,-0.3674350365615909,-0.1545863450476024,0.7693375882005359,0.2557794441906628,1.617086659603186,-0.6562084689304862,-0.3803887612520688,-0.1285943433881971,0.5348849072794746,-0.3176539693411861,0.4296711756232391,0.0240935807987202,10.290669427617104,-1.0150733563231475,0.2071087763583853,-0.888993410504568
0.84,0.7631325143480835,0.2529947772999296,1.6157607808711711,-0.01669506795802,0.0746253486441365,0.0233358002858365,-0.644854029577633,-0.3654364696562269,-0.1503711943000441,0.7693375882005359,0.2557794441906628,1.617086659603186,-0.6562084689304862,-0.3803887612520688,-0.1285943433881971,0.7807162853272658,-0.7450593965755758,0.0999283452681992,0.2107575373779147,10.299674935147776,-1.0085139553950473,0.2077264182898485,-0.8976331373551466
0.86,0.7501187573286425,0.2457574702177588,1.612807363635505,-0.0207839446687739,0.0830068020027917,0.0227219314776863,-0.6551012123846579,-0.3581957729638984,-0.145173587332667,0.7693375882005359,0.2557794441906628,1.617086659603186,-0.6562084689304862,-0.3803887612520688,-0.1285943433881971,0.6790573655042141,-0.5123591403512429,0.3620348346164259,0.259880348368853,10.6100955150132,-1.0051542765196968,0.2117483648998831,-0.8996545839500149
0.88,0.7369520696131359,0.2386960229119306,1.6099544012629865,-0.0246359009338308,0.0935147293817034,0.0220617524198898,-0.6605841652198537,-0.3483556423579883,-0.1404175647483118,0.762775503511231,0.2519755565781421,1.615800716169304,-0.6639773711130653,-0.3796200197058701,-0.1232220694662305,0.6113728260179023,-0.2741476417597921,0.4920065302955023,0.2378011292177601,10.598002409617948,-0.9981661130345194,0.2155381367203234,-0.9056960960846434
0.9,0.7237169643215294,0.23184835672104,1.6071889286294516,-0.0276327643856619,0.1048264078183864,0.0214225762987386,-0.6622515614912144,-0.3371364913904527,-0.1363818742443201,0.7496513341326213,0.2443677813531007,1.61322882930154,-0.6795151754782234,-0.3780825366134726,-0.1124775216222974,0.6019475820246126,-0.0833698135680349,0.5609575483767781,0.2017845251995886,10.554407147388702,-0.989758666714944,0.2184593180606571,-0.9134184893267118
0.92,0.71115263235453,0.2255581999594125,1.6046306689898802,-0.0295668479327375,0.1153794557082679,0.0208751365009569,-0.6600108706805053,-0.3257855052659492,-0.133132646391119,0.7365271647540116,0.2367600061280593,1.610656942433776,-0.6950529798433814,-0.3765450535210752,-0.1017329737783643,0.6008807347342044,0.112034540535455,0.5675493062251791,0.1624613926600557,10.518686060333494,-0.9808095715313166,0.2209354619929705,-0.9214250431767748
0.94,0.6980118796860458,0.2191746441895759,1.6020002565915317,-0.0306017636473218,0.1253141670541428,0.0204051748160398,-0.6540006956787291,-0.3132550938902396,-0.1301184774418116,0.722626105157144,0.2292291050576378,1.6086222829582086,-0.7105907842085395,-0.3750075704286778,-0.0909884259344312,0.7110179801725401,0.3005087500888126,0.6265205687854769,0.1507084474653655,10.493231707963789,-0.972366001625004,0.2226620444369379,-0.9287809716416946
0.96,0.6850235053368153,0.2130495586304468,1.5994284056675858,-0.0303199921249317,0.133291577216981,0.0201005811440197,-0.6450820709725017,-0.3000103136956495,-0.127233583752263,0.7087250455602763,0.2216982039872163,1.6065876234826413,-0.7261285885736977,-0.3734700873362803,-0.0802438780904981,0.8113086352516113,0.4459312353113698,0.6622390097295039,0.144244684477432,10.486279500055389,-0.9650974371187644,0.2233163154314715,-0.9349820195613292
0.98,0.6722347867722485,0.2071937780633894,1.5969168652036403,-0.0283717237835867,0.1389265858885039,0.0200062657510762,-0.6343615322786271,-0.2864838546480541,-0.1240745692740309,0.6944355408542797,0.2142057399941047,1.6048215777031725,-0.7416663929388557,-0.3719326042438828,-0.069499330246565,0.8773175262224299,0.5360269346937285,0.6763229523797709,0.1579507239116026,10.499637968321622,-0.9597287355022496,0.2226415680013743,-0.939484966942216
1.0,0.6602937789645629,0.201870756087431,1.5945954891717902,-0.0250674046988172,0.1421407919077903,0.0201024167320739,-0.6232711925095928,-0.2750315849644974,-0.1204286367261943,0.6797575910391541,0.2067517130783031,1.6033241456198015,-0.7572041973040138,-0.3703951211514854,-0.0587547824026319,0.8176841401802262,0.5545169884517143,0.5726134841778363,0.1822966273918307,10.530652617102533,-0.9562464296856285,0.2206303157982581,-0.9422768333495862
1.02,0.6479545348274387,0.1964750049993953,1.5922358382865345,-0.0210812353371015,0.143480981325521,0.0203094482289312,-0.6113558556951574,-0.2653103899812369,-0.1156825961756278,0.6291302193390832,0.1881191768392061,1.5885740573354803,-0.6199014092254502,-0.2751609574135071,-0.1086199498364863,0.8046766186046906,0.5957668407217731,0.4860597491630231,0.2373020275283278,10.575278229197464,-0.9545388814529776,0.2180690117120785,-0.9434760723234518
1.04,0.6357536518681064,0.1912394521145843,1.5898457563924469,-0.0175829993096153,0.1455712613159226,0.0204843250913788,-0.6087500544269763,-0.2584922608640131,-0.123594589664468,0.6291302193390832,0.1881191768392061,1.5885740573354803,-0.6199014092254502,-0.2751609574135071,-0.1086199498364863,0.5382302617742724,0.1302900634090553,0.3409064558611924,-0.3955996744420132,10.630842483993549,-0.9451973000178296,0.2145141118697249,-0.9538095348430562
1.06,0.6242368777255864,0.1863939700366387,1.5874371065283022,-0.0148137746290065,0.1497719517266259,0.0205913499414721,-0.60337410351921,-0.2518853501740803,-0.1295377462599252,0.6291302193390832,0.1881191768392061,1.5885740573354803,-0.6199014092254502,-0.2751609574135071,-0.1086199498364863,0.5193101851148029,0.2687975453883162,0.3303455344966399,-0.2971578297728601,9.883183542696315,-0.94174092268202,0.2121379994338005,-0.9575366480940318
1.08,0.6122571841639066,0.1814268823602727,1.5847977622564535,-0.0122299724358311,0.1552047137897831,0.0206895216522282,-0.5946274287894119,-0.2451861906418272,-0.1340254177456873,0.6229312052468287,0.185367567265071,1.5874878578371157,-0.6192274525686217,-0.275186831903309,-0.1062582124585447,0.5948156282235412,0.4373337364899032,0.3349579766126515,-0.224383574288102,10.018566510283565,-0.9365620152606252,0.2101550805226774,-0.9626762738803744
1.1,0.6004831551306437,0.176590584425006,1.5820846783016402,-0.009897388539688,0.1606935900650846,0.0207935151762313,-0.5830495266684916,-0.2388030746236074,-0.1370183401684609,0.6105331770623197,0.1798643481168009,1.585315458840386,-0.6178795392549646,-0.2752385808829129,-0.1015347377026615,0.6777712967004543,0.5788951060460124,0.3191558009109946,-0.1496461211386815,10.126770528830091,-0.9308626732801034,0.2084802957245523,-0.968065370075318
1.12,0.5889673690356145,0.1718785581386294,1.5793261615133625,-0.0077605737043667,0.165469438455863,0.0209126458646566,-0.569097479001304,-0.2327469127754932,-0.1387125094254304,0.5981351488778107,0.1743611289685307,1.5831430598436562,-0.6165316259413076,-0.2752903298625168,-0.0968112629467782,0.7651910544257714,0.6976023833593803,0.3028080924057097,-0.0847084628484734,10.219652890391444,-0.9257444599054676,0.2069699589350756,-0.9728957012170764
1.14,0.5783030577975243,0.1675110906418708,1.5766846662336285,-0.0058792603826051,0.1689122473953195,0.0210409955968882,-0.5542186298415824,-0.22731568807154,-0.1392692972566231,0.5858045163589846,0.1688553223712804,1.5812068345847206,-0.6151837126276506,-0.2753420788421206,-0.092087788190895,0.7924461603029305,0.7439424579860798,0.2715612351976565,-0.027839391559635,10.300407390418512,-0.9211307776289358,0.2055189998338434,-0.9771470304497388
1.16,0.5673925798621745,0.1630216587576672,1.5738983238515227,-0.0040396339020314,0.1711803035167729,0.0211885355285805,-0.5376625590444554,-0.2219460185751816,-0.1393155673343296,0.5734738838401584,0.16334951577403,1.5792706093257851,-0.6138357993139936,-0.2753938278217245,-0.0873643134350118,0.8702571051989416,0.8278035398563532,0.268483474817921,-0.0023135038853261,10.375005976006832,-0.9175595813608792,0.2042828017842646,-0.9802272473123418
1.18,0.5568201398367791,0.158635912234324,1.5711186641156618,-0.0023393720696114,0.17198358980172,0.0213434129908873,-0.5205723372074365,-0.2169227411941368,-0.1386458423297175,0.5611769491541737,0.1578424154522896,1.5774524709357465,-0.6124878860003364,-0.2754455768013284,-0.0826408386791286,0.8912877336573719,0.8545110918509458,0.2511638690522427,0.0334862502306049,10.414325585890763,-0.9157424638453632,0.2033832207564,-0.9814588969372928
1.2,0.5470949776771201,0.1545593052320115,1.568498057066346,-0.000851265396066,0.1714118028791814,0.0214922360010911,-0.5040856094344404,-0.2124688773508799,-0.137234512339906,0.5489137123010304,0.1523340214060591,1.575752419414605,-0.6111399726866794,-0.2754973257809323,-0.0779173639232454,0.8567977417910434,0.8243363886498045,0.2226931921628427,0.0705664994905735,10.458712436471616,-0.9155892748411142,0.2026684222851715,-0.9809781747659068
1.22,0.5371966786326894,0.1503557189822104,1.5657769592733668,0.0005508855968933,0.1693221818950888,0.0216438587638411,-0.4866949864349663,-0.2081574271286278,-0.1348995456855928,0.5307915229764073,0.1477897751746172,1.564186371999176,-0.5137685494283735,-0.2115281040751118,-0.103581949726797,0.9034301862976848,0.8695311499737013,0.2155725111126064,0.1167483327156646,10.506646815602837,-0.9171135162773782,0.2021929040374932,-0.9788088361885668
1.24,0.5276363955874265,0.1461985795268353,1.5630874683492637,0.0005736798824331,0.1657158180573559,0.0217041764310326,-0.4703642897931546,-0.2075038656219699,-0.1342469562654469,0.5307915229764073,0.1477897751746172,1.564186371999176,-0.5137685494283735,-0.2115281040751118,-0.103581949726797,0.8178396364831444,0.8165348320905874,0.0326780753328953,0.0326294710072908,10.555078739002056,-0.9187251065530038,0.2023984311301754,-0.9768918823450295
1.26,0.5183964267249705,0.1420652783644582,1.560432320758787,-0.0015000993569581,0.1606912913550205,0.0216350797414794,-0.4546845625364436,-0.2056757974645963,-0.1312578028655634,0.5307915229764073,0.1477897751746172,1.564186371999176,-0.5137685494283735,-0.2115281040751118,-0.103581949726797,0.8033223482526852,0.7839863628355481,0.0914034078686787,0.1494576699941782,10.436286884393668,-0.9225851256816484,0.2045854881328616,-0.9723626845795444
1.28,0.5098922232439027,0.1381917983931319,1.5579882048674458,-0.0046611649507746,0.1549203140571126,0.0215178317864006,-0.4415419150223008,-0.2018094033662065,-0.1261431390694041,0.5256538374821236,0.1456744941338661,1.563150552501908,-0.5124077918725609,-0.2104491766513068,-0.0965691712062129,0.731159990619034,0.6571323757071423,0.1933197049194882,0.255733189807962,10.58014884815566,-0.927427609532639,0.2083332646906002,-0.9661015605911556
1.3,0.5011873908572332,0.1342220891450945,1.5555399361223137,-0.0080094871005268,0.1484642964514605,0.0214339388826648,-0.429849219279064,-0.1953647355524543,-0.1188498092880345,0.5153784664935561,0.1414439320523639,1.561078913507372,-0.5096862767609357,-0.2082913218036968,-0.0825436141650447,0.7606667080156271,0.5846347871618363,0.322233390687611,0.364666489068479,10.70426751549894,-0.9338763951297148,0.2125787646204378,-0.957658434711814
1.32,0.4926948072060169,0.1303962950572227,1.553255025083738,-0.0107643058638705,0.1421608226113868,0.0214280848072564,-0.4201590642377761,-0.1876380149350051,-0.1099239006360054,0.5051030955049887,0.1372133699708616,1.559007274512836,-0.5069647616493105,-0.2061334669560868,-0.0685180571238764,0.7636641301787751,0.4845077520643975,0.3863360308724597,0.4462954326014588,10.806689399028071,-0.9405929736917716,0.216483871159626,-0.9485984881347532
1.34,0.4843755551883521,0.1267334045954664,1.5511635304739542,-0.0127143907133577,0.1364539881382906,0.0215025418718597,-0.4123926849482451,-0.1792489885227061,-0.0996490052367052,0.4949638002720025,0.1330907006317399,1.5576369133703585,-0.5042432465376853,-0.2039756121084768,-0.0544925000827082,0.7685471470275383,0.38831896447655,0.4194513206149525,0.5137447699650098,10.951483220424052,-0.9473102016455018,0.2200662266908866,-0.939222726583786
1.36,0.4765975773731614,0.1234140268231529,1.5493753735405402,-0.0137808845249199,0.1320191602583691,0.0216364111006409,-0.406837268001409,-0.170706796697383,-0.0890725762830963,0.4848245050390162,0.1289680312926182,1.556266552227881,-0.50152173142606,-0.2018177572608668,-0.04046694304154,0.7343237502024302,0.2777708473418044,0.4271095912661518,0.5288214476804415,10.994008891838348,-0.9531184599911372,0.2230645562293342,-0.9306218839470234
1.38,0.4685068301109778,0.1201000796879842,1.5477169569945746,-0.0138752784521152,0.1289019772234635,0.02184189494684,-0.4026397348247456,-0.1612265348941269,-0.077286037003471,0.4747532476838207,0.1248993083246867,1.5552468300114326,-0.4988002163144349,-0.1996599024132568,-0.0264413860003718,0.784883999100534,0.209876658833169,0.4740130901628073,0.5893269639812682,11.029648776845534,-0.9573267021068244,0.2251894842116371,-0.9237555758272926
1.4,0.4604892622835135,0.1169790341341249,1.5462991194921556,-0.0126784054021857,0.1277789186103834,0.0221183274203977,-0.3991362682977375,-0.1514730157582387,-0.0650631853271249,0.4647500282064157,0.1208845317279454,1.5545777467210136,-0.4960787012028097,-0.1975020475656468,-0.0124158289592036,0.8012545106611864,0.1751733263504057,0.4876759567944103,0.611142583817302,11.041205623379938,-0.9609163127892464,0.226438433988077,-0.9175806710782723
1.42,0.4525517695501563,0.1140512478585005,1.5451287894771175,-0.0100421745281826,0.1282589147815453,0.0224808754891778,-0.3946172660297606,-0.1421041649903815,-0.0525687484108361,0.4405324488686267,0.109405383346213,1.543045960225799,-0.4051156954342183,-0.157391361638002,-0.0416330465007547,0.812877143336373,0.2259501133988428,0.4684425383928603,0.6247218458144438,11.041205623379938,-0.9629782337853116,0.2265066758953892,-0.9134235225802476
1.44,0.4450981933204826,0.1114417622555898,1.5441312819290007,-0.0060983465648412,0.1293543067595573,0.0229249928049823,-0.3901483283495652,-0.133716549482774,-0.0530564678262614,0.4405324488686267,0.109405383346213,1.543045960225799,-0.4051156954342183,-0.157391361638002,-0.0416330465007547,0.4758186842724625,0.223446884009773,0.4193807753803735,-0.0243859707712661,11.043419044000984,-0.9608850278121768,0.2254947972009303,-0.913264409465705
1.46,0.437354885301459,0.1088317299761757,1.54307353971065,-0.0012944395526149,0.1304881272162834,0.0234439797110814,-0.3843718143553737,-0.1279117151568686,-0.0525726518174581,0.4405324488686267,0.109405383346213,1.543045960225799,-0.4051156954342183,-0.157391361638002,-0.0416330465007547,0.4101776852983159,0.2888256997095717,0.2902417162952711,0.0241908004401655,10.232886131670966,-0.9596207966192476,0.2218775009266931,-0.9152245782011168
1.48,0.4297364460057093,0.1063158761373891,1.5420464935650722,0.0033183866049052,0.1313236020180408,0.0239542674474156,-0.3777873512122599,-0.1239853782784332,-0.0501680385389439,0.4364812919142845,0.1078314697298329,1.5426296297607918,-0.4063115808615145,-0.1585750308139547,-0.0369470187354806,0.4017257808044966,0.3292231571556919,0.1963168439217691,0.1202306639257091,10.340544988395775,-0.9586956081085516,0.2185943389396949,-0.9165393672363872
1.5,0.4222554858486598,0.1038648827171573,1.5410834208266977,0.0074164680441641,0.1317382186394237,0.0244291490627194,-0.3706876737619859,-0.121265870857475,-0.0462632524210873,0.4283789780056001,0.1046836424970729,1.5417969688307769,-0.4087033517161068,-0.1609423691658601,-0.0275749632049325,0.4273420618684221,0.3549838725137005,0.135975371047909,0.1952393058928313,10.44576139568926,-0.9583521549054204,0.2160462504927016,-0.916915721277763
1.52,0.4152829714962606,0.1015783642726276,1.5402525873596642,0.0107569815305438,0.1316897716364052,0.0248383361873501,-0.3636773046726436,-0.119489051528905,-0.0413880938348633,0.4202766640969158,0.1015358152643128,1.5409643079007616,-0.4110951225706991,-0.1633097075177654,-0.0182029076743844,0.4360892481362603,0.3505184544671164,0.0888409664284987,0.2437579293111984,10.532137370387318,-0.9585353343776282,0.2140081019903903,-0.9164304199912424
1.54,0.4080876809795736,0.0992021703045358,1.5394881967337828,0.0137210352526356,0.1311797981904018,0.0252240134517924,-0.3562740798759293,-0.118192920325254,-0.0352585526871157,0.4120547616455018,0.0982696211139575,1.540600249747274,-0.4134868934252914,-0.1656770458696707,-0.0088308521438364,0.4849200144603592,0.3701612398357146,0.0648065601825495,0.3064770573873797,10.602632400650691,-0.9593253218902528,0.2126133796516401,-0.915009317914874
1.56,0.4010389423307021,0.0968461321719635,1.538851240337758,0.0161542170700382,0.1302360119403762,0.0255643427353449,-0.3490563894357043,-0.1174002885715309,-0.0287390658281602,0.4038328591940878,0.0950034269636022,1.540236191593786,-0.4158786642798838,-0.1680443842215761,0.0005412033867117,0.4879216875996057,0.3608845220112483,0.0396315876861549,0.3259743429477766,10.661683275787254,-0.960514515784724,0.211790259453403,-0.9130046814342508
1.58,0.3944727828272861,0.0946186009301586,1.5383692340021242,0.0180222691799111,0.1290179654723562,0.0258492304923778,-0.3425427015897036,-0.1170399513066022,-0.022315400466317,0.395551162471309,0.0916780493544493,1.5401064348285622,-0.4182704351344761,-0.1704117225734814,0.0099132589172597,0.4577702725728748,0.3256843923000352,0.0180168632464367,0.3211832680921596,10.687492645387463,-0.9621687516100952,0.2113192135237516,-0.9103895398863996
1.6,0.3876903121272202,0.092278177034165,1.537996865265381,0.0195586079911225,0.1274906215663507,0.0261126694780079,-0.3361083864276407,-0.1170051480918299,-0.0152375408860077,0.3872096714771654,0.0882934882864987,1.540210979451602,-0.4206622059890684,-0.1727790609253868,0.0192853144478078,0.47827220049645,0.3217157581031471,0.0017401607386134,0.3538929790154611,10.687492645387463,-0.9641807819212151,0.2112271737576497,-0.9073197760801484
1.62,0.3810315854387722,0.0899337527684205,1.5377691271402891,0.0205890062949983,0.1258041733085823,0.0263366247292145,-0.3301484723225139,-0.1174237071721481,-0.007870953449075,0.3708848928058382,0.0864279196295735,1.5372349882210807,-0.3541029728059766,-0.1140139846871715,0.0109002134350905,0.4742424968045906,0.2979957052563403,-0.0209279540159097,0.3683293718466346,10.703082413075208,-0.966319570813238,0.2115379683796461,-0.9040716499577068
1.64,0.3744993560847888,0.0875198461009555,1.5376360876613582,0.0190991191922241,0.1234756141725672,0.0263755125817622,-0.323479385154006,-0.1231063787481438,-0.0057716147161659,0.3708848928058382,0.0864279196295735,1.5372349882210807,-0.3541029728059766,-0.1140139846871715,0.0109002134350905,0.4504905743111566,0.3334543584253946,-0.284133578799784,0.1049669366454554,10.715469710093204,-0.9691593232928776,0.2133949019477163,-0.9000863910506213
1.66,0.3684143292049628,0.0851544129043715,1.5375563936124756,0.0148766864230612,0.1200978233540494,0.0262138407884942,-0.3175179635227229,-0.1248573511703057,-0.0026759045552742,0.3708848928058382,0.0864279196295735,1.5372349882210807,-0.3541029728059766,-0.1140139846871715,0.0109002134350905,0.34708743022958,0.2980710815641524,-0.0875486211080966,0.1547855080445871,10.396669378178558,-0.9726014793532476,0.2177429838518472,-0.8947853640848338
1.68,0.3621202112509394,0.0826783566527871,1.5375497469879744,0.0097996749075787,0.115367854817501,0.0260173902183301,-0.3123733786979011,-0.1225470783212794,0.0019185692544844,0.3673438630777784,0.0852877797827017,1.5373439903554316,-0.3577018900816438,-0.1134157520062398,0.0161277642993102,0.3637076547355524,0.2572292412410915,0.1155136424513168,0.2297236904879371,10.465757451268471,-0.9772325905515542,0.2228442313966661,-0.8877268548272955
1.7,0.3559100615913206,0.080275164986317,1.5376480686786564,0.0052850439479009,0.109779950981993,0.0258928536866068,-0.3091552958518406,-0.1180348788245689,0.0076977877771513,0.3602618036216589,0.0830075000889583,1.5375619946241337,-0.3648997246329782,-0.1122192866443764,0.0265828660277495,0.4003603634070142,0.1609041423030227,0.2256099748355257,0.2889609261333417,10.531943121800396,-0.9821361836650432,0.227406164043666,-0.8802341177465506
1.72,0.3500465133970196,0.0780877383115238,1.5378573350105942,0.0018676776077646,0.1043322897194085,0.0258696918380185,-0.3083444561043569,-0.1126509187860885,0.014055447643329,0.3531797441655394,0.0807272203952149,1.5377799988928351,-0.3720975591843126,-0.1110228212825131,0.0370379677561888,0.4185221791197585,0.0405419873741874,0.269198001924021,0.317882993308886,10.58731747082038,-0.9879653130404056,0.2316152656835458,-0.8715487854990437
1.74,0.3438687240560515,0.0759004751401663,1.538215738846416,-0.0008060177670824,0.0991027652881147,0.0259399241544662,-0.309663959496445,-0.106500857219387,0.0214932262952016,0.3457377929818531,0.0785067639695646,1.5385207582479592,-0.3792953937356469,-0.1098263559206497,0.0474930694846282,0.487044396719136,-0.0659751696044042,0.3075030783350738,0.3718889325936316,10.632916845244836,-0.9934955452552496,0.235129951888829,-0.8632002169883874
1.76,0.337640144397371,0.073840173277794,1.5387270240156508,-0.0026025791435188,0.0951209175350853,0.026091391226641,-0.3132798325225115,-0.0999702546251828,0.0292816657144509,0.3382958417981668,0.0762863075439143,1.539261517603083,-0.3864932282869813,-0.1086298905587863,0.0579481712130675,0.5394049883236575,-0.1807936513033264,0.3265301297102084,0.3894219709624646,10.673903047802014,-0.9979828378163814,0.2380014017316295,-0.8560765436635037
1.78,0.3313161658902932,0.0719158276754026,1.5393957349264589,-0.0034681508631796,0.0932435184626749,0.0263149298979046,-0.3188713376962032,-0.0929332209854242,0.0372124465731768,0.3306739447506973,0.0740957627523107,1.5402636545014177,-0.3936910628383157,-0.1074334251969229,0.0684032729415068,0.5993372539389838,-0.2795752586845834,0.3518516819879323,0.3965390429362955,10.692311795538444,-1.0011397507281496,0.2401151683425463,-0.8507437262354267
1.8,0.32520546159656,0.070222275162553,1.5401785827590346,-0.0032684572443826,0.0936042025278054,0.0265974033573538,-0.3238247606391544,-0.0858186161056972,0.0448097583903227,0.3228721018394443,0.0719351295947536,1.5415271689429637,-0.4008888973896501,-0.1062369598350596,0.0788583746699461,0.5763530781850077,-0.2476711471475601,0.355730243986347,0.3798655908572916,10.699167721560116,-1.0036549330995408,0.2416151628045632,-0.846359615168012
1.82,0.3186857876229205,0.0685856074955297,1.541159340970286,-0.0018509586589708,0.0955828053621206,0.0269785686008892,-0.3276853908624023,-0.0783307781700728,0.0528748753566513,0.3090142235646023,0.0659313443572682,1.5424190706785508,-0.311226269365334,-0.087118264767795,0.05720488606675,0.5831344063579899,-0.1930315111623948,0.3743918967812225,0.403255848316433,10.69035554320999,-1.0044508057736512,0.2421467096520856,-0.8442763496306546
1.84,0.3120391372502684,0.0671045382014612,1.5422147846935834,0.0012061856802639,0.1003988381763668,0.0274793940512435,-0.3363738381811899,-0.0706763981180248,0.0518226515356363,0.3090142235646023,0.0659313443572682,1.5424190706785508,-0.311226269365334,-0.087118264767795,0.05720488606675,0.5813471978130812,-0.4344223659393798,0.3827190026023983,-0.0526111910507529,10.68369919101042,-0.9971144909212034,0.2409168336273245,-0.8517673383931886
1.86,0.3052600502371333,0.0657444195830539,1.5432376156041432,0.0052083167079374,0.1085833867740527,0.0280740972194321,-0.3405539107394816,-0.065916535919185,0.0505526695007215,0.3090142235646023,0.0659313443572682,1.5424190706785508,-0.311226269365334,-0.087118264767795,0.05720488606675,0.3230408221631393,-0.209003627914589,0.2379931099419925,-0.0634991017457387,10.132618376850589,-0.992557842547065,0.2381850613694927,-0.858332519458894
1.88,0.2987837257155968,0.0645214000591707,1.5441930135830626,0.0089262966671339,0.117779226819137,0.02867328925669,-0.3406114440640158,-0.0630493751374261,0.0500535649155053,0.305901960870949,0.0650601617095902,1.5429911195392183,-0.3087065711105699,-0.0873781945002145,0.0596839116020355,0.1455423170324691,-0.0028766662267087,0.1433580390879429,-0.0249552292608114,10.158319082426717,-0.9849923677497296,0.2353451152990127,-0.86803065876987
1.9,0.2920070298370347,0.0632825303011858,1.5451934953392936,0.0124118709301764,0.1277635287120563,0.0293120263629567,-0.3367401985427387,-0.060965548587785,0.050016209868721,0.2996774354836423,0.0633177964142343,1.5441352172605531,-0.3036671746010417,-0.0878980539650537,0.0646419626726065,0.2198310167749196,0.1935622760638577,0.1041913274820571,-0.0018677523392136,10.200696902646996,-0.9764682434235372,0.2328976969648865,-0.8783142179012352
1.92,0.2853481184951674,0.0620784836399892,1.5461968765505747,0.0153690591563961,0.1370163604972206,0.0299349684095344,-0.3291497107413252,-0.0594994561583532,0.0503096579358462,0.2934529100963356,0.0615754311188784,1.5452793149818882,-0.2986277780915136,-0.0884179134298927,0.0696000137431774,0.3868172819405288,0.3795243900706735,0.0733046214715892,0.0146724033562598,10.239917661670916,-0.9679864526692008,0.2309133759793697,-0.8880507274792987
1.94,0.2788744980491771,0.0608989617410874,1.5472098302542476,0.0177988942350613,0.1447036602598134,0.0305183165007868,-0.3185996623566008,-0.0584467063244219,0.050935462264749,0.2874803545345053,0.0598070728502806,1.5466713152567515,-0.2935883815819854,-0.0889377728947318,0.0745580648137484,0.531044805527134,0.5275024192362171,0.0526374916965662,0.0312902164451397,10.275087528384574,-0.9606309794101204,0.2294478607671831,-0.8961166309980039
1.96,0.2729394699940317,0.0597953625062832,1.548183859648054,0.0196853819409695,0.1501813049155253,0.0310222744322744,-0.3067515181266518,-0.0577132941516789,0.0515420713807536,0.2815077989726751,0.0580387145816827,1.5480633155316152,-0.2885489850724572,-0.089457632359571,0.0795161158843193,0.59431555113513,0.5924072114974505,0.0366706086371463,0.030330455800228,10.311984035388376,-0.953999406267594,0.228287659310298,-0.9030430871290364
1.98,0.2669461302740022,0.0586463079901104,1.5492227909369367,0.02128216405025,0.1539385211602874,0.0314914173128621,-0.2932722893208334,-0.0572236273113977,0.0523210795698435,0.275661228323583,0.0562573598264639,1.5495792670832431,-0.2835095885629291,-0.08997749182441,0.0844741669548903,0.6755298597633291,0.6739614402909211,0.024483342014062,0.0389504094544961,10.329330432385175,-0.948763636211926,0.227425148547347,-0.9082697234763316
2.0,0.2612293477409723,0.0575025734802647,1.5502807511660484,0.0224247934806714,0.1556942689853371,0.0318867545580874,-0.2792681759982464,-0.0571498455362001,0.0534312299586972,0.2699406425872291,0.0544630085846241,1.551219169911635,-0.2784701920534009,-0.0904973512892492,0.0894322180254612,0.7024120364645021,0.7002056661293526,0.0036890887598808,0.0555075194426862,10.37923699139992,-0.944867170077516,0.2269380607021012,-0.911874006304428
2.02,0.2560583123802875,0.0564141981598186,1.5513104702379068,0.0230074886310561,0.1556866999296921,0.0321874329977661,-0.2658728302316957,-0.0573887548104578,0.0549069242906211,0.2522825158079605,0.0557851266245405,1.5518388449154288,-0.2846620528623531,-0.0680764438260685,0.0446700513465077,0.6739251434841361,0.669767288327533,-0.0119454637128865,0.0737847165961955,10.409206959940091,-0.9427337693527608,0.2269441050043827,-0.913459631818657
2.04,0.2508913110497618,0.0552805828172789,1.552329092562066,0.0235333579052179,0.153393844357101,0.0324416312235287,-0.2516154803558934,-0.0560544307269744,0.0463665798591845,0.2522825158079605,0.0557851266245405,1.5518388449154288,-0.2846620528623531,-0.0680764438260685,0.0446700513465077,0.8336514998012872,0.7128674937901147,0.0667162041741692,-0.4270172215718317,10.409206959940091,-0.940916178917306,0.2273396526032,-0.9139730436455388
2.06,0.2460022854262423,0.0541728478615397,1.5531694143645014,0.0243874831014814,0.1481009640806164,0.0326412493811583,-0.2384746735662384,-0.0549066463920222,0.0381768114855419,0.2522825158079605,0.0557851266245405,1.5518388449154288,-0.2846620528623531,-0.0680764438260685,0.0446700513465077,0.7763222880616667,0.6570403394827492,0.0573892167476122,-0.4094884186821291,9.785396824045163,-0.9403675494990996,0.22604188721526,-0.9148807191004372
2.08,0.2415697323155655,0.0531368046334788,1.553832798766469,0.0254348409390961,0.1413158668599971,0.0327939998712687,-0.2290624682245122,-0.0542751430469925,0.0320807143788447,0.249435895279337,0.0551043621862798,1.552285545428894,-0.282940005570657,-0.0702470071290027,0.0431398457018406,0.5615843787978001,0.4706102670863091,0.0315751672514824,-0.3048048553348597,9.8652884022913,-0.9423865397584646,0.2246366693017225,-0.9131781163586632
2.1,0.2370640132630545,0.0520538625405079,1.5544199198272028,0.0267142512900292,0.1336212809271495,0.0329384597651444,-0.222251080932931,-0.0541096390401927,0.0270210510718862,0.2437426542220899,0.0537428333097585,1.553178946455824,-0.2794959109872648,-0.0745881337348711,0.0400794344125063,0.4243305939711478,0.3405693645790617,0.00827520033999,-0.2529831653479225,9.952871178014902,-0.946235531334617,0.2232839802979407,-0.9095723127062064
2.12,0.2326650422360744,0.0509681873575468,1.554918435949324,0.0280881723367812,0.126336188710015,0.0330837958934157,-0.2181375254838357,-0.0545117842362527,0.023135386510691,0.2380494131648428,0.0523813044332371,1.5540723474827542,-0.2760518164038727,-0.0789292603407394,0.037019023123172,0.283643474601585,0.2056777724547639,-0.0201072598029997,-0.1942832280597607,10.02159250875593,-0.950485586510272,0.2220542069861114,-0.9055060141678536
2.14,0.2283227973601059,0.04986790116065,1.5553492490752847,0.0294319949454328,0.120200949899859,0.033243307225175,-0.2163698348537837,-0.0555178356067493,0.0201435175219422,0.2325283768367654,0.0508027192264223,1.5548127279452175,-0.2726077218204806,-0.0832703869466077,0.0339586118338377,0.1808877384559886,0.0883845315025999,-0.0503025685248278,-0.1495934494374438,10.079727908863788,-0.9544672940257536,0.2208046254438428,-0.901754877070444
2.16,0.2242093041478544,0.0487984074129499,1.5557048091120396,0.0305550825887088,0.1160515709828624,0.0334211981708111,-0.2167753944571874,-0.0570115384986381,0.0174342446572534,0.2270073405086879,0.0492241340196075,1.5555531084076812,-0.2691636272370884,-0.0876115135524761,0.0308982005445034,0.1560111083904668,-0.0202779801701857,-0.074685144594443,-0.1354636432344364,10.133732234693523,-0.9569131034313242,0.219715429166153,-0.8995543756480083
2.18,0.2198539196822141,0.0476362513152067,1.5560231842561845,0.0314222488416214,0.1141186231053325,0.0336518223819092,-0.2186918405943231,-0.0591209146322369,0.0145415523303741,0.2215724065451952,0.047537020647646,1.5562169785879112,-0.2657195326536963,-0.0919526401583444,0.0278377892551691,0.2030388039730628,-0.0958223068567812,-0.105468806679939,-0.1446346163439663,10.131593401725697,-0.9581100312683268,0.21860240895005,-0.8991430657090611
2.2,0.2154653912928806,0.0464277121145336,1.5562830243387498,0.0318022015857335,0.1146697181319375,0.0339207068745491,-0.2198081689049295,-0.0615950596521442,0.0115816945099984,0.2162235749462874,0.0457413791105378,1.556804338485908,-0.2622754380703041,-0.0962937667642128,0.0247773779658348,0.200800527846868,-0.0558164155303228,-0.123707250995363,-0.1479928910187831,10.123893700503686,-0.9579426850045096,0.2178545038218777,-0.9002532861828396
2.22,0.2110711880480268,0.0451680171354091,1.5564826999279475,0.0315692691832206,0.116898923257392,0.0341959204827205,-0.2193359093105247,-0.0641824543051604,0.0085262883979534,0.2089193276524979,0.0446802055835949,1.5567502618727032,-0.2124383834317938,-0.0615178043616622,0.0126123343808645,0.2015759579196264,0.0236129797202389,-0.1293697326508084,-0.1527703056022502,10.123893700503686,-0.9559098261304904,0.2175782655153752,-0.9031895378590816
2.24,0.206924230452246,0.0438820892945146,1.5566238359840403,0.029390780058366,0.1198757934448712,0.0343428363819568,-0.21708856375922,-0.0703504797522606,0.0064995603681258,0.2089193276524979,0.0446802055835949,1.5567502618727032,-0.2124383834317938,-0.0615178043616622,0.0126123343808645,0.3435212018563566,0.1123672775652367,-0.3084012723550126,-0.1013364014913795,10.117291296516669,-0.9528118505685688,0.2185481051304867,-0.9073441545652544
2.26,0.2026205308427938,0.0424465870675569,1.5567333989293155,0.0251097447663607,0.1233182811973896,0.0343578524556771,-0.2132887141638545,-0.0724498069441538,0.0045633311519401,0.2089193276524979,0.0446802055835949,1.5567502618727032,-0.2124383834317938,-0.0615178043616622,0.0126123343808645,0.237671070934355,0.1899924797682764,-0.104966359594661,-0.0968114608092893,10.183254722204763,-0.9493214269099044,0.2221800809070435,-0.9102557835638608
2.28,0.1984074673401971,0.0410059382016653,1.5568047352646457,0.0207202896211654,0.1265807078245925,0.0343487609822956,-0.2081592869271736,-0.0715228733921014,0.0026495747102315,0.20679494381818,0.0440650275399783,1.5568763852165115,-0.211187691999288,-0.0619971823075473,0.0122264907909626,0.2776359725634672,0.256471361834043,0.0463466776026225,-0.0956878220854265,10.186308858573284,-0.945421906383698,0.2259761110587203,-0.9133751618105812
2.3000000000000003,0.1943084149121967,0.03960262009225,1.5568375620609651,0.0169645226126287,0.1293261900549916,0.0343636239014251,-0.2019948586693305,-0.0690052429486344,0.0007102905365214,0.2025461761495441,0.042834671452745,1.557128631904129,-0.2086863091342763,-0.0629559381993174,0.0114548036111587,0.3467688780094366,0.3082214128921567,0.125881522173351,-0.0969642086855057,10.186308858573284,-0.9417962559058456,0.2291984673029932,-0.916172616327359
2.32,0.1905358327765885,0.0383251007782985,1.556832831434753,0.0141751800383095,0.131283141096145,0.0344155634881849,-0.195451451492458,-0.0657780802991709,-0.0011250005767271,0.1982974084809082,0.0416043153655118,1.5573808785917465,-0.2061849262692646,-0.0639146940910875,0.0106831164313549,0.3761616996678651,0.3271703588436217,0.1613581324731709,-0.0917645556624321,10.19003523052288,-0.9383100007160564,0.2319975791088445,-0.918781109110414
2.34,0.1867030264978803,0.0370501787954629,1.5567904586117602,0.0120240025653514,0.1326060599076031,0.0345118550552172,-0.1881936635308191,-0.0620071544898246,-0.0030202383227035,0.1941737099555229,0.04032602148369,1.5575945409203735,-0.2036835434042529,-0.0648734499828577,0.009911429251551,0.4197835563402858,0.3628893980819461,0.1885462904673188,-0.0947618872988197,10.196274788881055,-0.935357147517398,0.2341997803773458,-0.920874096389345
2.36,0.1830179918080233,0.0358557753997103,1.5567118484033216,0.0106674276160673,0.1331835999348712,0.034653528804366,-0.1807392428317088,-0.0577651736141865,-0.0047534683668162,0.1900500114301376,0.0390477276018683,1.5578082032490006,-0.2011821605392412,-0.0658322058746278,0.0091397420717472,0.4375125029482543,0.3727210349555171,0.212099043781903,-0.0866615022056324,10.203792914903715,-0.9330821499488668,0.2357460215552926,-0.9223617336651084
2.38,0.179481872575716,0.0347505840214456,1.5566006017040668,0.0101940664783437,0.1330883920217076,0.0348487500733369,-0.1733204785738786,-0.0530876461059032,-0.006288176972641,0.1859888474763776,0.0377454648227523,1.5580025733981326,-0.1986807776742295,-0.0667909617663979,0.0083680548919433,0.445175968603422,0.370938212891507,0.2338763754141666,-0.0767354302912404,10.216485399076191,-0.9312940374456868,0.2367286147432242,-0.923393174912295
2.4,0.1762580635915442,0.0337896857750079,1.5564684780054563,0.0107046269659302,0.1324720129363545,0.0350936175324574,-0.1664660518312458,-0.0484141337168571,-0.0075435569390546,0.1819902180942429,0.036419233146342,1.5581776513677694,-0.1961793948092178,-0.067749717658168,0.0075963677121395,0.4195261102743207,0.3427213371316434,0.2336756194523045,-0.0627689983206804,10.230106976077876,-0.930088141822832,0.2369580584849391,-0.9239038648722416
2.42,0.173001874995065,0.0328719708360883,1.5563055454381804,0.0123215158059524,0.1313930206583883,0.0354166974536969,-0.1595627575049676,-0.0437066172396181,-0.0086734534660326,0.1708158486470221,0.0320962017161504,1.5562861928554348,-0.1695530640897056,-0.0490367528625009,-0.0134476545380785,0.4215828806426392,0.3451647163139101,0.2353758238619489,-0.0564948263489012,10.24319042663592,-0.9294235268348005,0.2363573396830297,-0.9239714976202136
2.44,0.1698812129232359,0.032020225390549,1.556094915743982,0.0142779097378924,0.1298558143370054,0.0357489107606518,-0.1529054464314781,-0.0416325511071103,-0.0124656475972738,0.1708158486470221,0.0320962017161504,1.5562861928554348,-0.1695530640897056,-0.0490367528625009,-0.0134476545380785,0.3968698696683881,0.3328655536744732,0.1037033066253873,-0.1896097065620604,10.254031595358356,-0.92848657446536,0.2351892460058153,-0.9246734682223502
2.46,0.1668896296290065,0.0312064561756436,1.5558066216868618,0.0159256728976738,0.1277918192332217,0.0360424810450033,-0.1466605791493413,-0.0398196038576451,-0.0161552055139353,0.1708158486470221,0.0320962017161504,1.5562861928554348,-0.1695530640897056,-0.0490367528625009,-0.0134476545380785,0.3738247675089412,0.31224336410684,0.0906473624732638,-0.1844778958330724,10.087760962697756,-0.9283262723599274,0.2340266352122033,-0.9249615151123906
2.48,0.1641576457294507,0.0304631829738188,1.5554684818576778,0.0172457567298663,0.1254555094845029,0.0362893056914468,-0.1413001027988925,-0.0385016342799085,-0.019250487587375,0.169120318006125,0.0316058341875254,1.556151716310054,-0.168799581192871,-0.0482265742138205,-0.0148795500511661,0.3164353078660667,0.2680238175224392,0.0658984788868288,-0.1547641036719846,10.110963247543625,-0.9286738037066762,0.2330411399075547,-0.924672055893228
2.5,0.1613838675613363,0.0297033530751885,1.5550522812481102,0.0182896457233195,0.1227856258956694,0.0365125633140212,-0.1364504958885397,-0.0375553889537174,-0.0221892592247988,0.1657292567243309,0.0306250991302754,1.5558827632192924,-0.1672926153992017,-0.0466062169164596,-0.0177433410773411,0.2874475871320159,0.2424803455176413,0.0473122663095532,-0.1469385818711923,10.134465872839428,-0.9293811715802316,0.2323702888143799,-0.9239379250438428
2.52,0.1586971740908398,0.0289580735856329,1.5545808257092266,0.0188615047679647,0.1201604148130071,0.0366963429081346,-0.1325406403413881,-0.0369897174817528,-0.024805484251105,0.1623381954425368,0.0296443640730254,1.5556138101285308,-0.1657856496055325,-0.0449858596190987,-0.0206071321035161,0.236915533482173,0.1954927773575782,0.0282835735982315,-0.130811251315307,10.15191414599576,-0.930186110083013,0.2320765350552783,-0.9230631170057452
2.54,0.1562079778214189,0.0282585933464303,1.5540867589006766,0.0189009033594193,0.1179843891603164,0.0368371269006385,-0.1297327298960688,-0.0366330947145055,-0.027067797352483,0.1590224824504261,0.0287446468806434,1.5552016674864606,-0.1642786838118633,-0.0433655023217378,-0.0234709231296911,0.1811739594679579,0.1403955222659653,0.0178311383623629,-0.1131156550689,10.16835126524984,-0.9309156517204976,0.2321878729483639,-0.9222010397861534
2.56,0.1536363390321841,0.0275299275512158,1.5535206835501862,0.0183943304323773,0.1163301564219758,0.036956480624498,-0.1276326964944159,-0.0362195113080778,-0.0294196395745887,0.1557067694583155,0.0278449296882614,1.5547895248443904,-0.1627717180181941,-0.0417451450243769,-0.0263347141558661,0.1589996333314131,0.1050016700826453,0.0206791703213859,-0.1175921111052873,10.181143543963117,-0.9312850070291688,0.2327087375387592,-0.9216955304996056
2.58,0.1511034161373476,0.0268125947744788,1.552907845917831,0.0173824894411797,0.115474143263628,0.037054137389264,-0.1257005247202906,-0.0354958548044616,-0.0317467231840014,0.1524287306110466,0.0269857214283135,1.5543057874266657,-0.1612647522245248,-0.040124787727016,-0.0291985051820412,0.1555014841179164,0.0966085887062637,0.0361828251808114,-0.1163541804706364,10.181956875621836,-0.931396496119786,0.2334704156047935,-0.9216387579596091
2.6,0.1486115793560568,0.0261153933298753,1.552248662900708,0.0160094989035474,0.1152243282637012,0.037136594144126,-0.1235269940816762,-0.0342380242171446,-0.0340578792946048,0.1491883659086194,0.0261670221007995,1.5537504552332866,-0.1597577864308556,-0.0385044304296551,-0.0320622962082162,0.1706444827042845,0.1086765319307229,0.0628915293658508,-0.1155578055301663,10.181674704104807,-0.930909229062728,0.234547453979265,-0.9220158344929386
2.62,0.146287618138139,0.0254829408162996,1.55157972361312,0.0145570258970253,0.1153459046276699,0.0372098177721509,-0.121175025742907,-0.0323997620062625,-0.0362446063106644,0.144818389901333,0.0250378020342557,1.551320509758631,-0.1263895788029041,-0.0411038593223148,-0.0178105472192287,0.1850184995162284,0.117598416938458,0.091913110544102,-0.1093363508029826,10.181606484077747,-0.9299781296170604,0.2359109826890201,-0.9226714575499912
2.64,0.1439081224444738,0.0248927133955435,1.550886264141416,0.0140923620744586,0.115343437076818,0.0373578257336657,-0.1168802778353168,-0.0269681601604172,-0.0326956901829548,0.144818389901333,0.0250378020342557,1.551320509758631,-0.1263895788029041,-0.0411038593223148,-0.0178105472192287,0.3890435833009534,0.214737395379512,0.2715800922922654,0.177445806385481,10.181903431431238,-0.9314051237011493,0.2363329735398648,-0.921422997834734
