t,x,y,z,roll,pitch,yaw,v_x,v_y,v_z,ref_x,ref_y,ref_z,ref_v_x,ref_v_y,ref_v_z,a_com,a_x,a_y,a_z,thrust,wind_x,wind_y,wind_z
0.0,0.8957065312165026,2.3335267288956443,2.310231574420895,0.0279411962978521,0.1000496373364123,0.0427034425822163,0.0039587893272254,-0.0072083170386022,0.0137362553908813,0.8958225470905716,2.333333942281868,2.310647380805716,-0.0961058904728004,-0.1066805024072729,-0.0861737384713811,0.8004944716078221,0.1979394663612747,-0.3604158519301138,0.686812769544066,10.244256685923574,-0.9435246749456606,0.2578430808670117,-0.8729047763092921
0.02,0.8959310952143357,2.3336605461266045,2.310295620504667,0.0339485642469623,0.0942018173890742,0.0429284808542491,0.0180228004947931,0.0167182413435488,-0.0085356005284023,0.8958225470905716,2.333333942281868,2.310647380805716,-0.0961058904728004,-0.1066805024072729,-0.0861737384713811,1.7792640137324236,0.703200558378382,1.196327919107557,-1.1135927959641836,10.244474069484568,-0.9518684343147122,0.2582960230935313,-0.8587934588887014
0.04,0.8963962865604189,2.334045490383657,2.3098085439250946,0.0478460066586789,0.0777962728543771,0.0431676736165455,0.0262448527586664,0.019624861850719,-0.0389129271011817,0.8958225470905716,2.333333942281868,2.310647380805716,-0.0961058904728004,-0.1066805024072729,-0.0861737384713811,1.580215614965134,0.4111026131936673,0.1453310253585098,-1.5188663286389683,8.899664188901625,-0.9514592753146062,0.2447433154910294,-0.8640494665148901
0.06,0.8968893210956194,2.334381926833069,2.308780569437559,0.0616785507011837,0.0565325708029279,0.0428568817958439,0.0243581925631655,0.0153161841968825,-0.0677784521729484,0.8948614881858437,2.332267137257796,2.3097856434210025,-0.1161058907708236,-0.1266805027052961,-0.1061737387694043,1.4623121481807069,-0.0943330097750489,-0.2154338826918253,-1.4432762535883346,8.570379437281645,-0.9588209127762576,0.2269907744003635,-0.8651660635662722
0.08,0.8972729168042705,2.334606159922424,2.3071117805739334,0.075740952403302,0.0319981895836662,0.0419691540548456,0.0133284386479862,0.0069798658024977,-0.0976034229175321,0.8929393703763876,2.33013352720965,2.3080621686515745,-0.15610589136687,-0.1666805033013426,-0.1461737393654507,1.643683786284063,-0.5514876957589633,-0.4168159197192421,-1.4912485372291853,8.576548897034627,-0.971190079597976,0.207343267903458,-0.8636797405518589
0.1,0.8973429028671337,2.334629495686505,2.304854500252345,0.0891516818701674,0.0082312350514033,0.0406939765275184,-0.0061331069408004,-0.00454072239447,-0.1267203064698282,0.8910172525669317,2.3279999171615047,2.306338693882147,-0.1961058919629165,-0.2066805038973891,-0.1861737399614972,1.843413014564632,-0.973077279439332,-0.5760294098483862,-1.455844177614806,8.628246279574341,-0.9853166898727336,0.1886706286871998,-0.8600510321526634
0.12,0.896984016061637,2.3344105100844943,2.302175997199153,0.1013026968328254,-0.0117330416418823,0.0393412313776697,-0.0307479878730016,-0.0181874117535874,-0.1538462430800335,0.8870951347276733,2.323866307083557,2.302615219082917,-0.2361058925589629,-0.2466805044934355,-0.2261737405575436,1.9544442501332508,-1.2307440466100616,-0.6823344679558713,-1.356296830510266,8.710421138409856,-1.0002533059675858,0.1684500299467149,-0.8571575841793931
0.14,0.8960556339098006,2.3338733455019915,2.298793330473444,0.1134971631110634,-0.0289884366136084,0.03796679111963,-0.0608892724356994,-0.0350941515248125,-0.1830712829615963,0.883173016888415,2.319732697005609,2.298891744283688,-0.2761058931550094,-0.286680505089482,-0.2661737411535901,2.262983562059381,-1.5070642281348907,-0.8453369885612566,-1.4612519940781374,8.798974578499838,-1.0133361564762975,0.1476574867380797,-0.8572873212662974
0.16,0.8944854441927198,2.332971312115089,2.2948229049456166,0.1250964755491005,-0.0418475154281085,0.0368207610021408,-0.0945504979699024,-0.0545279178307858,-0.2125309894742495,0.8782508990342555,2.31459908691276,2.294168269469556,-0.3161058937510558,-0.3266805056855285,-0.3061737417496366,2.438556788918051,-1.6830612767101498,-0.9716883152986636,-1.4729853256326628,8.818515015499543,-1.024063490745929,0.1281382073112349,-0.858720989923603
0.18,0.8922108770691636,2.3316550498430817,2.2902652450553544,0.1361108687129944,-0.0497867924342397,0.0360930007727459,-0.1310849902313491,-0.0763676203835559,-0.2418064116758817,0.8723287811651949,2.30846547680501,2.288444794640524,-0.3561058943471022,-0.3666805062815749,-0.346173742345683,2.583017652610508,-1.8267246130723336,-1.0919851276385069,-1.4637711100816089,8.869579428983343,-1.0308855870918836,0.111652463045968,-0.8615923487242481
0.2,0.8893539653856037,2.329963569599228,2.285392977509699,0.1455656065784412,-0.0521988752847927,0.0359514345273002,-0.1673153165693594,-0.1004492947145894,-0.269527948390921,0.8856566275575961,2.327836668823904,2.278174924471561,-0.2310849917214652,-0.1763676218736721,-0.3418064131659978,2.579266941879005,-1.811516316900516,-1.2040837165516745,-1.386076835751962,8.935872765105614,-1.0352689709488068,0.0941619631646883,-0.8687995697985644
0.22,0.8855801357359816,2.3275152628127924,2.2798052720000386,0.1498953850335503,-0.0485012244196851,0.0362991294579154,-0.207604056085392,-0.1412086143526732,-0.2866424882687259,0.8856566275575961,2.327836668823904,2.278174924471561,-0.2310849917214652,-0.1763676218736721,-0.3418064131659978,2.990573583938029,-2.0144369758016283,-2.037965981904187,-0.8557269938902462,8.989861703389124,-1.040333377885209,0.0825402506870012,-0.8734713800503864
0.24,0.8810485850549399,2.324318572280304,2.2739136079779594,0.1478113679750316,-0.039129352811075,0.0370395753734467,-0.242825948590445,-0.1757546044167587,-0.3015891178953892,0.8856566275575961,2.327836668823904,2.278174924471561,-0.2310849917214652,-0.1763676218736721,-0.3418064131659978,2.577503093277512,-1.7610946252526516,-1.727299503204277,-0.7473314813331661,9.77259423845362,-1.0396739833320674,0.0815493003130473,-0.8774831458071506
0.26,0.876142237976673,2.32069232494335,2.2680296497977706,0.142788951355391,-0.0273005182547291,0.0379169408306354,-0.2713766834383982,-0.203481264214112,-0.3168473674334102,0.8833457776403815,2.3260729926051678,2.2747568603399007,-0.2510849920194885,-0.1963676221716953,-0.3618064134640211,2.131153621187841,-1.4275367423976617,-1.3863329898676668,-0.7629124769010509,9.77259423845362,-1.0339950037493393,0.0826820417333545,-0.8875709314626241
0.28,0.8704442930290561,2.31635762986439,2.261508532930147,0.1366746481527145,-0.0135987049402198,0.0388794624648718,-0.2964529735222629,-0.2282770399151018,-0.3345239948346287,0.8787240778059522,2.322545640167694,2.2679207320765804,-0.2910849926155349,-0.2363676227677418,-0.4018064140600675,1.972380524433248,-1.2538145041932318,-1.2397887850494864,-0.8838313700609252,9.61167923236917,-1.0259863966195004,0.0854144282924827,-0.8990158239743259
0.3,0.8642933732762776,2.311557408774862,2.2546095801541832,0.1307243470833984,-1.4257600713299066e-05,0.0397456367618136,-0.3170921697009398,-0.250427937000535,-0.354477142060811,0.8741023779715229,2.3190182877302203,2.2610846038132606,-0.3310849932115813,-0.2763676233637882,-0.441806414656114,1.812985621027556,-1.0319598089338438,-1.1075448542716595,-0.997657361309115,9.450872276797782,-1.0168400219897131,0.0875139959800445,-0.9117546023310676
0.32,0.8577695242839407,2.306335351492988,2.2472891525600414,0.1253090088372768,0.0125241923041284,0.0404288222529046,-0.3340794701642955,-0.2706852999161145,-0.3766010099287808,0.8674806781072912,2.3134909352629447,2.252248475520138,-0.3710849938076277,-0.3163676239598346,-0.4818064152521604,1.7236550254946683,-0.8493650231677891,-1.012868145778978,-1.1061933933984884,9.306421852610583,-1.00612996844666,0.0888661385670956,-0.9264826868593852
0.34,0.8512860218801497,2.3010131207940208,2.2399106787557312,0.1207922696534717,0.0229323792808479,0.0408696143936569,-0.3474759876517597,-0.2886075733517657,-0.3990167713547451,0.8608589782430597,2.3079635827956686,2.243412347227016,-0.4110849944036743,-0.3563676245558811,-0.521806415848207,1.5836200035045742,-0.6698258743732061,-0.8961136717825585,-1.1207880712982177,9.181372763907348,-0.9958335469002522,0.0897591742583891,-0.9403579534024384
0.36,0.8442045346321888,2.295046121827352,2.231669190088758,0.1164977542578701,0.0321606782543962,0.0411051820333835,-0.3598743397426576,-0.3070667239155755,-0.4240322305761068,0.8532372783639268,2.301436230313492,2.2335762189189925,-0.4510849949997207,-0.3963676251519276,-0.5618064164442533,1.6734937811080146,-0.6199176045448979,-0.9229575281904906,-1.250772961068081,9.105637829919033,-0.9860670322654485,0.0899133359856037,-0.9538044018489076
0.38,0.8368895752225114,2.288715821050269,2.222914551514483,0.1123996329038536,0.0397489122204899,0.0411211682711158,-0.3709760994519841,-0.3249177920495574,-0.4501957332609175,0.8446155784698929,2.293908877816414,2.222740090596068,-0.4910849955957671,-0.436367625747974,-0.6018064170402998,1.6781228909899502,-0.5550879854663238,-0.8925534066990926,-1.3081751342405383,9.04029404060202,-0.9773321907523068,0.0897886003143366,-0.9661447585611777
0.4,0.8293623983934193,2.2820364921219443,2.213626864650012,0.1083961137091319,0.0459176108566511,0.0409502326662889,-0.3811703522906741,-0.3419970274428,-0.4772795538156555,0.8183407702499121,2.272469931447791,2.200404764851437,-0.4709761009421002,-0.4249177935396735,-0.5501957347510337,1.6801461308456012,-0.509712641934501,-0.8539617696621316,-1.3541910277368978,8.994878739295928,-0.969970698682127,0.0895763453814735,-0.9768372623828327
0.42,0.8220568589130534,2.2753785759004352,2.2044815385464083,0.1051493169981862,0.0500399632785645,0.0406148430178991,-0.3873094357728215,-0.3582410931677532,-0.4830223950756873,0.8183407702499121,2.272469931447791,2.200404764851437,-0.4709761009421002,-0.4249177935396735,-0.5501957347510337,0.9145193314185563,-0.3069541741073711,-0.8122032862476591,-0.2871420630015886,8.955907629673675,-0.9718554734000912,0.0905402118586537,-0.977013108035662
0.44,0.8142496814312756,2.2680474759007376,2.194739263024228,0.1028243443564178,0.0519071108419596,0.0400636932020539,-0.3932299769896497,-0.3742267574752983,-0.4913072669966435,0.8183407702499121,2.272469931447791,2.200404764851437,-0.4709761009421002,-0.4249177935396735,-0.5501957347510337,0.9476726417918954,-0.2960270608414056,-0.7992832153772556,-0.4142435960478141,10.198906377154344,-0.969277067010938,0.0909581635265666,-0.9806971204877438
0.46,0.8063188057153565,2.260394881219012,2.18477736994212,0.1013118800257537,0.0514273052416918,0.0393203297920205,-0.3997103427173588,-0.390305557513672,-0.5044618028194308,0.8136310092404911,2.268220753512394,2.1949028075039267,-0.4909761012401235,-0.4449177938376967,-0.5701957350490569,1.0880771610412845,-0.3240182863854551,-0.8039400019186849,-0.6577267911393597,9.911383158274475,-0.9683896523559948,0.0901195443603379,-0.983324787035724
0.48,0.798250167523813,2.252423753208768,2.174516506489506,0.1002983178864694,0.0488666784957089,0.0383965658938785,-0.4069800305918103,-0.4060343230386197,-0.5209638237063936,0.8042114872216491,2.259722397641601,2.183898892808906,-0.53097610183617,-0.4849177944337431,-0.6101957356451033,1.1964103811866655,-0.3634843937225795,-0.7864382762473837,-0.8251010443481421,9.672706677210954,-0.969689648231841,0.0885731223016473,-0.9842074156093842
0.5,0.7904395424318569,2.244563403219886,2.16443919930064,0.099792214046742,0.0446935550260052,0.037372726827811,-0.4150425632611875,-0.4206214980642139,-0.5389815949113295,0.7947919652028071,2.251224041770808,2.1728949781138853,-0.5709761024322164,-0.5249177950297896,-0.6501957362411498,1.2272226646634967,-0.4031266334688588,-0.7293587512797101,-0.9008885602467932,9.499823723314876,-0.9725156218004488,0.0862237025933376,-0.984038837137766
0.52,0.7820291784551674,2.2359938672638293,2.153441486801157,0.0998512730403081,0.0390076108133572,0.0362015638073737,-0.4258535458463656,-0.4356098179976103,-0.5599369806483536,0.7833724431541628,2.240725685870212,2.1598910633890624,-0.6109761030282629,-0.5649177956258361,-0.6901957368371963,1.3970104422214833,-0.5405491292589021,-0.7494159966698194,-1.0477692868512078,9.267956907703592,-0.9771518733861198,0.0834944287117337,-0.9819296815398586
0.54,0.7733762920283331,2.227123527285732,2.1420169835242358,0.1005995980641056,0.0328218342732412,0.0350183315283609,-0.4390840428164587,-0.4507472539114787,-0.5814603227564686,0.7719529211055185,2.230227329969616,2.14688714866424,-0.6509761036243094,-0.6049177962218826,-0.7301957374332427,1.4726186468541969,-0.6615248485046549,-0.7568717956934229,-1.076167105405751,9.25252679890218,-0.9837297920654994,0.0806636770750798,-0.977306523752121
0.56,0.7644316025015011,2.217935319923887,2.1301598748675667,0.1016470538227464,0.0269415323863516,0.033872668825536,-0.4548019855146083,-0.4672404914289523,-0.6031584681564578,0.759533399041973,2.2187289740541187,2.1328832339245154,-0.6909761042203557,-0.6449177968179289,-0.7701957380292891,1.5731259646553937,-0.7858971349074817,-0.8246618758736807,-1.0849072699994575,9.25252679890218,-0.990098552039658,0.0777186117587276,-0.9727595323044684
0.58,0.7556214330766539,2.208889808690883,2.118491515394908,0.1023822230251268,0.0223320148372748,0.0328538876894086,-0.4718823382744082,-0.4839738383920324,-0.6239912292704305,0.7461138769635264,2.2062306181237203,2.11787931916989,-0.7309761048164022,-0.6849177974139754,-0.8101957386253356,1.5856759494123314,-0.8540176379899955,-0.8366673481540049,-1.0416380556986349,9.256938639816326,-0.9959953098741722,0.0748340632507295,-0.9687394894187248
0.6,0.7459756657309091,2.199017936409213,2.105775560360088,0.1024716688411128,0.0192858273151464,0.03191185205018,-0.4919121440012822,-0.5022461759591393,-0.6465237909947038,0.7320273161629335,2.184691116771281,2.087291953931387,-0.5718823397645243,-0.5839738398821486,-0.7239912307605466,1.7626597626036664,-1.001490286343698,-0.9136168783553444,-1.1266280862136655,9.259083411014217,-1.000325230622361,0.0726489757064136,-0.9661604979138644
0.62,0.7358925699765122,2.188725301079722,2.0928228365344275,0.1006723718635335,0.0196641314448138,0.0311868050208613,-0.5149848540419449,-0.5258657815984303,-0.6463659189213737,0.7320273161629335,2.184691116771281,2.087291953931387,-0.5718823397645243,-0.5839738398821486,-0.7239912307605466,1.6509547561696414,-1.1536355020331373,-1.1809802819645498,0.0078936036665033,9.239502984637513,-1.0057854228636407,0.0717297004275847,-0.9628282040045782
0.64,0.725907277079575,2.1785372575031428,2.0805272078220693,0.0970968815087053,0.0233776132275988,0.0307017261717123,-0.5345511248407151,-0.5448895333849458,-0.6479601065670959,0.7320273161629335,2.184691116771281,2.087291953931387,-0.5718823397645243,-0.5839738398821486,-0.7239912307605466,1.3668243479462994,-0.978313539938508,-0.9511875893257749,-0.0797093822861083,10.686941696602844,-1.0058659692112373,0.0753260245054393,-0.9615749001747111
0.66,0.7150235052635544,2.1674569855682013,2.0675028332184238,0.0929189147262299,0.0293733481252961,0.0303502005613889,-0.5524617563714677,-0.5619560406053474,-0.6546032651355199,0.7263084927652882,2.1788513783724595,2.080052041623781,-0.5918823400625475,-0.6039738401801718,-0.7439912310585698,1.2808082861026011,-0.8955315765376282,-0.8533253610200797,-0.3321579284212006,10.025706784829708,-1.002375503081085,0.0785719714748642,-0.9648774019372094
0.68,0.7038082609066446,2.1560563490723816,2.0542946310391974,0.0888323622762401,0.0365023155467384,0.0300883803004195,-0.5678890740932183,-0.5771468219410464,-0.6660664656140013,0.7148708459699977,2.1671719015748168,2.06557221700857,-0.6318823406585939,-0.6439738407762182,-0.7839912316546163,1.2249152367477485,-0.7713658860875328,-0.7595390667849478,-0.5731600239240686,9.748628799242397,-0.9971316797482144,0.0810711600814579,-0.9707794806881446
0.7000000000000001,0.6923088779824916,2.1443687979481694,2.0408091712558725,0.0850568778537533,0.0440266289514874,0.0298595856665497,-0.5810500719142914,-0.590835299810141,-0.6818838033475564,0.7034331991747073,2.1554924247771736,2.0510923923933597,-0.6718823412546404,-0.6839738413722647,-0.8239912322506627,1.2356925821137004,-0.6580498910536525,-0.6844238934547331,-0.7908668866777546,9.748628799242397,-0.991221605180322,0.0829392026842002,-0.9776052493265286
0.72,0.681160260265684,2.133023834219176,2.0276722583401736,0.0818621093115424,0.0510456963516639,0.0296384109715366,-0.5916859248097576,-0.6027213508515009,-0.7001607521936969,0.6899955523496145,2.1418129479497283,2.034612567748346,-0.7118823418506869,-0.7239738419683112,-0.8639912328467092,1.212895745000622,-0.5317926447733101,-0.5943025520679934,-0.9138474423070252,9.339056412355603,-0.984635247666436,0.08433135734591,-0.98537096703004
0.74,0.6692254867028296,2.1208479623140573,2.013448514410923,0.0790052627752393,0.0579119422121315,0.0293811165178355,-0.6010977303966352,-0.6142863770581077,-0.7213499539553367,0.6765579055245217,2.128133471122283,2.0181327431033327,-0.7518823424467334,-0.7639738425643576,-0.9039912334427556,1.2954865754419886,-0.4705902793438798,-0.578251310330341,-1.0594600880819929,9.339056412355603,-0.978241355446902,0.0851191590057262,-0.9930727629869248
0.76,0.6571142553749525,2.1084388475046936,1.9987845171509897,0.0764306633503241,0.0641169261182753,0.0290783676592874,-0.6094494659302101,-0.625962074745847,-0.7440472993875431,0.6621202586845277,2.113453994279937,2.0006529184434183,-0.7918823430427797,-0.803973843160404,-0.943991234038802,1.3427982839830752,-0.4175867766787466,-0.583784884386962,-1.134867271610318,9.236001286642932,-0.9720093138117656,0.0854551762748223,-1.0008011355108064
0.78,0.6448457536823062,2.0957993821702434,1.983653055777601,0.0738494149535669,0.0697599195302901,0.0287218795270076,-0.6168831858893515,-0.6372860304790223,-0.7680146542925457,0.6466826118296326,2.097774517422689,1.9821730937686028,-0.8318823436388262,-0.8439738437564505,-0.9839912346348484,1.376523035604747,-0.3716859979570719,-0.5661977866587675,-1.1983677452501285,9.108159360946049,-0.966413955679616,0.0857649371198186,-1.00779198561092
0.8,0.6330610082420538,2.083587099972746,1.9688217185011367,0.0713259134020993,0.0746641574067034,0.0283363438187011,-0.6231645754741735,-0.6475331740528835,-0.7919775129873412,0.6140015943878386,2.063935080646292,1.945252323062974,-0.6871882576604964,-0.7372860319691384,-0.8542953429360012,1.3404088959776146,-0.3140694792410969,-0.512357178693057,-1.1981429347397765,9.108159360946049,-0.960821163945058,0.0861474745624926,-1.0148304318471817
0.8200000000000001,0.6205138489821137,2.070503830431841,1.952991555722847,0.0685057357175757,0.0807896916325519,0.0279774715196229,-0.6307926877440899,-0.6601656341238237,-0.7882959341993002,0.6140015943878386,2.063935080646292,1.945252323062974,-0.6871882576604964,-0.7372860319691384,-0.8542953429360012,0.7604623044880362,-0.3814056134958221,-0.6316230035470105,0.1840789394020492,9.05007668399685,-0.956120674809678,0.0864652505704273,-1.0212726793045788
0.84,0.6078430731599617,2.057187849310961,1.9372477660579084,0.0658887704133829,0.0887477518757169,0.0277445040773026,-0.6355304914451098,-0.6708178888537744,-0.7867123537535213,0.6140015943878386,2.063935080646292,1.945252323062974,-0.6871882576604964,-0.7372860319691384,-0.8542953429360012,0.5882708597436372,-0.2368901850509919,-0.5326127364975342,0.0791790222889443,10.846439314906092,-0.949125656427428,0.0886871770683629,-1.027258660271588
0.86,0.5951083598438737,2.043669569596129,1.92146516348394,0.0637595365371528,0.0973525938128345,0.0275740631006931,-0.6374283187365503,-0.6805435853703881,-0.7916210800374435,0.6071297118112337,2.056562220326601,1.936709369633614,-0.7012492720147254,-0.7572860322671616,-0.8715514806646922,0.5529161665475977,-0.094891364572025,-0.4862848258306851,-0.2454363141961069,10.483577979867732,-0.941050174253174,0.0900499334136532,-1.0346154682669786
0.88,0.5829993058736634,2.030654748396355,1.9063316271307515,0.0621484464773663,0.1053247729510592,0.0274176198049516,-0.6369624373754521,-0.6890250271516211,-0.8011499478182296,0.5933859466580238,2.041816499687218,1.9196234627748936,-0.7293713007231833,-0.7972860328632081,-0.9060637561220743,0.6382617435558214,0.0232940680549076,-0.42407208906165,-0.4764433890393049,10.132127304364984,-0.9320026192334584,0.0907164764732823,-1.0432167796549825
0.9,0.5702829062007927,2.0167896790999893,1.8901651599995648,0.060986502060112,0.1129441869827468,0.0272355533641754,-0.634578043643029,-0.6970573759012075,-0.8151912420042581,0.5796421815048138,2.0270707790478357,1.902537555916174,-0.7574933294316413,-0.8372860334592546,-0.9405760315794568,0.8175602459831319,0.1192196866211525,-0.4016174374793235,-0.7020647093014254,9.64276550327304,-0.9230385235452848,0.0905477738465717,-1.0520351018768503
0.92,0.5576312663689876,2.002772877427291,1.87367944621012,0.0606293096231783,0.1193891470364448,0.0270365078130037,-0.6306783545879852,-0.7043294662274459,-0.8326903770221646,0.564492314916181,2.0103250583786503,1.8837260352845848,-0.7856153581400992,-0.877286034055301,-0.9750883070368388,0.9673554140205164,0.1949844527521949,-0.3636045163119161,-0.8749567508953282,9.64276550327304,-0.915141856991434,0.0894660784846414,-1.0600516951931744
0.94,0.5456971425955581,1.989326810273471,1.8576815878450663,0.0612443681957085,0.1242419501659985,0.0268401443859338,-0.6257680514096254,-0.7108142675337039,-0.8504381998426642,0.5493424483275481,1.993579337709465,1.864914514652996,-0.8137373868485572,-0.9172860346513476,-1.0096005824942211,0.9761518070373346,0.245515158917986,-0.3242400653129029,-0.8873911410249791,9.481823730727228,-0.9080234638859432,0.0872075123878342,-1.067597794626736
0.96,0.5332417846769606,1.975031734705355,1.8404697573893216,0.0628073213948535,0.1280364995643046,0.0266227944686709,-0.6200368184226985,-0.7184098741386621,-0.8698522886983497,0.5334895310212039,1.9758336170253787,1.845240187134972,-0.8418594155570152,-0.957286035247394,-1.0441128579516032,1.081026268580204,0.2865616493463452,-0.3797803302479086,-0.970704442784276,9.43464264317754,-0.9021843976869388,0.0837930120475475,-1.074290859561234
0.98,0.5209061914110286,1.9605745637942744,1.822864960787668,0.0649478547308646,0.1306234247884654,0.0263753998857128,-0.6138717697446905,-0.7269907100927016,-0.8896696888995408,0.5169335629971481,1.9570878963263916,1.8247030527305137,-0.8699814442654731,-0.9972860358434404,-1.0786251334089854,1.1229068545593088,0.3082524339004022,-0.4290417977019733,-0.9908700100595524,9.407231488281468,-0.8980039811448683,0.0800171429113597,-1.0794495912035231
1.0,0.5086964449356388,1.945929967340072,1.8048608094070968,0.0671298253593828,0.1321536165320927,0.0260652566591372,-0.6074880987052458,-0.7370227066200932,-0.9097620825298248,0.490212602923794,1.92422502828964,1.7783814763426906,-0.6438483053331934,-0.8269907115828177,-0.867143137861514,1.1673650800624846,0.3191835519722352,-0.5015998263695809,-1.004619681514196,9.398665869967772,-0.8947313001522281,0.0758995337587108,-1.0839735179193577
1.02,0.4972296331479858,1.9317363672164345,1.7878032914022948,0.0669659419084094,0.1341570225280127,0.025653104584663,-0.5994077497784573,-0.7561699789698899,-0.8822608968020023,0.490212602923794,1.92422502828964,1.7783814763426906,-0.6438483053331934,-0.8269907115828177,-0.867143137861514,1.723532197010058,0.4040174463394219,-0.957363617489837,1.3750592863911226,12.77571588016599,-0.8972436119216006,0.0748129880319799,-1.082527473136639
1.04,0.4853553221506547,1.9164172251880147,1.770491959432411,0.0630065740326082,0.1379089991378976,0.0250626972031952,-0.5882339956134529,-0.7738430115308,-0.8507364231862989,0.490212602923794,1.92422502828964,1.7783814763426906,-0.6438483053331934,-0.8269907115828177,-0.867143137861514,1.8914156727079576,0.5586877082502217,-0.8836516280455065,1.576223680785166,12.492915972004994,-0.8934064472695773,0.0790896462856939,-1.0844926735531095
1.06,0.4737285443484472,1.9008039706138509,1.753754398858154,0.0573405173827145,0.1419794893222793,0.0243641789466591,-0.5749245440806998,-0.7861972162979657,-0.8245754154468202,0.4837741198704621,1.9159551211738115,1.7697100449640757,-0.649843612450894,-0.8469907118808409,-0.8626378276539086,1.592298811056539,0.6654725766376546,-0.6177102383582822,1.3080503869739355,12.116596936042695,-0.8883054425241693,0.0845503069239127,-1.0877166034140673
1.08,0.4629450103444993,1.8857776339828551,1.7382934648527604,0.0518977864974705,0.1452115433736323,0.0236518573254833,-0.5608874391359748,-0.7948357984385155,-0.8041957387586413,0.4708971537637982,1.899415306942155,1.7523671822068452,-0.6618342266862951,-0.8869907124768873,-0.8536272072386979,1.310531036014556,0.7018552472362494,-0.43192910702749,1.0189838344089486,12.116596936042695,-0.8836541110433584,0.0906538816715925,-1.0901583940164687
1.1,0.4518907498357776,1.8698067059151509,1.722401987801198,0.0467231659136932,0.1473795568066001,0.0228754889027273,-0.5453494545896749,-0.8018005020729625,-0.7861797378591585,0.4580201876571343,1.8828754927104987,1.7350243194496149,-0.6738248409216963,-0.9269907130729338,-0.8446165868234872,1.2394679795046124,0.7768992273149977,-0.3482351817223506,0.9008000449741372,11.807105293097266,-0.880120382701232,0.096000648487098,-1.0919420136212836
1.12,0.4411511075131605,1.853712576662088,1.7068392289437864,0.0423550915949832,0.1479655897119422,0.0220893908935201,-0.5295136024913816,-0.8073241392896316,-0.7711113948689956,0.4445436908387004,1.86433567844904,1.7181319877131451,-0.6858154551570974,-0.9669907136689804,-0.8356059664082764,1.1273195423765,0.7917926049146651,-0.2761818608334576,0.7534171495081454,11.583502846222473,-0.8783529070339001,0.1004752023399123,-1.0924169800233203
1.14,0.4307340149917957,1.837520045891057,1.6915725308608565,0.0388938893800325,0.1466438354446781,0.0213019913982873,-0.5131416339987188,-0.8118390491993205,-0.7562959754770958,0.4310671940202665,1.8457958641875811,1.7012396559766754,-0.6978060693924986,-1.0069907142650267,-0.8265953459930657,1.1268567073670337,0.8185984246331379,-0.2257454954844417,0.7407709695949893,11.40480732400647,-0.8792603649172445,0.1038114408612031,-1.0908886179323056
1.16,0.4211425054283986,1.8220520543125385,1.677347417099086,0.0361788399204989,0.143273714763104,0.0205325448429409,-0.4974811169147254,-0.8161592662947346,-0.7418074890488274,0.4172909318459475,1.8262560499112213,1.684572589750586,-0.7097966836278997,-1.046990714861073,-0.817584725577855,1.088384479482865,0.7830258541996704,-0.216010854770704,0.7244243214134194,11.43076939862567,-0.8825589805879148,0.1066626441176322,-1.0874784491490186
1.18,0.4113582360564176,1.8056846781912976,1.662677063818505,0.0336818749359302,0.1373166927980025,0.019688339650136,-0.4822391991465093,-0.8203478228945557,-0.725933519807157,0.4032149043157436,1.8057162356199603,1.6681307890348769,-0.7217872978633009,-1.0869907154571194,-0.8085741051626443,1.1200925889501994,0.7620958884108048,-0.2094278299910545,0.7936984620835197,11.459851458085724,-0.8874622543485771,0.1089081942729327,-1.0831053266799135
1.2,0.4018479964262166,1.7892371183894904,1.6483301508728068,0.0314775936821597,0.1295317700366279,0.0188352293753978,-0.4699473928778226,-0.8241877965521531,-0.7095065476754415,0.3872462760990921,1.76466728704657,1.626380387828147,-0.506994142472625,-0.9203478243846718,-0.6790097445812793,1.043646626562514,0.614590313434335,-0.1919986828798736,0.8213486065857756,11.459851458085724,-0.8946497235596981,0.1109269019016705,-1.0767232106077929
1.22,0.3925154043212265,1.7726849753230602,1.6344039278905538,0.0286200088190588,0.122255450987629,0.0179874217212751,-0.463961641842722,-0.8301791669005312,-0.6839057827021038,0.3872462760990921,1.76466728704657,1.626380387828147,-0.506994142472625,-0.9203478243846718,-0.6790097445812793,1.348262679641571,0.2992875517550286,-0.2995685174189022,1.280038248666887,11.476772361580515,-0.9004340712219618,0.1126452037265792,-1.072466370608622
1.24,0.3837457908476706,1.7568845102261277,1.6216531524613012,0.0257111381258899,0.1173253751632577,0.0172613164189117,-0.4595257464016264,-0.83281803036133,-0.659576289105357,0.3872462760990921,1.76466728704657,1.626380387828147,-0.506994142472625,-0.9203478243846718,-0.6790097445812793,1.2435483780328092,0.2217947720547786,-0.1319431730399389,1.2164746798373371,12.113811847017132,-0.9068119838725426,0.1162839385294323,-1.065446394674073
1.26,0.374595863524913,1.7402149301238503,1.6087239358521992,0.0233422069108979,0.1140122914131385,0.0166234676309343,-0.4557705584105364,-0.8341581582841214,-0.6346587483103799,0.3821763346743658,1.7554638088027232,1.6195902903823345,-0.5119451311378481,-0.940347824682695,-0.6696249895361037,1.261726217298369,0.1877593995545018,-0.0670063961395739,1.245877039748855,12.062716340240511,-0.9109588688415688,0.1191800332256003,-1.0604053900819916
1.28,0.3655174079217253,1.7235299758866576,1.5962827192999476,0.0220500984687243,0.1124165155450544,0.016122610183596,-0.4521111786103853,-0.8344977793194921,-0.6107044557707069,0.3720364518249133,1.7370568523150298,1.606010095490709,-0.5218471084682943,-0.9803478252787414,-0.6508554794457526,1.2117286557287248,0.1829689900075537,-0.0169810517685331,1.1977146269836536,12.004190697170088,-0.9135931028193508,0.1210607129582972,-1.056646149179719
1.3,0.3569690019594216,1.7076813858918551,1.584900154487806,0.0221361945351521,0.1118711724944345,0.0157741440378452,-0.4478564030160086,-0.8339825666452266,-0.5886565670098742,0.3618965689754608,1.7186498958273364,1.5924299005990834,-0.5317490857987406,-1.0203478258747878,-0.6320859693554015,1.123029338739952,0.2127387797188351,0.0257606337132731,1.1023944380416315,11.871276962985576,-0.9149911316110476,0.1216628145325898,-1.054099961384952
1.32,0.3480656879416985,1.6910137736119557,1.573367927672261,0.0240133242941564,0.1117061049339742,0.0155518202925712,-0.4426745616959719,-0.8330154533057594,-0.5657380893798822,0.351261587259486,1.6982429393098406,1.5797881812119754,-0.5416510631291869,-1.060347826470834,-0.6133164592650504,1.175843744459546,0.2590920660018342,0.0483556669733598,1.1459238814995998,11.871276962985576,-0.9158547690411356,0.1204701030326648,-1.052242489918413
1.34,0.339272326188262,1.674354098465331,1.56229505765524,0.0277518378445467,0.1115232329401658,0.0154658418310318,-0.4369302478770467,-0.8336375496792348,-0.5426931315061584,0.3406266055435112,1.6778359827923448,1.5671464618248674,-0.551553040459633,-1.1003478270668807,-0.5945469491746993,1.1879122742756438,0.2872156909462603,-0.0311048186737661,1.1522478936861924,11.847667756055673,-0.9175390969635222,0.1175484050677472,-1.0497160690134657
1.36,0.3305967583445202,1.6576433923621834,1.551686180894432,0.0320164661041379,0.1110724058379857,0.0154126153941994,-0.4309764209417779,-0.8375121426228078,-0.5193485353158224,0.3297440743942753,1.656429026259948,1.5549739801900182,-0.5614550177900793,-1.140347827662927,-0.5757774390843482,1.2200724332425612,0.2976913467634401,-0.1937296471786531,1.167229809516801,11.853400376863648,-0.9188683730201326,0.1140781708319129,-1.0479195370861614
1.38,0.3224654205768829,1.6416767459477346,1.5420434708914748,0.0357297282455615,0.1103226297574387,0.0153297699292537,-0.425322202050632,-0.8429366410848057,-0.4968381431484697,0.3186139938117781,1.6340220697126495,1.5432707363074276,-0.5713569951205255,-1.1803478282589734,-0.5570079289939971,1.1917561939856027,0.2827109445572989,-0.2712249230998942,1.125519608367631,11.874199044007582,-0.9203801143311272,0.1106610022948336,-1.0460405772408743
1.4,0.3140201423080108,1.6247474134891802,1.532358941679834,0.0390253230747133,0.1091792164329061,0.0151882136788578,-0.4195746453507731,-0.8496630075835733,-0.4727765752345759,0.3011993104743513,1.5995299138934944,1.5172015637340512,-0.4296772373072264,-0.9429366425749218,-0.465172721126127,1.2818321504479062,0.287377834992944,-0.3363183249383783,1.2030783956946929,11.898623749107172,-0.9223602451068448,0.1079544237958977,-1.0435628535759098
1.42,0.3056274580888713,1.6075961423299252,1.523101025874619,0.0390513481382925,0.1094394010059034,0.0148791565357653,-0.4198344943321529,-0.864259565262602,-0.454460129544208,0.3011993104743513,1.5995299138934944,1.5172015637340512,-0.4296772373072264,-0.9429366425749218,-0.465172721126127,1.1711310775256238,-0.0129924490689908,-0.7298278839514338,0.9158222845183944,11.576442818226496,-0.9204025733300308,0.1078778490572249,-1.0450604534988974
1.44,0.2972448853045707,1.590203381710476,1.5141991478352204,0.035112140104448,0.1122633388046642,0.0144032683683015,-0.41807854206062,-0.873523814235291,-0.4365840408996495,0.3011993104743513,1.5995299138934944,1.5172015637340512,-0.4296772373072264,-0.9429366425749218,-0.465172721126127,1.0105248916231435,0.0877976135766456,-0.4632124486344535,0.8938044322279265,11.576442818226496,-0.9191048778059668,0.11194881235352,-1.0448262556607482
1.46,0.2893368073321679,1.573562608418816,1.5060666777199332,0.030532802991102,0.1161343706820342,0.0139373762526175,-0.4142505309711598,-0.877624360852237,-0.4203672870694325,0.296902538101279,1.5901005474677452,1.51254983652279,-0.4305482443585453,-0.962936642872945,-0.4588396367216585,0.8579791026718437,0.191400554473009,-0.2050273308473016,0.8108376915108462,11.54479051346425,-0.916064394093596,0.1171924600582285,-1.0458966674584949
1.48,0.2811128877364944,1.5559915768760857,1.497830761272262,0.0263255027552311,0.1205905440972911,0.0135008659998582,-0.4081803122934578,-0.8793824527527973,-0.4041321244847027,0.2883089933551345,1.5712418146162468,1.5032463821002675,-0.4322902584611831,-1.0029366434689917,-0.4461734679127214,0.8710897572560319,0.3035109338850983,-0.0879045950280099,0.8117581292364923,11.472797997854286,-0.9122445811493554,0.1218069384581606,-1.0477636538725443
1.5,0.2730303523844474,1.5384017257552558,1.4899089695176349,0.0232831202333613,0.1247692623379234,0.0131406895252633,-0.400314251945409,-0.8798386144767617,-0.3888775113932685,0.2797154486089899,1.5523830817647484,1.493942927677745,-0.4340322725638208,-1.0429366440650378,-0.4335072991037844,0.8584669613428819,0.393303017402441,-0.0228080861982227,0.7627306545717111,11.415506829484002,-0.9083007822568714,0.1252458533158754,-1.0499321105327086
1.52,0.2651206908577305,1.520810484763979,1.4822858771170515,0.0214850244104596,0.1282179658535426,0.0128578438743436,-0.3910490942490019,-0.8795737491151908,-0.3742112138853293,0.2710348031577135,1.5315243488834476,1.4852727816956692,-0.4357742866664585,-1.0829366446610842,-0.4208411302948473,0.8674871517642693,0.4632578848203561,0.0132432680785443,0.7333148753969565,11.361004220154427,-0.9049134917126914,0.1273428345054231,-1.051880708452425
1.54,0.2577878808896332,1.504110414408797,1.4753113795063524,0.0210811914393354,0.1305683380408231,0.0126710800966764,-0.3813446697991578,-0.8785740732234912,-0.3606868995326402,0.2623541577064371,1.5106656160021468,1.4766026357135935,-0.4375163007690963,-1.1229366452571308,-0.4081749614859102,0.8337899683096617,0.4852212224922048,0.049983794584979,0.6762157176344569,11.331839911842508,-0.902557684084085,0.1284968267988229,-1.052691243783361
1.56,0.2502730782467269,1.4865474177378974,1.4682471791373346,0.0220766848828557,0.1319841086171349,0.0125643542571394,-0.3706991270133369,-0.8778931721089283,-0.3464408516122027,0.2536299619025947,1.488806883105945,1.468249143951741,-0.4392583148717341,-1.1629366458531771,-0.3955087926769731,0.8898610690494868,0.5322771392910458,0.034045055728149,0.7123023960218744,11.31098904944065,-0.9017970288081328,0.1284325764583339,-1.0520182491633046
1.58,0.242973988093788,1.4689919081119818,1.461469922573854,0.0243776667295852,0.1323155248357746,0.0125364623746097,-0.3598693125441369,-0.877850234447896,-0.3319928572190821,0.2448622157461864,1.465948150194842,1.4602123064101125,-0.4410003289743719,-1.2029366464492235,-0.3828426238680361,0.9028167962876966,0.5414907234599975,0.0021468830516124,0.7223997196560306,11.315661302141052,-0.9021641083342912,0.1271801307107942,-1.0506085239083298
1.6,0.2362398179333132,1.4522966660142025,1.4553029089606742,0.0272881708835244,0.1316912941552164,0.0125445002700535,-0.3496386876004585,-0.8797438456783617,-0.3178834818771052,0.2249805224665812,1.425099396389587,1.4448702797128998,-0.3546542213789818,-0.977850235938012,-0.2760603689266264,0.87653568491412,0.5115312471839217,-0.0946805615232859,0.7054687670988435,11.32790992815535,-0.9042518123685288,0.1253476909793925,-1.047424972675924
1.62,0.2293569884619344,1.4345983469141048,1.449160676401003,0.028186438376518,0.1303934371060288,0.0123907838155113,-0.3392717404807604,-0.889294530778241,-0.2967323019715611,0.2249805224665812,1.425099396389587,1.4448702797128998,-0.3546542213789818,-0.977850235938012,-0.2760603689266264,1.270887081782218,0.518347355984905,-0.4775342549939665,1.057558995277208,11.809202598682532,-0.9084325208435388,0.1253546913188911,-1.0424215346519383
1.64,0.2226775906844523,1.4167430098944824,1.443460874387434,0.0261063138890004,0.1288168774780698,0.0120374678933321,-0.3292571690635948,-0.8955586158269676,-0.2742951124451896,0.2249805224665812,1.425099396389587,1.4448702797128998,-0.3546542213789818,-0.977850235938012,-0.2760603689266264,1.2678307024298443,0.5007285708582804,-0.3132042524363276,1.1218594763185707,11.809202598682532,-0.9131598968574018,0.1293468227913189,-1.0351092510039186
1.66,0.2165137278306547,1.3996950166202171,1.4384603077626104,0.0229974249806734,0.1270131261915449,0.0116371605545354,-0.3201536977305222,-0.8984179579092648,-0.2531791350722612,0.2214339802527914,1.4153208940302069,1.4421096760236336,-0.3536112031459507,-0.9978502362360352,-0.2648738712681353,1.1585913083025616,0.4551735666536272,-0.1429671041148605,1.0557988686464237,11.79132334986025,-0.918119574803364,0.134716618801697,-1.0271830984010786
1.68,0.2102062770163936,1.3817236487204383,1.433627849537382,0.0200816317295107,0.1247549078601978,0.0112588977182474,-0.3111586028146041,-0.8987051189693873,-0.2311781834475977,0.2143408958252117,1.3957638893114468,1.436588468645101,-0.3515251666798887,-1.037850236832082,-0.242500875951153,1.1885243649286363,0.4497547457959078,-0.0143580530061249,1.1000475812331711,11.759728303802149,-0.923718664728174,0.1398062261677626,-1.018563146211559
1.7,0.2040710909609485,1.363761269131721,1.429231447371368,0.0182172089035722,0.1221267555106472,0.0109718953756803,-0.3029096013041096,-0.8977187786781864,-0.2095663917442153,0.2072478113976321,1.3762068845926865,1.4310672612665685,-0.3494391302138266,-1.0778502374281282,-0.2201278806341707,1.1576791802142077,0.4124500755247229,0.0493170145600463,1.0805895851691214,11.759728303802149,-0.9296033922958176,0.1438452598708099,-1.009800265500734
1.72,0.1980915826526942,1.3458303620873353,1.4252649088912417,0.0178162976231097,0.119181370006569,0.0108015528055889,-0.2955645751245649,-0.8957011509864847,-0.1881429167366175,0.2002590287933556,1.354649879844124,1.426664703653885,-0.3473530937477645,-1.1178502380241746,-0.1977548853171885,1.136865770970441,0.3672513089772344,0.1008813845850831,1.0711737503798904,11.720232134346588,-0.9352761941247564,0.1463570632925083,-1.0015894558731768
1.74,0.192537544848855,1.3288394995990769,1.421896732488682,0.0191738331569562,0.116209723922392,0.0107691991003566,-0.2895375924570448,-0.8931965331789825,-0.1674514757890085,0.193270246189079,1.3330928750955613,1.4222621460412015,-0.3452670572817025,-1.1578502386202212,-0.1753818900002062,1.0848195229214816,0.3013491333760054,0.1252308903751109,1.0345720473804512,11.698140929545843,-0.9414150434972388,0.1473074074547769,-0.9930100692771182
1.76,0.1868035838356961,1.3109918389442288,1.418782584219174,0.0223564724988405,0.1131033052359053,0.0108598523839231,-0.2842943566958833,-0.8921616792776357,-0.1450095804918606,0.186333614496454,1.3105358703320975,1.4184189133114429,-0.3431810208156404,-1.1978502392162675,-0.1530088946832239,1.153474217714039,0.2621617880580768,0.0517426950673416,1.1220947648573951,11.710624875412575,-0.9480401365027614,0.1467217093922407,-0.9840376159042034
1.78,0.1811620544845914,1.2931310378768224,1.4161239598287028,0.0261418898166277,0.1103012501604696,0.010995366582748,-0.2802310559805901,-0.8940957819025266,-0.1219366400588932,0.1794491337154806,1.2869788655537326,1.4151350054646086,-0.3410949843495783,-1.237850239812314,-0.1306358993662417,1.1753847730528224,0.2031650357646602,-0.0967051312445455,1.15364702164837,11.742699246809934,-0.954232627804216,0.1455452555205913,-0.97562586997027
1.8,0.1755894029975923,1.2752106462793584,1.4139329095606714,0.0296001917871845,0.1081401961870565,0.0111220436531289,-0.2773073627034625,-0.897776253282605,-0.0983029783710182,0.1671505016855619,1.248426248781696,1.410027127825758,-0.2780939470418216,-0.9940957833926428,-0.0881981982935848,1.20482759838828,0.1461846638563774,-0.1840235690039215,1.1816830843937502,11.774903289662689,-0.959528013039976,0.144702077056056,-0.9681861667072958
1.82,0.1703269177556332,1.258033428679386,1.4121840112883592,0.0298023834081103,0.1070544095806045,0.0110607162418777,-0.2766695444342736,-0.9088526616350118,-0.0869350563769167,0.1671505016855619,1.248426248781696,1.410027127825758,-0.2780939470418216,-0.9940957833926428,-0.0881981982935848,0.7942343555238485,0.0318909134594452,-0.5538204176203376,0.5683960997050735,11.044410596045054,-0.9637569865978328,0.1472131866000146,-0.9604743903364412
1.84,0.1648036385768449,1.2397861667542285,1.4105741499477464,0.0265102478256278,0.1068666357211907,0.0107981377637062,-0.2756127781613298,-0.914827589890864,-0.0745521953982967,0.1671505016855619,1.248426248781696,1.410027127825758,-0.2780939470418216,-0.9940957833926428,-0.0881981982935848,0.6894776440067575,0.052838313647191,-0.2987464127926165,0.6191430489309993,11.089256073514662,-0.9654861930361042,0.150895193683071,-0.9573399136742804
1.86,0.1593055093734875,1.221472115648264,1.4092148920059706,0.0224697942224831,0.1073430488955174,0.0105217415988233,-0.2741885512367558,-0.9162300942025478,-0.061994989330849,0.1643695622151436,1.2384852909477695,1.4091451458428224,-0.2776665252540679,-1.014095783690666,-0.0814505099405231,0.6357650212486504,0.0712113462287028,-0.0701252155841825,0.6278603033723861,11.080163314733,-0.9669504361381572,0.1556100932753632,-0.953889221161235
1.88,0.1538402223678512,1.203159687478913,1.408105016856074,0.0192736706109604,0.1082535049406689,0.0103325275103864,-0.2723443577121031,-0.9152718381151612,-0.0496202860209908,0.1588076832743072,1.2186033752799168,1.4073811818769506,-0.2768116816785605,-1.0540957842867125,-0.0679551332343998,0.6274005628233053,0.0922096762326352,0.0479128043693322,0.6187351654929101,11.080163314733,-0.9680966270883417,0.1595442102405697,-0.9507778281720698
1.9,0.1486870447560207,1.1857917994774554,1.4072788093277555,0.0174546617053515,0.109328675007772,0.0102570721122174,-0.2701443080239508,-0.9133191868460248,-0.0379674117495365,0.1532458043334708,1.198721459612064,1.4056172179110789,-0.2759568381030531,-1.0940957848827588,-0.0544597565282764,0.6009212602236672,0.1100024844076147,0.0976325634568175,0.5826437135727145,11.062087370817608,-0.9690356914432892,0.1626051417156874,-0.9479222280163347
1.92,0.1433128974816686,1.167556766018503,1.4066502191199275,0.0170651844832604,0.1105138170044854,0.010299902963958,-0.2673478494723125,-0.9104603600705532,-0.025492564321024,0.1477266675714097,1.1768395439144088,1.4045280227805133,-0.2751019945275457,-1.1340957854788052,-0.0409643798221531,0.6550093307118741,0.1398229275819146,0.1429413387735723,0.623742371425622,11.062756229104709,-0.9697347471786264,0.1642892157799347,-0.9455627186584707
1.94,0.1379990240378658,1.1493853330679316,1.4062702187391565,0.0186644355294791,0.111619195496909,0.0104941038343196,-0.2641570992705326,-0.9070491352150052,-0.0131368894571398,0.1422075308093487,1.1549576282167535,1.4034388276499477,-0.2742471509520383,-1.1740957860748518,-0.0274690031160297,0.6604544708140152,0.1595375100889945,0.1705612427774006,0.6177837431942131,11.062756229104709,-0.9704236189434896,0.1643434125409776,-0.9434071374289056
1.96,0.1327528189492254,1.1312666092382062,1.4061381641233384,0.0221135420888433,0.1125440977869885,0.0108259727373179,-0.2606206842431655,-0.9055423241606744,-0.0006855875569097,0.1367097651366753,1.1320757125041971,1.4026870169370351,-0.2733923073765309,-1.214095786670898,-0.0139736264099063,0.6515589570597478,0.1768207513683561,0.0753405527165462,0.6225650950115028,11.049846056899696,-0.9716153396327256,0.1629919881018625,-0.9410023758756312
1.98,0.1278373619965651,1.114049510325409,1.4062470572666177,0.0258302665338312,0.1132039901681133,0.0111763317886047,-0.2569848349709822,-0.9069184385811404,0.0115284041547475,0.1312333705533896,1.1081937967767397,1.402272590641776,-0.2725374638010235,-1.2540957872669445,-0.000478249703783,0.6408874401185531,0.1817924636091622,-0.0688057210233017,0.6106995855828683,11.052470594662736,-0.9728496934722484,0.1610104741498051,-0.9387672467854804
2.0,0.1227396534201815,1.0958804310149888,1.406617346456893,0.0294110687857733,0.1136480490809037,0.0115236563944987,-0.2529872336163151,-0.9099043753461066,0.0248856380502061,0.1149881202480159,1.0687035883963525,1.4068234774743549,-0.2449739830960347,-1.0069184400712563,0.0250176868447362,0.7129381675383903,0.1998800677333573,-0.1492968382483084,0.6678616947729259,11.0773298006834,-0.974252297058976,0.1592956782262782,-0.9363661692567032
2.02,0.1177041421660787,1.0775663512607188,1.40718697041024,0.0299311232435058,0.11420257911332,0.0116702825560857,-0.2507725744114038,-0.9204961678757626,0.0310723364308132,0.1149881202480159,1.0687035883963525,1.4068234774743549,-0.2449739830960347,-1.0069184400712563,0.0250176868447362,0.6232295348380528,0.1107329602455631,-0.5295896264828015,0.309334919030356,10.65165012973921,-0.9748984191177644,0.1606189445917046,-0.9337520425097132
2.04,0.1127136956434398,1.0590910297825362,1.4078692305760176,0.0268519194083879,0.1151750880450323,0.0115920128923184,-0.2483056683592838,-0.9261045392520226,0.0368978737137612,0.1149881202480159,1.0687035883963525,1.4068234774743549,-0.2449739830960347,-1.0069184400712563,0.0250176868447362,0.4227184039022197,0.123345302606001,-0.2804185688130012,0.291276864147399,10.661851675778962,-0.9742677538871356,0.1633844860459558,-0.9337572977109592
2.06,0.1080219572480815,1.041482494535478,1.4086227506004818,0.0231620758340489,0.1163351046564282,0.0114839141103412,-0.2456320620142161,-0.9271624937588974,0.0421267319203629,0.1125383804170556,1.0586344039956397,1.4070736543428022,-0.2425718127210451,-1.0269184403692797,0.0277155433827339,0.2983638582827565,0.1336803172533818,-0.0528977253437368,0.2614429103300883,10.661851675778962,-0.9736755541608288,0.1674228462445736,-0.933090519359092
2.08,0.1031419942313619,1.0229529541716165,1.4095193025661354,0.0200447242604255,0.1176883672666056,0.0114397795425274,-0.242455478133554,-0.9259534297449128,0.0472281451122344,0.1076389007551349,1.0384960351942143,1.407574008079697,-0.2377674719710661,-1.0669184409653265,0.0331112564587293,0.3065001529159304,0.1588291940331054,0.0604532006992342,0.2550706595935741,10.632519730638704,-0.97311400005034,0.1709503914984744,-0.9323347437891116
2.1,0.0983297616929982,1.004459895882643,1.4105138422840602,0.0182484447795341,0.1190754208116239,0.0115012604532608,-0.2388845543883361,-0.923657163070958,0.0519512734937092,0.1027394210932142,1.0183576663927894,1.4080743618165916,-0.2329631312210871,-1.1069184415613726,0.0385069695347248,0.3175384966424076,0.1785461872608959,0.114813333697733,0.2361564190737367,10.605542413348305,-0.9724426245657918,0.1732669103607367,-0.9319296628588274
2.12,0.0938282256260732,0.9869435337896628,1.4115449329407903,0.0181056835260026,0.1203370965925572,0.011678979087282,-0.2351138386441276,-0.9205780900735306,0.0563462478434038,0.0980801584687924,0.996219297561562,1.408844501207286,-0.2281587904711081,-1.146918442157419,0.0439026826107202,0.3279282973516529,0.188535787210424,0.1539536498713689,0.2197487174847301,10.583930225021504,-0.9716159520132112,0.174280900323472,-0.9319241275823668
2.14,0.0891707510169748,0.968572262553726,1.4127202672033865,0.0199598935683263,0.1215404950442716,0.0120143808008624,-0.2308062362076859,-0.9169390403823604,0.0609541753759882,0.0934208958443707,0.9740809287303344,1.4096146405979806,-0.223354449721129,-1.1869184427534656,0.0492983956867157,0.3641123368920428,0.2153801218220855,0.1819524845585063,0.2303963766292226,10.580662519048929,-0.970818954504254,0.1735717663779036,-0.9321743506314384
2.16,0.0846036720668907,0.9502538756043062,1.4139897962070904,0.0236069659013795,0.1225522104540017,0.0124801054054335,-0.2260999551540266,-0.9156098920947924,0.0657733561602852,0.0888817417386984,0.9509425598842058,1.410519672815575,-0.21855010897115,-1.226918443349512,0.0546941087627111,0.3432936787872546,0.2353140526829653,0.0664574143784013,0.2409590392148483,10.579937543892813,-0.9707954414800264,0.1715694203592409,-0.9318452899829835
2.18,0.0801348423035776,0.9319269763948947,1.4153609525569757,0.0275694106101799,0.1233055964448132,0.0129686576023785,-0.2210313504878408,-0.9171845492387072,0.0710985477833728,0.0844626961517756,0.926804191023176,1.4115595978600692,-0.213745768221171,-1.2669184439455583,0.0600898218387066,0.3759254055180523,0.2534302333092902,-0.078732857195729,0.2662595811543836,10.592745142164858,-0.9706715266426964,0.168977773073946,-0.9318720543029326
2.2,0.0759856721595882,0.9144704901649198,1.4167668248663468,0.0309038221966337,0.1237580969704704,0.013400342199355,-0.2159981697927885,-0.920159105863662,0.0766227686500446,0.0690832747791856,0.8860677489329595,1.418915879946144,-0.1910139708165056,-1.0171845507288233,0.0870075844048242,0.4021750589229785,0.2516590347526132,-0.1487278312477413,0.2762110433335851,10.624854466041144,-0.9707483162603968,0.1667396225872345,-0.9316504356261746
2.22,0.0717082570071726,0.8959503449930983,1.4183655635153156,0.0313327318865345,0.1244570394663852,0.013652753426162,-0.211954578681069,-0.9308736631407296,0.0830154624962589,0.0690832747791856,0.8860677489329595,1.418915879946144,-0.1910139708165056,-1.0171845507288233,0.0870075844048242,0.6557798817701166,0.2021795555859781,-0.5357278638533913,0.3196346923107169,10.715574192749044,-0.970794184460579,0.1670014875449373,-0.931206762897327
2.24,0.0675148985285243,0.8772632841965493,1.4200956794924964,0.0280707056451802,0.125794635765873,0.0136769958652949,-0.2074746994407114,-0.9367867205654588,0.0896885296301726,0.0690832747791856,0.8860677489329595,1.418915879946144,-0.1910139708165056,-1.0171845507288233,0.0870075844048242,0.498907283696205,0.2239939620178807,-0.295652871236457,0.3336533566956831,10.711499709673262,-0.9698933536826886,0.1701735976212302,-0.9312416387866788
2.26,0.063619660898059,0.8594516511341224,1.421857214869876,0.0241961494025559,0.1274263675521754,0.0136643155454243,-0.2026989982088013,-0.9378559239916386,0.0953982574786402,0.0671731350710205,0.8758959034256713,1.4197859557901924,-0.1850104948822385,-1.0371845510268465,0.0901893917291145,0.3760036912271872,0.2387850615955006,-0.0534601713089888,0.2854863924233806,10.711499709673262,-0.9687382860649162,0.17466811466964,-0.9308490662825524
2.28,0.0596232867529015,0.840709036989903,1.423821888817754,0.0209233277857422,0.1293220032197902,0.0137191050503066,-0.1971217044051093,-0.9365729029963138,0.1007294901584072,0.0633528556546904,0.8555522124110948,1.4215261074782888,-0.1730035430137045,-1.077184551622893,0.0965530063776951,0.3910702971748234,0.2788646901846006,0.0641510497662423,0.2665616339883526,10.6611856230993,-0.9674864963324094,0.1785700476736342,-0.9305626190037444
2.3000000000000003,0.0557446875288748,0.8220046122887344,1.42588678289086,0.0190119732161796,0.1312319934589143,0.0138769909770494,-0.190962574486817,-0.9341965787581968,0.1054638998511212,0.0595325762383603,0.8352085213965184,1.4232662591663854,-0.1609965911451704,-1.1171845522189394,0.1029166210262756,0.4061909445492687,0.3079564959146172,0.1188162119058533,0.2367204846357003,10.618347153247669,-0.9662050428574508,0.1811769479497411,-0.9306108756233636
2.32,0.0519954702882752,0.803357831929415,1.428043215937954,0.018795802570795,0.1330047383759242,0.0141586995357572,-0.1842352747253478,-0.9309243675150112,0.1099388003987919,0.0563126444154569,0.8128648303521395,1.4253245915869108,-0.1489896392766363,-1.1571845528149858,0.1092802356748562,0.4358573832466189,0.3363649880734579,0.1636105621592776,0.2237450273835324,10.574902104546709,-0.9647787124082484,0.1824516133995882,-0.9310907474290394
2.34,0.0485634154500117,0.7857086078546768,1.4301760650319888,0.0204933226033364,0.1344623912138732,0.0145622379092503,-0.1773583589640869,-0.9273571794140216,0.1143452896370517,0.0530927125925535,0.7905211393077608,1.4273829240074365,-0.1369826874081022,-1.1971845534110324,0.1156438503234367,0.4456286254893719,0.3438457880630449,0.1783594050494719,0.2203244619129907,10.574902104546709,-0.9635516643477284,0.1819746594930464,-0.9317243644086428
2.36,0.0450973950242,0.76718489963751,1.4325161647051885,0.0240511607131626,0.1356675448945505,0.0151102169400044,-0.1695927630037715,-0.9257268809203488,0.1194497644574011,0.0501729545663634,0.7671774482484808,1.4296003467941765,-0.1249757355395681,-1.2371845540070787,0.1220074649720173,0.4717467991118763,0.3882797980157712,0.0815149246836455,0.2552237410174698,10.586872288130508,-0.963367270630062,0.1800494109155383,-0.9315378603122736
2.38,0.0417918195228743,0.7486582561279989,1.4349650973829775,0.028013374437936,0.1364479911111302,0.0156802994973702,-0.1613643923114477,-0.9270920876846108,0.1252166816468543,0.0475533703368867,0.7428337571742997,1.431976859947131,-0.112968783671034,-1.277184554603125,0.1283710796205978,0.5070187561360281,0.4114185346161883,-0.0682603382130941,0.2883458594726606,10.616206718673311,-0.9631346422952692,0.1776959270036959,-0.9316774148052468
2.4,0.0386542125442014,0.7300846751913467,1.4375368117815597,0.0315142413280673,0.1367514012058699,0.0162063818866649,-0.1528631836347793,-0.9300882065754212,0.131667159318794,0.0337235999073019,0.7023036517437683,1.4412259314653204,-0.1240129442225634,-0.9913001034841332,0.1269118939728669,0.5542019928878057,0.4250604338334199,-0.1498059445405208,0.3225238835969868,10.65912805948028,-0.9631417204552534,0.1755943751033449,-0.9314617562106228
2.42,0.0358261720256788,0.7121880718911664,1.4400454933472109,0.0280922363485901,0.1366181913379063,0.016227082636423,-0.1453362138550297,-0.9500126909937,0.1321970866418684,0.0337235999073019,0.7023036517437683,1.4412259314653204,-0.1240129442225634,-0.9913001034841332,0.1269118939728669,1.0652712992088482,0.3763484889874824,-0.9962242209139438,0.0264963661537179,10.699483270855126,-0.9642966217648958,0.1794936303918356,-0.9288084663280788
2.44,0.0329951650492852,0.6931174524637388,1.442698726536379,0.0179271621363672,0.13622493900078,0.0158065360114823,-0.1381973869836151,-0.9550344041334652,0.1331497372509512,0.0337235999073019,0.7023036517437683,1.4412259314653204,-0.1240129442225634,-0.9913001034841332,0.1269118939728669,0.4389988472112042,0.3569413435707311,-0.2510856569882536,0.0476325304541405,10.380225973257438,-0.9628422598470378,0.1881921528203047,-0.9286500108045092
2.46,0.0302986511269564,0.6740479055009164,1.445359181484864,0.0073478825374396,0.1358650537165875,0.0153885053311773,-0.1317986945304127,-0.951770571637496,0.1328367408632289,0.0324834704650763,0.6923906507089269,1.442495050405049,-0.1165426546047865,-1.0041417066440377,0.1272509364380694,0.359492122344632,0.3199346226601188,0.1631916247984477,-0.015649819386114,10.374073623238472,-0.9624366430888563,0.1974435349967075,-0.9266819529832144
2.48,0.027850191255153,0.6560374990605015,1.4478680168025584,-0.0010518587487217,0.1357211419708808,0.0151344748073868,-0.1262173700256851,-0.9447063651832228,0.1312602667441486,0.030003211580625,0.6725646486392443,1.4450332882845065,-0.1016020753692328,-1.0298249129638466,0.1279290213684744,0.4569996354041166,0.2790662252363809,0.3532103227136596,-0.0788237059540175,10.287386195318504,-0.9621162682157915,0.2057640867647689,-0.9247361405828384
2.5,0.0253849005620483,0.6372429447386067,1.4504683577038946,-0.0076279745848226,0.1358814826629113,0.015046940197495,-0.120570459445247,-0.9355142390814088,0.12882330307067,0.0275229526961737,0.6527386465695616,1.4475715261639637,-0.086661496133679,-1.0555081192836555,0.1286071062988794,0.5529954188801425,0.2823455290219059,0.459606305090704,-0.1218481836739268,10.214628060750329,-0.961460725829869,0.2120491696193638,-0.9236051381992652
2.52,0.0230326026370663,0.6186419309056028,1.4530156473967373,-0.0119355662702192,0.1363921292419417,0.0151321125966534,-0.1148896702206204,-0.9254673453295024,0.1260185749963392,0.0257897227735001,0.6316284841838885,1.4501436682899411,-0.0717209168981253,-1.0811913256034644,0.1292851912292844,0.5938811746630643,0.2840394612313286,0.5023446875953297,-0.1402364037165399,10.161906853048094,-0.9603911553679396,0.2162051836955529,-0.9234130433488368
2.54,0.0207961254147715,0.6002461667010801,1.4555053964026867,-0.0141871739076266,0.1372159616857309,0.0153698745474358,-0.1089723510689041,-0.9151458332042072,0.1231012061297718,0.0240564928508266,0.6105183217982154,1.452715810415919,-0.0567803376625715,-1.1068745319232731,0.1299632761596895,0.6124935093523448,0.295865957585812,0.5160756062647598,-0.1458684433283702,10.161906853048094,-0.9589668604745832,0.2188759465974329,-0.923927005267654
2.56,0.0187865045974136,0.5829569118258795,1.457818899106998,-0.014823281031311,0.1381564776060118,0.0157079405299949,-0.1028267021466606,-0.9055083742021548,0.1205713484780334,0.0226967774090418,0.588766079254547,1.4553049046651567,-0.0418397584270178,-1.1325577382430825,0.1306413610900945,0.5853413457756316,0.3072824461121767,0.4818729501026131,-0.1264928825869232,10.159973759747118,-0.9573014990705772,0.220122063226575,-0.925074361550607
2.58,0.0168025901374457,0.5649548341286713,1.4602062434616652,-0.0139944172300818,0.1391453020125068,0.0161767490098538,-0.0958548632010254,-0.8953449678730104,0.1183162208084064,0.0217105764481459,0.5663717565528835,1.4579109510376544,-0.0268991791914641,-1.1582409445628914,0.1313194460204995,0.6264722007030419,0.3485919472817608,0.5081703164572182,-0.1127563834813494,10.204567485558982,-0.9555251987354442,0.2200765553236601,-0.926618625619579
2.6,0.0149638533859783,0.5471542382049929,1.462555076402479,-0.0115565617103586,0.1399898166552109,0.0167664281623656,-0.0883655579640031,-0.8854541859427184,0.1166807395264888,0.0120098469773944,0.5201875857350208,1.4661220545020854,-0.0694014985605511,-0.8993989950168763,0.1147837731890427,0.62568374429376,0.3744652618511153,0.4945390965146012,-0.0817740640958783,10.204567485558982,-0.9540680462053616,0.2188282460277171,-0.9280686330824912
2.62,0.0133981679336502,0.5301843031256954,1.4647410037333786,-0.0154059369989315,0.1393320810617242,0.0169232077876338,-0.0770568132829656,-0.897355889728853,0.1134669404436461,0.0120098469773944,0.5201875857350208,1.4661220545020854,-0.0694014985605511,-0.8993989950168763,0.1147837731890427,0.8364609432284726,0.565437234051875,-0.5950851893067322,-0.1606899541421375,10.23954881183272,-0.957719813861867,0.2228087619818366,-0.9232321061944946
2.64,0.0119725092247422,0.5122569518765002,1.4669733092431512,-0.0265257411412202,0.135899733518937,0.0166848367920255,-0.0663121887442881,-0.8936350073975192,0.1099435799592486,0.0120098469773944,0.5201875857350208,1.4661220545020854,-0.0694014985605511,-0.8993989950168763,0.1147837731890427,0.5952016273999006,0.5372312269338736,0.1860441165666915,-0.1761680242198741,10.12976950187931,-0.9585017254528548,0.2325773410956233,-0.919963400709488
