t,x,y,z,roll,pitch,yaw,v_x,v_y,v_z,ref_x,ref_y,ref_z,ref_v_x,ref_v_y,ref_v_z,a_com,a_x,a_y,a_z,thrust,wind_x,wind_y,wind_z
0.0,-0.0395498996199101,0.1106948426192369,2.545919552252943,0.0216928820506956,0.1001061925660473,0.0428186188679608,0.0049200894442569,-0.0011839528204685,0.0234798654638386,-0.0393951689779298,0.1105648315674655,2.546628340853463,0.0050632809752521,0.0033873809244514,-0.0764116793883211,1.2009507760734273,0.246004472212848,-0.0591976410234258,1.1739932731919325,10.231485309738671,-0.9468433211140678,0.2669519377923768,-0.8633704211992975
0.02,-0.0394774372367367,0.1106710217353051,2.5461493403488737,0.0207380797516304,0.1001488097030557,0.0427567661689986,0.0023582343537284,-0.0009732762803383,-0.0005344313106043,-0.0393951689779298,0.1105648315674655,2.546628340853463,0.0050632809752521,0.0033873809244514,-0.0764116793883211,1.2075739477154708,-0.1280927545264246,0.0105338270065095,-1.2007148387221491,10.230911507163,-0.9386275168254338,0.2685719260479013,-0.8696036447483922
0.04,-0.0394590579126593,0.1106589310934531,2.545889626118182,0.0190182415139921,0.1003417435930568,0.042647966878323,-0.0002536894296738,-0.0001539823230342,-0.0255729978907674,-0.0393951689779298,0.1105648315674655,2.546628340853463,0.0050632809752521,0.0033873809244514,-0.0764116793883211,1.2593879513756243,-0.1305961891701146,0.0409646978652033,-1.251928329008154,8.889337687846819,-0.9304541866941292,0.2637284792352323,-0.8853625072048741
0.06,-0.0394934376524579,0.1106783560797455,2.545093276904708,0.0168876998501725,0.1007560565529609,0.0425185728664615,-0.0030044630003245,0.0021083908349788,-0.0528106144913568,-0.0393445361681773,0.11059870537671,2.54586422405958,0.0050567198171726,0.004767803356427,-0.0964116796863443,1.373474467931417,-0.1375386785325377,0.1131186579006568,-1.3618808300294731,8.847236539822916,-0.9218923321018692,0.2591639095479564,-0.9015212867893152
0.08,-0.0395812880849597,0.1107524928630633,2.543745893468925,0.0149483197001244,0.1014131504438938,0.0424088782233589,-0.0055865739393386,0.0051507660603244,-0.0806150854445622,-0.0392432705486722,0.110666452995199,2.544335990471813,0.0050435975010138,0.0075286482203783,-0.1364116802823907,1.4044678252818883,-0.1291055469507019,0.1521187612672805,-1.3902235476602691,8.808785655799966,-0.9132417262531812,0.254435272896128,-0.9179269124312464
0.1,-0.0397179592902024,0.1108921305190811,2.541837820122323,0.0133883431566083,0.1023036490931196,0.0423298123130152,-0.0078803036872288,0.0085835490119281,-0.108841992374469,-0.0391420049291672,0.1107342006136881,2.542807756884047,0.005030475184855,0.0102894930843295,-0.1764116808784372,1.426362041855782,-0.1146864873945103,0.1716391475801842,-1.41134534649534,8.805422889667625,-0.905365084905882,0.2502477366704846,-0.9325187399999904
0.12,-0.0398866802565017,0.1110912219227162,2.5394989446720406,0.0123324998229194,0.1033213219701609,0.0422860536944882,-0.0097061316807161,0.0121502390454936,-0.1359802335010649,-0.0390413954254701,0.1109399904753747,2.539279523266478,0.0050173528686961,0.0130503379482807,-0.2164116814744836,1.3716222667908595,-0.0912913996743643,0.1783345016782728,-1.3569120563297954,8.805422889667625,-0.8967403208683292,0.2454745893745934,-0.9483032539079412
0.14,-0.0400985209840429,0.1113759327068266,2.5364664326527064,0.0117668637071718,0.1045182009025559,0.0422776873644067,-0.0113274327834731,0.016099641943236,-0.1659390005760864,-0.038940785921773,0.1111457803370613,2.5357512896489096,0.0050042305525373,0.0158111828122319,-0.2564116820705301,1.5130714830848948,-0.0810650551378512,0.1974701448871231,-1.4979383537510742,8.80504827867253,-0.8874823433818856,0.2403233646180798,-0.9646472071976762
0.16,-0.0403387897806368,0.1117418004139119,2.532824510752968,0.0118836451019582,0.1057895752690431,0.0423146503657412,-0.0125624845698415,0.0202315718868903,-0.1968146722434513,-0.0388405044759799,0.1114205913203466,2.53122305601644,0.0049911082363784,0.0185720276761831,-0.2964116826665766,1.558769786470403,-0.0617525893184181,0.2065964971827125,-1.5437835833682425,8.745166322304613,-0.8779606949307617,0.2344061246123784,-0.9815515718919244
0.18,-0.0405993241472901,0.1121898124397735,2.528557333907657,0.012788887941548,0.1070803266551382,0.0424024554763547,-0.0133744620778829,0.0242691160326505,-0.2283964446848649,-0.0387405510880907,0.1117644234252308,2.5256948223690685,0.0049779859202196,0.0213328725401343,-0.336411683262623,1.5924583359885442,-0.0405988754020718,0.201877207288011,-1.5790886220706817,8.72019292201685,-0.8691064020968342,0.2286342994379615,-0.996795502718376
0.2,-0.0408576512286339,0.1126865876139608,2.523913671581536,0.0143666861438675,0.1082766907326317,0.0425303618303784,-0.0137372288169179,0.0277408689902606,-0.2588623335607541,-0.0412680472511842,0.113403268241406,2.517137511673414,0.0051605391255348,0.0368295869936848,-0.3283964461749811,1.5332604583889646,-0.0181383369517502,0.1735876478805064,-1.5232944437944609,8.704074192731241,-0.8603537992868525,0.2222486174063692,-1.0118119291240164
0.22,-0.0411700926447721,0.1132768893762971,2.518579607189787,0.0169309764930653,0.1113052586251633,0.0427495988299211,-0.0170637439888888,0.030751329263901,-0.2719955214283137,-0.0412680472511842,0.113403268241406,2.517137511673414,0.0051605391255348,0.0368295869936848,-0.3283964461749811,0.6939185791811833,-0.1663257585985443,0.1505230136820152,-0.6566593933779785,8.695679670430764,-0.8516473102576448,0.2140475135759335,-1.027913028371266
0.24,-0.041526524141209,0.1139030634982383,2.512989207453562,0.0198354438429545,0.1174196326226253,0.0430469575799877,-0.0179763420033983,0.0316795514639652,-0.286699108235844,-0.0412680472511842,0.113403268241406,2.517137511673414,0.0051605391255348,0.0368295869936848,-0.3283964461749811,0.7380547008781881,-0.0456299007254776,0.0464111100032138,-0.7351793403765128,9.615992035417548,-0.8430369386150757,0.2094718726081136,-1.0383188884732946
0.26,-0.0418507453037176,0.1145043399494182,2.50736670341636,0.0222992012195325,0.1248392628442139,0.0433485713045627,-0.0157985187696951,0.0316483757950438,-0.3044259554608337,-0.0412164418599289,0.1137715641113428,2.513853547211664,0.0088675393662183,0.0393416811858917,-0.3483964464730043,0.893007556655761,0.1088911616851637,-0.0015587834460727,-0.886342361249487,9.615992035417548,-0.8307306078949511,0.2042513383506267,-1.0526075644318371
0.28,-0.0421158896667195,0.1151323385871476,2.5010531054408838,0.0244278576014888,0.1331622407395906,0.0436533318287707,-0.0105759423492948,0.0312211382094235,-0.3261643308482692,-0.0411132310774182,0.1145081558512165,2.507285618288164,0.0162815398475855,0.0443658695703054,-0.3883964470690507,1.1180505365440214,0.2611288210200153,-0.0213618792810154,-1.0869187693717752,9.4252591101922,-0.8172782217237773,0.1994840998198078,-1.0674026932097809
0.3,-0.042248292275827,0.1157488940796418,2.4942786955364498,0.0260512528020069,0.1411390939554785,0.0439189738046392,-0.0027585245275411,0.030506492620527,-0.3503030198828434,-0.0410100202949075,0.1152447475910902,2.5007176893646648,0.0236955403289526,0.0493900579547191,-0.4283964476650972,1.2691523234283917,0.3908708910876803,-0.0357322794448229,-1.206934451728711,9.174766062265007,-0.8058141432846458,0.196072732917027,-1.0790896116598194
0.32,-0.0422010502392225,0.1163473000294828,2.487000464932265,0.0270801079684603,0.1481433262134463,0.044116986432275,0.0071400905300793,0.0294341090128491,-0.37634105939932,-0.0405361094883284,0.1162325487501846,2.4921497604113627,0.0311095408103197,0.0544142463391328,-0.4683964482611436,1.3938365116850733,0.4949307528810276,-0.0536191803838966,-1.3019019758238295,9.174766062265007,-0.7939964351177421,0.1928896847294484,-1.0911299941380557
0.34,-0.0419564410524978,0.1168928902490188,2.4795975676459645,0.0273867299128894,0.1535888029017834,0.0442197559738902,0.0180980170971154,0.0281150182014147,-0.4016326460488564,-0.0400621986817494,0.117220349909279,2.483581831458061,0.0385235412916868,0.0594384347235466,-0.5083964488571902,1.379746815966946,0.5478963283518024,-0.0659545405717198,-1.2645793324768173,9.10292499751813,-0.783203032104928,0.1902600674819904,-1.1023422877395537
0.36,-0.0414620678620104,0.1174400088032245,2.4712809695303024,0.026923349920816,0.1578961315890955,0.0442238275358758,0.030752451762387,0.0267151556946639,-0.4287280414463259,-0.0394029378631362,0.1183337557779837,2.4740139024898578,0.0459375417730539,0.0644626231079603,-0.5483964494532365,1.4968757325515107,0.6327217332635842,-0.0699931253375366,-1.3547697698734762,9.09526221012402,-0.774127929128344,0.1888280359686966,-1.1115602051409852
0.38,-0.0407048360784903,0.1179605204025948,2.462420034697031,0.0256283194670937,0.1606510496876925,0.0441159373611838,0.0442204205703547,0.0254823364359181,-0.4560230228970267,-0.0385583270324888,0.1195727663562988,2.463445973506753,0.053351542254421,0.069486811492374,-0.588396450049283,1.5230906403848938,0.6733984403983848,-0.0616409629372913,-1.3647490725350402,9.086527920243498,-0.7671027913781026,0.188473573442844,-1.1187374722326895
0.4,-0.039674890385043,0.1184607925008056,2.4530112770034638,0.0235550936347733,0.1619108331365252,0.0439046183632637,0.0579583667357454,0.0246944482365777,-0.4834943977033917,-0.0384938150499726,0.1192346372243907,2.43961888355218,0.0338612264406493,0.0285139848985564,-0.5560230243871429,1.536252230600186,0.6868973082695333,-0.039394409967022,-1.373568740318251,9.089965254530398,-0.7611675612981661,0.18897703855021,-1.125058493906269
0.42,-0.0383523221941857,0.1189780178454632,2.443744147758147,0.0226356288376674,0.1598319080396481,0.0436936177345625,0.0803543760057066,0.0291424857723702,-0.490614908999004,-0.0384938150499726,0.1192346372243907,2.43961888355218,0.0338612264406493,0.0285139848985564,-0.5560230243871429,1.1958971007688608,1.1198004634980572,0.2224018767896277,-0.3560255647806126,9.089287245927151,-0.7638343138842716,0.1861041254722622,-1.1279779851780838
0.44,-0.0365183564521748,0.1196001860898271,2.433828561394638,0.0237866700386924,0.1523203934042275,0.0434849180724397,0.1010262012488569,0.0326375005253284,-0.5007562955103606,-0.0384938150499726,0.1192346372243907,2.43961888355218,0.0338612264406493,0.0285139848985564,-0.5560230243871429,1.1644603979735304,1.0335912621575176,0.1747507376479091,-0.5070693255678299,10.265173163472356,-0.7667198022126135,0.1862444204517561,-1.1251872465030834
0.46,-0.034328140085963,0.1202799642668245,2.4236686189450296,0.0266122231740101,0.1411168107063889,0.0432691573949403,0.1163153808612379,0.0347879075053125,-0.5146517897468331,-0.0381552027855661,0.1195197770733763,2.434058653308308,0.0317893876147082,0.029120314591084,-0.5760230246851661,1.038590419119891,0.7644589806190504,0.1075203489992047,-0.6947747118236258,10.003061088298637,-0.7742502797086855,0.184093475025219,-1.120158775494266
0.48,-0.0320149236796267,0.120938507143231,2.413730555889865,0.0299555929646585,0.1286323095434619,0.0430057113405546,0.1259649712594999,0.0342730624792044,-0.530718751562605,-0.0374779782567531,0.1200900567713474,2.4229381928205656,0.027645709962826,0.0303329739761393,-0.6160230252812126,0.9374525617926054,0.4824795199130975,-0.025742251305404,-0.8033480907885915,9.779302092319083,-0.7850980661833123,0.1803160076109351,-1.1137034049790009
0.5,-0.0294321082253231,0.1216019864594499,2.402913575235998,0.0333064467958915,0.1148680098632425,0.0426320661973859,0.1313683301178267,0.0320764657288612,-0.550231412313604,-0.0368007537279401,0.1206603364693185,2.4118177323328225,0.0235020323109439,0.0315456333611946,-0.656023025877259,1.0182893177028014,0.2701679429163439,-0.109829837517161,-0.97563303754995,9.595470065619338,-0.7976016725993783,0.1757717724411111,-1.1069310612220684
0.52,-0.0267874331589408,0.1222095748890645,2.391682334131167,0.036178008785338,0.1014719263030414,0.0421751384149443,0.1324963633996582,0.0288290746187484,-0.5719900284108952,-0.0363307130817213,0.1212912491365424,2.3986972718152773,0.0193583546590617,0.0327582927462499,-0.6960230264733055,1.101425647259338,0.0564016640915723,-0.1623695555056415,-1.087930804864562,9.31200951084611,-0.8097411605586793,0.17134690347805,-1.10068588502283
0.54,-0.0241595427367273,0.1227436270151097,2.3800018668893403,0.0384579859364857,0.089190082911446,0.0416665835816551,0.1300559149858188,0.0248545503784346,-0.5949418069500704,-0.0358606724355024,0.1219221618037663,2.385576811297732,0.0152146770071795,0.0339709521313052,-0.736023027069352,1.171043092192593,-0.1220224206919709,-0.1987262120156901,-1.1475889269587591,9.31200951084611,-0.8219727581408659,0.1668632820816548,-1.0946787641216555
0.56,-0.021736107262287,0.1231722573676656,2.368473319334014,0.0400798111175641,0.0789688981034103,0.0411656033320115,0.1250822114430011,0.0205738034650923,-0.6174283821626103,-0.0354942237305806,0.1225833909556166,2.371456350765286,0.0110709993552974,0.0351836115163605,-0.7760230276653983,1.17122647880026,-0.2486851771408837,-0.2140373456671142,-1.124328760626997,9.25560863946066,-0.8330486870439455,0.1627496788688792,-1.089498471659125
0.58,-0.0193094016231061,0.1235309410205568,2.355867393889694,0.0411800230985575,0.0699404828607527,0.0406390389136193,0.1177546348160033,0.0155512132291535,-0.6420172378359197,-0.0352313669669558,0.1232749365920933,2.356335890217938,0.0069273217034152,0.0363962709014158,-0.8160230282614448,1.3072218779012903,-0.3663788313498901,-0.2511295117969391,-1.2294427836654689,9.168165997578852,-0.8426299413656312,0.1591105967131498,-1.0853834658181292
0.6,-0.0170491258614157,0.1237815022999268,2.3427610493005964,0.0414249742514542,0.0628146466309094,0.0401150611427864,0.108629506812828,0.0098702139698229,-0.6673739581420716,-0.013421669882306,0.1243085016820145,2.323766531997898,0.0830697271710162,0.0205402835813204,-0.7420172393260358,1.3770484544336703,-0.4562564001587644,-0.2840499629665313,-1.267836015307594,9.168165997578852,-0.8502466306681021,0.156103853712728,-1.0828948036860655
0.62,-0.0149726278602393,0.1239048070621727,2.3293887568098057,0.0406301225914571,0.0577432663647961,0.0395972595277117,0.0993783470838579,0.0028721171403508,-0.6685745621360526,-0.013421669882306,0.1243085016820145,2.323766531997898,0.0830697271710162,0.0205402835813204,-0.7420172393260358,0.5830925430751718,-0.4625579864485044,-0.3499048414736044,-0.0600301996990515,9.134982917371872,-0.8562610072742443,0.150369024664158,-1.086354384523417
0.64,-0.0131861679952658,0.1238881724894139,2.316638492145904,0.038635129139693,0.0551326074114499,0.0391087613559169,0.0891018730374351,-0.0040617189828122,-0.6735505723275567,-0.013421669882306,0.1243085016820145,2.323766531997898,0.0830697271710162,0.0205402835813204,-0.7420172393260358,0.6679159371426056,-0.513823702321138,-0.3466918061581535,-0.2488005095752032,10.539643857725425,-0.8599799445220537,0.152116575387858,-1.083181384685752
0.66,-0.0115206680339331,0.123742880319585,2.303068271845357,0.0352703462412097,0.0547413363507524,0.0385998099788144,0.0782205080789471,-0.0096489432467133,-0.6833810679480459,-0.0125909726105958,0.1245139045178277,2.316346359604638,0.0761327456420188,0.0215380976517538,-0.762017239624059,0.784633389678572,-0.5440682479244014,-0.2793612131950568,-0.4915247810244605,10.223777650365264,-0.8626112853345652,0.1551143553678108,-1.0804471334112382
0.68,-0.0100631335459776,0.123508391476203,2.289256671405847,0.0313891676585082,0.056077638472355,0.0381148480142598,0.0682710766576752,-0.0132916162481435,-0.6972477309787513,-0.0109295780671755,0.1249247101894541,2.301506014818117,0.0622587825840239,0.0235337257926205,-0.8020172402201055,0.8725603070978412,-0.4974715710635936,-0.1821336500715069,-0.6933331515352692,9.726453766358643,-0.8626561199154791,0.1579770378452624,-1.080529391966314
0.7000000000000001,-0.008852876153427,0.1232320574709339,2.2758498003462453,0.0276124737901713,0.0583511278281695,0.0376742494871172,0.0597614912780284,-0.0154850973163488,-0.7132924319923013,-0.0092681835237551,0.1253355158610805,2.2866656700315966,0.0483848195260291,0.0255293539334873,-0.8420172408161519,0.9146814105800564,-0.4254792689823431,-0.1096740534102675,-0.8022350506775022,9.55958136859772,-0.8614278502257645,0.1609337263889501,-1.0818569097209112
0.72,-0.0077429466715956,0.1229078049993975,2.261382553191396,0.0237272669873269,0.0613233004731498,0.0372244974737977,0.0517974071813969,-0.0167218848103103,-0.7326974965443178,-0.0083004871332346,0.1258461029397503,2.2698253252152734,0.0345108564680342,0.027524982074354,-0.8820172414121984,1.050610309619326,-0.3982042048315756,-0.0618393746980747,-0.9702532276008258,9.55958136859772,-0.8594453321342881,0.1638726448732091,-1.0837161619545217
0.74,-0.0067817472619838,0.1225688355725713,2.246513787517816,0.0200325726663717,0.0645253033093755,0.0367842873667683,0.0448189543126384,-0.0170415082049766,-0.7532422883936785,-0.007332790742714,0.12635669001842,2.2529849803989506,0.0206368934100394,0.0295206102152208,-0.9220172420082448,1.0849993498724515,-0.3489226434379242,-0.0159811697333154,-1.0272395924680322,9.416849019360598,-0.856865877794868,0.1664378398354784,-1.0863997385463589
0.76,-0.0061478034264736,0.1223155628191028,2.2350878148738333,0.0174336076895365,0.0669382017578089,0.0364606371241949,0.0400918086444875,-0.0167074071867404,-0.7691911587912963,-0.0067119434286433,0.1269171678006115,2.2351446355677265,0.0067629303520445,0.0315162383560876,-0.9620172426042912,0.8319014313882297,-0.2363572834075424,0.0167050509118128,-0.7974435198808916,9.364198869949178,-0.8547009047222396,0.1681631918269463,-1.0886988283483796
0.78,-0.0054068691987494,0.1219912977918943,2.2194635070462803,0.0142232325730877,0.070051491886624,0.0360385830818756,0.0343877680002396,-0.0156980064173957,-0.792267469501853,-0.0064379451910224,0.1275275362863245,2.216304290721601,-0.0071110327059502,0.0335118664969543,-1.0020172432003376,1.1896124217518709,-0.2852020322123966,0.0504700384672313,-1.1538155355278357,9.32977004327131,-0.8519383028722125,0.1701563765807719,-1.091619296791232
0.8,-0.0048029951306015,0.1217085355797634,2.204184222161676,0.0114553029030055,0.0728196960059449,0.0356490472712787,0.029513038619703,-0.0141207383168944,-0.814921369599041,-0.0036874807987375,0.1212063974710245,2.1798501335711875,0.0246940122320001,-0.0080985422653874,-0.8303713778022528,1.1613030943811593,-0.243736469026831,0.0788634050250665,-1.132695004859402,9.228167469579605,-0.8489831655868296,0.1718004519197203,-1.0950479351858349
0.8200000000000001,-0.0042627742417819,0.1214668192634315,2.188023275905137,0.0095948772423994,0.0764345956375632,0.0353146000980073,0.0251375481452319,-0.0104416847113264,-0.7979302379059372,-0.0036874807987375,0.1212063974710245,2.1798501335711875,0.0246940122320001,-0.0080985422653874,-0.8303713778022528,0.8963522027323133,-0.2187745237235524,0.1839526802784024,0.8495565846551922,11.832153949693748,-0.8467384310373854,0.1685873366394936,-1.1030434668503708
0.84,-0.0037873850916915,0.1212894251842434,2.172245616769438,0.0089409066600438,0.081297777148843,0.0350720545808218,0.022856641413121,-0.007523149948072,-0.7811532598204682,-0.0036874807987375,0.1212063974710245,2.1798501335711875,0.0246940122320001,-0.0080985422653874,-0.8303713778022528,0.8590508925046563,-0.1140453366055446,0.1459267381627161,0.8388489042734482,11.832153949693748,-0.8428314837602104,0.1707483144096073,-1.1033035398753526
0.86,-0.0033375744745325,0.1211694983008939,2.1567422094988244,0.0090782763712973,0.0866010094482684,0.034887298747218,0.0224209562377419,-0.0046617566524224,-0.7700094657858437,-0.0034405406764175,0.1211254120483707,2.171546419793165,0.0227552610783522,-0.0065786494349858,-0.8379921594623327,0.5756768595544003,-0.0217842587689554,0.1430696647824824,0.5571897017312255,11.151856849150136,-0.8376739325128321,0.171919972604693,-1.1050342894831338
0.88,-0.0029023751066945,0.1211078785408666,2.1421785277112426,0.0098535401393673,0.0915018105810487,0.0347571419502752,0.0235098217489897,-0.0020143602808287,-0.7635655167141482,-0.0029466604317775,0.1209634412030629,2.15493899223712,0.0188777587710564,-0.0035388637741825,-0.8532337227824927,0.3525578508859164,0.0544432755623909,0.1323698185796863,0.3221974535847771,11.151856849150136,-0.8321712407474124,0.1719860436097167,-1.1077537898416183
0.9,-0.0024083797048829,0.1210946354085888,2.1269462270040385,0.0112863218825679,0.096137117189749,0.0346619509411251,0.0259121531181315,0.000497076828827,-0.7601595983955983,-0.0024527801871375,0.1208014703577552,2.1383315646810748,0.0150002564637606,-0.0004990781133791,-0.8684752861026526,0.2433042948426521,0.1201165684570862,0.1255718554827894,0.170295915927493,10.894115098993096,-0.8268242985183178,0.1710690149643284,-1.1109628610614306
0.92,-0.001854824172836,0.1211269424331157,2.1117481556971898,0.0132603517827363,0.0999695833674803,0.0346003510272627,0.0293326582901979,0.0025302880794734,-0.7598152919333795,-0.0021527750578622,0.1207914887954876,2.1209620589590217,0.0111227541564648,0.0025407075474241,-0.8837168494228125,0.199701968955076,0.1710252586033213,0.1016605625323166,0.0172153231109417,10.692799988371917,-0.8219940722103223,0.1692968958643447,-1.1143087196112629
0.94,-0.0012227781434001,0.1211883033345544,2.0965489198461165,0.0154864632290724,0.1028502257404635,0.0345477057337655,0.0336677196190697,0.0034110846312186,-0.7601320492517043,-0.001852769928587,0.12078150723322,2.1035925532369686,0.007245251849169,0.0055804932082274,-0.8989584127429724,0.2217481369107675,0.2167530664435915,0.0440398275872608,-0.0158378659162405,10.53243596826087,-0.8183007722490092,0.1669773807450584,-1.1173652847213398
0.96,-0.0005362512136184,0.1212539799659074,2.0821000550151547,0.0174734551472667,0.1046507970200194,0.0344758651423879,0.0383188332946647,0.003462294409987,-0.7607918649972898,-0.0016497023569942,0.1208475203124725,2.085842008431912,0.0033677495418732,0.0086202788690307,-0.9141999760631324,0.23489805066704,0.2325556837797459,0.0025604889384209,-0.0329907872792745,10.491136930862012,-0.8153898477319208,0.1645925901064854,-1.1199431281708223
0.98,0.0002838163384896,0.1213185815708051,2.066871785467552,0.0193051616597952,0.1055937211247641,0.0343646475576389,0.0433835052160388,0.0030030075567076,-0.7620279984531196,-0.0015435723430838,0.1209895280332451,2.0677104245438502,-0.0005097527654225,0.011660064529834,-0.9294415393832922,0.2616766707473791,0.2532335960687079,-0.022964342663968,-0.0618066727914923,10.462064347853811,-0.8134605817748815,0.1624476251841039,-1.1218184123568675
1.0,0.0012055095541936,0.1213687812092762,2.0516117378245933,0.020800837135978,0.1056135045460404,0.0342095594726,0.0484191450486779,0.0020690000572133,-0.7639147476011345,0.0024529915992915,0.1214687319486405,2.028770385544896,0.0255525782910949,-0.0031584344697882,-0.7501141699013504,0.2729004437551746,0.2517819916319563,-0.0467003749747188,-0.0943374574007449,10.462064347853811,-0.8125483801393149,0.1606817958384217,-1.1229552708286374
1.02,0.002225091905869,0.1214276231703435,2.0373430967271027,0.0230309380468319,0.1040149066678237,0.034078965942437,0.0585146162829029,0.0034164514450308,-0.7379612233656989,0.0024529915992915,0.1214687319486405,2.028770385544896,0.0255525782910949,-0.0031584344697882,-0.7501141699013504,1.3940225831410864,0.504773561711247,0.0673725693908784,1.297676211771781,10.42888709363706,-0.8181809152994292,0.1559773238107393,-1.1211445947536285
1.04,0.0035053955088743,0.1214819822448245,2.022856726057434,0.0261004611903467,0.0995955398857831,0.033912362451958,0.0687584841657164,0.0018219633319134,-0.7122699650436938,0.0024529915992915,0.1214687319486405,2.028770385544896,0.0255525782910949,-0.0031584344697882,-0.7501141699013504,1.3852075437559974,0.5121933941406757,-0.0797244056558731,1.284562916100257,12.330649922297198,-0.822034014632428,0.1542421899378921,-1.1166867314863085
1.06,0.0049663517072778,0.1214869112190714,2.0088472663131496,0.0290073488640826,0.0925294959580489,0.0336395123831098,0.0762961928137099,-0.0012717339039811,-0.6900850455675027,0.0027085173822025,0.1214371476039426,2.0212692438458824,0.0219863929061061,-0.0043907228750874,-0.7477314041909965,1.1816922890652402,0.3768854323996741,-0.1546848617947299,1.1092459738095528,12.085515775922431,-0.8279784925410998,0.1521847065120092,-1.111451048837145
1.08,0.006538445417927,0.1214188340045123,1.995247247556284,0.0314474654341425,0.0837880390760889,0.0332562700387996,0.0800933695060295,-0.0053079362588182,-0.670983782943191,0.0032195689480243,0.1213739789145469,2.006266960447855,0.0148540221361285,-0.0068552996856858,-0.7429658727702888,0.9944442092505918,0.1898588346159829,-0.2018101177418549,0.9550631312155832,11.848495305358483,-0.8360280777358262,0.1504578220271737,-1.1047100866027817
1.1,0.0080665719965296,0.1212729876442682,1.9826585068644005,0.0332583487416101,0.0747953700355831,0.0328104007893876,0.0802597904613384,-0.0097384266577023,-0.6550735362780209,0.0037306205138462,0.1213108102251511,1.991264677049828,0.007721651366151,-0.0093198764962841,-0.7382003413495811,0.8258221510342408,0.0083210477654437,-0.2215245199442049,0.7955123332585079,11.656811308608669,-0.8459246414655227,0.1490455624687916,-1.0963979743041774
1.12,0.0096433962044807,0.1210236544602042,1.9697161895826,0.034599187292495,0.0653320753798621,0.0322815343955781,0.0771086125696582,-0.0149299243329809,-0.6400579742663206,0.0038850535411693,0.1211244126952254,1.9765006702228365,0.0005892805961734,-0.0117844533068825,-0.7334348099288734,0.8098590506141382,-0.1575588945840096,-0.2595748837639266,0.7507781005850145,11.389087941061009,-0.8563591355283049,0.1480587697257865,-1.0875503130544883
1.14,0.0111239172381544,0.120662192025944,1.957066007953964,0.0351471163227407,0.0564764280321497,0.0317065561579653,0.0709123614282646,-0.0208479454941951,-0.6256817490328677,0.0040394865684923,0.1209380151652997,1.9617366633958448,-0.0065430901738041,-0.0142490301174809,-0.7286692785081658,0.8367979962851996,-0.3098125570696795,-0.2959010580607116,0.7188112616726472,11.389087941061009,-0.8667393211507387,0.1475297383226921,-1.0788101115646336
1.16,0.0124524084201309,0.1201772481197591,1.9446993714032164,0.0346663683703646,0.0486774301448706,0.0310964829060647,0.0620907951060363,-0.027257526019916,-0.6117037825865266,0.0040156103265659,0.1206900032151091,1.9470917948543711,-0.0136754609437817,-0.0167136069280792,-0.723903747087458,0.8864060876204132,-0.4410783161114165,-0.3204790262860456,0.6988983223170542,11.359253881727454,-0.8759119716184063,0.1478671862000063,-1.0708648020403813
1.18,0.0135267559227251,0.1195951977210303,1.933204719152919,0.0330065873356237,0.0426692496972867,0.0304920483702492,0.0513405722444504,-0.0335165809624365,-0.5989402487850313,0.00381342481539,0.1203803768446535,1.9325660645984148,-0.0208078317137592,-0.0191781837386776,-0.7191382156667503,0.891138114224119,-0.5375111430792942,-0.3129527471260258,0.6381766900747654,11.308660075914304,-0.88405622008051,0.1493517561697749,-1.0635988335314897
1.2,0.0144131391897316,0.1188621843262516,1.9213625655839064,0.0300167797785523,0.0383830974772007,0.0298556700965812,0.0377068931969177,-0.0390250635949676,-0.5859487147238078,0.0160937845349477,0.1179193686729085,1.9032577067136676,0.0305089370226115,-0.040088731587725,-0.5892572330287222,0.9810715347872933,-0.6816839523766368,-0.2754241316265515,0.6495767030611721,11.308660075914304,-0.8903843905336378,0.1521445549943999,-1.057424021434776
1.22,0.0149877786010642,0.1180551807187991,1.9098422543666145,0.0270130257675285,0.0375199541377768,0.0293381766567068,0.0209538470618603,-0.0415501246889084,-0.5666841713259646,0.0160937845349477,0.1179193686729085,1.9032577067136676,0.0305089370226115,-0.040088731587725,-0.5892572330287222,1.2827345016203449,-0.8376523067528662,-0.1262530546970414,0.9632271698921612,11.288145487444126,-0.8954529252450544,0.1549160342032589,-1.0517621069588
1.24,0.0152467393787253,0.1172009226514378,1.8986968271837228,0.0244432622745189,0.0400659561383317,0.0289496741446345,0.0062003803104064,-0.0437211586477555,-0.5487973505066859,0.0160937845349477,0.1179193686729085,1.9032577067136676,0.0305089370226115,-0.040088731587725,-0.5892572330287222,1.1643845248217062,-0.7376733375726987,-0.1085516979423568,0.8943410409639363,11.570862160944673,-0.8970750686406885,0.1584421512733691,-1.047280453944547
1.26,0.01524240451215,0.1163544352326502,1.8884252611362136,0.0222508686840192,0.0445369314413627,0.0286476386331177,-0.0056096898621603,-0.0452462308226491,-0.5332852262811568,0.0163988739051738,0.1175184813570312,1.89736513438338,0.0263426099782437,-0.0414031617127827,-0.5873206298774605,0.97779036685763,-0.5905035086283386,-0.0762536087446801,0.7756062112764528,11.447995486319089,-0.8963547872453895,0.1618474495259967,-1.0447957707549196
1.28,0.0150214582518617,0.1154383546193921,1.877919970677207,0.020169921929445,0.0504662148791797,0.0283691139039192,-0.015581897236721,-0.0462487153066724,-0.518103916727252,0.017009052645626,0.1167167067252767,1.8855799897228056,0.0180099558895081,-0.0440320219628981,-0.5834474235749368,0.9095631572813302,-0.4986103687280349,-0.0501242242011652,0.7590654776952421,11.447995486319089,-0.8936288611729029,0.164831589480166,-1.0445011313355457
1.3,0.0146264936766344,0.1145087952631032,1.8677044712347688,0.0183340331161207,0.0568890707209673,0.0281135474069013,-0.0231913129633621,-0.0466584720237821,-0.5041954745519146,0.0176192313860782,0.1159149320935222,1.8737948450622317,0.0096773018007725,-0.0466608822130135,-0.5795742172724132,0.7929625968681822,-0.3804707863320537,-0.0204878358554833,0.6954221087668688,11.272612696307078,-0.8897329350032552,0.16754014237557,-1.0454396865057254
1.32,0.0141027848197219,0.1135768261031524,1.8577560611663373,0.016758302642324,0.0632197296147912,0.0278716332208342,-0.0286398465213976,-0.0465285072354674,-0.4913427321772466,0.0178127774220937,0.1149817144492619,1.862203360716783,0.0013446477120369,-0.0492897424631289,-0.5757010109698896,0.6980264954298395,-0.2724266779017754,0.0064982394157326,0.6426371187333968,11.20394264438346,-0.8856247844335701,0.1698494096749809,-1.0468514301211989
1.34,0.0135228336080798,0.1126993638092045,1.8485366790961808,0.0155628467246775,0.0687537439829794,0.0276542810227305,-0.0320519546441519,-0.0458531428214386,-0.4797663653085782,0.0180063234581091,0.1140484968050017,1.8506118763713348,-0.0069880063766986,-0.0519186027132443,-0.5718278046673659,0.6043816443504595,-0.1706054061377134,0.0337682207014442,0.578818343433421,11.20394264438346,-0.8814721368204264,0.1719244848006557,-1.0483738486083098
1.36,0.0128570923787847,0.1117943587388025,1.839064350270482,0.0147313164365475,0.0738306224776476,0.0274458234690409,-0.0342569113175049,-0.0446827683507996,-0.4681049622810516,0.0179915531419062,0.1130495576544885,1.8391172221834493,-0.0153206604654341,-0.0545474629633597,-0.5679545983648424,0.5962799906572737,-0.110247833667651,0.0585187235319466,0.5830701513763331,11.163325624617755,-0.8777002593416743,0.1735378671783892,-1.0497671931996213
1.38,0.0121595087663855,0.1109168925968644,1.8298186490454489,0.014451470935568,0.0780243091798427,0.0272677904314757,-0.0353446388628078,-0.0431442252494008,-0.4570805575035311,0.0177684664734849,0.1119848969977225,1.8277193981531277,-0.0236533145541697,-0.0571763232134751,-0.5640813920623188,0.5592132124384425,-0.0543863772651465,0.0769271550699411,0.551220238876024,11.132053649365844,-0.8745047567376514,0.1745969872484049,-1.0508478585046124
1.4,0.0114495730095618,0.1100724511352588,1.8207865261068603,0.0148256313826628,0.0812744766777914,0.0271287366088118,-0.0356089354240919,-0.0414403082848856,-0.4466871350112125,0.0103922768232451,0.1087596813343944,1.806964621170272,-0.0188302891339851,-0.0547797643713266,-0.4390857829980351,0.5267741850121923,-0.0132148280642049,0.0851958482257594,0.5196711246159308,11.095195927438,-0.872154322382606,0.1749813173190931,-1.051483344151405
1.42,0.0107376711107474,0.1093157961861323,1.812477743633636,0.0163697776317132,0.0849213215494589,0.0270962709783273,-0.0388948233332983,-0.0385795844004272,-0.4284250230437508,0.0103922768232451,0.1087596813343944,1.806964621170272,-0.0188302891339851,-0.0547797643713266,-0.4390857829980351,0.9387299052537516,-0.1642943954603206,0.1430361942229181,0.9131055983730846,11.662999805661457,-0.8719179419510514,0.1741500821783984,-1.0500992532138844
1.44,0.0099444585455045,0.1085637585107946,1.8041026741585025,0.0193994758825869,0.0902302738180551,0.0271986114846763,-0.0399476770517996,-0.0371944417122666,-0.4101478842055131,0.0103922768232451,0.1087596813343944,1.806964621170272,-0.0188302891339851,-0.0547797643713266,-0.4390857829980351,0.9179881880113472,-0.0526426859250615,0.0692571344080315,0.9138569419118836,11.662999805661457,-0.8684815483574787,0.1727846510851453,-1.050691249300392
1.46,0.0091572029370864,0.1078132348480496,1.7960761894125603,0.0228207385814511,0.0961283897600282,0.0273607505702512,-0.0385031069454893,-0.0380236508915269,-0.3934860408810759,0.0102039739319052,0.1082118836906811,1.802573763340292,-0.0155274191882206,-0.0571068721957118,-0.4354868280969359,0.8372445783985492,0.072228505315515,-0.0414604589630118,0.8330921662218577,11.547255366680474,-0.8637459742822445,0.1708398262722468,-1.0528034819151115
1.48,0.0084232428757728,0.1070314369547946,1.7883670982700353,0.0260111321203489,0.1019027790030139,0.0275257104201886,-0.0348357655417761,-0.0400974405647825,-0.3782586136808954,0.0098273681492255,0.1071162884032546,1.793792047680331,-0.0089216792966915,-0.0617610878444821,-0.4282889182947375,0.7899755308189755,0.1833670701856571,-0.1036894836627801,0.7613713600090277,11.44453659626106,-0.8593430341042408,0.1691558061677469,-1.054760937677998
1.5,0.0078120454096731,0.1062423370134606,1.781315046151258,0.0286347802127896,0.1068155373230433,0.0276563864225329,-0.0296355986133443,-0.0428011096801156,-0.3648306972818405,0.0094507623665458,0.1060206931158281,1.7850103320203703,-0.0023159394051624,-0.0664153034932525,-0.421091008492539,0.7325648462572592,0.260008346421588,-0.1351834557666565,0.6713958199527442,11.364029965743612,-0.8549352666717916,0.1676095750474676,-1.056868998790608
1.52,0.0072895246209798,0.1053514434611224,1.7741596992925917,0.0309347530266603,0.1110933548674314,0.027749925390853,-0.0228443177672626,-0.0461071417886336,-0.3514476876186672,0.0094044435784426,0.104692387045963,1.7765885118505196,0.0042898004863666,-0.0710695191420228,-0.4138930986903406,0.7683688754066944,0.3395640423040885,-0.1653016054259028,0.6691504831586648,11.302290848571827,-0.8510679279740364,0.1664032420464154,-1.0586792100900593
1.54,0.0069142999086941,0.1043899849480641,1.767267154392284,0.0327662460344773,0.1142904230985437,0.0277873295377262,-0.0150207171137245,-0.0498181063265771,-0.3384919802565544,0.0093581247903393,0.103364080976098,1.7681666916806689,0.0108955403778957,-0.0757237347907931,-0.4066951888881422,0.7791507207219569,0.3911800326769032,-0.1855482268971718,0.6477853681056384,11.261270201795014,-0.8481117038084327,0.1655741934573889,-1.059817291734437
1.56,0.0067038726567328,0.1033483474251885,1.760629688829678,0.0340533704574559,0.1162980287470383,0.0277543909653319,-0.0065070859107507,-0.0540888157231823,-0.3259022568317235,0.0094769494995243,0.1019194195150137,1.759924819255873,0.0175012802694248,-0.0803779504395635,-0.3994972790859438,0.7893383478018754,0.4256815601486896,-0.2135354698302591,0.6294861712415473,11.242901405767045,-0.8462219142002484,0.1652071098963744,-1.060213989452384
1.58,0.0066641865078884,0.1022745650869265,1.754554107747763,0.0346012572074152,0.1171200363100115,0.027643378529348,0.0017961538558276,-0.0586455168444953,-0.3142575748477459,0.0097609177059975,0.1003584026627101,1.751862894576132,0.0241070201609538,-0.0850321660883338,-0.3922993692837454,0.7505097171893201,0.4151619883289193,-0.227835056065654,0.5822340991988806,11.208968697392264,-0.8452794164078026,0.1654725516396469,-1.0597649713676882
1.6,0.0067908490249958,0.1010484081078536,1.7483955401400533,0.0343018646584726,0.116960000105491,0.0274345145519262,0.0103328317686857,-0.0636616550945599,-0.3022140589352682,0.0067539942006798,0.0993422892447018,1.738841229005376,-0.005369753560665,-0.0555529836342029,-0.3012449840296388,0.7795556238424302,0.4268338956429062,-0.2508069125032274,0.6021757956238855,11.208968697392264,-0.8454653111712139,0.1665910344285435,-1.058326985117559
1.62,0.0071435644833302,0.0996657737616891,1.742494445000994,0.0311522280183103,0.1141068305552895,0.0269474280598397,0.024607553556997,-0.0734279823274776,-0.2883347837734497,0.0067539942006798,0.0993422892447018,1.738841229005376,-0.005369753560665,-0.0555529836342029,-0.3012449840296388,1.1088091684004873,0.7137360894155669,-0.4883163616458866,0.6939637580909236,11.19595769263833,-0.8537475744530799,0.1707696785238356,-1.0490265227871265
1.64,0.0077683736794734,0.0981463530076602,1.73686902825052,0.0252931482919677,0.1066636921340425,0.0261738813006217,0.0362994755480265,-0.0774488644654228,-0.2748384905770419,0.0067539942006798,0.0993422892447018,1.738841229005376,-0.005369753560665,-0.0555529836342029,-0.3012449840296388,0.9151754791499964,0.5845960995514756,-0.2010441068972579,0.6748146598203913,11.335295152945946,-0.8608723945063046,0.1783345350376836,-1.039325907505124
1.66,0.0085260319603752,0.0966689429118396,1.73176872840643,0.0194580297627088,0.0970149269965812,0.025426982517043,0.0423911694159968,-0.0777961383847308,-0.2626654206767928,0.0067002966650732,0.0987867594083597,1.7358287791650795,-0.0068029350439636,-0.0549344769921444,-0.2986424658660173,0.6808321455256935,0.3045846933985109,-0.0173636959654006,0.6086534950124539,11.249920540332823,-0.8722257356804092,0.1867009174746901,-1.025259498050042
1.68,0.0093958362305667,0.0951296016654366,1.726644248066141,0.0138686749631134,0.0858177540301314,0.0247458775269887,0.0438301824029079,-0.0761180732515989,-0.250428812384164,0.0065929015938599,0.0976756997356757,1.7298038794844866,-0.0096692980105607,-0.0536974637080274,-0.2934374295387745,0.6217339533006934,0.0719506493455542,0.0839032566565957,0.6118304146314396,11.17775674681252,-0.8856096085988132,0.1946558550719534,-1.008756192603793
1.7,0.010244819267454,0.0936395589659563,1.721756676072031,0.0091376463146978,0.074882325340042,0.0242107511361607,0.04069093692381,-0.0730388092872252,-0.2389565726960415,0.0064855065226466,0.0965646400629916,1.7237789798038938,-0.0125356609771577,-0.0524604504239104,-0.2882323932115316,0.6143065444101595,-0.1569622739548935,0.1539631982186852,0.5736119844061263,11.121271894968231,-0.8985399052939245,0.2011397437614318,-0.9928728765733612
1.72,0.0109881722188739,0.0922222956421097,1.7170895752609063,0.0053549431828573,0.0652362790158137,0.0238206346029978,0.0337098603763433,-0.0690120174349386,-0.2282977781883673,0.0062347933031034,0.0955154310545134,1.7180143319396632,-0.0154020239437548,-0.0512234371397934,-0.2830273568842888,0.6681324396032111,-0.3490538273733318,0.2013395926143316,0.5329397253837076,11.011322893727083,-0.9113833825962384,0.2066734036515316,-0.9770506708995826
1.74,0.011535308428496,0.0909564511016065,1.7128476268712236,0.0025768743217355,0.0578754803524987,0.0235629982372291,0.0242004761842618,-0.0645979975519436,-0.2187355264961217,0.0059840800835603,0.0944662220460352,1.7122496840754329,-0.0182683869103519,-0.0499864238556765,-0.277822320557046,0.7094868157089652,-0.4754692096040774,0.220700994149748,0.4781125846122794,11.011322893727083,-0.9224291189929944,0.2110841707139936,-0.9630945496179248
1.76,0.0118895533426607,0.0897176128657373,1.7085741669251229,0.0004043365217494,0.0526225351122761,0.0233845795892635,0.0115751937602538,-0.05962627431886,-0.2091253998366761,0.0056617077898522,0.0934479383696599,1.706615162119383,-0.021134749876949,-0.0487494105715595,-0.2726172842298031,0.8313698373812584,-0.631264121200398,0.2485861616541809,0.480506332972283,10.975012730952583,-0.930820921646958,0.2145672240237937,-0.9519069422424888
1.78,0.0119671003955196,0.0885824066625495,1.7044872338888035,-0.0010449588543425,0.0507061598906431,0.023280862894094,-0.0029724608379575,-0.0542080421345621,-0.2000451548538401,0.0052676764219792,0.0924605800253876,1.7011107660715146,-0.0240011128435461,-0.0475123972874425,-0.2674122479025602,0.8992251431929323,-0.7273827299105703,0.2709116092148931,0.4540122491417969,10.953859739261134,-0.9370006982051586,0.2170129250677227,-0.9433646365474436
1.8,0.0117604332305181,0.0875621558485701,1.7005776246135198,-0.0016265313843817,0.0520123743502511,0.0232491771212755,-0.0165678937376456,-0.0482011678926372,-0.1913329709704642,0.0118184773536218,0.0858720045558214,1.6944849761461116,0.0164781794679192,-0.0664114170121342,-0.2052504298790589,0.8614239402088542,-0.6797716449844076,0.3003437120962456,0.4356091941687956,10.876721078023364,-0.9402773386982008,0.2184665602342748,-0.938186685216844
1.82,0.0112748153844965,0.0867727568779347,1.6970173265356023,0.000893572742786,0.0571222445879081,0.0234420569539634,-0.0330048028446236,-0.0362925070775597,-0.1838060939682847,0.0118184773536218,0.0858720045558214,1.6944849761461116,0.0164781794679192,-0.0664114170121342,-0.2052504298790589,1.0824071101087125,-0.8218454553488996,0.5954330407538767,0.3763438501089747,10.876721078023364,-0.9378145960633248,0.2184023432162642,-0.9378961660939084
1.84,0.0104793847123412,0.0861266298069928,1.6934154035024815,0.0069689978079336,0.0665788826466305,0.0239301210693236,-0.0450155986481797,-0.0297148706045768,-0.1768188188836212,0.0118184773536218,0.0858720045558214,1.6944849761461116,0.0164781794679192,-0.0664114170121342,-0.2052504298790589,0.7686782983052697,-0.6005397901778033,0.3288818236491435,0.3493637542331756,10.864035961095396,-0.9329121118682636,0.2132736594659084,-0.9435158890255416
1.86,0.0094988114895932,0.0855595117453711,1.689943343767017,0.0137875472722874,0.0781180389220714,0.0245591726228286,-0.051934801267201,-0.0275146650278892,-0.1707834765958613,0.0119832591483009,0.0852078903857,1.692432471847321,0.0203683075290945,-0.0688520919876486,-0.2062914848841026,0.4720742155455569,-0.3459601309510642,0.1100102788343807,0.3017671143879949,10.747584972564256,-0.9247682994111276,0.2075687977672193,-0.9523370082359716
1.88,0.0084250903319728,0.0850072134152326,1.68658207425783,0.0201790209861831,0.0903943043792088,0.0252530342070341,-0.0546738379429318,-0.0277979859214283,-0.1656630132804267,0.0123128227376593,0.0838796620454574,1.6883274632497398,0.0281485636514452,-0.0737334419386774,-0.2083735948941901,0.2906963071851188,-0.1369518337865433,-0.0141660446769581,0.2560231657717293,10.674867021444696,-0.9152796027156164,0.2024044837767821,-0.9622886747241156
1.9,0.0073976307903524,0.0844615367859302,1.6834762835955772,0.0254899924486502,0.1017609105718168,0.0259247380069687,-0.053124913649059,-0.0295200834411458,-0.1615485003295016,0.0126423863270177,0.0825514337052147,1.6842224546521587,0.0359288197737959,-0.0786147918897062,-0.2104557049042776,0.2360826293848033,0.0774462146936445,-0.0861048759858713,0.2057256475462551,10.62739035805771,-0.9048529175848302,0.1975639885838815,-0.9729153042403909
1.92,0.0063853819069693,0.0838422565909993,1.6802844298049806,0.0302223745836578,0.1125328502044991,0.0266018374713035,-0.0479743210092509,-0.0322557187330592,-0.1579087145669019,0.0133609627224936,0.0809791378674206,1.6800133405540731,0.0437090758961466,-0.083496141840735,-0.2125378149143651,0.34373080087923,0.2575296319904011,-0.1367817645956708,0.1819892881299883,10.592392402307269,-0.8944166024437473,0.1935618704665714,-0.9830703159436134
1.94,0.0055092144780728,0.0831591386704756,1.6771579233413856,0.0340774485785963,0.1214667690217366,0.0272064201386416,-0.0398865409935455,-0.0357737970674437,-0.1549549758598168,0.0140795391179696,0.0794068420296264,1.6758042264559876,0.0514893320184973,-0.0883774917917639,-0.2146199249244526,0.465063525496899,0.4043890007852716,-0.1759039167192243,0.1476869353542506,10.570215260739133,-0.8853591838810203,0.1905132053866273,-0.9915590394135314
1.96,0.0048477157743596,0.0824389602402257,1.6742372788622228,0.0369721244086961,0.1279553576199034,0.0276850612744521,-0.0302213575409662,-0.0397067677520507,-0.1526473757211142,0.0149926219165042,0.0777125124430566,1.67154305960765,0.059269588140848,-0.0932588417427927,-0.2167020349345401,0.5343431668369394,0.4832591726289655,-0.1966485342303529,0.1153800069351299,10.553157903074862,-0.8772307697252376,0.188061445208667,-0.9988947525400064
1.98,0.0043616792714433,0.0815974164990916,1.6712062080972598,0.0392994110780852,0.1326286686749987,0.0280735007711939,-0.0189461621246547,-0.0441472213109255,-0.1506023208882371,0.0161002111180977,0.075896149107711,1.66722984000906,0.0670498442631987,-0.0981401916938215,-0.2187841449446275,0.6144711318565139,0.5637597708155752,-0.2220226779437409,0.1022527416438573,10.542668933989262,-0.8708214925053478,0.1863489823858289,-1.004406285328547
2.0,0.0041077118783032,0.080663349724669,1.6682126620883615,0.0409512065124164,0.1352144768831746,0.0283391414631931,-0.0071219028056255,-0.0489678187095155,-0.1488656185183111,0.0034143711652106,0.0793900554335453,1.663676092052848,-0.0009550030133933,-0.0448632815363117,-0.1514833971547605,0.6443357099460039,0.5912129659514607,-0.2410298699294995,0.0868351184962992,10.528324090952085,-0.8665274526816417,0.1852634071440969,-1.007965485393824
2.02,0.004148694874209,0.079547658158397,1.6653139593140092,0.0393190554241217,0.1344181501271568,0.0282409631025366,0.010334319728977,-0.0612150911986146,-0.1410184336479124,0.0034143711652106,0.0793900554335453,1.663676092052848,-0.0009550030133933,-0.0448632815363117,-0.1514833971547605,1.136104857605608,0.8728111267301285,-0.6123636244549511,0.392359243519938,10.528324090952085,-0.8696922075601199,0.1848068316667996,-1.0071930099765567
2.04,0.0045002522357588,0.07830583418787,1.6627060644115164,0.0341263143382632,0.1294275568731413,0.0277503064959241,0.0251315699736342,-0.067936121553825,-0.1338151024397416,0.0034143711652106,0.0793900554335453,1.663676092052848,-0.0009550030133933,-0.0448632815363117,-0.1514833971547605,0.8888459432506765,0.7398625122328585,-0.3360515177605227,0.3601665604085383,10.954118297740932,-0.8731139010881868,0.1925336603949942,-0.9999527214642722
2.06,0.0051241871782728,0.0769206681360845,1.6601042621283266,0.0277592792871338,0.1212454881604806,0.0271293051690408,0.0359739647853294,-0.0700378848802483,-0.1267402312126072,0.0034048211350767,0.0789414226181822,1.6621612580813003,0.0026432288088589,-0.045006493581389,-0.1516596124080652,0.6557986299419708,0.5421197405847588,-0.1050881663211662,0.3537435613567188,10.870887726346156,-0.8802979289365995,0.2010054988102265,-0.9892287565020782
