t,x,y,z,roll,pitch,yaw,v_x,v_y,v_z,ref_x,ref_y,ref_z,ref_v_x,ref_v_y,ref_v_z,a_com,a_x,a_y,a_z,thrust,wind_x,wind_y,wind_z
0.0,0.4228707772449745,1.1596380597575824,2.691203845506424,0.0241835898868809,0.1001268937070555,0.0428007594320044,0.0048220675713639,-0.0056516363151913,0.0206430903016236,0.4230182084052145,1.159419852301178,2.691827277310733,-0.0951088081971225,-0.1068497509919036,-0.0792542974524239,1.0969622895785638,0.2411033785681993,-0.2825818157595673,1.0321545150811822,10.236252384537693,-0.9456430169755956,0.2632890083630512,-0.8671628022146889
0.02,0.4231134217790289,1.1598030733739546,2.691411351978888,0.0306538700379327,0.094257504618029,0.0430821962656782,0.0189703294626341,0.0183118175961851,-0.0010370106266515,0.4230182084052145,1.159419852301178,2.691827277310733,-0.0951088081971225,-0.1068497509919036,-0.0792542974524239,1.7638361702315457,0.7074130945635073,1.198172695568826,-1.0840050464137616,10.235601711238814,-0.9545291928938872,0.2638344145678143,-0.8526048043893735
0.04,0.4235970237835086,1.1602244293195214,2.6910776721778724,0.0447684446199909,0.0778182510762286,0.0433916105540674,0.0271351780950055,0.0216832556472935,-0.0311022323553049,0.4230182084052145,1.159419852301178,2.691827277310733,-0.0951088081971225,-0.1068497509919036,-0.0792542974524239,1.5668031986461233,0.4082424316185705,0.1685719025554205,-1.503261086432668,8.578530931242767,-0.9537373749540984,0.25000132972486,-0.8579688447449237
0.06,0.4241064615239104,1.1606051380530875,2.690202102661857,0.0587606311040108,0.0565323172164614,0.0431583839787128,0.0251971398601204,0.0178918434608565,-0.0595595967561993,0.4220671203232432,1.158351354791259,2.6910347343362093,-0.1151088084951457,-0.1268497512899269,-0.0992542977504471,1.4387080899305371,-0.0969019117442571,-0.189570609321853,-1.4228682200447182,8.578530931242767,-0.9611394636220372,0.2324017389979482,-0.858816068291169
0.08,0.4245062037261446,1.1608865969805158,2.6887016083001547,0.0729746240731835,0.0319791031961984,0.0423537141901799,0.0141061552939582,0.0100968080064676,-0.0890174545292532,0.4201649441593008,1.156214359771421,2.6894496483871606,-0.1551088090911922,-0.1668497518859733,-0.1392542983464936,1.6213712568066432,-0.55454922830811,-0.3897517727194438,-1.4728928886526964,8.590680122092635,-0.9734808137313928,0.2129979776228033,-0.8569957893641282
0.1,0.4245908510851088,1.160977769835134,2.6866192517110297,0.0865261158252051,0.0082028352398529,0.0411556813121042,-0.0054383359732266,-0.0009052611712698,-0.1178344900975465,0.4182627679953583,1.154077364751583,2.6878645624381123,-0.1951088096872386,-0.2068497524820198,-0.17925429894254,1.825824610983396,-0.9772245633592412,-0.5501034588868748,-1.440851778414666,8.637672070060944,-0.9871464560110186,0.1939928211158755,-0.8542182132616637
0.12,0.4242442992505264,1.1608325819366474,2.6841121471470437,0.0988025710161984,-0.0117534985116992,0.0398673340513041,-0.0301373917216094,-0.0140828687378854,-0.1447040902684534,0.4143605918016135,1.1499403697019426,2.684279476459261,-0.2351088102832851,-0.2468497530780662,-0.2192542995385865,1.9401469721298463,-1.2349527874191426,-0.658880378330779,-1.3434800085453418,8.716989185454167,-1.0020076634128652,0.1739215662362834,-0.8511816893565806
0.14,0.4233271776680269,1.160382471875595,2.680915178826926,0.1111215656107931,-0.0289792947348893,0.0385506427560429,-0.0603664447845157,-0.0305207355386429,-0.1736565790065189,0.4104584156078688,1.1458033746523022,2.6806943904804106,-0.2751088108793316,-0.2868497536741127,-0.259254300134633,2.2484693227656334,-1.511452653145314,-0.8218933400378745,-1.4476244369032747,8.823993504031478,-1.014974126544232,0.1531981475618069,-0.8513453107121915
0.16,0.4217666319378705,1.159576691353946,2.677135161816854,0.1228386543743584,-0.041786433566215,0.0374525065303062,-0.0940997037290748,-0.0495035350671935,-0.2029264631693011,0.4055562393992228,1.1406663795877607,2.6761093044866584,-0.315108811475378,-0.3268497542701591,-0.2992543007306794,2.426419973883596,-1.6866629472279526,-0.9491399764275328,-1.463494208139113,8.823993504031478,-1.0253313669699018,0.1329384376087211,-0.8541359781596602
0.18,0.4195004965131513,1.1583653933579847,2.672771177326257,0.1339648420139227,-0.0496523136311285,0.0367630724582578,-0.1306913277591897,-0.0709199425482928,-0.2320514554760399,0.3996540631756757,1.134529384508318,2.6705242184780054,-0.3551088120714244,-0.3668497548662056,-0.3392543013267258,2.571903300780064,-1.8295812015057449,-1.070820374054961,-1.4562496153369366,8.86987925640642,-1.0320536496793948,0.1165016741267959,-0.8570790382480237
0.2,0.4166501601050786,1.156796125217199,2.6680880056154286,0.1439957209282946,-0.0519801255679397,0.0366815239200207,-0.166984473896543,-0.093391490418236,-0.2594265917203875,0.4129659301251919,1.1548193962305702,2.6611686045524547,-0.2306913292493058,-0.1709199440384089,-0.332051456966156,2.5355280537863463,-1.8146573068676648,-1.1235773934971625,-1.3687568122173837,8.936300931657115,-1.0363649066227738,0.098924513153725,-0.8641028462145492
0.22,0.4128831584743974,1.154494257402917,2.662707726260465,0.1493197144195573,-0.048203369592991,0.0371090388720002,-0.207254095017301,-0.1336104218215217,-0.2759969164838701,0.4129659301251919,1.1548193962305702,2.6611686045524547,-0.2306913292493058,-0.1709199440384089,-0.332051456966156,2.963857491175513,-2.013481056037904,-2.010946570164282,-0.8285162381741262,8.989770867351126,-1.0411506847212404,0.0859028526697435,-0.8699929587509888
0.24,0.408359140876634,1.1514551935937782,2.6570340478843506,0.1485374885648059,-0.0387647590525446,0.0379522810644294,-0.2424166093363324,-0.1677321959866369,-0.290489830960168,0.4129659301251919,1.1548193962305702,2.6611686045524547,-0.2306913292493058,-0.1709199440384089,-0.332051456966156,2.5547712497543187,-1.7581257159515682,-1.706088708255761,-0.7246457238148984,9.905030487330803,-1.0402675689186156,0.0839105168954853,-0.87455882830998
0.26,0.4031902394763694,1.1477699989626884,2.65105560646804,0.1442427083905553,-0.0262233875724997,0.0389722198830567,-0.2721621558063703,-0.1980432653691472,-0.3063953958856396,0.4106590168326988,1.153110196790186,2.657848089982793,-0.250691329547329,-0.1909199443364321,-0.3520514572641792,2.267457528549833,-1.487277323501894,-1.5155534691255148,-0.7952782462735786,9.788988789359337,-1.0346936151000634,0.0841336883020558,-0.8845671949249809
0.28,0.3977776926060565,1.1437569590310686,2.64506788194813,0.1389192347523105,-0.0131628341080515,0.039949363054666,-0.2957290245921616,-0.222558585086399,-0.3230260166947274,0.4060451902477127,1.149691797909418,2.65120706084347,-0.2906913301433754,-0.2309199449324786,-0.3920514578602256,1.8927333103883424,-1.1783434392895669,-1.2257659858625911,-0.8315310404543891,9.624545343872342,-1.0264812986172125,0.0860227164605317,-0.8967791563927617
0.3,0.3916428026667739,1.1390635023948064,2.638404245043215,0.1332670766662108,0.000440844232947,0.0408688012024869,-0.3161767619384159,-0.2453698379025904,-0.3425754573183369,0.4014313636627266,1.1462733990286498,2.644566031704147,-0.3306913307394219,-0.270919945528525,-0.4320514584562721,1.8170331906170805,-1.0223868673127106,-1.1405626408095713,-0.9774720311804764,9.471538535078253,-1.0169244775302966,0.0879979836194438,-0.9101312952266278
0.32,0.3851397620173992,1.1339358367036705,2.631323994133114,0.1280677235127906,0.0129210241023065,0.0415888222922392,-0.3329384482671542,-0.2662541224744654,-0.3644971152552893,0.3948175370479381,1.1408550001180793,2.6359250025350214,-0.3706913313354683,-0.3109199461245714,-0.4720514590523185,1.73036597094864,-0.8380843164369156,-1.044214228593747,-1.0960828968476166,9.192143924839913,-1.0068769747797448,0.0890273095837862,-0.9240852991572908
0.34,0.3786798060150781,1.128691584623666,2.6241773750076094,0.1236891482699956,0.0232167305206301,0.0420497776230569,-0.3461588786172653,-0.2847831133702985,-0.3867243166510041,0.3882037104331497,1.1354366012075088,2.627283973365896,-0.4106913319315148,-0.350919946720618,-0.5120514596483651,1.590716634213708,-0.6610215175055584,-0.9264495447916576,-1.111360069785741,9.192143924839913,-0.9966270727916028,0.0896543819453437,-0.9380763917993512
0.36,0.3716261644866763,1.122794327939889,2.6161838267302504,0.119483392925878,0.0322833609043106,0.0422929128894973,-0.3584247561853837,-0.3038744571547777,-0.4115390254265642,0.3805898838034601,1.1290182022820372,2.6176429441818696,-0.4506913325275613,-0.3909199473166644,-0.5520514602444114,1.6812948370445766,-0.6132938784059183,-0.9545671892239592,-1.240735438778004,9.116781300075672,-0.9870231343093232,0.0896815290311284,-0.9514033384224032
0.38,0.3643406593590645,1.1165214466959397,2.6076819125744803,0.115438469437669,0.0396960664822702,0.0423076603721035,-0.3694604167251245,-0.3223367531449505,-0.4374639649352291,0.3719760571588693,1.1215998033416643,2.6070019149829418,-0.4906913331236077,-0.4309199479127108,-0.5920514608404579,1.6842985671378732,-0.5517830269870377,-0.9231147995086396,-1.2962469754332462,9.051681112368897,-0.978503034267294,0.0894732309463801,-0.963552430511506
0.4,0.3568442689416011,1.1098870636757174,2.5986508837616844,0.1114480093121864,0.045661700713448,0.0421251729887482,-0.3796212348308261,-0.3400392023149041,-0.4643532414173939,0.3458676385228083,1.100404609038692,2.585808714327719,-0.436948431423153,-0.4223367546350666,-0.5374639664253452,1.6879366997359877,-0.5080409052850843,-0.885122458497678,-1.3444638241082412,9.00566565500776,-0.9713428997276022,0.0891942501402335,-0.9740832592767122
0.42,0.3495142544863472,1.1032616046393138,2.589752021310684,0.1083166574824997,0.0513148680993049,0.0419689303256877,-0.3912179293596043,-0.3568070109749082,-0.4699808358611967,0.3458676385228083,1.100404609038692,2.585808714327719,-0.436948431423153,-0.4223367546350666,-0.5374639664253452,1.0574882392682028,-0.5798347264389103,-0.8383904330002079,-0.281379722190142,8.966603190879141,-0.9683749603616548,0.088512947269108,-0.9806978633387902
0.44,0.3415824706548509,1.0959510254659306,2.58027553475984,0.1062427768029976,0.0581894142607811,0.0419664082463879,-0.4010651204717397,-0.373557550357373,-0.4777455878258371,0.3458676385228083,1.100404609038692,2.585808714327719,-0.436948431423153,-0.4223367546350666,-0.5374639664253452,1.0462302751722583,-0.4923595556067667,-0.8375269691232395,-0.3882375982320191,9.962589348941036,-0.962846207070278,0.0892998390061527,-0.9867173543425009
0.46,0.3334782428450354,1.0883042367505238,2.570588740808628,0.105040552984991,0.065149307509641,0.0420145096016406,-0.4086905489698121,-0.3903330580179115,-0.4905434787019732,0.3414981542085767,1.0961812414923413,2.580434074663465,-0.4504460343627587,-0.4423367549330899,-0.5574639667233684,1.1217740725358736,-0.3812714249036203,-0.8387753830269268,-0.6398945438068016,9.962589348941036,-0.9559788153166562,0.0885831458924028,-0.994754218336382
0.48,0.325656035122558,1.0807325329178783,2.5611125064204643,0.104396871577753,0.0713444796774718,0.0420369143148792,-0.4142277481810246,-0.4058664897505064,-0.5063251637993673,0.3327591855801137,1.08773450639964,2.5696847953349584,-0.4774412402419702,-0.4823367555291363,-0.5974639673194149,1.1412818024146687,-0.276859960560627,-0.776671586629743,-0.7890842548697069,9.509803055351767,-0.9485540958607168,0.0869440793298001,-1.003765818548759
0.5,0.3173234044911613,1.0724495390130986,2.550782389359828,0.1042587012399755,0.0770919329700371,0.0420052574183654,-0.4186638330386448,-0.4216311435030093,-0.5260114324905668,0.3240202169516506,1.0792877713069386,2.558935516006452,-0.5044364461211817,-0.5223367561251828,-0.6374639679154613,1.2803830791821749,-0.2218042428810102,-0.7882326876251428,-0.9843134345599748,9.509803055351767,-0.941067539272917,0.0843858520042787,-1.0131788937596022
0.52,0.3089138524264152,1.06385390252213,2.5400314366429204,0.1047260182004897,0.0818564187624737,0.0419034222470613,-0.4220344059558577,-0.4371737247136754,-0.5482090991352923,0.313931488029227,1.068841036184435,2.5461862366481425,-0.5314316520003931,-0.5623367567212293,-0.6774639685115078,1.365347022693092,-0.1685286458606438,-0.7771290605333048,-1.1098833322362722,9.347759289160422,-0.9351453038280274,0.0816725408526869,-1.020673816254794
0.54,0.300446450610206,1.054947355154103,2.5288233852484074,0.1057942132896939,0.0855463952542362,0.0417223584353363,-0.4245657968680897,-0.4527683749942848,-0.5714989936980961,0.3038427591068033,1.0583943010619314,2.533436957289833,-0.5584268578796046,-0.6023367573172758,-0.7174639691075543,1.407142713152758,-0.1265695456116017,-0.7797325140304706,-1.1644947281401918,9.229310630119471,-0.9303401951919298,0.0783844520354368,-1.0270723378151243
0.56,0.2923583445658022,1.046184065054398,2.517738197987194,0.1070014366961712,0.0881660133498374,0.0414619830245875,-0.426708770387619,-0.4688261395014957,-0.5942010606272013,0.2930791500373994,1.0469475659245266,2.519687677916622,-0.5854220637588159,-0.6423367579133221,-0.7574639697036006,1.3944783785774708,-0.1071486759764622,-0.8028882253605457,-1.135103346455263,9.189940734350785,-0.9262846642184336,0.0746586212406908,-1.0329596535930337
0.58,0.2838019141326617,1.0366215084414196,2.5055964601173955,0.107966886348647,0.0902050139522867,0.041079975911519,-0.4288312925244068,-0.4865358380064675,-0.618809326685112,0.2816406608210152,1.0345008307722203,2.504938398528511,-0.6124172696380273,-0.6823367585093686,-0.7974639702996471,1.519626006403446,-0.1061261068393909,-0.8854849252485919,-1.2304133028955333,9.173461676881743,-0.9229101932564991,0.0711432683455859,-1.0382416609881722
0.6,0.2752038617944807,1.026694587582808,2.4929568995213294,0.1081572381372133,0.0916871751204574,0.0405729818085142,-0.4308783885286315,-0.5051732291435667,-0.6439263759802961,0.2623603495064414,1.0122947165410965,2.47465599378314,-0.4370995249817466,-0.5865358394965836,-0.7188093281752281,1.5671703128125876,-0.1023548002112351,-0.9318695568549556,-1.255852464759205,9.130910249747105,-0.9202666711139348,0.0684022176064744,-1.042772585736922
0.62,0.2665019604047332,1.016348951247248,2.4800294837492376,0.1067223733040013,0.0954813994836475,0.0401903667387328,-0.4387061048020174,-0.5283128172650513,-0.6463553136265004,0.2623603495064414,1.0122947165410965,2.47465599378314,-0.4370995249817466,-0.5865358394965836,-0.7188093281752281,1.2274092823684897,-0.3913858136692955,-1.1569794060742322,-0.1214468823102166,9.130910249747105,-0.9172894677688468,0.0654834885542937,-1.0494025518538337
0.64,0.2581234425688937,1.00610981638282,2.467704995599924,0.1037676761049797,0.1028410786982526,0.0400968786569199,-0.4423470529169219,-0.5479120756945566,-0.6509252059452378,0.2623603495064414,1.0122947165410965,2.47465599378314,-0.4370995249817466,-0.5865358394965836,-0.7188093281752281,1.0225841651996368,-0.1820474057452253,-0.9799629214752636,-0.2284946159368694,10.582305576552244,-0.9116090217180796,0.0683697664935899,-1.053679475479415
0.66,0.2492685084781854,0.9949616902102182,2.4545899170232484,0.1001310585018146,0.1125058342206059,0.0401259388166478,-0.4425501404013348,-0.5656744378355824,-0.660568694963924,0.2579893542566239,1.0064293581461303,2.467467900501388,-0.4387531714732145,-0.6065358397946068,-0.7388093284732513,1.0106181694992324,-0.0101543742206416,-0.8881181070512889,-0.4821744509343084,10.234323642411256,-0.9018339841087069,0.0711378943423715,-1.062113218299863
0.68,0.2404408412734296,0.9834791328597572,2.441230549990206,0.0965224409093844,0.1229692802588629,0.0401949447681794,-0.4398492650442351,-0.581605260815538,-0.67488628328648,0.249247363756989,0.9946986413561988,2.453091713937883,-0.4420604644561504,-0.6465358403906533,-0.7788093290692978,1.0794433564197143,0.1350437678549837,-0.7965411489977814,-0.7158794161278015,9.93331069825308,-0.8902994894616622,0.0732483244552757,-1.0724317377723105
0.7000000000000001,0.2316936087368152,0.9716932953248604,2.427546697651538,0.0931630172050275,0.1335723596285707,0.0402526806807198,-0.4347020288391158,-0.5961575089295601,-0.6928125648270091,0.2405053732573541,0.982967924566267,2.4387155273743786,-0.4453677574390863,-0.6865358409866997,-0.8188093296653443,1.1828076086093482,0.2573618102559655,-0.7276124057011057,-0.8963140770264555,9.696550932047105,-0.8769159829928318,0.0748488998696747,-1.0845557679582043
0.72,0.2234996174348461,0.9602379947140705,2.4141869706894017,0.090306412451053,0.1434487243579973,0.040276591830817,-0.4278433522857878,-0.6089577800207384,-0.7126123372966809,0.2315980181085724,0.969237207746533,2.422339340781072,-0.4486750504220222,-0.7265358415827462,-0.8588093302613907,1.227720829343544,0.3429338276664001,-0.6400135545589158,-0.9899886234835896,9.376198339691657,-0.8628089347032786,0.0758064357002747,-1.0973623198601388
0.74,0.2150361726742606,0.9479265247099904,2.399701674331153,0.0877489807356552,0.1534540495355165,0.0402648550262823,-0.4186207819200563,-0.6215545238231549,-0.7349741971278039,0.2226906629597906,0.9555064909267992,2.405963154187765,-0.4519823434049582,-0.7665358421787927,-0.8988093308574372,1.3636225042890124,0.4611285182865715,-0.6298371901208244,-1.1180929915561466,9.376198339691657,-0.8486253221546086,0.0761375854690222,-1.1101824793468116
0.76,0.2067778192541617,0.9353597925778118,2.3847570791209325,0.0853888164906166,0.1629641991441635,0.0401944455957463,-0.4074575438175167,-0.6343617542404467,-0.7583940419810902,0.2137006254864355,0.9407757740921638,2.388586967579557,-0.455289636387894,-0.806535842774839,-0.9388093314534836,1.4466618202327015,0.5581619051269804,-0.6403615208645907,-1.170992242664315,9.313684526317047,-0.8362954471977954,0.0766769491792294,-1.120801493927847
0.78,0.1987615567547976,0.9225398617541172,2.369335265283644,0.0829303421737334,0.1719401725892058,0.0400441860601994,-0.394526920778244,-0.6468301520846018,-0.7826469150023603,0.204627905688507,0.9250450572426276,2.370210780956448,-0.4585969293708299,-0.8465358433708855,-0.97880933204953,1.509026015986599,0.6465311519636391,-0.623419892207755,-1.2126436510635052,9.284391117559608,-0.8231473246314559,0.0771976019785259,-1.1320672797884597
0.8,0.1914046954275173,0.910135178217291,2.3542272886586053,0.0804499468019298,0.1798491416512243,0.0398153182954689,-0.3804018174019775,-0.6581586864143003,-0.8064786069652832,0.1790352107158854,0.8901983541498872,2.330202919533526,-0.3654307253039769,-0.7468301535747179,-0.8826469164924764,1.4964990621990166,0.7062551688133217,-0.5664267164849246,-1.1915845981461448,9.259559627594172,-0.8105045115026154,0.0779128271977803,-1.1427287022805577
0.8200000000000001,0.1840040297013668,0.8968401769684166,2.3380436130987245,0.0778660424546281,0.1874914774823603,0.0394965169317964,-0.3600182643612932,-0.6707769197672191,-0.8095615335385119,0.1790352107158854,0.8901983541498872,2.330202919533526,-0.3654307253039769,-0.7468301535747179,-0.8826469164924764,1.2085254277083102,1.0191776520342144,-0.6309116676459392,-0.1541463286614364,9.234111239206868,-0.7970524382081119,0.0754659041229034,-1.1573311464321967
0.84,0.1770251287610109,0.8833102291252595,2.3217949907927697,0.0757940114469954,0.1945761162458043,0.0391482639777104,-0.3387371602753868,-0.6817796677601244,-0.8153317366469575,0.1790352107158854,0.8901983541498872,2.330202919533526,-0.3654307253039769,-0.7468301535747179,-0.8826469164924764,1.2321131222652422,1.0640552042953222,-0.5501373996452674,-0.288510155422278,10.319319627064033,-0.7861321891575671,0.0770733690558156,-1.164792133476118
0.86,0.1704778684440578,0.8695635043078958,2.3053844313111957,0.0742962945806636,0.2011979118988489,0.0387888506802802,-0.3168868207387447,-0.6923903297134467,-0.8254706025998478,0.1753809034628456,0.8827300526141401,2.3213764503686014,-0.3596114862091236,-0.7668301538727411,-0.9026469167904996,1.31607378950128,1.092516976832103,-0.5305330976661138,-0.5069432976445187,10.094514976009124,-0.7746347517456303,0.077726984657978,-1.1730493838784275
0.88,0.1646691333751463,0.8563134384041452,2.289574374806404,0.0733827288106736,0.2071095274353386,0.0384436923285789,-0.2955154149359158,-0.701866026344389,-0.8382701286654552,0.1680722889567661,0.8677934495426457,2.303723512038752,-0.3479730080194168,-0.8068301544687876,-0.942646917386546,1.3326230526062164,1.0685702901414462,-0.4737848315471138,-0.6399763032803707,10.094514976009124,-0.7631473579602455,0.0774928210694423,-1.1815451893060285
0.9,0.1590008430251455,0.8421786376181258,2.2726425405731265,0.0731352971773454,0.2129648938503093,0.038095521921629,-0.2723154262271691,-0.711158311187273,-0.8543868008724831,0.1607636744506865,0.8528568464711513,2.286070573708902,-0.3363345298297099,-0.8468301550648341,-0.9826469179825924,1.486886980166996,1.1599994354373366,-0.4646142421442012,-0.8058336103513919,9.927760333845072,-0.751661643380398,0.0762440114478344,-1.1902038264297503
0.92,0.1538062060168091,0.8278616951756177,2.255365935381462,0.0738103530458501,0.2184235567382698,0.0377790665092142,-0.2481931026195113,-0.7201425722961233,-0.8725756569721409,0.1540369838540923,0.8359202433698546,2.2664176353492502,-0.3246960516400031,-0.8868301556608805,-1.0226469185786389,1.5759425196676915,1.2061161803828866,-0.4492130554425155,-0.9094428049828908,9.793530399948397,-0.740312163301539,0.0737704554748031,-1.198926143842742
0.94,0.1491160515131593,0.8133661196931239,2.2377163144313568,0.0755386039904642,0.2230943650990915,0.0374776424348878,-0.222025513903725,-0.729111870024152,-0.891506633417788,0.1473102932574981,0.818983640268558,2.2467646969895987,-0.3130575734502963,-0.926830156256927,-1.0626469191746857,1.6759869257531606,1.308379435789314,-0.448464886401434,-0.946548822282356,9.702807815217966,-0.7304072931605464,0.0701716282969234,-1.2067476240183066
0.96,0.1451633148477416,0.7994139881375348,2.220595715963512,0.0778193584972052,0.226266266793095,0.0371400918616662,-0.1954567139119572,-0.7392252260472024,-0.9097361734525634,0.1408745646156466,0.8010470371523601,2.2261117586150454,-0.3014190952605896,-0.9668301568529734,-1.1026469197707318,1.688562430686983,1.328439999588393,-0.5056678011525206,-0.9114770017387696,9.694712379863631,-0.7208832357750387,0.0652529862979398,-1.2147535551097877
0.98,0.1415577681926457,0.7845023029042613,2.20219661278326,0.0800781735792255,0.2279575461514301,0.0366420460788725,-0.1665918012768149,-0.7513861772994705,-0.9292172219796044,0.1347297979285378,0.7821104340212611,2.2044588202255917,-0.2897806170708827,-1.0068301574490195,-1.1426469203667782,1.8443041834980467,1.4432456317571118,-0.6080475626134063,-0.9740524263520456,9.716092228082744,-0.7130188344649238,0.0604444448268438,-1.221703752439833
1.0,0.1385390741663125,0.7693366844839895,2.1834073683878907,0.0817541922867061,0.227707734995249,0.0359381145037299,-0.1367547640849363,-0.7644634620994001,-0.9487183659327998,0.133228178128805,0.7469329940392877,2.15573575168428,-0.1620414411336303,-0.8213180271367737,-0.9496831361396176,1.8983932558951455,1.4918518595939316,-0.6538642399964767,-0.9750571976597732,9.716092228082744,-0.7083347570339724,0.0565028396216012,-1.2264927462645872
1.02,0.1362887142497402,0.7537144988737584,2.1646147526361523,0.0774408789468864,0.2229045146950191,0.0344397319772078,-0.0897425998897648,-0.7951489221015082,-0.927154242890416,0.133228178128805,0.7469329940392877,2.15573575168428,-0.1620414411336303,-0.8213180271367737,-0.9496831361396176,3.00697208186317,2.350608209758573,-1.5342730001054072,1.0782061521191932,12.768839064890926,-0.7105832957438346,0.0534748819441575,-1.2324647926279957
1.04,0.1350060801570921,0.7384055588347647,2.1472266554107597,0.0669499317867292,0.2124001779031691,0.0321897831347081,-0.0486887715129497,-0.8134445318821887,-0.9042194161226818,0.133228178128805,0.7469329940392877,2.15573575168428,-0.1620414411336303,-0.8213180271367737,-0.9496831361396176,2.522970689735564,2.052691418840757,-0.9147804890340228,1.1467413383867089,12.768839064890926,-0.7165699949323856,0.0644038258552373,-1.2303051226417423
1.06,0.1344279777963239,0.7220058010329149,2.1293583330489043,0.0543017784063555,0.1968203287508961,0.0296070580137694,-0.0122455361551147,-0.8250103717941881,-0.8838810944768384,0.1316077637174686,0.73871981376792,2.1462389203228835,-0.1611313691049933,-0.8353043971042343,-0.9537763189716202,2.1653668185704325,1.8221617678917492,-0.5782919955999721,1.0169160822921686,12.43131885224193,-0.7295844528859597,0.0786822081542374,-1.2221369208323731
1.08,0.1345020894346071,0.7054290177556936,2.1118517180711245,0.0418163677825644,0.1779514454614598,0.0271309133545874,0.0169082662180667,-0.8317828901456601,-0.8678767931162292,0.1283669348947961,0.7222934532251846,2.127245257600091,-0.1593112250477195,-0.8632771370391557,-0.9619626846356254,1.697018606024063,1.4576901186590732,-0.3386259175735984,0.8002150680304576,12.027911626702917,-0.7473589889277569,0.0927656264658016,-1.2106289253837184
1.1,0.1350798800250614,0.6887572472909995,2.0946191098731566,0.0302607207766498,0.1570368283948157,0.0249340030927707,0.0385421756596366,-0.8349676198378483,-0.8560437506914693,0.1251261060721235,0.7058670926824491,2.108251594877298,-0.1574910809904456,-0.8912498769740769,-0.9701490502996308,1.2431707786588722,1.0816954720784977,-0.1592364846094096,0.5916521212379955,11.652423836743765,-0.767228112363807,0.105088874105932,-1.1973422157135571
1.12,0.1359583537364559,0.6728881998284655,2.0784356000608453,0.0204536169457549,0.1363988574337736,0.0231760588462467,0.052204796638392,-0.8353469013176182,-0.8480003109700563,0.1219762844523145,0.6880420951429675,2.0888486138713063,-0.1556709369331717,-0.919222616908998,-0.978335415963636,0.7929501702535064,0.683131048937767,-0.0189640739884977,0.4021719860706485,11.3368995989822,-0.7898656673177283,0.1165183484858851,-1.1816837287240254
1.14,0.137093560583884,0.6561996408648939,2.0615545451584407,0.0115230111651044,0.1149293963018973,0.0216834429178023,0.0599534649891532,-0.8335392545760921,-0.8405416631848117,0.1188264628325056,0.670217097603486,2.069445632865313,-0.1538507928758979,-0.9471953568439194,-0.9865217816276411,0.5453000887964654,0.3874334175380609,0.0903823370763057,0.3729323892622316,11.081165624576895,-0.8130531023295228,0.1260036994237532,-1.165214643833975
1.16,0.1383161327939664,0.6395613246808711,2.044810561025096,0.0039172733423351,0.0946679045321518,0.0205170407216095,0.0614641536446481,-0.8304573578314679,-0.8341958507924992,0.1157221448141286,0.6516927815656315,2.049837992717721,-0.152030648818624,-0.9751680967788406,-0.9947081472916466,0.3607270528973151,0.0755344327747466,0.1540948372312112,0.3172906196156233,10.992576195490985,-0.8355369171537731,0.1340068043009485,-1.1483609614710264
1.18,0.1395096458394346,0.622998295312461,2.028181842110748,-0.0025941848288407,0.0763362807236645,0.0196130647058384,0.0575004463947242,-0.8260854586355576,-0.8289748517132969,0.1126633303971833,0.6324691470294039,2.030025693428528,-0.1502105047613502,-1.003140836713762,-1.002894512955652,0.3939648116498873,-0.1981853624961952,0.218594959795515,0.2610499539601185,10.839952621945486,-0.855384927057794,0.1404970590604356,-1.132647597484533
1.2,0.1405244396601488,0.6073559321219641,2.0124699886177915,-0.0078377733965089,0.061191942999667,0.018944820391402,0.0493716993435309,-0.820810312717322,-0.8251522277898622,0.1423846681591708,0.5816940223806831,1.986733099525083,0.0070431103861755,-0.8439805667244086,-0.7908163902617664,0.5208554183767747,-0.406437352559668,0.2637572959117817,0.1911311961717343,10.839952621945486,-0.8741601110969425,0.1462330215908766,-1.116984016281451
1.22,0.1414350195179252,0.5908924875389283,1.99628188788786,-0.01621790624045,0.0469864237564695,0.0181590088722254,0.0417807488559897,-0.8237499466105641,-0.792390875644161,0.1423846681591708,0.5816940223806831,1.986733099525083,0.0070431103861755,-0.8439805667244086,-0.7908163902617664,1.687876010808584,-0.3795475243770583,-0.1469816946621072,1.6380676072850595,10.769023951565032,-0.8949088253705886,0.1507403585952501,-1.1036274121036374
1.24,0.1421479445932149,0.5744784715656873,1.9807699862638608,-0.0273620231860638,0.0340518646336658,0.017347887553442,0.0296078852460865,-0.8169335931860842,-0.7605910628630659,0.1423846681591708,0.5816940223806831,1.986733099525083,0.0070431103861755,-0.8439805667244086,-0.7908163902617664,1.7362814974719862,-0.6086431804951594,0.3408176712239974,1.5899906390547558,12.486670707389749,-0.9107239786086406,0.1628930007057016,-1.0859644721280022
1.26,0.142560831857901,0.5590707393333562,1.9665780873848795,-0.0375716705445152,0.0234491777397869,0.0167306315539498,0.0143522266311645,-0.805289479672135,-0.7348639873414543,0.1424550992630326,0.573254216713439,1.9788249356224648,-0.0030483568155342,-0.8475595883421788,-0.7831846979714603,1.6048387101165984,-0.762782930746102,0.5822056756974558,1.2863537760805788,12.178074730419212,-0.9254987116949298,0.1751026403192046,-1.068311796717356
1.28,0.1426517574561916,0.5431263558076688,1.9521327482699735,-0.0469212060673789,0.0143373811412715,0.016248733180545,-0.0045830054665535,-0.7898495800172636,-0.7111514475736087,0.1425959614707561,0.5563746053789509,1.96300860781723,-0.0232312912189537,-0.8547176315777192,-0.7679213133908481,1.7023645747816567,-0.9467616048859044,0.7719949827435735,1.18562698839228,11.962811379265986,-0.938117840196426,0.185490791507087,-1.0524821398514574
1.3,0.1423341906195443,0.5275163023267765,1.9381298193002643,-0.0544655991034736,0.0076494182735092,0.0158892641023113,-0.0263992022432661,-0.7721516719783685,-0.6904274032121664,0.1427368236784796,0.5394949940444627,1.9471922800119943,-0.0434142256223732,-0.8618756748132596,-0.752657928810236,1.7454572505853994,-1.0908098388356289,0.8848954019447519,1.036202218072113,11.800385247203849,-0.947740259065798,0.1938295968385148,-1.039622514613786
1.32,0.1415484648711548,0.5122788112896324,1.9245153565282045,-0.0600325470470995,0.0042165051625237,0.0155606111634277,-0.051018679353954,-0.7529469387585533,-0.6720015115083307,0.1418685391660321,0.5222574805481974,1.93213912143579,-0.0635971600257926,-0.8690337180487999,-0.7373945442296238,1.8127699221974105,-1.2309738555343934,0.9602366609907598,0.9212945851917896,11.800385247203849,-0.954185212640814,0.1997403158440837,-1.0300442659579572
1.34,0.1403418531168734,0.4981687858645518,1.911921946007965,-0.0635683122833444,0.0042937006126115,0.0152068970203785,-0.0743563861171505,-0.7337325236527589,-0.6544515549319618,0.1410002546535847,0.5050199670519323,1.917085962859585,-0.0837800944292122,-0.8761917612843403,-0.7221311596490115,1.7477437459873533,-1.166885338159826,0.9607207552897234,0.877497828818441,11.692244840709463,-0.9597508760317616,0.2042547972740858,-1.0201715773014923
1.36,0.1386080255238044,0.483712071297591,1.8990317579840783,-0.065667547571489,0.0071703769631861,0.014791569435011,-0.0974625500903461,-0.7132194442369879,-0.6354100050529318,0.1396273967810517,0.4876035024747785,1.902414388897896,-0.1039630288326317,-0.8833498045198808,-0.7068677750683994,1.8147051154867544,-1.1553081986597789,1.025653970788548,0.9520774939515032,11.683203486496495,-0.962056291148015,0.2073407183799987,-1.0134686326583275
1.38,0.1364297313631814,0.4696761257388698,1.8865253272989988,-0.065988486215531,0.0122833064682315,0.0143719229660287,-0.1187938282935188,-0.6917403746874089,-0.6161140047088985,0.1377499655484333,0.4700080868167364,1.8881243995507215,-0.1241459632360511,-0.8905078477554211,-0.6916043904877872,1.7949300040487193,-1.0665639101586355,1.0739534774789503,0.9648000172016612,11.695379485475314,-0.9617079631459784,0.2088000464509082,-1.0099122689926654
1.4,0.1339864308336102,0.4567481116128675,1.875003522870812,-0.0642095196031023,0.0186459419976996,0.014042416728012,-0.1369841243514927,-0.67053703683248,-0.5976100511892659,0.1304900399485055,0.4350891070044994,1.8557196270635536,-0.08806351560338,-0.6997082956613059,-0.5715832516626244,1.6754586705763037,-0.9095148028986942,1.0601668927464447,0.9251976759816316,11.69060910580538,-0.9596839459769824,0.2085055874757085,-1.007947722941024
1.42,0.1310213781470949,0.4435125378644378,1.8632668420999705,-0.0616522725360778,0.0278701279005661,0.0136195441656437,-0.1583037846361037,-0.6542019660400977,-0.5768875341436476,0.1304900399485055,0.4350891070044994,1.8557196270635536,-0.08806351560338,-0.6997082956613059,-0.5715832516626244,1.6961612284429994,-1.0659830142305535,0.8167535396191139,1.036125852280917,11.683763720710886,-0.9535317584538804,0.207029319834054,-1.011523077509597
1.44,0.1276767062715003,0.4306133220603859,1.8519461030038784,-0.0595383188729974,0.0402868583271459,0.0130112792684013,-0.1743954932153816,-0.6366598699033388,-0.5562104577496246,0.1304900399485055,0.4350891070044994,1.8557196270635536,-0.08806351560338,-0.6997082956613059,-0.5715832516626244,1.5765545582661882,-0.8045854289638928,0.8771048068379472,1.033853819701147,11.792772210772457,-0.9466650051168604,0.2067414989860843,-1.013623742272111
1.46,0.1240671264657394,0.4180693799689314,1.8410407113177287,-0.0570128515989119,0.0540293590083261,0.0124022815074352,-0.1852180758093312,-0.6189335869582041,-0.5353299461425511,0.1296094047924717,0.4280920240478863,1.850003794546928,-0.0819174530653522,-0.7013018798560853,-0.5626771010533695,1.4725362185927418,-0.5411291296974804,0.8863141472567337,1.0440255803536749,11.71765188923473,-0.9375210951472664,0.2060171484011595,-1.0187725655773876
1.48,0.120480700362857,0.4064766844737658,1.831069873280472,-0.0541053062444632,0.0673591575960938,0.0118972745026815,-0.1913498360401232,-0.6025411321406622,-0.5152661156325499,0.1278481344804041,0.4140978581346602,1.838572129513675,-0.0696253279892967,-0.7044890482456441,-0.5448647998348598,1.331229087354176,-0.3065880115395977,0.8196227408770962,1.0031915255000634,11.706713664148085,-0.9265955896441428,0.2047509130513457,-1.0257259889464396
1.5,0.1166201830111391,0.3946008084142902,1.820989639267572,-0.050572993778021,0.081140516812798,0.0114752792841901,-0.193951351212277,-0.5861620578393573,-0.4938011685258838,0.1260868641683365,0.4001036922214341,1.8271404644804223,-0.0573332029132411,-0.7076762166352029,-0.5270524986163502,1.3562686961389565,-0.1300757586076908,0.818953715065246,1.0732473553333035,11.737434996169211,-0.9150318434925806,0.2029557870256085,-1.0335537049500048
1.52,0.1127453861210131,0.3830425285972156,1.8113403917802509,-0.0466469551731396,0.0943809667865608,0.0111767128915278,-0.193016545031546,-0.5707316119634372,-0.4722007248225844,0.1249402001100717,0.38595016788873,1.8165994145080957,-0.0450410778371856,-0.7108633850247617,-0.5092401973978405,1.3281111500027338,0.0467403090365484,0.7715222937960009,1.0800221851649665,11.752337798986446,-0.9036996802424764,0.2008570692883766,-1.041063607834216
1.54,0.1089236588490432,0.3717819593960587,1.8021250990737243,-0.0424123041847439,0.1069436188000517,0.0110013610220025,-0.1888528648722588,-0.5563682963025363,-0.4504280010670086,0.1237935360518069,0.371796643556026,1.8060583645357688,-0.0327489527611301,-0.7140505534143204,-0.4914278961793308,1.3206935384298506,0.2081840079643612,0.7181657830450494,1.0886361877787936,11.752337798986446,-0.8929822155727043,0.1985779457195159,-1.0482113282452152
1.56,0.1053984128269443,0.3613381524750401,1.7937739301262992,-0.0382615926513515,0.1182026928596839,0.0109363357822261,-0.1821527757315108,-0.5438789814252393,-0.4297542483768826,0.1229541751204434,0.357563440013583,1.7959626220939042,-0.0204568276850746,-0.7172377218038792,-0.4736155949608212,1.2532739434085538,0.3350044570373994,0.6244657438648493,1.0336876345062973,11.774000480549148,-0.881816446716747,0.1960404825931633,-1.0556450702078108
1.58,0.1018533904885232,0.3505884643795365,1.785408908315557,-0.0339068950173131,0.1293369473640404,0.0109582376764617,-0.1723962301224262,-0.5318951189400835,-0.407848912298601,0.1224221173159814,0.343250557261401,1.7863121871825027,-0.008164702609019,-0.720424890193438,-0.4558032937423115,1.3403795087471877,0.4878272804542297,0.5991931242577908,1.0952668039140827,11.78632609757642,-0.8709333771131832,0.1934897355128057,-1.0628108408241297
1.6,0.0985307010310217,0.3400667973460058,1.777481651057181,-0.0296619694036821,0.1397530414649738,0.0110576167442913,-0.1600808797766092,-0.5209948080788351,-0.3859988053917995,0.0932335789824019,0.3239937084325324,1.765016462700627,-0.1232523085385353,-0.5275321772204918,-0.3825447643249443,1.3673988105621524,0.6157675172908508,0.545015543062416,1.0925053453400724,11.826539460942511,-0.8602920574303123,0.1910406484078246,-1.0697072301417845
1.62,0.0954958791052912,0.3296535637886529,1.769906320990975,-0.0287043945759303,0.1485981956267876,0.011019624321995,-0.1439833401003801,-0.5198463787123635,-0.3731484661982754,0.0932335789824019,0.3239937084325324,1.765016462700627,-0.1232523085385353,-0.5275321772204918,-0.3825447643249443,1.0314805997038523,0.8048769838114561,0.0574214683235818,0.6425169596762065,11.826539460942511,-0.8518562634075275,0.1923199381842478,-1.0734191607367982
1.64,0.0929301566756799,0.3198222071560137,1.7629303097508071,-0.031909838195759,0.1546779296208678,0.0107715988782224,-0.1270034911750208,-0.5144190646443161,-0.3617959685581501,0.0932335789824019,0.3239937084325324,1.765016462700627,-0.1232523085385353,-0.5275321772204918,-0.3825447643249443,1.0567050323887688,0.848992446267964,0.2713657034023709,0.5676248820062624,11.211014101528235,-0.8437367735935609,0.1970725645683389,-1.0775528855939276
1.66,0.0905864974363451,0.3096441720454034,1.7558214231625608,-0.0366960810665026,0.158809135123275,0.010484210022785,-0.1083263017610326,-0.5034409804779965,-0.3496890210286463,0.0920010558970165,0.3187183866603275,1.7611910150573775,-0.1134235242217571,-0.5266595888765735,-0.377483934730213,1.2409007966503098,0.9338594706994108,0.5489042083159812,0.6053473764751904,11.26896850508274,-0.8376617539403528,0.2035214564081731,-1.079588889103329
1.68,0.0886220055611145,0.2997219556961362,1.7489562639770613,-0.0410523097408146,0.1608221157995969,0.0103138638318793,-0.0892389709197536,-0.4894994659969788,-0.3374297576174378,0.0895360097262458,0.3081677431159176,1.7535401197708786,-0.0937659555882007,-0.5249144121887369,-0.3673622755407503,1.3313353860450208,0.9543665420639468,0.6970757240508801,0.6129631705604266,11.26896850508274,-0.8339450918570842,0.2094041353145994,-1.0797874794470763
1.7,0.0870389145149856,0.2900961557120949,1.7423392130156503,-0.0443412926288633,0.1609837033126518,0.0103136656180618,-0.070179167101494,-0.4740729270712101,-0.3248699997800416,0.0870709635554751,0.2976170995715078,1.7458892244843798,-0.0741083869546444,-0.5231692355009002,-0.3572406163512877,1.3774993119352508,0.9529901909129808,0.7713269462884365,0.6279878918698079,11.291292517656077,-0.8321894162175903,0.2146651762406463,-1.078350618889448
1.72,0.08588639525904,0.2812452720586322,1.7362897179489687,-0.0463396597475254,0.1595563185278777,0.0104849761581666,-0.0522090726795751,-0.4586800227799293,-0.3125230769522167,0.0855887958163822,0.2871537148614898,1.738744412157354,-0.054450818321088,-0.5214240588130635,-0.347118957161825,1.3344589721769995,0.8985047210959475,0.7696452145640409,0.6173461413912451,11.3169161487549,-0.8322150493024775,0.2187560968373289,-1.0757331824376477
1.74,0.085036426651457,0.2722488679636273,1.7301778786252917,-0.0472303892179987,0.1564390682207051,0.0108485997696207,-0.0338634477165846,-0.4418904789829866,-0.299279167817527,0.0841066280772893,0.2766903301514717,1.7315995998303284,-0.0347932496875316,-0.519678882125227,-0.3369972979723623,1.4087688466885475,0.917281248149522,0.8394771898471348,0.6621954567344851,11.344501171724914,-0.8339232201171506,0.2216713359909877,-1.071982087565331
1.76,0.0845467251668802,0.2635986961989005,1.7243326342145897,-0.0464661246979494,0.1516248290654851,0.0114255219897664,-0.0162343532331997,-0.4242514885488378,-0.2858628543016765,0.0831158995540354,0.2662705748586497,1.724707828983039,-0.0151356810539753,-0.5179337054373903,-0.3268756387828997,1.4159064448222711,0.8814547241692456,0.8819495217074397,0.6708156757925243,11.355287341461008,-0.8374744138506733,0.2231561646501107,-1.0668327328436549
1.78,0.0843894105875371,0.2553034209262746,1.71875945263438,-0.0436891926486668,0.1453169233497213,0.0122143263782266,-0.0007441745446271,-0.4065749892590638,-0.2720629076336111,0.0826166102466203,0.2558944489830235,1.7180690996154866,0.004521887579581,-0.5161885287495537,-0.316753979593437,1.362757123432805,0.7745089344286302,0.8838249644886997,0.689997333403275,11.356973539419414,-0.8423154459611025,0.2229279127663798,-1.0607997955017925
1.8,0.0845011662407201,0.2477280450665925,1.7137257381514002,-0.039604829180696,0.1386279013506677,0.0130780335845248,0.0115010543821634,-0.3921687697544726,-0.2584395640190103,0.0843522018603058,0.2349746714633214,1.7051563072526996,-0.0042856587869323,-0.3799526491759415,-0.2645071574349488,1.1652041485566544,0.6122614463395302,0.72031097522956,0.6811671807300357,11.364632167903435,-0.8489495167938635,0.221118569372423,-1.0534627629136724
1.82,0.0849110800321113,0.2399325518371506,1.7086669348879509,-0.0377737527783044,0.1291561950507659,0.0138876138644439,0.0282207672866147,-0.3871568786134901,-0.2483828268493121,0.0843522018603058,0.2349746714633214,1.7051563072526996,-0.0042856587869323,-0.3799526491759415,-0.2645071574349488,1.0072311240682608,0.835985645222566,0.2505945570491247,0.5028368584849119,11.372337225378942,-0.8620625307409872,0.2226911406818152,-1.0381529916515244
1.84,0.085601417805011,0.232268371007012,1.703797040923055,-0.0398359670807478,0.1161917532750942,0.0145799177795725,0.0392435424353978,-0.3790974098458454,-0.2390309215074125,0.0843522018603058,0.2349746714633214,1.7051563072526996,-0.0042856587869323,-0.3799526491759415,-0.2645071574349488,0.8275184927255717,0.5511387574391539,0.402973438382237,0.4675952670949793,10.9947721046683,-0.8717072976640939,0.2260754437625248,-1.0283557327034123
1.86,0.0863999382992791,0.2251745569725181,1.6993407976914143,-0.0435217487419922,0.1026488418829173,0.0152285108160848,0.0438303094174968,-0.3676639208647919,-0.2304872259580493,0.0843093452724365,0.231175144971562,1.70251123567835,-0.0049939556353933,-0.3746281811593171,-0.2629960073952163,0.7495962834555584,0.2293383491049502,0.5716744490526754,0.4271847774681606,10.9947721046683,-0.8848526583245329,0.2315260506720884,-1.0143509291440562
1.88,0.0872769922418583,0.2179760030397474,1.6948212291938922,-0.0474108325951992,0.0887076464968095,0.0159778399794967,0.0432407106179532,-0.3528078217147681,-0.2219156103646785,0.0842236320966978,0.2235760919880431,1.6972210925296511,-0.0064105493323154,-0.3639792451260682,-0.2599737073157514,0.8580849354525985,-0.0294799399771793,0.7428049575011864,0.4285807796685387,10.956355821547731,-0.8990395766474479,0.2370824896509443,-0.9985520382282076
1.9,0.0880910868063331,0.2110918562668404,1.6904673633495702,-0.0505705889409748,0.0762692508720835,0.0167787698454359,0.0379640763643865,-0.3364908871308943,-0.2138988116608598,0.0841379189209592,0.2159770390045243,1.6919309493809522,-0.0078271430292374,-0.3533303090928193,-0.2569514072362865,0.94651239389387,-0.2638317126783366,0.8158467291936922,0.4008399351909372,10.924586962673857,-0.9117220283411284,0.241546665727124,-0.9840620098037258
1.92,0.0887584274014127,0.2045432049373274,1.686267908622741,-0.0527353504809121,0.0661714153735703,0.017581915235455,0.0290514042480362,-0.3194697939703562,-0.2064053573009812,0.0839813760603744,0.2089104328226679,1.6867919212362266,-0.0092437367261595,-0.3426813730595704,-0.2539291071568216,1.0311464431360688,-0.4456336058175124,0.8510546580269035,0.3746727179939291,10.86279471126727,-0.9235354450090624,0.2450766308017957,-0.970302298884664
1.94,0.0891997093378202,0.1986417825563215,1.6824119592403992,-0.0538302350353538,0.0591911197080426,0.0183034510834735,0.0178253160929677,-0.3027701431372133,-0.1998334296340078,0.0838248331997897,0.2018438266408116,1.681652893091501,-0.0106603304230816,-0.3320324370263215,-0.2509068070773567,1.058411104526723,-0.5613044077534293,0.8349825416571449,0.3285963833486671,10.86279471126727,-0.9323016979430592,0.2475324990879236,-0.9596532377812386
1.96,0.0894083152831993,0.1927781315905023,1.6784839135606202,-0.053716216123093,0.0552325830960449,0.0189844167121321,0.0035417523058339,-0.2846088045496135,-0.1933149159533693,0.0836328754967819,0.1950434438597864,1.6765894224487616,-0.0120769241200036,-0.3213835009930726,-0.2478845069978917,1.200359773525453,-0.7141781893566874,0.9080669293799888,0.325925684031926,10.837432336369602,-0.938642761502089,0.2491099748793458,-0.9508586786475672
1.98,0.089322902406251,0.1872838310519605,1.6746830450370471,-0.0518794036098171,0.0551539995496622,0.0195843068850283,-0.0108657939063777,-0.2659998733950204,-0.1870381404450204,0.083405502951351,0.1885092844795925,1.6716015093080092,-0.0134935178169257,-0.3107345649598237,-0.2448622069184268,1.2178542783884407,-0.7203773106105829,0.9304465577296585,0.3138387754174479,10.792176805073725,-0.94262016293612,0.2490369377214157,-0.9448580593457224
2.0,0.0889927794017405,0.1824013058988182,1.6711888569836162,-0.048486092261144,0.0578537317801244,0.0201329434547061,-0.0228060068648632,-0.2494767750549265,-0.1810284032766291,0.0887796127109321,0.1739838373822095,1.6653311380147964,-0.0090293285839651,-0.2611615501744098,-0.171296607776549,1.0626598763051422,-0.5970106479242793,0.8261549170046941,0.3004868584195644,10.792176805073725,-0.9433049528517564,0.2472887213201195,-0.9428643374750688
2.02,0.0884213760209877,0.1776289381020994,1.667689412468424,-0.0424165520378869,0.0628145115036597,0.0208012801565314,-0.0333253166143582,-0.229806147144317,-0.1688565269136322,0.0887796127109321,0.1739838373822095,1.6653311380147964,-0.0090293285839651,-0.2611615501744098,-0.171296607776549,1.27057472645212,-0.5259654874747484,0.9835313955304764,0.6085938181498426,10.76736257511402,-0.943799934037099,0.2435718990205824,-0.9410522858909672
2.04,0.08766935180324,0.1731860946450882,1.6644442179725178,-0.0345774352704227,0.069178869619949,0.0215713105743941,-0.0410395635799268,-0.215861212544962,-0.1563112680747035,0.0887796127109321,0.1739838373822095,1.6653311380147964,-0.0090293285839651,-0.2611615501744098,-0.171296607776549,1.0140935935131823,-0.3857123482784313,0.6972467299677487,0.6272629419464367,11.08572041406569,-0.9415543907984084,0.2391897336238798,-0.9418050810811434
2.06,0.086838405865379,0.1691881409295169,1.661587558234861,-0.0271367532314627,0.0757213656918625,0.0223295215376301,-0.0458396579247222,-0.2057789912288923,-0.1450099917354408,0.0886893194250925,0.1713722218804654,1.6636181719370309,-0.0086620355194826,-0.2601938855302876,-0.1681483012428548,0.7943722982354124,-0.2400047172397685,0.5041110658034836,0.5650638169631336,11.08572041406569,-0.9383530545423358,0.2345433510632013,-0.9436026124519408
2.08,0.0858904098977071,0.1651626594059413,1.6588071251854393,-0.0199232771520882,0.0824731450943154,0.0231335067640464,-0.04852149713464,-0.197351839289085,-0.1336597045490324,0.0885087328534132,0.1661489908769772,1.6601922397815,-0.0079274493905176,-0.2582585562420434,-0.1618516881754662,0.7194410514044874,-0.1340919604958884,0.4213575969903668,0.5675143593204202,11.031531797651953,-0.9347842478428432,0.2303807258916136,-0.9458324994366294
2.1,0.0849111987294063,0.1612876673536292,1.65624666002719,-0.0135606323850088,0.0885989800766132,0.0239290687886914,-0.0491459295851102,-0.1905626602172081,-0.1229911972109446,0.0883281462817339,0.160925759873489,1.6567663076259689,-0.0071928632615526,-0.2563232269537991,-0.1555550751080777,0.6330480178826159,-0.0312216225235133,0.3394589535938422,0.5334253669043887,10.99087480610524,-0.931242385024852,0.2269200363107793,-0.9479931191064912
2.12,0.0839377931792149,0.1575342069139937,1.653892080082502,-0.0081118268378073,0.0937545293662328,0.0247015811923238,-0.048142726754143,-0.1850273280933984,-0.1130075152280434,0.0881842890165028,0.155799295334413,1.6536552061238077,-0.0064582771325875,-0.2543878976655549,-0.1492584620406891,0.5729751817850556,0.050160141548362,0.2767666061904844,0.499184099145062,10.912227771309515,-0.9282792210000052,0.224316501374323,-0.9496080560080306
2.14,0.0830431674877049,0.1540617972557842,1.6518366637988011,-0.0037266751358904,0.0976105298805526,0.025404577735033,-0.0461014311904574,-0.1806696041956831,-0.1038560952983158,0.0880404317512718,0.150672830795337,1.6505441046216458,-0.0057236910036225,-0.2524525683773106,-0.1429618489733006,0.5169746896059282,0.1020647781842788,0.2178861948857691,0.4575709964863818,10.912227771309515,-0.9258898920661378,0.2222383943192905,-0.9505475412200616
2.16,0.0821503909922293,0.1504894376174482,1.6498582608243604,0.000152914164737,0.1005607851011676,0.0261054013414565,-0.0432977716508343,-0.1767534797395309,-0.0944778609559905,0.0879149391392648,0.1455947494884672,1.647590418446169,-0.0049891048746575,-0.2505172390890664,-0.1366652359059121,0.5271333250463333,0.1401829769811586,0.1958062228076082,0.4689117171162611,10.894838946441268,-0.9243774512932184,0.2208127392709565,-0.9505283852044634
2.18,0.0813177728139291,0.1469889283131923,1.6480639424201875,0.0033651929277484,0.1024480914725801,0.0267614496500214,-0.0401460036823176,-0.1734449783513102,-0.0854353299308457,0.087807811180482,0.1405650514138034,1.6447941475973769,-0.0042545187456925,-0.2485819098008221,-0.1303686228385236,0.5065747479492363,0.1575883984258324,0.165425069411032,0.4521265512572432,10.86126019960284,-0.9237928628978064,0.2199732913115328,-0.9494980002449316
2.2,0.0805861718147279,0.1437196794806501,1.646523418970561,0.0058565648302256,0.1033623920535721,0.0273404077032891,-0.0370970995464819,-0.170767802581542,-0.0771709081841294,0.0793104726298132,0.1383166793956268,1.6437921759236451,-0.0341128471495234,-0.1695376526737366,-0.0980870807487406,0.4603361634157892,0.152445206791784,0.133858788488414,0.413221087335814,10.86126019960284,-0.924003292341949,0.219626003421553,-0.9477395101848654
2.22,0.0798745806272424,0.1402998536728716,1.6450223037442575,0.0070031390478618,0.1035135571635114,0.0278379115465869,-0.0343267915907366,-0.1710207403629959,-0.0736287852227992,0.0793104726298132,0.1383166793956268,1.6437921759236451,-0.0341128471495234,-0.1695376526737366,-0.0980870807487406,0.2251955748018578,0.1385153977872671,-0.0126468890726982,0.1771061480665116,10.841226398677463,-0.9232891595968504,0.2201543725273688,-0.9470462142211178
2.24,0.0792105429926597,0.1368849893468088,1.6435731605413,0.0062192618224051,0.1030340017222716,0.0281941320236824,-0.0322876315178709,-0.1703073744025799,-0.0714708302201909,0.0793104726298132,0.1383166793956268,1.6437921759236451,-0.0341128471495234,-0.1695376526737366,-0.0980870807487406,0.1526747735345628,0.1019580036432835,0.0356682980208036,0.1078977501304145,10.510545950881353,-0.9234468801105186,0.2218350354778053,-0.9458453577698416
2.26,0.0785796731690592,0.1334947458404049,1.6421587756827956,0.004021762397424,0.1022462184532289,0.0284513132748921,-0.0309458009922997,-0.1686322660244452,-0.0700651279730277,0.078969344158318,0.1366213028688894,1.642811305116158,-0.0329062158429645,-0.1687561875382218,-0.1006174309123196,0.1282818775736781,0.0670915262785601,0.0837554189067335,0.0702851123581586,10.457892294625708,-0.9239244868869684,0.2244969716999805,-0.9442219398377296
2.28,0.0779987925703361,0.1303241276875238,1.640835381834159,0.0012236772325843,0.1014429138753481,0.0286502961141639,-0.030285203973366,-0.1650262075669286,-0.0693038163868894,0.0782870872153276,0.1332305498154147,1.6408495635011833,-0.0304929532298468,-0.1671932572671924,-0.1056781312394776,0.1872140576428457,0.0330298509466829,0.1803029228758301,0.0380655793069159,10.41637317367622,-0.9246700997080568,0.2281336012739898,-0.941871696626752
2.3000000000000003,0.0773954830923038,0.1270805823256149,1.6394528221736266,-0.00153903574979,0.100714608605121,0.0288779518591697,-0.030090439703483,-0.159549788585159,-0.0690144071437145,0.0776048302723371,0.1298397967619399,1.6388878218862084,-0.0280796906167291,-0.1656303269961629,-0.1107388315666355,0.2743759086305858,0.009738213494153,0.2738209490884769,0.0144704621587443,10.37939191571786,-0.9251658592386244,0.2316016056994196,-0.9398031337789876
2.32,0.0767917675002894,0.1239578225754689,1.6380703995352996,-0.0037084187835011,0.1002325878468712,0.0291506052692365,-0.0302608187689563,-0.1531603246336685,-0.0692387948446597,0.0770432364600025,0.1265271902220167,1.6366730452548757,-0.0256664280036114,-0.1640673967251334,-0.1157995318937935,0.3197836317484232,-0.0085189532736645,0.3194731975745282,-0.0112193850472619,10.31966597531391,-0.9253446148364746,0.2343445633978945,-0.9383284662782804
2.34,0.0762129487464569,0.1211149216710547,1.6367473998967237,-0.0051178085977544,0.100058259685654,0.0294558286883573,-0.0306210561082701,-0.1465437435315559,-0.0700117719373196,0.0764816426476679,0.1232145836820934,1.634458268623543,-0.0232531653904937,-0.162504466454104,-0.1208602322209515,0.3335656232559286,-0.0180118669656916,0.3308290551056303,-0.0386488546329923,10.31966597531391,-0.9251693520993484,0.2366073242894738,-0.937322496610161
2.36,0.0755960819803985,0.1182624929177439,1.6353340187091092,-0.0058016576302318,0.1001730176665247,0.0298313043676848,-0.0310153009262687,-0.1391082313102732,-0.0713070388875636,0.0759803804006613,0.1199410503989459,1.6321169744840314,-0.020839902777376,-0.1609415361830745,-0.1259209325481095,0.377888831013027,-0.0197122408999316,0.3717756110641318,-0.064763347512204,10.28567991998534,-0.9246294758807544,0.238111946624685,-0.9369150058564102
2.38,0.0749718445963107,0.1155642745707671,1.6338898539721012,-0.005427416133488,0.1005595082315574,0.0302769811253819,-0.0313385408531667,-0.1312322748055237,-0.0730428707391919,0.0755394497189826,0.1167065903725741,1.6296491628363408,-0.0184266401642584,-0.159378605912045,-0.1309816328752674,0.4035724443398442,-0.0161619963448982,0.3937978252374768,-0.0867915925814116,10.234618314550062,-0.923740716617881,0.2386557826478545,-0.9371622813786462
2.4,0.074374493702418,0.1131472940888829,1.632482631508344,-0.003946292297136,0.1011249868117376,0.0307742278770175,-0.0314815908561589,-0.1237251313737556,-0.0749986606105352,0.0734049175536523,0.1090026608304909,1.6302377104351415,-0.0203014230515601,-0.1337340677784311,-0.0769096103102864,0.3879522516668248,-0.0071525001496094,0.3753571715884036,-0.0977894935671665,10.234618314550062,-0.9224673480739431,0.2381245374561943,-0.9381241860529356
