t,x,y,z,roll,pitch,yaw,v_x,v_y,v_z,ref_x,ref_y,ref_z,ref_v_x,ref_v_y,ref_v_z,a_com,a_x,a_y,a_z,thrust,wind_x,wind_y,wind_z
0.0,1.030180035827834,1.325835766376377,1.717918207789418,0.0274934965792461,0.0995844183106689,0.0421180130454699,0.0013725011073906,0.0067880056694572,0.0031872308276268,1.0302242782986155,1.3260245746008523,1.7180143873278133,-0.0985546796456554,-0.0935307712761928,-0.0939689978262557,0.3811798152019197,0.0686250553695329,0.3394002834728644,0.1593615413813429,10.251153581032668,-0.9416889414782124,0.256903197853829,-0.8755718807781147
0.02,1.0303632356402603,1.3262017546767788,1.7177327039368595,0.0369015552403251,0.0934617169702645,0.0425611537992824,0.0155843062352906,0.0247254749113014,-0.0218327420601638,1.0302242782986155,1.3260245746008523,1.7180143873278133,-0.0985546796456554,-0.0935307712761928,-0.0939689978262557,1.6953814107018033,0.7105902563950003,0.8968734620922098,-1.2509986443895365,10.250665637871862,-0.9482657239672152,0.2536668707219017,-0.865784319899191
0.04,1.0307548932418524,1.3266898689942703,1.717023961610977,0.0505156587877589,0.0780932882954869,0.0427814895130754,0.0235916875432861,0.0252627856673654,-0.0514348074157793,1.0302242782986155,1.3260245746008523,1.7180143873278133,-0.0985546796456554,-0.0935307712761928,-0.0939689978262557,1.533532793567153,0.4003690653997742,0.0268655378031987,-1.4801032677807762,8.818414189745454,-0.9482835678338364,0.2383505902821575,-0.8718616991270365
0.06,1.031222286309571,1.3271454085876684,1.7156677648366248,0.0650116606885094,0.0559037992579597,0.0423919894452436,0.0216882230378281,0.0198716647965265,-0.0826222252100177,1.0292387315021592,1.3250892668880905,1.7170746973495508,-0.1185546799436786,-0.113530771574216,-0.1134033306738509,1.585356734334504,-0.0951732252728992,-0.2695560435419436,-1.5593708897119154,8.54312828998627,-0.955546251497581,0.2203025900700489,-0.8734292725187149
0.08,1.0315473058175388,1.3274531360456563,1.7136967667078808,0.0789219719253223,0.0316381316891135,0.041430814684578,0.0101778267071816,0.0108286961234198,-0.1129277670145494,1.027267637909246,1.3232186514625666,1.7151953173930257,-0.1585546805397251,-0.1535307721702625,-0.1522719963690414,1.6827732840296472,-0.5755198165323239,-0.4521484336553384,-1.5152770902265855,8.547817429333918,-0.9678168409705606,0.2005018643604997,-0.8723338476673366
0.1,1.0315520227173791,1.3275468058596072,1.7111294105341408,0.0921755247717346,0.0083681570842392,0.0401116766473536,-0.0094547724950717,-0.0013153709234881,-0.1423803902980963,1.0252965443163329,1.3213480360370429,1.7133159374365006,-0.1985546811357715,-0.1935307727663089,-0.1911406620642318,1.8710787892006635,-0.98162996011267,-0.607203352345396,-1.472631164177348,8.708233401411235,-0.9821049263623068,0.1818950976083705,-0.8685873247360023
0.12,1.0311309808539877,1.3273835492623864,1.708150325017201,0.1041824903064063,-0.0110568552778946,0.0387420240075522,-0.0339475765956989,-0.0155123763829715,-0.169809375653159,1.0213254506936176,1.3174774205817164,1.709493124195216,-0.238554681731818,-0.2335307733623554,-0.2300093277594223,1.970914543008237,-1.224640205031363,-0.7098502729741735,-1.3714492677531318,8.708233401411235,-0.9967279121853024,0.1614121036220878,-0.8664689062266365
0.14,1.0301421254528762,1.3268941016362643,1.7044453889929534,0.1162315189082869,-0.0277746102603102,0.0373682625168322,-0.0637333982867725,-0.0329651620032164,-0.1993163212075832,1.017354357070902,1.3136068051263905,1.7056703109539313,-0.2785546823278645,-0.2735307739584019,-0.2688779934546127,2.270712848243044,-1.489291084553679,-0.8726392810122456,-1.475347277721213,8.79635840368519,-1.0094874220759875,0.1404731954142651,-0.8671961227514942
0.16,1.0285173334304525,1.326029056742261,1.7001480715063533,0.1276913701732383,-0.04009077359847,0.0362454841536499,-0.0969956410791685,-0.0529154210905245,-0.2289684449994242,1.0123832634332854,1.308736189656163,1.700875781070267,-0.3185546829239109,-0.3135307745544483,-0.3077466591498031,2.44112580513463,-1.663112139619801,-0.997512954365404,-1.4826061895920464,8.816369826060054,-1.0196242007443244,0.1227977633658808,-0.8675517559162812
0.18,1.026333989942317,1.3248153200246298,1.6955179203366413,0.1380426988752288,-0.0473905570996695,0.0355634011082925,-0.1310701185210086,-0.0740575532951881,-0.2569749393831892,1.0064121697807678,1.3028655741710344,1.6951095345442229,-0.3585546835199573,-0.3535307751504947,-0.3466153248449936,2.4456203174050755,-1.7037238720920027,-1.057106610233179,-1.4003247191882506,8.867587119160817,-1.0265940872670671,0.1053581710237578,-0.8708879061139232
0.2,1.0233198683626352,1.323061161369938,1.690065515608248,0.1477362295893162,-0.0499038535252191,0.0353973235279913,-0.1681783460708155,-0.1001251060701499,-0.2867108821697041,1.0197804840162663,1.3211124423598704,1.682669173367482,-0.2310701200111247,-0.1740575547853042,-0.3289481365453405,2.7114406470392063,-1.8554113774903445,-1.303377638748091,-1.4867971393257462,8.967362066036003,-1.0316170845102004,0.0885353984319801,-0.8766751546844337
0.22,1.0195345699745009,1.3205870567864637,1.6841909377443678,0.151056526885699,-0.0462415605422461,0.0356766818248534,-0.2079715229044222,-0.1440261557200426,-0.2977545232394335,1.0197804840162663,1.3211124423598704,1.682669173367482,-0.2310701200111247,-0.1740575547853042,-0.3289481365453405,3.013619539254271,-1.9896588416803376,-2.1950524824946327,-0.5521820534864691,10.302990946777754,-1.0392177945594685,0.0782590791529836,-0.877835299682199
0.24,1.0149976819857631,1.3173069644875093,1.6781526444403785,0.1469847317512355,-0.0369645576507121,0.0362670403547428,-0.2430026509949351,-0.1802047732929714,-0.3052570677669491,1.0197804840162663,1.3211124423598704,1.682669173367482,-0.2310701200111247,-0.1740575547853042,-0.3289481365453405,2.5457614181073134,-1.7515564045256409,-1.8089308786464409,-0.3751272263757793,10.302990946777754,-1.0395860948522115,0.0799225027100495,-0.8792698085517812
0.26,1.0100894784487864,1.313595540859961,1.6722732458391325,0.1404670656271181,-0.0252746082952338,0.037004233202895,-0.2713996512304376,-0.2080697287851606,-0.3130986438142051,1.0174697828161552,1.3193718668120171,1.6793796920020283,-0.251070120309148,-0.1940575550833274,-0.3433427759777708,2.027520457271465,-1.419850011775127,-1.39324777460946,-0.3920788023628024,10.194402587363584,-1.0347271564948093,0.0833373005324004,-0.8871921040693365
0.28,1.0043929628834307,1.3091677207751544,1.6659090829310677,0.133049733878057,-0.0117432303706053,0.0378165529474964,-0.2962910707242753,-0.232989727568569,-0.3229670244566224,1.0128483804159327,1.315890715716311,1.6728007292711216,-0.2910701209051944,-0.2340575556793739,-0.3721320548426313,1.828916373352618,-1.2445709746918858,-1.245999939170421,-0.493419032120862,10.02785618647158,-1.0273824822612871,0.0876352862857254,-0.8972639811131685
0.3,0.9982475036168068,1.3042739229843014,1.6593229503601663,0.1259723317852162,0.0016579310228229,0.0385302985296355,-0.316714061896939,-0.2550645488270074,-0.3351397454046841,1.0082269780157105,1.312409564620605,1.6662217665402148,-0.3310701215012409,-0.2740575562754204,-0.4009213337074919,1.6221678684017895,-1.0211495586331831,-1.1037410629219202,-0.6086360474030855,9.708441451652106,-1.018726774647185,0.0916800115352305,-0.9085349502153176
0.32,0.991733947156856,1.2989622297710508,1.6524706948179075,0.1195634035769547,0.0139989369505269,0.0390633967399466,-0.3334388552609369,-0.2750139028183676,-0.3495069050271643,1.0016055755856854,1.3069284134950967,1.658203339866065,-0.3710701220972873,-0.3140575568714668,-0.4297106125723524,1.486699964147821,-0.8362396681998951,-0.9974676995680082,-0.7183579811240126,9.708441451652106,-1.0094533002363857,0.0946949844162446,-0.9204618264543752
0.34,0.9852656878735816,1.2935625435893747,1.645682985533777,0.114218385225716,0.0241916454363796,0.0393685601391719,-0.3465297956999164,-0.2924530430005667,-0.364310870426542,0.9949841731556608,1.3014472623695883,1.650184913191915,-0.4110701226933338,-0.3540575574675133,-0.458499891437213,1.3178142162471809,-0.654547021948973,-0.8719570091099527,-0.7401982699688836,9.510147122060516,-1.000367289966797,0.0971353500394164,-0.9321940329676436
0.36,0.978206840403848,1.2875257735264158,1.6382222850790509,0.1091765228724502,0.0331463430677151,0.0394724775415249,-0.358578107730217,-0.3102286076439594,-0.3810481912263133,0.9873627707107346,1.2949661112291786,1.6414467545461435,-0.4510701232893802,-0.3940575580635597,-0.4872891703020735,1.3613140974122924,-0.60241560151503,-0.8887782321696375,-0.8368660399885652,9.455169863597805,-0.9918782773804206,0.0987554136078441,-0.9434522676617796
0.38,0.9709210504275588,1.281141218943176,1.6304165373599069,0.104469681809637,0.0404196209463341,0.0393731440685149,-0.3693474874739192,-0.3272324426531715,-0.3987382788561413,0.9787413682509076,1.287484960073868,1.631988863928751,-0.4910701238854266,-0.4340575586596061,-0.516078449166934,1.339821952196975,-0.5384689871851145,-0.8501917504606049,-0.8845043814913994,9.455169863597805,-0.9848561218325388,0.0999721230819269,-0.953012326817905
0.4,0.9634301199793566,1.274426007080687,1.62224753449953,0.0999889543518574,0.0461993908758391,0.0391011102367,-0.3792094591720688,-0.3433353769288182,-0.4172908735555593,0.9524536760538628,1.264779596810517,1.6104796234170995,-0.4693474889640354,-0.4272324441432876,-0.4001135293744633,1.3235952441567764,-0.4930985849074781,-0.805146713782337,-0.9276297349709,9.413418538876613,-0.9784628004048864,0.1010166714788218,-0.9620230474188364
0.42,0.9561890158165534,1.267723098986665,1.614458870539496,0.095795197807194,0.0493244620186047,0.0385913833533787,-0.3828521021484791,-0.3612443555288206,-0.4016480090668313,0.9524536760538628,1.264779596810517,1.6104796234170995,-0.4693474889640354,-0.4272324441432876,-0.4001135293744633,1.2028087667639027,-0.1821321488205157,-0.8954489300001173,0.782143224436399,9.376236524816704,-0.987358756915789,0.1044816001544686,-0.9534108813088518
0.44,0.9484876088384046,1.2603167395846182,1.6065876625466773,0.0915966290163886,0.0493545553911867,0.0377517043022202,-0.3872733036918218,-0.3783776678262497,-0.3865616773322078,0.9524536760538628,1.264779596810517,1.6104796234170995,-0.4693474889640354,-0.4272324441432876,-0.4001135293744633,1.1626422693322287,-0.2210600771671317,-0.8566656148714547,0.7543165867311741,11.464297516608896,-0.9891296803211084,0.1084494453153297,-0.9503524224842488
0.46,0.9406887091209888,1.252582279615133,1.598983672824125,0.0878294328362416,0.0463819473163422,0.036675774567895,-0.3925820217744467,-0.3941895021276005,-0.3747122989901388,0.9477602011642224,1.2605072723690844,1.6064784881233551,-0.4893474892620586,-0.4472324444413109,-0.4003885794781277,1.0229911519016917,-0.2654359041312476,-0.7905917150675429,0.5924689171034531,11.229337503771603,-0.993577365292204,0.1117158662220886,-0.9447290755114826
0.48,0.9331637141424524,1.2449522737218393,1.5919529836339017,0.08471698818104,0.0410712014102081,0.0354854027753892,-0.3997095568519895,-0.4082427411306801,-0.365949811106708,0.9383732513849417,1.251962623486219,1.5984762175358658,-0.5293474898581051,-0.4872324450373573,-0.4009386796854565,0.9014938666826188,-0.3563767538771412,-0.7026619501539794,0.4381243941715379,11.026929264301543,-0.9988134579595804,0.1139332888426814,-0.9389878884817744
0.5,0.9250603485167764,1.2366400604135928,1.584714695385714,0.0819710986487009,0.0339263095045244,0.0341612010521772,-0.4106066847045774,-0.4222908828159218,-0.35841546553625,0.928986301605661,1.243417974603353,1.5904739469483766,-0.5693474904541516,-0.5272324456334038,-0.4014887798927853,0.9654843906290662,-0.544856392629392,-0.7024070842620855,0.3767172785229006,10.87582054343693,-1.006238280914694,0.1156597211735263,-0.9309439528582384
0.52,0.9167031990121528,1.2280515618545775,1.5776123390009091,0.0797517966022745,0.0262521767375995,0.0328537899161038,-0.4248350683663667,-0.4359057019718942,-0.3522472236493661,0.917599351796578,1.2328733256906848,1.5824441713505208,-0.609347491050198,-0.5672324462294502,-0.4020388801001141,1.0318156451760343,-0.7114191830894651,-0.6807409577986201,0.3084120943441931,10.700220482622171,-1.0146505191555026,0.1169115500243916,-0.9218015549708528
0.54,0.9080293972888588,1.2191936360671156,1.570635008631913,0.078004326387644,0.0189287304811403,0.031627342371259,-0.4419750710420795,-0.4492867158482662,-0.3457807006415707,0.906212401987495,1.2223286767780166,1.5744143957526653,-0.6493474916462445,-0.6072324468254967,-0.4025889803074429,1.1342917877396552,-0.8570001337856403,-0.6690506938185986,0.3233261503897716,10.73065160994338,-1.0230837880695232,0.1177639643674364,-0.9125279105780868
0.56,0.899442045061004,1.210524351298753,1.564129061129454,0.0764770811343376,0.013059951768805,0.0305717026258041,-0.4611817496071032,-0.4624983969145277,-0.3393623901903018,0.8938254521635107,1.2107840278504474,1.5663708676496264,-0.6893474922422909,-0.6472324474215431,-0.4031390805147717,1.2089662186612384,-0.9603339282511864,-0.6605840533130736,0.3209155225634447,10.73065160994338,-1.030516716336679,0.1183534690810381,-0.9044426463600228
0.58,0.8899806633582276,1.2011288207391675,1.5574136054327146,0.0747799161184486,0.0089759985038592,0.0296287233923319,-0.4841013274207963,-0.4762592846990865,-0.332508355025957,0.8804385023246254,1.198239378907977,1.5583135870414042,-0.7293474928383373,-0.6872324480175895,-0.4036891807221004,1.3798975304449528,-1.1459788906846569,-0.6880443892279431,0.3427017582172426,10.764627085354732,-1.035789711085298,0.1189447018239712,-0.8987865245685436
0.6,0.880036194501563,1.191459888560583,1.5508328033414946,0.0729051299007886,0.0080549789961782,0.0289216949491281,-0.5087954209716952,-0.489775236591155,-0.3258498839570515,0.8657755969871878,1.1773158565042134,1.540788187681417,-0.5841013289109125,-0.5762592861892026,-0.3344321753790701,1.44638726559029,-1.23470467754494,-0.675797594603425,0.3329235534452718,10.779870556671083,-1.0396974656014255,0.1200158829647976,-0.8943413091316176
0.62,0.8701175312919901,1.1819955681410588,1.544737967806736,0.069995955742665,0.0107548010258974,0.0284369048270176,-0.5334658480879981,-0.5049570321504337,-0.3159129413999447,0.8657755969871878,1.1773158565042134,1.540788187681417,-0.5841013289109125,-0.5762592861892026,-0.3344321753790701,1.5312247694964576,-1.233521355815148,-0.7590897779639338,0.4968471278553432,10.779870556671083,-1.0399523444569991,0.1214818332729821,-0.894610521511562
0.64,0.859208765513934,1.1717705741868385,1.5385257655538191,0.0663701248071375,0.0167781231313294,0.0281046174501065,-0.5556597815143403,-0.5167068070053055,-0.305866959029124,0.8657755969871878,1.1773158565042134,1.540788187681417,-0.5841013289109125,-0.5762592861892026,-0.3344321753790701,1.3523587281745195,-1.1096966713171064,-0.587488742743586,0.502299118541033,11.042879948530754,-1.0383480412015378,0.1246903566698497,-0.8955303283714375
0.66,0.8478933700118815,1.1613300752513884,1.532497832277602,0.0632344301719285,0.0244510815426309,0.0279028237719194,-0.5744146933036057,-0.5268054492013419,-0.2975021336156313,0.8599345836980786,1.1715532636423214,1.537443865927626,-0.6041013292089357,-0.5962592864872258,-0.3348169394496927,1.1442241854471846,-0.9377455894632736,-0.50493210980182,0.4182412706746352,10.9313649083133,-1.034342881877273,0.1274088807835711,-0.899316367174378
0.68,0.8362377856271345,1.1507000145820887,1.52661742731325,0.0608257389355717,0.0326516262514698,0.027772286211424,-0.5899461931711755,-0.5358688077368886,-0.2909572084805092,0.8482525571198604,1.1600280779185377,1.5307552224200447,-0.6441013298049821,-0.6362592870832723,-0.3355864675909379,0.956828094676024,-0.7765749933784871,-0.4531679267773369,0.3272462567561057,10.7973358914478,-1.029526503818863,0.1290895614773715,-0.9045348749531424
0.7000000000000001,0.8249050262237109,1.1404403548901716,1.521137646995438,0.0592504897580048,0.040154449583588,0.0276730560963582,-0.6020612286198774,-0.5437952572221811,-0.2862049415368413,0.8365705305416421,1.148502892194753,1.5240665789124632,-0.6841013304010286,-0.6762592876793188,-0.3363559957321832,0.7618837287770321,-0.605751772435098,-0.3963224742646265,0.2376133471833935,10.680390979661752,-1.0241100797767968,0.1300578778724301,-0.9106524443655388
0.72,0.8127513707482664,1.1294851232339669,1.5154551006921078,0.0584723771295393,0.0471752005505843,0.0275763956622586,-0.6125422919571764,-0.5513845331721086,-0.2823703470015651,0.8228885039336216,1.134977706441167,1.5173394589978195,-0.7241013309970751,-0.7162592882753652,-0.3371255238734285,0.6748220383452743,-0.5240531668649462,-0.379463797496371,0.191729726763809,10.513321884905965,-1.0189691076870686,0.1301830378432225,-0.9165793220112824
0.74,0.8004082349733662,1.118385077376522,1.5098387959156123,0.0588904687886516,0.0528990945072294,0.0274921931771048,-0.6212478545148652,-0.5584158114643699,-0.2794758390923415,0.8092064773256009,1.1214525206875805,1.5106123390831758,-0.7641013315931215,-0.7562592888714117,-0.3378950520146737,0.5779357012367764,-0.435278127884442,-0.3515639146130678,0.1447253954611815,10.513321884905965,-1.0148105933562273,0.1293018558442926,-0.9215409696421288
0.76,0.7885284226933306,1.1077012403702835,1.5045507203635398,0.0602579501348722,0.0571470107837434,0.0274185294550865,-0.6288256368303898,-0.5658926774119274,-0.2773215398712497,0.7945244507026793,1.106927334919093,1.503865980965001,-0.8041013321891679,-0.796259289467458,-0.3386645801559189,0.5430637954080975,-0.3788891157762319,-0.3738432973778738,0.1077149610545891,10.465988045459198,-1.0111446063883065,0.1272908943552318,-0.92628575772133
0.78,0.7758731214970108,1.0962927951754808,1.499025283116867,0.0623725974670834,0.0605843794731019,0.027335580641857,-0.6362927135759524,-0.574617684358403,-0.2753553781240669,0.7788424240648564,1.0914021491357042,1.497100384643295,-0.8441013327852144,-0.8362592900635045,-0.3394341082971642,0.5825563778645246,-0.3733538372781286,-0.43625034732378,0.0983080873591418,10.431060394189444,-1.0084530059832295,0.1246420145572262,-0.9300619312084164
0.8,0.7630722174560183,1.0846930866280706,1.4935366997460569,0.0646663915255066,0.0631670209100648,0.0272204617210794,-0.6434199150652042,-0.5849687074180604,-0.2736145184182373,0.7440584858182132,1.0675619109575607,1.4852575142106634,-0.6732799065047435,-0.6746176858485191,-0.2317032534211364,0.6343722723396216,-0.3563600744625916,-0.5175511529828702,0.08704298529148,10.431060394189444,-1.006513838710036,0.1217450068288781,-0.933124851308004
0.8200000000000001,0.75070272779543,1.073390126289652,1.4885017673228502,0.0643023305527746,0.0679359113878178,0.0270895271049312,-0.6573841828105755,-0.6032271964740568,-0.2563394918529863,0.7440584858182132,1.0675619109575607,1.4852575142106634,-0.6732799065047435,-0.6746176858485191,-0.2317032534211364,1.437706280071214,-0.6982133872685647,-0.9129244527998182,0.8637513282625492,10.42893002377332,-1.0015895094528515,0.1195047123834853,-0.941049409731995
0.84,0.7374483412818353,1.0611584092392292,1.4835756094739911,0.0604480511292051,0.0769489563894037,0.0269542868786331,-0.6666991483168119,-0.6182470058326985,-0.2371952745918862,0.7440584858182132,1.0675619109575607,1.4852575142106634,-0.6732799065047435,-0.6746176858485191,-0.2317032534211364,1.3027512330569084,-0.4657482753118169,-0.7509904679320889,0.9572108630550038,11.597179067067373,-0.9973614456430152,0.1237985578418579,-0.9438744722526567
0.86,0.7240579659883943,1.0486843775861547,1.4790168758820723,0.0555260454835506,0.0878690903696346,0.0268227822405099,-0.6714006505174854,-0.6282239200198227,-0.2197321987969063,0.7373256867531658,1.0608157340990756,1.482940481676452,-0.6806773450905017,-0.6946176861465423,-0.2229728284805503,1.0327172360590662,-0.2350751100336778,-0.4988457093562104,0.873153789748994,11.512176614661255,-0.9901539017897608,0.128552893207522,-0.949882228868906
0.88,0.7106208929508094,1.036045575163066,1.474783174983679,0.0511195130271297,0.0992405199593105,0.0267086375407173,-0.6717315603100881,-0.6353170098856903,-0.204538567629839,0.7238600886230708,1.0473233803821052,1.4783064166080293,-0.6954722222620181,-0.7346176867425888,-0.2055119785993782,0.8385521050849991,-0.016545489630132,-0.354654493293377,0.7596815583533673,11.359514360071444,-0.9813976386792272,0.1330645992808142,-0.9574135926920369
0.9,0.6978899537738369,1.0239238324146829,1.4710239746456704,0.0478876081216909,0.1093404489641393,0.0265989521106005,-0.6682073945296669,-0.6405558505230783,-0.1919686416955129,0.710394490492976,1.0338310266651347,1.4736723515396066,-0.7102670994335345,-0.7746176873386352,-0.188051128718206,0.7033282193725127,0.176208289021057,-0.2619420318693999,0.6284962967163062,11.216460028792426,-0.9726274285632012,0.1366021887374843,-0.9650001388333584
0.92,0.684594498866067,1.0110647473736674,1.46731148091653,0.0455901651920973,0.1183704224738627,0.0264650111887142,-0.6613993771178646,-0.6452910372081501,-0.1800318431237164,0.6961891485043052,1.018338672918362,1.4699113289652426,-0.7250619766050509,-0.8146176879346817,-0.1705902788370338,0.7267362901450707,0.3404008705901185,-0.2367593342535889,0.5968399285898248,11.040065075983875,-0.9646421464180546,0.1389867148356942,-0.971928376106452
0.94,0.67146360302749,0.9981187020001384,1.463832670442749,0.0445040795882631,0.1251736908082046,0.0263086030735357,-0.6521221754479781,-0.6493062626520363,-0.168479091571107,0.6819838065156346,1.0028463191715893,1.4661503063908785,-0.7398568537765673,-0.8546176885307282,-0.1531294289558616,0.76755223702575,0.4638600834943218,-0.2007612721943108,0.5776375776304687,11.040065075983875,-0.9586132670493572,0.1402199048487007,-0.9770194917569052
0.96,0.6591739980321805,0.9857420505684592,1.4607427957937191,0.0445048114404984,0.1294458615632066,0.0261383410455747,-0.6421192805812118,-0.6533858538959596,-0.1573652847236826,0.667408592597676,0.9863539654099156,1.4628258050635434,-0.7546517309480838,-0.8946176891267745,-0.1356685790746894,0.7749478580442246,0.5001447433383155,-0.2039795621961659,0.5556903423712192,11.062382836867071,-0.9540846328395426,0.1404368857387874,-0.980769617401024
0.98,0.6464477008644063,0.972627090485636,1.4577240083065015,0.0454339281946,0.1318068066820805,0.0259360780745296,-0.6311504547306827,-0.6579663979421355,-0.145072022560088,0.6524635067504295,0.9688616116333404,1.459937824983238,-0.7694466081196002,-0.934617689722821,-0.1182077291935173,0.8550158169897529,0.5484412925264581,-0.2290272023087958,0.6146631081797318,11.062382836867071,-0.9516372889443468,0.1398056914793015,-0.9825653342502728
1.0,0.633941739005323,0.9594136582512102,1.454958625794472,0.0471647489754957,0.1322257166123789,0.025707623413711,-0.6201048517574831,-0.6632141836763171,-0.1320423654292617,0.6148901781278722,0.9397287705885292,1.4504704071784973,-0.6229915101835063,-0.7579663994322516,-0.1042307634977978,0.8934715511703878,0.5522801486599782,-0.2623892867090804,0.6514828565413147,11.1098182949454,-0.9524550957580916,0.1391307123402211,-0.980590344131146
1.02,0.6215655266836322,0.946029945948177,1.4523799079360329,0.047609899889649,0.1334451059304742,0.0254329517562438,-0.6179611186166535,-0.6744511241581244,-0.1268613997293901,0.6148901781278722,0.9397287705885292,1.4504704071784973,-0.6229915101835063,-0.7579663994322516,-0.1042307634977978,0.6279068974657289,0.1071866570414803,-0.5618470240903617,0.2590482849935779,11.157098824084642,-0.9479735396229806,0.1382420197769594,-0.984788814664176
1.04,0.6098647231069977,0.9331329496046064,1.4500300987045305,0.0460500745454435,0.1372469961487518,0.0251641679824431,-0.6134554742224954,-0.6824930287630063,-0.1207101563675081,0.6148901781278722,0.9397287705885292,1.4504704071784973,-0.6229915101835063,-0.7579663994322516,-0.1042307634977978,0.5541002977298589,0.2252822197079063,-0.4020952302440983,0.3075621680940985,10.67432968934645,-0.946099644046987,0.139924807523102,-0.9859148590740724
1.06,0.5976738334729782,0.919412002805599,1.4476967248842034,0.0435978650724062,0.142552237719589,0.0248849029057583,-0.605601344649917,-0.6890752731230417,-0.1129076593658206,0.6086602630260372,0.9321491065942068,1.4494280995435194,-0.621359721274071,-0.7779663997302748,-0.0960625116853397,0.6439958299931194,0.392706478628918,-0.3291122180017702,0.3901248500843765,10.786567387929608,-0.9423726000011896,0.142600162584832,-0.9883965510112274
1.08,0.5856707304924381,0.9055834827514736,1.4455288227680811,0.041276450109111,0.1481119559348271,0.0246233874035051,-0.5949214135669431,-0.6935199682519221,-0.1042631456509262,0.596200432822367,0.916989778605562,1.4473434842735633,-0.6180961434552005,-0.8179664003263213,-0.0797260080604237,0.7220523874566914,0.5339965541486968,-0.2222347564440174,0.4322256857447207,10.908173330850332,-0.9382254332676696,0.1454436607984385,-0.9909194981645744
1.1,0.5739079182020062,0.8916818957105459,1.44354123219373,0.039835242919784,0.1530796112913909,0.0243991854085192,-0.5818609143384688,-0.6966492865333884,-0.0949561457615079,0.5837406026186969,0.9018304506169168,1.4452588690036074,-0.6148325656363299,-0.8579664009223678,-0.0633895044355076,0.8169906975378146,0.6530249614237149,-0.1564659140733171,0.4653499944709163,10.951338601566931,-0.9346105609706448,0.1475648782710576,-0.9928847134880908
1.12,0.5629928463746606,0.8784262152604069,1.441831976408296,0.0396654611917931,0.1567604224180935,0.0242335079624946,-0.5677931388228463,-0.6987427414767569,-0.0854463147986576,0.5714439513059703,0.8846711225984695,1.4439910789148973,-0.6115689878174594,-0.8979664015184142,-0.0470530008105915,0.8554556483241045,0.7033887757811219,-0.1046727471684216,0.4754915481425134,10.951338601566931,-0.9316158093491358,0.1487515221519908,-0.9942122484156646
1.14,0.5518028808765988,0.8644344452699229,1.4402342338310457,0.0411415312319029,0.1592898687084832,0.0241299507416241,-0.5519841545379843,-0.7005105056433313,-0.074803693238852,0.5591472999932436,0.867511794580022,1.4427232888261872,-0.6083054099985888,-0.9379664021144608,-0.0307164971856754,0.9569670421870308,0.7904492142430997,-0.0883882083287213,0.5321310779902818,11.001185992998217,-0.9298301393405723,0.1484782221814136,-0.994507285375941
1.16,0.5409360104566275,0.850392611936483,1.4388572558198471,0.0441808270155054,0.1603663894979032,0.0240838296360163,-0.5355824472188703,-0.7039819594918638,-0.0633971026147151,0.5469322381259889,0.8493524665466736,1.4418639113280998,-0.6050418321797183,-0.977966402710507,-0.0143799935607593,1.0138753676747176,0.8200853659557028,-0.1735726924266267,0.5703295312068424,11.04620204130424,-0.9299275931180756,0.1469644460175155,-0.9930763230174896
1.18,0.5304014436265463,0.8362492162642838,1.4377199987968772,0.0475681594282375,0.1599774429042234,0.0240002563288057,-0.5188403409201073,-0.7102163103301167,-0.0508892303713126,0.5347987657042058,0.8301931384984239,1.4414129464206356,-0.6017782543608478,-1.0179664033065534,0.0019565100641566,1.09042666162239,0.8371053149381469,-0.3117175419126428,0.6253936121701241,11.09658156162186,-0.931630166771004,0.1453274740922488,-0.990166657201291
1.2,0.5207045178396261,0.8226807634940067,1.4368823051516952,0.0503441895922695,0.1582203398828234,0.023822131453209,-0.5028501885073889,-0.7176057379564721,-0.0378933666490257,0.5044594265805409,0.800738400747778,1.4351755372783117,-0.4931926205980944,-0.8102163118202328,-0.0100714741655154,1.094510265730022,0.7995076206359197,-0.3694713813177708,0.649793186114345,11.165479839452928,-0.9350597295489405,0.1439877596088207,-0.985564113828302
1.22,0.5107701227386087,0.8081693296230089,1.4361759241753862,0.0502145967086697,0.1560330070567885,0.0234052933369524,-0.4917582916902962,-0.7323650516047124,-0.0338669493347865,0.5044594265805409,0.800738400747778,1.4351755372783117,-0.4931926205980944,-0.8102163118202328,-0.0100714741655154,0.9448274323343,0.5545948408546358,-0.7379656824120173,0.2013208657119593,10.61255294853254,-0.9354185952557288,0.1447431713017042,-0.9838704468078474
1.24,0.5010448432713218,0.7934095735756096,1.4355581728657807,0.046396044451049,0.1549952497912549,0.022804002333319,-0.4812069349255927,-0.7422274404676005,-0.0280222819933134,0.5044594265805409,0.800738400747778,1.4351755372783117,-0.4931926205980944,-0.8102163118202328,-0.0100714741655154,0.7790346269443916,0.527567838235174,-0.4931194431444019,0.2922333670736587,10.61255294853254,-0.9364836903506492,0.1479150008872244,-0.98215839750724
1.26,0.492007742245812,0.7792559885333897,1.4350985653182082,0.0420897522860921,0.1548151008917092,0.0222414163380848,-0.4705337328576194,-0.7471517283833609,-0.0206566234180153,0.4995275003745599,0.7926362376295757,1.4350748225366563,-0.4880630765336918,-0.830216312118256,-0.001907922924356,0.6935754827503557,0.5336601033986671,-0.2462143957880191,0.3682829287649017,10.76247340871305,-0.9375446588972906,0.1525853185746079,-0.9796250175584404
1.28,0.4827213195195222,0.7642834814337989,1.434779115121649,0.038333088518637,0.1550980064309658,0.0217402952441126,-0.458615494965124,-0.7500246236563781,-0.0116316179831932,0.489663647962598,0.776431911393171,1.4348733930533462,-0.4778039884048867,-0.8702163127143024,0.0144191795579628,0.7611646418653584,0.5959118946247705,-0.1436447636508631,0.4512502717411076,10.85582372360568,-0.9384425259353608,0.1567878660764044,-0.977089121701154
1.3,0.473680827786772,0.7492667455797177,1.4346517974214448,0.0358753616667139,0.1555460363218052,0.0213511174963317,-0.4460163298881119,-0.7518900383879629,-0.0015668280803271,0.4797997955506362,0.7602275851567664,1.4346719635700358,-0.4675449002760815,-0.9102163133103488,0.0307462820402817,0.811662997412484,0.6299582538506016,-0.0932707365792373,0.5032394951433024,10.981114320758024,-0.9393422864884152,0.1599342043062429,-0.974609578859124
1.32,0.4648986043917019,0.7342191396417109,1.434735633497586,0.0347948817226609,0.1559009895868581,0.0210680125115537,-0.4328538463662509,-0.7530505105590035,0.0094428355619991,0.4704488975451145,0.7420232588905594,1.4352868892108417,-0.4572858121472763,-0.9502163139063954,0.0470733845226006,0.8599569199096343,0.6581241760930528,-0.0580236085520324,0.5504831821163169,10.981114320758024,-0.9400483486277648,0.1618946582766987,-0.97241508470527
1.34,0.4568028324768799,0.7199085974526758,1.435024857883418,0.0353255979836637,0.1559881639105261,0.0209095980006548,-0.420028723321191,-0.7535185625993541,0.0204500198220542,0.4610979995395929,0.7238189326243524,1.4359018148516471,-0.4470267240184712,-0.990216314502442,0.0634004870049194,0.8453711598585039,0.6412561522529919,-0.0234026020175304,0.5503592130027524,11.035522090042832,-0.9408955256628068,0.1626636939845843,-0.9700461215390772
1.36,0.4485465877049608,0.7048261707242073,1.4355623438304703,0.0375137608426778,0.1557107108252214,0.0208514327882088,-0.406309669111014,-0.7548405459282574,0.0327584784156175,0.4520035787372914,0.7046146063432444,1.4369249180545107,-0.436767635889666,-1.0302163150984882,0.0797275894872383,0.9239294362844186,0.6859527105088525,-0.066099166445166,0.6154229296781654,11.06621765590262,-0.94236888999223,0.1620035372017643,-0.9672839842896568
1.38,0.4405662364619008,0.6896957509871107,1.4363547940122592,0.0407619431861862,0.1549838586243705,0.0208542800905114,-0.3924693574032095,-0.7584547672890165,0.0459075422778795,0.44316563513821,0.684410280047235,1.4383561988194322,-0.4265085477608609,-1.0702163156945346,0.0960546919695572,0.9714868818820998,0.6920155853902238,-0.1807110680379531,0.6574531931131014,11.110077301290405,-0.9447044789246108,0.1605590343615299,-0.9638968774941192
1.4,0.4328631050184578,0.6744663559473614,1.437420607376913,0.0439045945162961,0.153762520382636,0.0208304795540272,-0.3786312429061769,-0.7642415907796628,0.0600287388099159,0.4209427685917404,0.6517730126226599,1.4386501711261532,-0.3737230093052891,-0.8428326521538236,0.0786494875148008,1.0300351091604545,0.6919057248516297,-0.2893411745323149,0.7060598266018191,11.15990519276329,-0.9473077114214944,0.1591389969749694,-0.9601151055065654
1.42,0.4257968278530829,0.6597623518812264,1.4385830406773454,0.042387923160869,0.1517027961552184,0.0204598167606115,-0.3659832473253681,-0.7813181446720431,0.0617167278453005,0.4209427685917404,0.6517730126226599,1.4386501711261532,-0.3737230093052891,-0.8428326521538236,0.0786494875148008,1.0658679468338317,0.6323997790404434,-0.8538276946190138,0.0843994517692289,11.215808441397712,-0.952392914378206,0.1627872594702313,-0.9521372764791116
1.44,0.4186130129111519,0.6440425078041868,1.4398551263731187,0.0358970628275257,0.1480653632145128,0.0197013007224022,-0.3531897164633121,-0.7889249267926876,0.0656022104053056,0.4209427685917404,0.6517730126226599,1.4386501711261532,-0.3737230093052891,-0.8428326521538236,0.0786494875148008,0.7691465089198529,0.639676543102799,-0.3803391060322236,0.1942741280002546,10.47238367080172,-0.9541738913463024,0.1682565293267613,-0.9491460121368354
1.46,0.4116720564694443,0.6282437287958361,1.441223709824165,0.0290160154379124,0.1431045998316767,0.0189259972274003,-0.3417319997242455,-0.7905864051709607,0.0711224874139026,0.4172055384986875,0.6433446861011216,1.4394366660013012,-0.369973739685705,-0.859708229126785,0.0851978765621851,0.6413135768206556,0.5728858369533296,-0.0830739189136564,0.2760138504298529,10.60113171523426,-0.9586314712994916,0.1746727083411428,-0.9427984552028548
1.48,0.4049369201535629,0.6124453570698257,1.4427147889723333,0.0233767109012913,0.1373691268938884,0.0182767271903982,-0.3326079357664276,-0.7894153781074245,0.0777591854947367,0.4097310783125817,0.6264880330580451,1.4410096557515972,-0.3624752004465368,-0.8934593830727079,0.0982946546569536,0.5671543196212828,0.4562031978908948,0.0585513531768111,0.3318349040417022,10.665554690052886,-0.9636001822502112,0.1798828725195926,-0.9359694794561196
1.5,0.3986826877697766,0.5974740334192297,1.4442641749858331,0.0196602465238797,0.1320086818218396,0.0178251877973849,-0.3263042458742288,-0.7870239426892306,0.0850089591679465,0.4022566181264759,0.6096313800149686,1.4425826455018933,-0.3549766612073687,-0.9272105370186308,0.1113914327517221,0.4950118380634132,0.315184494609938,0.1195717709096932,0.3624886836604925,10.715665199671092,-0.96929784704787,0.1840561492687148,-0.9283446115670714
1.52,0.3922055021199037,0.5817663558145258,1.4460534413889938,0.0173718880699123,0.1272066207889871,0.0175164258097476,-0.3219235041070881,-0.7841768673531476,0.0935847291938375,0.3951570849023286,0.591087169274596,1.4448104741569276,-0.3474781219682005,-0.9609616909645536,0.1244882108464906,0.5020970223389964,0.219037088357038,0.1423537668041485,0.4287885012945517,10.762507109929174,-0.9741798761207168,0.1868149576767469,-0.9217457509712768
1.54,0.3857920390774381,0.5661196009624883,1.448018956601261,0.0167081497816052,0.1240841807271402,0.017374087226676,-0.3197660998729927,-0.7808161020032355,0.1025524509009403,0.3880575516781812,0.5725429585342234,1.4470383028119622,-0.3399795827290324,-0.9947128449104764,0.1375849889412592,0.4908389995265877,0.1078702117047664,0.1680382674956071,0.4483860853551381,10.837444881921328,-0.9773031677922224,0.1882776682360765,-0.9171186017577267
1.56,0.3794080698806644,0.5505377276072673,1.4501672745719765,0.0177111127511958,0.1233042310828146,0.0174012661514894,-0.3184343956727568,-0.7777289989136649,0.1118339804204173,0.381145481935013,0.5531549689452028,1.4495935509193658,-0.3324810434898642,-1.0284639988563993,0.1506817670360277,0.4935849262879838,0.0665852100117991,0.1543551544785304,0.4640764759738506,10.845152879373018,-0.9796342839766652,0.18860482078029,-0.9135491854341766
1.58,0.3733799960533258,0.5357857818941125,1.4523836481221784,0.0200217152057816,0.1243355408765868,0.0175636430367431,-0.3159718627872288,-0.7754193456163136,0.1210033583832282,0.374420875672824,0.5329232005075341,1.4524762184791389,-0.324982504250696,-1.062215152802322,0.1637785451307962,0.4885592563629175,0.1231266442764,0.115482664867561,0.458468898140546,10.845152879373018,-0.9804278827300552,0.187726729670115,-0.911890949293448
1.6,0.367101791619368,0.5202832645364842,1.4549095027951948,0.023302211847676,0.1265492148057963,0.0178294430419248,-0.3118114427020623,-0.7751937886943829,0.131115389099124,0.3575814029139644,0.4970148146132968,1.4584338160413397,-0.2804919483902275,-0.794905242069575,0.1334114612457652,0.5468389534618628,0.2080210042583241,0.0112778460965357,0.5056015357947863,10.858281562012053,-0.9801608428545208,0.1861034433499748,-0.9115726580311174
1.62,0.3608829226112824,0.5045094845084935,1.4575200077908843,0.0182338236274517,0.1302133643349169,0.0175579644636221,-0.310145429444672,-0.7983478333865878,0.1289311607674733,0.3575814029139644,0.4970148146132968,1.4584338160413397,-0.2804919483902275,-0.794905242069575,0.1334114612457652,1.165821855159703,0.0833006628695148,-1.1577022346102417,-0.1092114165825344,10.88402507398041,-0.9775907723630388,0.1907507389921253,-0.9125164771193408
1.64,0.3550215049278733,0.4892767588821028,1.459947341351382,0.0050998671044792,0.1352150058200208,0.0167283238717714,-0.3066628680988717,-0.802614793171261,0.1267628269867112,0.3575814029139644,0.4970148146132968,1.4584338160413397,-0.2804919483902275,-0.794905242069575,0.1334114612457652,0.2959596708847141,0.1741280672900136,-0.2133479892336642,-0.1084166890381044,10.163159002931025,-0.9710471603656744,0.2019781400259715,-0.9171174051881557
1.66,0.3489468708003755,0.4732825462215426,1.4624548715636942,-0.009623099249982,0.1411629605017431,0.0157474923609221,-0.3007630484263286,-0.7964114712875968,0.1240404697937386,0.3547764834300621,0.489065762192601,1.4597679306537974,-0.2733959655108272,-0.7988024213602273,0.1358930818182726,0.4491667375457674,0.2949909836271525,0.3101660941832118,-0.1361178596486309,10.163159002931025,-0.9650396205292904,0.214566991663251,-0.9203729567453028
1.68,0.3430131126104505,0.4574797164157954,1.4648994486766216,-0.0224156999674642,0.1471104100145195,0.0148511892130471,-0.2927455301692843,-0.7844648871382564,0.1204958532819106,0.3491666444622575,0.4731676573512096,1.4624361598787126,-0.2592039997520267,-0.8065967799415319,0.1408563229632873,0.740887606279177,0.4008759128522166,0.5973292074670233,-0.1772308255913984,10.13372670856188,-0.9592185568909528,0.2257338208183556,-0.923440377068711
1.7,0.3372605317070262,0.4419534753571812,1.467268228944182,-0.0322699775339406,0.1525056702365513,0.0141389729198979,-0.2828426460633178,-0.7694601954961738,0.1165460471740339,0.343556805494453,0.457269552509818,1.465104389103628,-0.2450120339932262,-0.8143911385228364,0.1458195641083021,0.9203380536248688,0.4951442052983257,0.7502345821041256,-0.1974903053938333,10.108384034948358,-0.9541416180746692,0.2340621031292285,-0.9263276674480424
1.72,0.3319942482016019,0.4274956888006905,1.4694472635191644,-0.0389767631788171,0.1568045376899895,0.0136626253471763,-0.2719872769956023,-0.7537983880686911,0.1130258406321813,0.3386565648145885,0.4409817297393613,1.468020780385794,-0.2308200682344257,-0.8221854971041409,0.1507828052533168,0.9689209250361568,0.5427684533857752,0.7830903713741344,-0.1760103270926336,10.112079528666982,-0.9495180968935096,0.2405187401230201,-0.9291182996780696
1.74,0.3266841755297854,0.4126002880413849,1.4716712954621034,-0.0436624901219173,0.1603133298692883,0.0133709565350817,-0.2595725641921549,-0.7369727378620664,0.1095856713127474,0.3337563241347239,0.4246939069689046,1.47093717166796,-0.2166281024756252,-0.8299798556854455,0.1557460463983316,1.0595545807250173,0.6207356401723707,0.8412825103312371,-0.1720084659716951,10.14685354518224,-0.9457510604749246,0.2450034118306967,-0.9313918170105424
1.76,0.3216323515611123,0.3980416640819053,1.4738323780969556,-0.0463870652204825,0.1626999755233113,0.0132803762405609,-0.2462528754209397,-0.7200856046859629,0.1067365474885243,0.3292108825988294,0.4082112252339152,1.4739776439787515,-0.2024361367168247,-0.83777421426675,0.1607092875433464,1.0847890145498869,0.66598443856076,0.8443566588051732,-0.1424561912111523,10.219279218930753,-0.9431032395014526,0.2479194016567112,-0.9328396495113292
1.78,0.3168528193717054,0.3838223238888985,1.4759451679926832,-0.0474716513058785,0.1639267379987968,0.0133784600330356,-0.2324250297014703,-0.7028758838538168,0.1047327492626734,0.3250202402069049,0.3915336845343933,1.4771421973181682,-0.1882441709580242,-0.8455685728480546,0.1656725286883611,1.1083760820359838,0.6913922859734689,0.8604860416073057,-0.1001899112925482,10.219279218930753,-0.9409769621190188,0.2496120593946742,-0.9338272409488592
1.8,0.3125709111854365,0.3706392970642639,1.4779251871198107,-0.0468001770270705,0.1640654499562408,0.0136583110335109,-0.2191027016707554,-0.6859437927782642,0.1038067966677338,0.3052315678866319,0.3486785296962077,1.4811818054558168,-0.2204825080324997,-0.6636913135413168,0.1159121582525201,1.078236431118953,0.6661164015357435,0.8466045537776301,-0.0462976297469795,10.274319216534424,-0.9397494560136715,0.2501249685872096,-0.9339221360064696
1.82,0.3083928345886553,0.3569162066108186,1.4799298011909348,-0.0502520234381809,0.161109832384548,0.0138333866260673,-0.199404072330717,-0.685020041258445,0.0962586722432075,0.3052315678866319,0.3486785296962077,1.4811818054558168,-0.2204825080324997,-0.6636913135413168,0.1159121582525201,1.055774001710025,0.9849314670019204,0.0461875759909635,-0.3774062212263118,10.334196395615436,-0.946455176965605,0.2546816933988595,-0.9246592748559008
1.84,0.3045871972712857,0.3433309403032422,1.4817823800437655,-0.0589815062378402,0.1530949572749615,0.01397462931287,-0.1829762617328962,-0.6726590565304887,0.0894472653428216,0.3052315678866319,0.3486785296962077,1.4811818054558168,-0.2204825080324997,-0.6636913135413168,0.1159121582525201,1.082892155809233,0.8213905298910431,0.6180492363978107,-0.3405703450192969,9.897366482449796,-0.9483936649372334,0.26206566276081,-0.9202429070667268
1.86,0.3010497481929849,0.3300750903381437,1.4835146480914314,-0.0679968292251312,0.1424118355471397,0.0143850354556922,-0.1720793102452768,-0.6536103788897174,0.0841642329284847,0.3030267428063069,0.3420416165607945,1.482340927038342,-0.2180940036987056,-0.6558543994788169,0.1181480400504894,1.128612093542867,0.5448475743809661,0.9524338820385668,-0.2641516207168452,9.977980759418642,-0.954548207175098,0.2704150626536858,-0.9109161108161882
1.88,0.2978414574405188,0.3178714434221704,1.485075641627475,-0.0752427368383993,0.1316731919878002,0.0150350921211194,-0.1664247566679116,-0.6322925358537799,0.0804585366732258,0.2986170926456569,0.3287677902899682,1.4846591702033924,-0.2133169950311174,-0.6401805713538168,0.1226198036464281,1.1182090508938878,0.2827276788682623,1.065892151796877,-0.1852848127629418,10.053804501580998,-0.9621869650138718,0.2777692099215511,-0.8999608679274745
1.9,0.2945379178357605,0.3054784834550331,1.4866553564629323,-0.0811203034053175,0.1211629709477611,0.0158933915709863,-0.1644383233264449,-0.608389761847498,0.0777977098902855,0.2942074424850069,0.3154939640191418,1.4869774133684428,-0.2085399863635291,-0.6245067432288168,0.1270915672423668,1.2066156407326705,0.0993216670733335,1.1951387003140912,-0.1330413391470178,10.128351484000632,-0.9700472247975408,0.283625509563198,-0.8889969045176891
1.92,0.291237891764632,0.2935768199787275,1.488195407352198,-0.085168188647565,0.1124619376202604,0.016814439683606,-0.1656379207053556,-0.5834413533970545,0.0763889929250253,0.2900366427577363,0.3030038291545655,1.48951924471329,-0.2037629776959409,-0.6088329151038169,0.1315633308383055,1.2508463150701852,-0.0599798689455366,1.2474204225221774,-0.0704358482630104,10.20017106746218,-0.977134787611872,0.2880485556126504,-0.8790184346855772
1.94,0.2878867035094943,0.2821775496319619,1.4897159093122156,-0.0876180363700525,0.1061944691087091,0.0176912479279756,-0.1694572964418262,-0.5581664678909859,0.0757767182678952,0.2858658430304657,0.2905136942899892,1.4920610760581374,-0.1989859690283527,-0.5931590869788168,0.1360350944342442,1.2784583964847864,-0.1909687868235296,1.26374427530343,-0.0306137328565034,10.268075245529872,-0.9813831954546992,0.2910685290423794,-0.8725041543941108
1.96,0.2846098076390647,0.2718224642578154,1.4911551938650467,-0.0885061520078471,0.103211519501732,0.0183919628876915,-0.1752440433802716,-0.5334119143808507,0.0757890200671048,0.2818144685198848,0.2784154051285378,1.4947147014928834,-0.1942089603607644,-0.5774852588538169,0.1405068580301828,1.2710964862570613,-0.2893373469222693,1.2377276755067612,0.0006150899604782,10.318013397187316,-0.983718271756562,0.2930725971706268,-0.8683461641403917
1.98,0.2810428825267277,0.2614347815680385,1.4926769043509909,-0.0876557921164326,0.1034296195505523,0.018973339021915,-0.1807706864027408,-0.5068421555885871,0.0764383664083657,0.2778825192259936,0.2667089616702115,1.4974801210175277,-0.1894319516931762,-0.5618114307288168,0.1449786216261215,1.3573112355386487,-0.2763321511234581,1.3284879396131766,0.0324673170630458,10.363280568025402,-0.9850919943860637,0.2938336597900521,-0.8653968562208163
2.0,0.2773862610954492,0.2515832958056492,1.4942197236076398,-0.0845826805895678,0.1061546708627857,0.0195049244614806,-0.1842757951364936,-0.4802031309511145,0.0778671814424687,0.2720043482065907,0.2360926737886091,1.496498822671409,-0.1696180156840113,-0.470703662020882,0.0864272424680171,1.345329823196695,-0.1752554366876407,1.3319512318736293,0.0714407517051478,10.389579410683837,-0.9841207438201246,0.2930079093527352,-0.8656063883039128
2.02,0.2736761705974325,0.2422416219001426,1.4957073312222784,-0.0795452243447971,0.1103292884845165,0.0200725249365719,-0.186301905023131,-0.4560637064090829,0.070876558015159,0.2720043482065907,0.2360926737886091,1.496498822671409,-0.1696180156840113,-0.470703662020882,0.0864272424680171,1.2606404665839712,-0.1013054943318672,1.206971227101583,-0.3495311713654837,10.419998393622336,-0.9799911091329714,0.2909778612594346,-0.8692144803385334
2.04,0.2701370775041175,0.2337771164735948,1.497005785747881,-0.0741779555881084,0.1148355930579611,0.0206357906535247,-0.1859825012932876,-0.4362787753623637,0.0661708526989068,0.2720043482065907,0.2360926737886091,1.496498822671409,-0.1696180156840113,-0.470703662020882,0.0864272424680171,1.0169675238048106,0.0159701864921688,0.9892465523359596,-0.2352852658126111,9.90224050042798,-0.975016074149801,0.287060540886734,-0.8760348231670582
2.06,0.2664402294719126,0.2252525637370373,1.4982963497338606,-0.0688170418058973,0.1195471496595308,0.0212395433139256,-0.1835768701714999,-0.4172556267007757,0.0632036409676121,0.2703081680497506,0.2313856371684003,1.4973630950960892,-0.1673874815402654,-0.463475963307341,0.0884250176799473,0.9701437928901582,0.1202815560893813,0.951157433079397,-0.1483605865647323,10.03322624343582,-0.9699000263012136,0.2835313317585115,-0.8825358040848712
2.08,0.2628111690608993,0.2170966546465455,1.4995455146742251,-0.0640195994849521,0.1237836385003996,0.0218620625570008,-0.1793649777208199,-0.3992914751431618,0.0619135421754367,0.2669158077360704,0.2219715639279827,1.4990916399454497,-0.1629264132527736,-0.4490205658802589,0.0924205681038079,0.9248177308186076,0.2105946225340035,0.8982075778806969,-0.0645049396087706,10.146108615297637,-0.9654717673907104,0.2807874987826904,-0.8875233416188161
2.1,0.2592823448495557,0.2092912993184836,1.5007842851214022,-0.0598199211902885,0.1272255466459376,0.0225131684870285,-0.173740179689811,-0.382106856755427,0.0620054053498872,0.2635234474223901,0.212557490687565,1.50082018479481,-0.1584653449652818,-0.4345651684531768,0.0964161185276684,0.9040988619400724,0.2812399015504438,0.8592309193867387,0.0045931587225239,10.316641315816923,-0.9617802719738676,0.2787590829129995,-0.8912976504967748
2.12,0.2560435515623752,0.2021888116134096,1.501972444623088,-0.0563233969772277,0.1296284587211494,0.0231616810923386,-0.1675091908542138,-0.3663557672321674,0.0630476820678502,0.2603541405230845,0.2038661873185015,1.5027485071653632,-0.15400427667779,-0.4201097710260947,0.100411668951529,0.8485404878317282,0.3115494417798597,0.7875544761629799,0.0521138358981515,10.316641315816923,-0.9585168653303738,0.2771341197744215,-0.8942851203805594
2.14,0.2527667884066259,0.1950302113719577,1.5032492055897408,-0.0530986528394247,0.1312428428474163,0.023872133924606,-0.1605261390276874,-0.3503323946609153,0.0645874874309462,0.2571848336237788,0.1951748839494379,1.5046768295359167,-0.1495432083902982,-0.4056543735990127,0.1044072193753895,0.8773290174235212,0.349152591326321,0.8011686285626068,0.0769902681547994,10.403014477849863,-0.9559471960018152,0.2759811048380074,-0.89625005831524
2.16,0.2496328789997219,0.1881902239953832,1.5045611524004618,-0.0501805689963367,0.1319647148677669,0.0246127730147505,-0.1532981368474865,-0.334525882506266,0.0665303988787292,0.2541270534316605,0.1868449655160514,1.5067050406670666,-0.1450821401028064,-0.3911989761719306,0.1084027697992501,0.8744494652436896,0.3614001090100419,0.7903256077324644,0.0971455723891491,10.403014477849863,-0.9539988088889856,0.2751517189834024,-0.8973481335920154
2.18,0.2466426531589438,0.1816623430696686,1.5059158036412772,-0.0474127942122014,0.131915293770935,0.025382465798809,-0.1461476189780005,-0.3191258772136234,0.0688606615736917,0.2511807999467295,0.178876432018342,1.5088331405588131,-0.1406210718153146,-0.3767435787448486,0.1123983202231106,0.8569133460315485,0.3575258934743003,0.7700002646321313,0.1165131347481272,10.4259419542268,-0.9529502080915326,0.2745842324246461,-0.8973574435514912
2.2,0.2439325697293665,0.1757416300776503,1.507250161546558,-0.0448744855750244,0.1312741312773455,0.0261337083607496,-0.1395577207016873,-0.3049482910765859,0.0714880559370405,0.2393352722100438,0.1657060492089875,1.5093588367199615,-0.1441115252437958,-0.3069182284967564,0.074245208278282,0.7926757046640043,0.3294949138156644,0.7088793068518728,0.1313697181674372,10.448352644327317,-0.9525196808689946,0.2740957882556229,-0.8965980777912467
2.22,0.2412269050227789,0.1698402438960446,1.508645265290003,-0.0407610116216963,0.129304864394798,0.0270749658109937,-0.1313275978826586,-0.2868502027714024,0.0676009343174039,0.2393352722100438,0.1657060492089875,1.5093588367199615,-0.1441115252437958,-0.3069182284967564,0.074245208278282,1.0128986084554117,0.4115061409514328,0.904904415259178,-0.1943560809818265,10.055500901162304,-0.9531574756597176,0.2729318778816216,-0.8943162761352992
2.24,0.2386859305023199,0.1642566815137681,1.5099645332955691,-0.0352620171511074,0.1250462516871527,0.028180922149451,-0.1233532476982095,-0.2727468642755628,0.0645861616404298,0.2393352722100438,0.1657060492089875,1.5093588367199615,-0.1441115252437958,-0.3069182284967564,0.074245208278282,0.8239891866497453,0.3987175092224557,0.7051669247919778,-0.1507386338487078,10.055500901162304,-0.9542756568598304,0.2694674918844712,-0.8937098871205718
2.26,0.2364014016450433,0.159186581890341,1.5111775006193804,-0.0300438626938581,0.1192872344481876,0.0292536822707408,-0.1178534975278442,-0.2617150410510095,0.0632627983827932,0.2378941569576058,0.1626368669240199,1.5101012888027443,-0.1437043064969548,-0.304476698753383,0.0753221176192001,0.6198783467461371,0.2749875085182658,0.5515911612276658,-0.0661681628818279,10.133776309249695,-0.9566240612545388,0.2659371792795345,-0.8915718501930816
2.28,0.2340784476997261,0.1540586025024189,1.512439690985471,-0.0250480579618828,0.1125327659713243,0.0303229403498168,-0.1149734325042378,-0.2516822602836801,0.0630889982304787,0.2350119264527299,0.1564985023540848,1.5115861929683103,-0.1428898690032729,-0.2995936392666362,0.0774759363010362,0.5219714335057998,0.1440032511803191,0.5016390383664693,-0.0086900076157268,10.212802345741691,-0.9609910535644476,0.2630845095309536,-0.8868374902745657
2.3000000000000003,0.2317847098681536,0.1491189417688407,1.5137089614114994,-0.0207111286720911,0.1060252584236686,0.031295849416131,-0.1146976569117475,-0.2427683312975724,0.0638922595536576,0.232129695947854,0.1503601377841496,1.513071097133876,-0.142075431509591,-0.2947105797798894,0.0796297549828724,0.4477147833724578,0.0137887796245135,0.4456964493053827,0.0401630661589449,10.27409796244865,-0.9660669242085114,0.2607837055208029,-0.881185669198128
2.32,0.2294704064004771,0.1443480572488809,1.5150021027328413,-0.017043416704721,0.1005453908014174,0.032164548460152,-0.1168586622596137,-0.2346953041722448,0.0653892520674353,0.2292881873176621,0.1444659261885519,1.5146636922335333,-0.1412609940159091,-0.2898275202931427,0.0817835736647085,0.424513538259056,-0.1080502673933107,0.4036513562663837,0.0748496256888837,10.3211074204155,-0.9702486351821048,0.259094154047814,-0.8763499012486196
2.34,0.2272093034590518,0.139959033360434,1.5162597361711811,-0.0141076571543516,0.0970298686748932,0.0328980375149303,-0.1211052595568542,-0.227648639068501,0.0669230925764472,0.2264466786874703,0.1385717145929541,1.5162562873331906,-0.1404465565222272,-0.2849444608063959,0.0839373923465446,0.418454729918111,-0.212329864862025,0.3523332551871858,0.0766920254505962,10.355902523377154,-0.9733650997360128,0.2577419930677,-0.8725882760440702
2.36,0.2247263560553994,0.1354794995856688,1.5176150838384947,-0.0114911290198976,0.0958157910566459,0.0335856895416678,-0.12677420390355,-0.2206531989028121,0.0685370024891661,0.2236255309946206,0.1327995794845249,1.517902727899894,-0.1396321190285453,-0.2800614013196491,0.0860912110283807,0.4573779026254978,-0.2834472173347861,0.3497720082844463,0.0806954956359469,10.364954511942416,-0.9757117896734476,0.25665326747132,-0.8699033777622375
2.38,0.2221398892737682,0.1311364127554991,1.5190025900166235,-0.0092631233404543,0.0969185364709695,0.0342103470281685,-0.1313529422146229,-0.2139873608879293,0.0701351613693695,0.2208247442391128,0.1271495208632645,1.5196030139336434,-0.1388176815348634,-0.2751783418329023,0.0882450297102169,0.4121660853597622,-0.2289369155536472,0.3332919007441384,0.0799079440101692,10.359250819241424,-0.9763215042551946,0.2558600784143883,-0.8691828874040237
2.4,0.219478381821586,0.1269236451268802,1.520421582087739,-0.0073540104182448,0.099559961717824,0.0347938472506782,-0.1343486546860902,-0.2075927637947401,0.0716844701951325,0.215572242163037,0.1204370447111026,1.5225093480850922,-0.1272071732778994,-0.2078864226981546,0.0821291907646518,0.3614744909171206,-0.149785623573366,0.3197298546594632,0.0774654412881506,10.349194432672448,-0.9753248552065652,0.2552655740554144,-0.870163035278508
2.42,0.2169132219705575,0.123035608081632,1.5217947388841897,-0.0058537314632432,0.1027525775635698,0.0353185672275528,-0.1354037716078656,-0.2019516491726374,0.072775368362385,0.215572242163037,0.1204370447111026,1.5225093480850922,-0.1272071732778994,-0.2078864226981546,0.0821291907646518,0.292085196088539,-0.0527558460887672,0.2820557311051339,0.0545449083626234,10.313107922374002,-0.9732203363874656,0.2549070058531577,-0.8722795157186476
2.44,0.2142068011037488,0.1190574103146537,1.5232652712169648,-0.0046240728937221,0.1062308729273192,0.0358428675225111,-0.1350721537567347,-0.1961740011612411,0.0742328961188008,0.215572242163037,0.1204370447111026,1.5225093480850922,-0.1272071732778994,-0.2078864226981546,0.0821291907646518,0.2983939263101018,0.0165808925565433,0.2888824005698176,0.0728763878207909,10.335242655245564,-0.9705858030063044,0.2548223679738374,-0.8748438202000148
2.46,0.2115212464622361,0.1151933367035257,1.524768468855421,-0.0037379295630871,0.1094500497024318,0.0363403295010739,-0.1334558024840613,-0.1905298890974279,0.0760039449384573,0.2143001704302581,0.1183581804841211,1.5233306399927389,-0.1263780194905547,-0.2066662350601996,0.0845279966437082,0.3066154201404467,0.0808175636336686,0.2822056031906592,0.0885524409828253,10.335242655245564,-0.968085062233712,0.2550705005403016,-0.8770487505103405
2.48,0.2090096877301931,0.111626579823972,1.5262315174147003,-0.0031913251435573,0.1120382651448849,0.0367892682935705,-0.1309951342314591,-0.1852113009335173,0.0779058867005776,0.2117560269647,0.114200452030158,1.5249732238080318,-0.1247197119158653,-0.2042258597842897,0.0893256084018211,0.3080570189638251,0.1230334126301108,0.2659294081955296,0.095097088106013,10.369782290065814,-0.9656682104016422,0.2556507243086637,-0.8789111706159382
2.5,0.2064232642346993,0.1079815166619655,1.5278126284149125,-0.0028899891801335,0.1141491431538565,0.0372387732133756,-0.1277685381431637,-0.1795831646773557,0.0801115858728291,0.2092118834991421,0.1100427235761949,1.5266158076233247,-0.1230614043411759,-0.2017854845083798,0.094123220159934,0.3426074607819982,0.1613298044147726,0.2814068128080799,0.1102849586125775,10.384586045527612,-0.9636592477233824,0.2565190456195912,-0.8801355422939037
2.52,0.2039065008236121,0.1044509271452045,1.529439921749939,-0.0027865024423332,0.1155833408759669,0.0376699036996388,-0.1241100908642863,-0.1737832852341835,0.0825040068710791,0.2067506554123185,0.1060070138860273,1.5284982720265234,-0.1214030967664866,-0.1993451092324699,0.0989208319180469,0.3631339845033932,0.182922363943868,0.2899939721586114,0.1196210499124973,10.384586045527612,-0.9622578615836076,0.257555773921363,-0.8805929915313486
2.54,0.201585047286598,0.1012065983062149,1.531031556155825,-0.0027615209337492,0.1163514666407331,0.0380698251127775,-0.1204813083256232,-0.1680493835327252,0.0849181278514907,0.204289427325495,0.1019713041958597,1.5303807364297222,-0.1197447891917972,-0.19690473395656,0.1037184436761599,0.3601168961009588,0.1814391269331541,0.2866950850729119,0.120706049020583,10.39610216959136,-0.9614798495652968,0.2590008715955013,-0.8799043970468212
2.56,0.1992153687820219,0.0979116419923123,1.5327581226593507,-0.0026817564832722,0.1166212018965434,0.0384894439664466,-0.1167159050765259,-0.1617754871286535,0.0876224399159259,0.2018696569280388,0.0979966038875898,1.5323831411268738,-0.1180864816171078,-0.1944643586806501,0.1085160554342728,0.3900427587431472,0.188270162454867,0.3136948202035847,0.1352156032217569,10.405217741567869,-0.9613412760482462,0.2606028660118412,-0.878266126517023
2.58,0.1969193314892769,0.0947449308391064,1.5345404317142814,-0.0023950044189117,0.1164480626628676,0.0389176975812345,-0.1131176811790587,-0.1552518901680745,0.0904839032606374,0.1994913442199497,0.0940829129612177,1.534505486117978,-0.1164281740424184,-0.1920239834047402,0.1133136671923857,0.3990379211099723,0.1799111948733577,0.3261798480289513,0.1430731672355772,10.420766759353684,-0.9616550240373258,0.2620283838800586,-0.8761946609727658
2.6,0.1946926665997878,0.0917106976288445,1.536381746295831,-0.0017449130955581,0.1159464582773196,0.0393643391092465,-0.1097755756156018,-0.148581212109413,0.0935128152623367,0.1912634474303239,0.0869823363307027,1.5390646268773134,-0.1156469945012154,-0.1488741750163175,0.0931880912554603,0.4026224139117073,0.1671052781728445,0.3335339029330766,0.1514456000849658,10.420766759353684,-0.9624919850978536,0.263415677878723,-0.873338150831313
2.62,0.1926456754038533,0.0889408436474543,1.538137648094284,-0.0010632650957725,0.1147992992927444,0.0397862363815965,-0.1059545416739685,-0.1432495691299906,0.0911701649810607,0.1912634474303239,0.0869823363307027,1.5390646268773134,-0.1156469945012154,-0.1488741750163175,0.0931880912554603,0.348262571860301,0.1910516970816671,0.2665821489711187,-0.1171325140638009,10.09284882881002,-0.9632164742303772,0.265060462430334,-0.8700401880812222
2.64,0.1905643689997696,0.0861366332160775,1.5399378027505708,-0.0004383981777445,0.1124891316752136,0.0402162517851234,-0.1024745991690385,-0.1374713670891995,0.0890223992076078,0.1912634474303239,0.0869823363307027,1.5390646268773134,-0.1156469945012154,-0.1488741750163175,0.0931880912554603,0.3539439096786246,0.1739971252464972,0.2889101020395551,-0.1073882886726433,10.09284882881002,-0.9642572113885228,0.2656139803487377,-0.8678731297098989
