t,x,y,z,roll,pitch,yaw,v_x,v_y,v_z,ref_x,ref_y,ref_z,ref_v_x,ref_v_y,ref_v_z,a_com,a_x,a_y,a_z,thrust,wind_x,wind_y,wind_z
0.0,-2.1013125268767965,2.1949743820265226,2.5271274797681387,0.0221836829783471,0.100613841624138,0.043301385728283,0.0039994381471989,-0.0010268139500967,0.0340223904910353,-2.101186826811614,2.194850358603932,2.5281546838299027,0.0215649426807972,-0.1033177128116929,-0.065816143114316,1.7136021322829558,0.1999719073599493,-0.0513406975048398,1.7011195245517678,10.22112840560203,-0.949684570964652,0.2695037151993422,-0.8574226628611921
0.02,-2.1013196781300274,2.1952133862096463,2.5275649274859178,0.0295767223914316,0.1021802014052452,0.0438567976827006,-0.0040012880759871,0.0209956953761086,0.0118935188583865,-2.101186826811614,2.194850358603932,2.5281546838299027,0.0215649426807972,-0.1033177128116929,-0.065816143114316,1.6114353049808086,-0.4000363111593072,1.1011254663102743,-1.1064435816324416,10.220563630619836,-0.9413829889440776,0.2704822546395423,-0.8581404650938503
0.04,-2.1014734766147467,2.1956783502055344,2.527496994687409,0.0439985689134114,0.1067383943326399,0.0450144190677011,-0.0105297291969436,0.0236041404619601,-0.0177574391751916,-2.101186826811614,2.194850358603932,2.5281546838299027,0.0215649426807972,-0.1033177128116929,-0.065816143114316,1.523650092331496,-0.326422056047823,0.1304222542925738,-1.4825479016789076,8.884365528609123,-0.9263206277142624,0.2503125763843727,-0.8871677012246485
0.06,-2.1017224341453966,2.19611452621994,2.526828276732888,0.0589744728252781,0.1133577032392227,0.0463637446572658,-0.0136440119504442,0.019540803244928,-0.0476997133612371,-2.100971177384806,2.193817181475815,2.5274965223987595,0.025049923442802,-0.1233177131097161,-0.0858161434123392,1.5188394005295622,-0.1557141376750295,-0.2031668608516071,-1.497113709302278,8.629549320690785,-0.911593691985522,0.2288181902937897,-0.9162677739109272
0.08,-2.1019832671635603,2.196419524740009,2.525644541907333,0.0727208342980488,0.1205003975213948,0.0477388681686194,-0.0134104648575554,0.0124993243752921,-0.0754948818611021,-2.10053987853119,2.191750827219581,2.526180199536473,0.0320198849668117,-0.1633177137057626,-0.1258161440083857,1.4337087926528274,0.0116773546444363,-0.3520739434817927,-1.3897584249932489,8.677678444387766,-0.8950244841221122,0.2064068934736673,-0.9462449211283251
0.1,-2.102222008646606,2.196567793237358,2.523830153902262,0.0865319136048313,0.1280699263973243,0.049225392122843,-0.0102429610904131,0.0023992821939004,-0.1045358227420093,-2.100108579677574,2.189684472963348,2.524863876674187,0.0389898464908214,-0.203317714301809,-0.1658161446044321,1.545493593831026,0.1583751883571149,-0.5050021090695866,-1.452047044045357,8.75318573017421,-0.8785072512432933,0.1852211773482247,-0.9735564225281716
0.12,-2.102367526421802,2.196486563730446,2.521441203337673,0.0996610096200682,0.1350355318073427,0.0506832127933313,-0.0043581503213847,-0.0102989061150541,-0.1330113409162437,-2.0993287827477576,2.185618118677312,2.5215475537820984,0.0459598080148311,-0.2433177148978554,-0.2058161452004785,1.5864505345330642,0.294240538451423,-0.6349094154477269,-1.4237759087117212,8.878513803769692,-0.8618925401896739,0.1641043430537091,-0.999847434789443
0.14,-2.102372985242018,2.196125887913241,2.518478933706159,0.1121255713074342,0.1409798755052706,0.0520442711218734,0.0035646316615613,-0.0254039174153773,-0.1618931605556683,-2.098548985817941,2.181551764391275,2.51823123089001,0.0529297695388408,-0.2833177154939019,-0.245816145796525,1.677119067341704,0.396139099147305,-0.7552505650161606,-1.4440909819712326,8.878513803769692,-0.8463175596312864,0.1442756806492501,-1.0235558347572151
0.16,-2.1022143486651226,2.1954815170453545,2.515126591314569,0.1233698083038445,0.1454358154973861,0.0531885371486446,0.0127151242550007,-0.0418926689331562,-0.1896157311158968,-2.097594939850025,2.1764854100903377,2.51391490798302,0.0598997310628505,-0.3233177160899483,-0.2858161463925715,1.676418324721257,0.457524629671967,-0.8244375758889466,-1.3861285280114224,8.900563715424141,-0.8316093618003324,0.1247449780921506,-1.0450603924448847
0.18,-2.1018483923960063,2.194442507099595,2.5110252335578767,0.1345980099356711,0.1487656572586454,0.054187268075867,0.0233938254393751,-0.061391015886184,-0.2191268540085585,-2.096466644844008,2.170419055774499,2.508598585061129,0.0668696925868602,-0.3633177166859948,-0.3258161469886179,1.847380961842729,0.5339350592187199,-0.9749173476513894,-1.4755561446330834,8.929091434396469,-0.8182905721600374,0.1058961768607331,-1.064299257446348
0.2,-2.101258768936872,2.1929904474397093,2.5063360175103906,0.1452253147083035,0.1506909692002981,0.0549376681157083,0.0349357948860437,-0.083077862230839,-0.2483965006986707,-2.1006787011240373,2.191372956305286,2.500068890857449,0.0466413505353147,-0.1613910173763001,-0.3191268554986746,1.9106599517238207,0.577098472333431,-1.0843423172327504,-1.463482334505614,8.952238831822797,-0.8070359091502224,0.0881019116699868,-1.0811118477584167
0.22,-2.100440293862269,2.191056161421089,2.5014593081738243,0.1510824248153484,0.1508726959680392,0.055077752088389,0.0504111897017702,-0.1170711204377391,-0.2631553453002276,-2.1006787011240373,2.191372956305286,2.500068890857449,0.0466413505353147,-0.1613910173763001,-0.3191268554986746,2.0080170207175128,0.7737697407863231,-1.6996629103450025,-0.7379422300778412,9.003882256249199,-0.8023264728384366,0.0715312904464584,-1.0948697756444723
0.24,-2.099265918991408,2.188397393857799,2.496031477175538,0.1530587054918926,0.1489294667991724,0.0545633559600322,0.0660695493295867,-0.1466722667096966,-0.2789438478379123,-2.1006787011240373,2.191372956305286,2.500068890857449,0.0466413505353147,-0.1613910173763001,-0.3191268554986746,1.8511407963944408,0.7829179813908282,-1.4800573135978767,-0.7894251268842356,9.918216180427407,-0.7988078177083962,0.0650233968476512,-1.101613211538298
0.26,-2.097786682014709,2.1851612000815237,2.49026478741828,0.1528370023273471,0.1448061531771151,0.0535205405783085,0.0808344128340607,-0.1752026561372812,-0.2968756372164913,-2.100212287618684,2.189759046131523,2.496877622302462,0.0512908555545026,-0.1813910176743233,-0.3391268557966978,1.839519900349746,0.7382431752236983,-1.4265194713792295,-0.8965894689289489,9.80229496611082,-0.79802609837961,0.0611553418513876,-1.1057922047006068
0.28,-2.0960366207494747,2.181360208709884,2.484121762411775,0.1507294854772295,0.138892819838396,0.0520462203958129,0.0930741889231631,-0.2032572041326732,-0.3164761930551828,-2.0992794606079777,2.186531225783997,2.4904950851924887,0.0605898655928785,-0.2213910182703698,-0.3791268563927442,1.8173136569692487,0.6119888044551186,-1.4027273997695988,-0.9800277919345762,9.59108891800406,-0.7987802462290273,0.058772355179776,-1.1091998318172127
0.3,-2.0941757679888413,2.1772422947484795,2.477910514747032,0.1472673405105062,0.1324718009853571,0.0504173178485077,0.1019662756756342,-0.2283320546220791,-0.336272037668642,-2.098346633597272,2.183303405436471,2.484112548082515,0.0698888756312543,-0.2613910188664162,-0.4191268569887907,1.6580808166670868,0.4446043376235574,-1.253742524470297,-0.9897922306729616,9.59108891800406,-0.8023474401747475,0.0585663726531638,-1.1100150478766198
0.32,-2.0920627371944347,2.172422409870624,2.4709552753234942,0.1432189612062026,0.1256005662411339,0.0486668547603176,0.1086647587358081,-0.2522300584849167,-0.3582635293863825,-2.096948856084646,2.1780755850591427,2.475730010942739,0.0791878856696302,-0.3013910194624626,-0.4591268575848371,1.6580183743757824,0.3349241530086956,-1.1949001931418777,-1.0995745858870254,9.505867851100447,-0.8062700491738048,0.0586095543702107,-1.1108349191796263
0.34,-2.0898402505136966,2.167138231062177,2.463552450788446,0.1393502848727257,0.1191857786012733,0.0470061208494414,0.113156402816251,-0.2749626892483913,-0.3809077546479431,-2.095551078572021,2.1728477646818143,2.4673474738029637,0.0884868957080061,-0.3413910200585092,-0.4991268581808836,1.619960111908737,0.2245822040221452,-1.1366315381737324,-1.1322112630780257,9.417116590660044,-0.8100743283533227,0.0583134637555869,-1.1119817755275934
0.36,-2.0876614771142785,2.161696276292568,2.45609522486889,0.1357098742962426,0.1138261464202715,0.0455421943846919,0.1158879106547176,-0.296547224243983,-0.4029045769354224,-2.0939208258084365,2.1666199442895846,2.4579649366482865,0.0977859057463819,-0.3813910206545556,-0.53912685877693,1.5469433383243818,0.1365753919233291,-1.0792267497795829,-1.0998411143739673,9.380357906473364,-0.8135127740177656,0.0576403917215199,-1.1136272442840345
0.38,-2.085328019291011,2.1555319109886284,2.4477879028157803,0.131766629033838,0.1092248130524675,0.0441423251895142,0.1171837824569335,-0.3185861080089526,-0.4266851245880855,-2.0920580977938923,2.159392123882454,2.447582399478708,0.1070849157847578,-0.421391021250602,-0.5791268593729765,1.622425751763542,0.0647935901107968,-1.1019441882484795,-1.1890273826331537,9.355092172517288,-0.8164117299129884,0.0569764152362826,-1.1160231038897956
0.4,-2.082984948255372,2.148933196937622,2.4389993613049183,0.1276809679406559,0.1060754239513532,0.0429287459646108,0.1169625071010225,-0.3399962219089229,-0.4509835425385168,-2.0794688301681643,2.139602605588181,2.426453646586376,0.1557791347787967,-0.4185861094990687,-0.5266851260782016,1.6193015893330975,-0.0110637677955501,-1.0705056949985163,-1.2149208975215653,9.317825621378688,-0.8177977444668724,0.0567177009968875,-1.1193374635697808
0.42,-2.080684247940191,2.141907459429345,2.4299181987004417,0.1240976525783292,0.1062829759520843,0.0421744174620997,0.113588229221847,-0.3617634622625721,-0.454923077986112,-2.0794688301681643,2.139602605588181,2.426453646586376,0.1557791347787967,-0.4185861094990687,-0.5266851260782016,1.1188369445123456,-0.1687138939587766,-1.088362017682462,-0.1969767723797616,9.292587267708768,-0.8151311546079576,0.052418895364484,-1.1294569398804457
0.44,-2.0784331060656105,2.134454903313889,2.420756590203742,0.1214805114342052,0.1108270363707731,0.0420083244358431,0.1123012406080071,-0.3825723496016505,-0.4611846747167594,-2.0794688301681643,2.139602605588181,2.426453646586376,0.1557791347787967,-0.4185861094990687,-0.5266851260782016,1.0884320438133257,-0.0643494306919956,-1.0404443669539158,-0.3130798365323678,10.273356922875791,-0.8125257459419238,0.0551711997580145,-1.1306229638901404
0.46,-2.076284877424597,2.12698891648974,2.411897394208841,0.1194614906985208,0.1176349855096868,0.0421615642833553,0.1142735012588773,-0.402234821554276,-0.4710502196034105,-2.0779110388203765,2.1354167444931904,2.421186795325594,0.1634982052431693,-0.4385861097970919,-0.5466851263762248,1.1043454976515306,0.0986130325435097,-0.9831235976312748,-0.4932772443325545,10.273356922875791,-0.8056893981786338,0.0567849904551392,-1.13558208603389
0.48,-2.07394914857313,2.118733832338571,2.4023375624565144,0.1175309200918718,0.1260186622030429,0.0424531108741554,0.1195169452571534,-0.4221805127351851,-0.4845698859915855,-2.0747954561248005,2.127045022303209,2.41065309280403,0.1789363461719146,-0.4785861103931383,-0.5866851269722713,1.2329899440940373,0.2621721999138064,-0.9972845590454582,-0.6759833194087544,10.037470215143005,-0.7961429693523343,0.0576596614870235,-1.1430849667742329
0.5,-2.0714765588376203,2.110086552558149,2.3924772180104035,0.1157058577503893,0.1345689885744324,0.0427415123160111,0.1276909472486153,-0.4414906374814935,-0.5008054024747324,-2.0716798734292245,2.1186733001132274,2.400119390282466,0.1943744871006599,-0.5185861109891848,-0.6266851275683177,1.325978150035799,0.4087000995730942,-0.9655062373154166,-0.8117758241573403,9.860277162357306,-0.7859117196881193,0.0578034206732053,-1.1516231225863507
0.52,-2.068952058436043,2.10152027123627,2.3827897809157648,0.1140331202233033,0.1421414763033906,0.0429288027266662,0.1377374709209627,-0.4592188639741932,-0.5181377737437995,-2.067792383687211,2.108301577893444,2.3875856877311,0.2098126280294052,-0.5585861115852313,-0.6666851281643642,1.3375665836550727,0.5023261836173673,-0.8864113246349864,-0.8666185634533585,9.733489363343324,-0.7748343256462172,0.057468061775006,-1.1612051793858231
0.54,-2.0660684940120224,2.092146366973431,2.3722265143614667,0.1124033802878766,0.1490907814886624,0.0429917682242198,0.1501891906625519,-0.4772315166109041,-0.5373396338365484,-2.063904893945198,2.09792985567366,2.3750519851797334,0.2252507689581505,-0.5985861121812778,-0.7066851287604107,1.4562043216487437,0.6225859870794603,-0.9006326318355462,-0.9600930046374412,9.640292481461984,-0.7641291836414214,0.0566465472316863,-1.170829666560361
0.56,-2.062916131471487,2.082407134674273,2.361271869698564,0.1106486168982213,0.1546677868261964,0.0428665899655376,0.1644500703793342,-0.4956316239304917,-0.5571845934042371,-2.0596314506799662,2.086558133438975,2.3615182826134657,0.2406889098868957,-0.6385861127773241,-0.746685129356457,1.5295089570774625,0.7130439858391165,-0.9200053659793788,-0.9922479783844362,9.605093037093866,-0.7545316393618111,0.0557697896661121,-1.1798384762834966
0.58,-2.0594641185617117,2.072300771936841,2.349914192935181,0.1084425428566609,0.1586004669766889,0.0425044047481278,0.1799282123950455,-0.5138292196417353,-0.5775818803815795,-2.0549720538915155,2.0741864111893893,2.346984580032297,0.256127050815641,-0.6785861133733706,-0.7866851299525035,1.570648501387615,0.773907100785566,-0.9098797855621816,-1.0198643488671222,9.594263110329848,-0.7468515480705177,0.0553406862079877,-1.1874645012230505
0.6,-2.055892209805965,2.0623676550051884,2.338741012424157,0.1059109493037317,0.1607780861803383,0.0419419977016162,0.1951543963328049,-0.5306261220504374,-0.5975070524429151,-2.050467707941959,2.046609310954754,2.3210350989161017,0.2234860462752316,-0.6138292211318515,-0.6775818818716957,1.5091264770619532,0.7613091968879673,-0.839845120435101,-0.9962586030667796,9.557800390030934,-0.7406095527418712,0.0554114870351527,-1.1942451329197936
0.62,-2.0517783647780585,2.051552219982236,2.3267960395181766,0.1028874491256955,0.1614253855374935,0.0411360640639147,0.2155248613557406,-0.5499688004540981,-0.5947316728286779,-2.050467707941959,2.046609310954754,2.3210350989161017,0.2234860462752316,-0.6138292211318515,-0.6775818818716957,1.4113803394914637,1.0185232511467857,-0.9671339201830388,0.1387689807118619,11.07522505452198,-0.7388652212811929,0.0543982079437525,-1.1994912717045811
0.64,-2.0472592526444644,2.0403693530767395,2.3149127689902493,0.0999767731775529,0.160424721484531,0.0401598733616103,0.2352180294593417,-0.5673461563624033,-0.5941177344973878,-2.050467707941959,2.046609310954754,2.3210350989161017,0.2234860462752316,-0.6138292211318515,-0.6775818818716957,1.313554613058806,0.9846584051800568,-0.8688677954152568,0.0306969165645043,10.744433818973448,-0.7373355258886185,0.0566635467769237,-1.2011591119524094
0.66,-2.042355602050043,2.0288462541542347,2.302987327506883,0.0973423230312163,0.1577402116087632,0.0390321997047706,0.2540356924371754,-0.5840308642239405,-0.5986449663491035,-2.048232847479207,2.0404710187434354,2.3142592800973847,0.2321976130512688,-0.6338292214298746,-0.6975818821697188,1.2776734173991438,0.9408831488916845,-0.8342353930768598,-0.2263615925857831,10.744433818973448,-0.7388873308176958,0.0588428424571291,-1.2003754959914816
0.68,-2.037358798891165,2.017598310069587,2.2915301449854497,0.0949708392306461,0.1533966427253312,0.0377987268159526,0.2708034351477806,-0.5990984595436056,-0.607100191735472,-2.043763126553702,2.0281944343207985,2.300707642459951,0.2496207466033432,-0.6738292220259211,-0.7375818827657653,1.2038277084580455,0.838387135530258,-0.7533797659832586,-0.4227612693184279,10.443912866418032,-0.7422434252971428,0.0604829402225096,-1.1990880900140333
0.7000000000000001,-2.031781303342902,2.00545786011416,2.2792639074516905,0.09266052887914,0.1471931453888932,0.0363673120710587,0.2856930948150693,-0.6141400926703381,-0.6192019369831694,-2.039293405628197,2.0159178498981616,2.287156004822517,0.2670438801554177,-0.7138292226219676,-0.7775818833618118,1.2190210520814082,0.7444829833644362,-0.7520816563366228,-0.605087262384868,10.202903838322529,-0.7467277867369158,0.0613126833803416,-1.197890841098894
0.72,-2.025938740262192,1.9930223301260532,2.2667251601458647,0.0905747575203404,0.1401332591352197,0.0348845453814549,0.2975377166401377,-0.6286458401643371,-0.6341665579438169,-2.033952528025089,2.001641265445722,2.271604367155281,0.2844670137074921,-0.753829223218014,-0.8175818839578582,1.1985946531609386,0.5922310912534173,-0.7252873746999511,-0.7482310480323773,10.002558440983194,-0.7523579305984271,0.0615098950007498,-1.1963939814100024
0.74,-2.019888148519513,1.9803013315614275,2.2538683938307096,0.0887089719534413,0.1328938874185324,0.0334141040240245,0.3067347879531463,-0.642741120448914,-0.6507342537328503,-2.028611650421981,1.987364680993283,2.2560527294880446,0.3018901472595666,-0.7938292238140605,-0.8575818845539047,1.1808382518314071,0.459853565650431,-0.7047640142288425,-0.8283847894516694,9.83572810851092,-0.7583219013123899,0.0610605249725279,-1.195135788205043
0.76,-2.0136755563209245,1.9672927395582127,2.240667590549347,0.0867601802217288,0.1259007139477302,0.0319732347851959,0.3139002639364973,-0.6572202358129845,-0.6684855736978661,-2.0228351944800704,1.9720880965259424,2.239501091805907,0.319313280811641,-0.8338292244101069,-0.8975818851499511,1.2001022751149295,0.3582737991675522,-0.7239557682035269,-0.8875659982507889,9.751320763396508,-0.7639819247057497,0.0605864923085451,-1.1940576755302177
0.78,-2.0076586719173557,1.9546680619349548,2.2277869662757164,0.0846060788314022,0.1197029849199536,0.03063700839939,0.318989675486004,-0.6707649337391738,-0.6864544612121183,-2.0166231601993583,1.9558115120437007,2.221949454108868,0.3367364143637154,-0.8738292250061533,-0.9375818857459975,1.1535183898965555,0.2544705774753353,-0.6772348963094643,-0.8984443757126093,9.68445412904748,-0.7696749604507362,0.0604320105558751,-1.1930501232374382
0.8,-2.001237525061751,1.941107776071662,2.2138469012475404,0.082039910555334,0.1138125312419714,0.0292817612649022,0.3227338439266802,-0.6843866830230104,-0.7066503422430005,-1.991709188143055,1.921129815247996,2.1934642432151104,0.3689894899665472,-0.7707649352292899,-0.7864544627022344,1.2323194203182544,0.1872084220338077,-0.6810874641918319,-1.0097940515441106,9.616378689982412,-0.774913646366158,0.0606578426683126,-1.1922476647615636
0.8200000000000001,-1.9947668359678232,1.927253567190608,2.1997695640540877,0.0790948119257045,0.1100579374340766,0.0280930710967636,0.3239813891669695,-0.700220751224752,-0.6986260050602224,-1.991709188143055,1.921129815247996,2.1934642432151104,0.3689894899665472,-0.7707649352292899,-0.7864544627022344,0.8897528760376214,0.0623772620144652,-0.7917034100870801,0.4012168591389031,9.53745863646418,-0.7758030879359378,0.0579913144450984,-1.1985973148810352
0.84,-1.9886163557144312,1.9138184043467723,2.1865418615423216,0.0763173499637096,0.1103516249329621,0.027281392495734,0.3239232118339516,-0.7132194385105016,-0.6943209910172594,-1.991709188143055,1.921129815247996,2.1934642432151104,0.3689894899665472,-0.7707649352292899,-0.7864544627022344,0.6846575816875435,-0.0029088666508941,-0.64993436428748,0.2152507021481509,11.40311460416524,-0.7778563116771083,0.0617228108143417,-1.1952689414448163
0.86,-1.9821219073485548,1.899420900053287,2.172647289938267,0.0737195003996675,0.1137230948512618,0.0266845496182485,0.3258575448333431,-0.7258036510998728,-0.6956248154054345,-1.9880192932433896,1.9134221658957031,2.185599698588088,0.3789894528626558,-0.7907649355273131,-0.8064544630002576,0.6399297005965232,0.0967166499695748,-0.6292106294685573,-0.0651912194087556,10.93892899029288,-0.7759589499854497,0.0649502901422606,-1.1949172274805695
0.88,-1.975566121782257,1.8847810915837184,2.1586734789924518,0.0714142501528024,0.118970259524764,0.0262418633817395,0.3299071437589992,-0.7375123776873074,-0.7018918641482919,-1.9806395034440587,1.8980068671911172,2.169870609334043,0.398989378654873,-0.8307649361233596,-0.846454463596304,0.6942071551477322,0.2024799462828075,-0.5854363293717302,-0.3133524371428664,10.27850772388956,-0.77047078552404,0.0671286022415914,-1.1980633384438224
0.9,-1.9689075758942325,1.8699160108341557,2.1445290912945536,0.0693872104424351,0.1251240401000199,0.0258768442477899,0.3359947535204953,-0.7484236947895707,-0.7122362656699299,-1.973259713644728,1.8825915684865315,2.1541415200799987,0.4189893044470903,-0.870764936719406,-0.8864544641923505,0.8110525204252725,0.3043804880748041,-0.545565855113167,-0.5172200760819035,10.27850772388956,-0.7631598867950247,0.0684013752898859,-1.2032173897448253
0.92,-1.9624506830020247,1.8555986390631527,2.130871302301772,0.0677313277943622,0.131161561132812,0.0255565384146087,0.3435307374528181,-0.7581591531202396,-0.7249269386862358,-1.9648799275557856,1.8651762697521437,2.136412430796152,0.4389892302393076,-0.9107649373154524,-0.926454464788397,0.8840579510744921,0.3767991966161371,-0.4867729165334455,-0.6345336508152943,10.068461126205875,-0.7545571433067094,0.0690793861889029,-1.2097167408447336
0.94,-1.955481343426623,1.840335040765504,2.116219828625217,0.0663693301601112,0.1372598329913628,0.0252243856670678,0.3531519143402829,-0.767697276276684,-0.7396254826643935,-1.956500141466844,1.8477609710177552,2.1186833415123045,0.4589891560315248,-0.950764937911499,-0.9664544653844436,0.9994874100322946,0.4810588443732416,-0.4769061578222211,-0.7349271989078865,9.911203904544893,-0.7457353872723478,0.0689916651959991,-1.216785887283679
0.96,-1.94829957824968,1.8248759692227388,2.101263991529715,0.0652390749543397,0.1426817440778457,0.0248617842977048,0.3646290947704633,-0.7776721650951661,-0.7552681479925615,-1.9476203572330968,1.829345672268466,2.099954252213556,0.478989081823742,-0.9907649385075452,-1.00645446598049,1.0907761641797336,0.5738590215090184,-0.4987444409241037,-0.7821332664083969,9.849395389079293,-0.7373355852488581,0.0684923568878741,-1.223782440435441
0.98,-1.940872212626343,1.8092149123919483,2.085985178234023,0.0639443916627397,0.1470326806207605,0.024417405790554,0.3775073128222599,-0.7878102576778515,-0.7718412032879471,-1.938240574854544,1.8099303735042755,2.080225162899907,0.4989890076159592,-1.0307649391035918,-1.0464544665765363,1.1654350938905087,0.643910902589831,-0.5069046291342694,-0.8286527647692832,9.815810255000542,-0.7302174936179828,0.0681603272158409,-1.2299483467514627
1.0,-1.9335687889744404,1.7941490405856988,2.071154038969016,0.0623582221626283,0.1500080548331792,0.0238968572862424,0.3905614283596113,-0.7974328831897592,-0.7885038675983614,-1.92199684698523,1.7698243995080558,2.0473931180696257,0.4348715978144779,-0.8878102591679676,-0.8302640928484082,1.162593260911238,0.6527057768675681,-0.4811312755953867,-0.833133215520715,9.780402830956518,-0.7243834404388899,0.0683589226906455,-1.235203108492763
1.02,-1.925531758567589,1.7780539392054278,2.0555743621044145,0.0595793099350047,0.1512963348098161,0.0231597549079737,0.4126529957873537,-0.8111272574402419,-0.7665597004273005,-1.92199684698523,1.7698243995080558,2.0473931180696257,0.4348715978144779,-0.8878102591679676,-0.8302640928484082,1.7008231171687456,1.1045783713871216,-0.684718712524135,1.097208358553048,12.426409748714832,-0.7242138756493048,0.0671542174388609,-1.2394203540459874
1.04,-1.9170486081817613,1.761714149242826,2.04046381582325,0.0560282372920328,0.15016781707362,0.0222352834831731,0.4343417133077647,-0.8219678231081178,-0.746089988686256,-1.92199684698523,1.7698243995080558,2.0473931180696257,0.4348715978144779,-0.8878102591679676,-0.8302640928484082,1.5866059927098846,1.0844358760205508,-0.5420282833937917,1.0234855870522253,12.426409748714832,-0.7257484967445902,0.0730382045389869,-1.2356393404178805
1.06,-1.9081449527913747,1.74518098625317,2.025686577164313,0.0525573285913022,0.1465497363833375,0.0211988522062497,0.4547343716494499,-0.8307833820375061,-0.7325928744203791,-1.9176481310070848,1.760946296916376,2.0390904771411416,0.4463444548129215,-0.9078102594659908,-0.8419486707605004,1.2997564069705136,1.0196329170842622,-0.4407779464694172,0.6748557132938426,11.971769162932103,-0.7315110718600509,0.0790041049447349,-1.228522556818039
1.08,-1.899329685447184,1.7293251276122596,2.011845178251781,0.0496262583964592,0.1407749317433554,0.0201456867350694,0.4717006479454378,-0.8378740012762809,-0.7250184123888165,-1.908950699050796,1.7431900917330168,2.0224851952841734,0.4692901688098087,-0.9478102600620372,-0.8653178265846848,0.994363977133959,0.8483138147993924,-0.3545309619387371,0.3787231015781322,11.52579453027738,-0.7384495260823888,0.0838497417867691,-1.2221216734679878
1.1,-1.8897427920126613,1.7124995340325688,1.9973869114625005,0.0470792618949297,0.1330760181267993,0.0190290088200655,0.4856939117983577,-0.844376428824857,-0.7213780882664882,-1.900253267094506,1.7254338865496577,2.005879913427205,0.4922358828066959,-0.9878102606580836,-0.8886869824088692,0.792693126306647,0.6996631926459967,-0.3251213774288053,0.1820162061164143,11.164546114022414,-0.7473624325954263,0.0873714270317628,-1.2152848401505163
1.12,-1.8799154550353725,1.6955504578235707,1.9829587099025583,0.0451258475582907,0.1246290505861766,0.0179528410910401,0.4960095034818962,-0.8502816590150925,-0.7217674160995433,-1.890408549438372,1.7056776813364958,1.988106173779028,0.5151815968035831,-1.0278102612541302,-0.9120561382330536,0.5946317169953765,0.515779584176923,-0.2952615095117739,-0.0194663916527559,10.871597817228576,-0.7572428100350619,0.0898392390257526,-1.2081988741994156
1.14,-1.8699164442170564,1.67849022318078,1.968499398610084,0.0438354672683019,0.116165559197516,0.01695160926221,0.5031546168929719,-0.8555436317821206,-0.7241052265845905,-1.8805638317822384,1.685921476123334,1.9703324341308504,0.5381273108004704,-1.0678102618501766,-0.935425294057238,0.4588201197693824,0.3572556705537855,-0.2630986383514055,-0.116890524252361,10.620471635667856,-0.766450409957894,0.090895780637045,-1.2022885746526015
1.16,-1.8603086738435812,1.6621813138618045,1.9547070096274348,0.0430921585493015,0.108530226977149,0.0160730297767067,0.5076766069679033,-0.8608937065732115,-0.7275868450727574,-1.870145471276182,1.665165270895271,1.9519744655870683,0.5610730247973575,-1.107810262446223,-0.9587944498814224,0.3911309301410143,0.2260995037465685,-0.2675037395545476,-0.174080924408343,10.513801274343678,-0.7756813365350855,0.0911738042252414,-1.1966011402541232
1.18,-1.850124625129381,1.6449036519381677,1.9401046752123423,0.0425999349492406,0.1011608869114827,0.0152155204404234,0.5103253666024825,-0.8665683763594415,-0.7325105959683036,-1.859153467920204,1.6434090656523073,1.9330322681476817,0.5840187387942447,-1.1478102630422693,-0.9821636057056068,0.3983124642348007,0.1324379817289611,-0.2837334893114995,-0.2461875447773098,10.430046146412678,-0.7840740671743286,0.0909354855818977,-1.191630248070841
1.2,-1.839907787614541,1.6275107060192184,1.9253899540648256,0.0422638631376119,0.0946584453769698,0.0144222706043027,0.5110993594381571,-0.87241022491222,-0.7387605561857064,-1.8246083567992568,1.6015752331201956,1.9034791454139277,0.5722164231997153,-0.9665683778495576,-0.7473535727843021,0.4295004718926182,0.0386996417837293,-0.2920924276389236,-0.312498010870138,10.347242386871583,-0.7913510053101334,0.0903323261185079,-1.1876130535710474
1.22,-1.829678419577152,1.6099370131030462,1.9109165558005632,0.0404702118840675,0.0898866991067757,0.0136192501161506,0.5116352598890808,-0.8839493180909113,-0.7081997845867598,-1.8246083567992568,1.6015752331201956,1.9034791454139277,0.5722164231997153,-0.9665683778495576,-0.7473535727843021,1.6335533519010006,0.0267950225461832,-0.5769546589345642,1.5280385799473273,10.267685956139758,-0.7954636643430182,0.0875252745079069,-1.1905699776430465
1.24,-1.8199742580592115,1.593062361650617,1.89771658589542,0.0372421468457685,0.0880789033599949,0.0128859013600977,0.510010330104951,-0.8914128663346458,-0.6828652920227644,-1.8246083567992568,1.6015752331201956,1.9034791454139277,0.5722164231997153,-0.9665683778495576,-0.7473535727843021,1.3230471105227557,-0.0812464892064879,-0.3731774121867259,1.2667246281997724,12.761509764234688,-0.8021679096173199,0.0940929619816157,-1.1804229791789644
1.26,-1.8097893819664943,1.5751804260308198,1.884290412286583,0.0338001434709794,0.0888429598836584,0.0122327661819646,0.5088158984311908,-0.8963677514989391,-0.6613061588118174,-1.81888619256726,1.5919095493417,1.896005609686084,0.5845946345191619,-0.9865683781475808,-0.7503221681475019,1.1076707304316238,-0.0597215836880105,-0.247744258214666,1.0779566605473467,12.304713261196412,-0.8050863700247267,0.1002163004283214,-1.1735857294623613
1.28,-1.7996164467709344,1.5572171026682888,1.8712461965274243,0.0309445655671222,0.0915081221140408,0.0117004907507129,0.5087633715375303,-0.8997944661791496,-0.6443731069632583,-1.8074418641032648,1.5725781817847089,1.881058538230398,0.609351057158055,-1.0265683787436273,-0.7562593588739013,0.8638191035745246,-0.0026263446830265,-0.1713357340105248,0.8466525924279544,11.919631399586253,-0.8050284576222089,0.1054973728611817,-1.1692872293807732
1.3,-1.7894300761950377,1.539195422369391,1.858501980359012,0.02885770978221,0.0953793145965682,0.0112713174792791,0.5100847606178192,-0.902330081638887,-0.631036992513049,-1.795997535639271,1.5532468142277176,1.866111466774712,0.6341074797969481,-1.0665683793396736,-0.7621965496003007,0.681959242715882,0.0660694540144446,-0.1267807729868675,0.6668057225104662,11.381531303930387,-0.8027859328734738,0.1093856996997988,-1.1675057350542175
1.32,-1.7792019760625497,1.5211324273771378,1.8459926903670656,0.0276816087465548,0.0998982054827155,0.0109367233393262,0.5128585830603323,-0.9040038147615098,-0.6205524632736195,-1.783315386043332,1.5319154466409242,1.850867535782706,0.6588639024358413,-1.10656837993572,-0.7681337403267001,0.5486821185367889,0.1386911221256559,-0.0836866561311433,0.5242264619714776,11.21568152103464,-0.7994785275109512,0.1118204939841085,-1.1672844625978087
1.34,-1.768900609553527,1.5030442088033111,1.8336866459089955,0.0277062928422073,0.1045982417735978,0.0107059707270807,0.5172897344636489,-0.9049256078677248,-0.6105836861514593,-1.7706332364473931,1.5105840790541307,1.8356236047907,0.6836203250747345,-1.1465683805317666,-0.7740709310530995,0.5474059796007984,0.2215575701658312,-0.0460896553107437,0.4984388561080077,11.21568152103464,-0.7954182023673364,0.1127138077809713,-1.1681960618361196
1.36,-1.7590142910768145,1.4858375214647377,1.822178420799756,0.0288336344885531,0.1087993421009898,0.0105739232551581,0.5232125585265917,-0.9063375568048668,-0.6013157171912699,-1.757332176285482,1.4882527114524362,1.820231244030534,0.7083767477136276,-1.186568381127813,-0.780008121779499,0.5544562501422126,0.2961412031471377,-0.0705974468571069,0.4633984480094721,11.181155751795814,-0.7915982544745347,0.1122880461033348,-1.1690910936092678
1.38,-1.7484716772989397,1.4676900692056656,1.8102530087902784,0.0309705966499739,0.1125645604039043,0.0105027709994299,0.5307897992546657,-0.9084227068195656,-0.5917263027192674,-1.7434122055575982,1.4649213438358404,1.804690453502208,0.7331331703525207,-1.2265683817238593,-0.7859453125058984,0.619917933179128,0.3788620364037043,-0.1042575007349333,0.4794707236001228,11.181155751795814,-0.7883695498952716,0.1108098237298426,-1.16971777772136
1.4,-1.737764964262066,1.4494844266118556,1.7985159972007323,0.0336565727097714,0.1153886388263238,0.0104613932079626,0.5394565721852336,-0.9122006655401488,-0.5824637685566894,-1.721932187336206,1.4222689338646872,1.780666693654315,0.5813012302036384,-1.0084227083096815,-0.6021876824931822,0.6617787852397903,0.4333386465283917,-0.1888979360291698,0.4631267081289025,11.174399847241148,-0.7861972940340429,0.1088787705357009,-1.1697499825287394
1.42,-1.726795918962709,1.4311179043193658,1.7871334415671651,0.034133707927729,0.1151858868059604,0.0101808389808057,0.5566568103508149,-0.9232470589483436,-0.5561971635336252,-1.721932187336206,1.4222689338646872,1.780666693654315,0.5813012302036384,-1.0084227083096815,-0.6021876824931822,1.6641856414767724,0.860011908279068,-0.5523196704097288,1.3133302511532052,11.159744500476336,-0.7904203850074221,0.1077424941525729,-1.166054299335569
1.44,-1.7160676754773896,1.4134987570650763,1.7767925444697137,0.0320353872812772,0.110595111278096,0.0096082754391178,0.5711365302888579,-0.9306904661684215,-0.5336272518079136,-1.721932187336206,1.4222689338646872,1.780666693654315,0.5813012302036384,-1.0084227083096815,-0.6021876824931822,1.3914628236450373,0.7239859969021489,-0.3721703610039095,1.1284955862855828,12.341649558954488,-0.7982116231945516,0.1134061281585309,-1.1554239321223048
1.46,-1.704529474543267,1.39483113533965,1.766333037233098,0.0286157130188929,0.1025963191302774,0.0088626140803416,0.5813566426731204,-0.9353313898135424,-0.5136452773380832,-1.7161191750341698,1.4121847067815905,1.7746448168293831,0.591403516393433,-1.028422708607705,-0.6042799584479652,1.1459364872668016,0.5110056192131229,-0.2320461822560404,0.9990987234915204,12.063002195080117,-0.8098191039840819,0.1201170065048444,-1.1421740747338234
1.48,-1.6928419242192618,1.376103889772019,1.7562251865918308,0.0254318692609354,0.0930555422822172,0.0081455404262038,0.5864836732094499,-0.9372998560273008,-0.4980855662666516,-1.7044931504300969,1.3920162526153967,1.7626010631795197,0.6116080887730221,-1.0684227092037513,-0.6084645103575311,0.825024105680546,0.2563515268164784,-0.0984233106879173,0.777985553571578,11.473557090336726,-0.8219222591095368,0.1257724968561729,-1.129284748211776
1.5,-1.6816885116377005,1.358290431773783,1.74687561297385,0.0231684255199312,0.0838080728999632,0.0075619974969944,0.5870834472575706,-0.9379369112531328,-0.486831853628391,-1.6928671258260242,1.3718477984492032,1.7505573095296558,0.6318126611526111,-1.1084227097997976,-0.612649062267097,0.564383771059429,0.0299887024060308,-0.0318527612916008,0.5626856319130291,11.473557090336726,-0.8343638585115966,0.130119107153314,-1.1168224112221767
1.52,-1.669974745576424,1.3395348071781648,1.7372366927541174,0.0218088282532063,0.0748398860752967,0.0070775068646914,0.584050855446639,-0.9377235548209646,-0.4777663746430637,-1.680230872602972,1.3496793442532071,1.7383043282843138,0.6520172335322002,-1.148422710395844,-0.6168336141766629,0.4780822191116476,-0.1516295905465758,0.0106678216084121,0.453273949266364,11.232154111594356,-0.8456363957919976,0.1326737921368229,-1.1060645578091206
1.54,-1.6583546798087203,1.320791778847242,1.727758749172877,0.0218247214219851,0.0673568502902919,0.0067480862387683,0.5779704846555875,-0.936733676069148,-0.4705403879153905,-1.6675946193799198,1.3275108900572117,1.726051347038972,0.6722218059117894,-1.1884227109918906,-0.6210181660862288,0.4747779825573224,-0.3040185395525752,0.0494939375908276,0.3612993363836636,11.051028388533268,-0.8549125120123346,0.1332526693793717,-1.097636852875913
1.56,-1.6468835983365455,1.302063873948317,1.7184110339139138,0.0232783487048018,0.0619677487453846,0.0065769766289736,0.5693758102825444,-0.9362492097123132,-0.4645790568490454,-1.6544532518473778,1.3043424358463145,1.7136937519958908,0.6924263782913784,-1.228422711587937,-0.6252027179957949,0.5235470449542269,-0.4297337186521588,0.0242233178417428,0.2980665533172555,10.94726554263798,-0.8611624797002448,0.1320131726539168,-1.0923753897100408
1.58,-1.6361658944007296,1.2842733116083245,1.7096343445255162,0.0257518782276819,0.0593808712287243,0.0065549142890578,0.5592727358342553,-0.9366897604331618,-0.4595777781244969,-1.640806770005346,1.280173981620516,1.7012315431550706,0.7126309506709675,-1.2684227121839833,-0.6293872699053608,0.5640899465642253,-0.5051537224144531,-0.0220275360424293,0.2500639362274209,10.885902701546913,-0.864838648016531,0.1292515951965085,-1.089615001427478
1.6,-1.6250906368292026,1.2655156331847857,1.700495831039139,0.028839349417483,0.0594852273735275,0.0066462776766782,0.549086386591099,-0.9391888953040528,-0.4545317737730406,-1.6082022576090167,1.2374388235866665,1.6866554556192914,0.6247088829876328,-1.0366897619232778,-0.4553903730150914,0.5819569269313908,-0.5093174621578156,-0.124956743544552,0.2523002175728178,10.852384975874884,-0.8662021141826662,0.1260106614862746,-1.088478098277537
1.62,-1.6142085961187949,1.246624205337607,1.691630731079237,0.0297631552683955,0.0622651872578796,0.0066788889077986,0.5400045037315011,-0.9491812029485596,-0.4312553152136963,-1.6082022576090167,1.2374388235866665,1.6866554556192914,0.6247088829876328,-1.0366897619232778,-0.4553903730150914,1.3454742020964188,-0.4540941429798939,-0.4996153822253379,1.1638229279672143,10.829741173803086,-0.8654261313546013,0.1224713896915281,-1.0919815565493296
1.64,-1.603487468891846,1.2275636332228597,1.683245505139566,0.0277188758860146,0.0674772518128945,0.0065898202122578,0.5329830552289667,-0.9561331038861792,-0.408500949661601,-1.6082022576090167,1.2374388235866665,1.6866554556192914,0.6247088829876328,-1.0366897619232778,-0.4553903730150914,1.2403535961557524,-0.3510724251267194,-0.3475950468809885,1.1377182776047656,12.131951607842892,-0.8646956090274998,0.1265539098733507,-1.088260530663116
1.66,-1.5934092375601576,1.209358113458592,1.6756729692408323,0.0245384218813216,0.0738700825179672,0.0064613810143221,0.528551499628235,-0.959603374687795,-0.3897220058125935,-1.6019551687791405,1.2270719259674336,1.6821015518891405,0.6377961124183084,-1.056689762221301,-0.4545528919932103,0.9802170634138876,-0.2215777800365859,-0.173513540080783,0.9389471924503734,11.917951472785717,-0.861718071841341,0.1321299133491748,-1.086234115592141
1.68,-1.5828657939514053,1.1901569053574783,1.668063424456428,0.0214233105182074,0.0813950658127751,0.006358597584052,0.5263227933773813,-0.9604270406586798,-0.3723338752293237,-1.5894609911193878,1.2063381307289682,1.6729937444288387,0.6639705712796593,-1.0966897628173475,-0.4528779299494481,0.8774859576725849,-0.1114353125426848,-0.0411832985442395,0.8694065291634884,11.697865678566814,-0.8568640345706385,0.1373999802262422,-1.0860870571080004
1.7,-1.572340651966062,1.1709556510886392,1.6607761465076756,0.0192477510613972,0.0891242482064431,0.0063250600074527,0.5265487300524411,-0.9599549963920128,-0.3572672801577846,-1.576966813459635,1.1856043354905026,1.6638859369685368,0.6901450301410104,-1.136689763413394,-0.4512029679056859,0.7537840543228527,0.0112968337529884,0.0236022133333457,0.753329753576959,11.38921947538256,-0.851419855729502,0.1414296685414512,-1.0869770966432588
1.72,-1.5623152330077044,1.1527319466056742,1.6541168453548043,0.0182626250730131,0.0961878015621468,0.006369018703519,0.5289004543744729,-0.9585676321991716,-0.3444763401924509,-1.5631639128568149,1.1628705402222348,1.6548618776104231,0.7163194890023614,-1.1766897640094405,-0.4495280058619237,0.6539562903726507,0.1175862161015894,0.0693682096420622,0.6395469982666824,11.293414376457804,-0.8455746329476533,0.1443622532329383,-1.0884667993010937
1.74,-1.5516927617677854,1.133585701990221,1.6473658032864564,0.0187613676180821,0.1029782800938299,0.0065251122539055,0.533375316106118,-0.9562985099508464,-0.3313212973684886,-1.5493610122539947,1.1401367449539668,1.6458378182523097,0.7424939478637124,-1.2166897646054868,-0.4478530438181615,0.703968136699862,0.2237430865822565,0.1134561124162658,0.6577521411981174,11.293414376457804,-0.8399269189901858,0.1453683877623094,-1.0905482496142322
1.76,-1.5409581084212225,1.114478417708625,1.640876269515492,0.0209273985185734,0.108751703074567,0.0068015495043104,0.5399485591198411,-0.9546871701931636,-0.3183033968415733,-1.5349037501796403,1.1164029496707977,1.63685563294529,0.7686684067250634,-1.2566897652015332,-0.4461780817743993,0.7336035606184188,0.3286621506861542,0.0805669878841341,0.650895026345763,11.283214086125554,-0.8352832117636855,0.1447161098050133,-1.0920477167558222
1.78,-1.5300746009335948,1.095385141116461,1.6346467706937209,0.0242502669359268,0.1131740714575561,0.0071568725607956,0.5480853750789398,-0.955092811593962,-0.3053075696582226,-1.5197921266337528,1.0916691543727275,1.6279153216893645,0.7948428655864144,-1.2966897657975796,-0.4445031197306371,0.7669156457489374,0.4068407979549382,-0.020282070039912,0.6497913591675369,11.280934339950363,-0.8320590224933694,0.1431494939087834,-1.092545608638282
1.8,-1.519573601064872,1.0772157796911452,1.6289691539484048,0.0274894211377964,0.115957627313075,0.0074873516123579,0.5567754531924745,-0.9574619307251566,-0.292989434834797,-1.5026703321796475,1.047630500536763,1.6193813922108098,0.6224738418543572,-1.055092813084078,-0.3013357508236793,0.7629984085914188,0.4345039056767308,-0.1184559565597376,0.6159067411712765,11.285956012053248,-0.830261389404451,0.1412691192024999,-1.0920653989757136
1.82,-1.508298651905812,1.057960168515845,1.6233372290893175,0.0283860769705954,0.1165351190895236,0.00761134440483,0.5702521613991083,-0.9672499144944676,-0.2703245912550818,-1.5026703321796475,1.047630500536763,1.6193813922108098,0.6224738418543572,-1.055092813084078,-0.3013357508236793,1.4063440411648986,0.6738354103316913,-0.4893991884655557,1.1332421789857603,11.289851979859122,-0.8326313463353315,0.1408347758575746,-1.0892779976906672
1.84,-1.4967612076504215,1.0385469567846723,1.618160391342021,0.0261141050303206,0.1139941384744942,0.0074456063253944,0.5825721728478216,-0.9733629755127324,-0.248626261669547,-1.5026703321796475,1.047630500536763,1.6193813922108098,0.6224738418543572,-1.055092813084078,-0.3013357508236793,1.2844937756874757,0.6160005724356654,-0.3056530509132293,1.0849164792767387,11.998349150638203,-0.8382207869779571,0.146024657714918,-1.0805778846418754
1.86,-1.4850016126721144,1.0190503603819872,1.6133854752787662,0.0226377600147301,0.1089725995726496,0.0071648234807007,0.5923770714971495,-0.9757212411633712,-0.2300576094630277,-1.496445593761104,1.0370795724059223,1.616368034702573,0.6373515352094407,-1.0750928133821012,-0.3005413870567707,1.0565182193995155,0.4902449324663938,-0.1179132825319395,0.928432610325966,11.590584475980904,-0.8458121026388588,0.1524860973925876,-1.0700562211741715
1.88,-1.47308708728584,0.9995396893959536,1.6089485405697892,0.0195901917717745,0.1025761452204523,0.0069249232186991,0.5982561954063405,-0.9753700548874448,-0.2146795735356151,-1.483996116924017,1.0159777161442407,1.6103413196860994,0.6671069219196075,-1.1150928139781475,-0.2989526595229534,0.8233641641534017,0.2939561954595493,0.0175593137963114,0.7689017963706287,11.590584475980904,-0.8542504557446062,0.1582479663206002,-1.0591636176194292
1.9,-1.461095255536926,0.9800521741802832,1.6047860229065454,0.0176509565851845,0.0960817037637253,0.0067983204790675,0.6004929866457914,-0.9737343253936712,-0.2023071478763428,-1.47154664008693,0.9948758598825592,1.6043146046696255,0.6968623086297745,-1.155092814574194,-0.2973639319891361,0.6339474795278921,0.1118395619725487,0.0817864746886776,0.618621282963619,11.373499861548224,-0.8622799681132813,0.1623866808031076,-1.049190997478471
1.92,-1.4496922328579591,0.9615780814553788,1.6010395238790032,0.0170935596813549,0.0907224991174544,0.0068069335202502,0.5996089336449594,-0.971235341615508,-0.1926630328457357,-1.4576093939143344,0.9717740035910752,1.598367326029843,0.7266176953399415,-1.1950928151702405,-0.2957752044553188,0.5000885530468198,-0.0442026500416026,0.1249491889081633,0.482205751530354,11.189905714626548,-0.8693846796856617,0.1648551779608814,-1.0407044786249366
1.94,-1.4377360835944124,0.9421896108050274,1.5972830188685707,0.0182884162218215,0.0868990224727073,0.0069851391121598,0.5958935788377654,-0.967946801701842,-0.1835325525296561,-1.443672147741739,0.9486721472995912,1.5924200473900605,0.7563730820501083,-1.235092815766287,-0.2941864769215015,0.5195768155658738,-0.1857677403596991,0.1644269956832977,0.4565240158039774,11.055141718987215,-0.8741687994919106,0.1650163259073901,-1.035142930870036
1.96,-1.4258720571929004,0.9228560651550316,1.5937021852346032,0.0213220589270026,0.0857456246796338,0.0073464177687923,0.5909426111448939,-0.9659638002694264,-0.1750225526300231,-1.4289910169013893,0.9245702909932064,1.586512486938623,0.7861284687602753,-1.2750928163623334,-0.2925977493876842,0.5021565345302568,-0.2475483846435755,0.0991500716207793,0.425499994981654,10.957926320195838,-0.8769638913657154,0.1633226626358274,-1.031516700547992
1.98,-1.414095483760675,0.9035306032726734,1.5902907392462788,0.0251079211129254,0.0869182796868586,0.0078175834610054,0.587238756682037,-0.966842413305812,-0.1665395709488193,-1.4135660013932854,0.8994684346719202,1.5806446446755311,0.8158838554704422,-1.3150928169583798,-0.2910090218538669,0.464896431889323,-0.1851927231428463,-0.0439306518192683,0.4241490840601866,10.957926320195838,-0.8775102882988259,0.1607098898789026,-1.0304000924903831
2.0,-1.4029599047810195,0.8851360930274864,1.5872095315543562,0.028509348593169,0.0894124218943782,0.0082991454556191,0.5852990253378206,-0.9693380968231584,-0.1582194127984152,-1.384733545926573,0.8551884826073828,1.581963760698838,0.651038368906139,-1.066842414795928,-0.1724718773539762,0.4450169253922458,-0.0969865672108161,-0.1247841758673262,0.4160079075202078,10.949593588510652,-0.8765411836856177,0.1580780644638798,-1.030633750920657
2.02,-1.3912130368596098,0.8656416780588811,1.5842113025977598,0.0293906981390432,0.091519539597487,0.0086175451794672,0.5894894308649882,-0.979212668259012,-0.1416228953249067,-1.384733545926573,0.8551884826073828,1.581963760698838,0.651038368906139,-1.066842414795928,-0.1724718773539762,0.9880676239159496,0.209520276358377,-0.4937285717926787,0.8298258736754244,10.960940550783562,-0.8773586972775776,0.1572962961488023,-1.0297942695988151
2.04,-1.379386965329174,0.845991021065868,1.5815451873148425,0.0269953871374651,0.0919003984566418,0.0086710515534444,0.5927364004322462,-0.9851257537973428,-0.1259434028009406,-1.384733545926573,0.8551884826073828,1.581963760698838,0.651038368906139,-1.066842414795928,-0.1724718773539762,0.8534545649351001,0.1623484783629003,-0.2956542769165349,0.7839746261983055,11.358199427706497,-0.8790686802492543,0.1616083559337087,-1.0253155208456677
2.06,-1.367511863144436,0.8262644790660265,1.5791602227030368,0.0234807028360977,0.0913719014514821,0.0086401835471772,0.5945273629061703,-0.9870683058079844,-0.1133136046146734,-1.3782231622375116,0.8445200584594235,1.580239041925298,0.6637982913509594,-1.0868424150939513,-0.1736583386350075,0.6451605558364715,0.0895481236962036,-0.0971276005320875,0.6314899093133582,11.358199427706497,-0.8815835432141066,0.1666892511897475,-1.020141778791279
2.08,-1.356210522986213,0.8075178983489418,1.5771018241670829,0.0206292927102707,0.0905695494516582,0.0086568770455647,0.5949778022713035,-0.986409940469316,-0.103983901591926,-1.365202394859389,0.8231832101635049,1.5767896043782186,0.6893181362406002,-1.126842415689998,-0.1760312611970703,0.4681871928873179,0.0225219682566613,0.0329182669334182,0.4664851511373677,11.16271542697814,-0.8840042843127202,0.1713371623234285,-1.0153016550865774
2.1,-1.3443158370119364,0.7878108399734831,1.57510521429763,0.0187287677941753,0.0898415630073021,0.0087719672510023,0.5944530859698341,-0.984552953459106,-0.0962602684424493,-1.352181627481266,0.8018463618675864,1.573340166831139,0.714837981130241,-1.1668424162860442,-0.178404183759133,0.3980522483946457,-0.0262358150734665,0.0928493505105099,0.3861816574738372,10.987613648960178,-0.8859614872208174,0.1746080783416107,-1.011466687322237
2.12,-1.3324392229979605,0.7681499767570021,1.573244203526012,0.0182730503594097,0.089526612214831,0.0090106002172149,0.5932617085891898,-0.9817882105282182,-0.0902935136019825,-1.3378848678586612,0.7785095135418655,1.5697720831559565,0.7403578260198818,-1.2068424168820906,-0.1807771063211957,0.3341606906236811,-0.0595688690322171,0.1382371465443843,0.2983377420233392,10.752863416052604,-0.8872988556669567,0.176253364588878,-1.0087785811779075
2.14,-1.320590211941661,0.7485532390089323,1.571492049713453,0.0197454391498998,0.0897880395492775,0.0094051502128744,0.5917945222120228,-0.9783502670540888,-0.0852112941068211,-1.3235881082360563,0.7551726652161446,1.566203999480774,0.7658776709095226,-1.2468424174781372,-0.1831500288832585,0.3154403517055658,-0.0733593188583514,0.17189717370647,0.2541109747580719,10.706955611008198,-0.8878232584591762,0.1759186710293764,-1.0074998195904872
2.16,-1.3093569038525072,0.7299868936145293,1.569919045569318,0.0228156313141471,0.0904931253317472,0.0099129360437194,0.5907981872526017,-0.9766026944767308,-0.0806252978866496,-1.3086533524912105,0.7308358168755226,1.5625765927415396,0.7913975157991634,-1.2868424180741835,-0.1855229514453212,0.2503899688282537,-0.0498167479710542,0.0873786288679012,0.2292998110085743,10.706955611008198,-0.8876837704694419,0.1738217964378502,-1.0072017606787902
2.18,-1.2975474202580048,0.7104475403719017,1.5683575642954384,0.0266537604446055,0.0915166338457464,0.0105031195561713,0.5902581893777665,-0.9775667819110784,-0.0757619982313184,-1.2930806006241238,0.7054989685199994,1.558889862938254,0.8169173606888042,-1.32684241867023,-0.187895874007384,0.2493629173686276,-0.0269998937417581,-0.0482043717173752,0.2431649827665569,10.690058361295089,-0.8873023926309764,0.1709307521437253,-1.007468052586877
2.2,-1.285742978741826,0.6908681969785668,1.5668941477283993,0.0302145963868216,0.0926512792266874,0.0110838691607668,0.5902488845280345,-0.9802630103831146,-0.0708223621534354,-1.2680345107891164,0.6615692012763478,1.5645694643838723,0.6592945092296418,-1.0410929354755314,-0.0928810501199035,0.2813793664058012,-0.0004652424866025,-0.134811423601816,0.2469818038941543,10.694608448707186,-0.8869096333088783,0.1683593563475859,-1.007785697961703
2.22,-1.274501333083237,0.6720204517335266,1.565663910311723,0.02709640808076,0.0932405311473299,0.0111766417748352,0.5929219486835876,-1.000114738342112,-0.0588038554874049,-1.2680345107891164,0.6615692012763478,1.5645694643838723,0.6592945092296418,-1.0410929354755314,-0.0928810501199035,1.1679906650088887,0.1336532077776564,-0.992586397949874,0.6009253333015204,10.700469593336493,-0.8876852355872862,0.1704162363294037,-1.007337402477968
2.24,-1.2632214881521484,0.6529447945051939,1.564651491614494,0.0177261333588473,0.0932272394895085,0.0108366611385946,0.5942493760014411,-1.0057663591819015,-0.0483805953976147,-1.2680345107891164,0.6615692012763478,1.5645694643838723,0.6592945092296418,-1.0410929354755314,-0.0928810501199035,0.5965467967819894,0.0663713658926756,-0.2825810419894714,0.5211630044895141,11.23655316976692,-0.889606504537826,0.1807227689233458,-1.00268801051905
2.26,-1.2513338166346035,0.6328493274145351,1.56376342042265,0.0071051195041987,0.0931296775262645,0.0104532786386882,0.5944243762916036,-1.0033454716955783,-0.041163307851564,-1.26144156569682,0.6511582719215925,1.5636406538826733,0.6731017732000169,-1.053798166188422,-0.0963048604976205,0.3807248377942105,0.0087500145081242,0.1210443743161593,0.3608643773025333,10.787222322142952,-0.8913040076330581,0.1925277622581148,-0.9969974147280264
2.28,-1.239452907513273,0.6128540222035791,1.5629783281229686,-0.0020937178939662,0.0933150614625459,0.0101995206691101,0.5936835164330188,-0.996518521994938,-0.0378717597119069,-1.2482556755122272,0.6303364132120818,1.561783032880275,0.700716301140767,-1.0792086276142032,-0.1031524812530546,0.3807571558776484,-0.0370429929292426,0.3413474850320119,0.1645774069828551,10.787222322142952,-0.8919082776012439,0.2022763904401722,-0.992964333647044
2.3000000000000003,-1.2281857016957516,0.5940114554807333,1.5622612856317164,-0.0087795867512596,0.0939812397893991,0.0101216433861152,0.592479347692826,-0.9877639574952708,-0.0377581688649526,-1.2350697853276345,0.6095145545025712,1.5599254118778771,0.7283308290815171,-1.1046190890399843,-0.1100001020084886,0.4418860849082197,-0.06020843700964,0.4377282249833691,0.0056795423477161,10.39685526062658,-0.8913602197826747,0.2101197700899114,-0.99076960738127
2.32,-1.2163505184862475,0.574365387871469,1.5614899958994162,-0.0137214657304697,0.095283908938835,0.0101967844063284,0.5911970651319733,-0.9776687324544886,-0.0394529945869926,-1.2205031687460042,0.5874221727217716,1.5577254098377074,0.7559453570222673,-1.1300295504657658,-0.1168477227639227,0.5158251918479483,-0.0641141280426305,0.5047612520391043,-0.0847412861020035,10.39685526062658,-0.8898615644524215,0.2154027317368296,-0.9904048799230688
2.34,-1.2051281622231875,0.5558951086809285,1.5607158009896056,-0.0165585507799372,0.0970887966399617,0.0104019341953892,0.5902963527419498,-0.9675693755215564,-0.0419471778768843,-1.205936552164374,0.5653297909409718,1.5555254077975376,0.7835598849630174,-1.155440011891547,-0.1236953435193567,0.5220853463560384,-0.0450356195011769,0.504967846646609,-0.1247091644945814,10.296884646155377,-0.8874197507872617,0.2189247612873645,-0.991564992809048
2.36,-1.193323686571254,0.5366534924884324,1.559846847372399,-0.0180785895630868,0.0993736471191462,0.0107249213383418,0.5903013190318951,-0.9572951935100794,-0.0448277691869849,-1.1906795723842247,0.5426021476245276,1.553154215238482,0.8111744129037675,-1.1808504733173282,-0.1305429642747907,0.5335181509677542,0.0002483144972642,0.5137091005738503,-0.1440295655050293,10.255828723603372,-0.8847246855004056,0.2208461233862369,-0.9934568869537956
2.38,-1.1820997697554525,0.518567319991868,1.5589673269766111,-0.0182384559370564,0.1016171489717776,0.0111305455381558,0.5912196020973244,-0.9472163478404768,-0.0476115267452959,-1.1747322294055569,0.5192392427724388,1.5506118321605404,0.8387889408445176,-1.2062609347431097,-0.1373905850302248,0.524823017700675,0.0459141532714646,0.5039422834801355,-0.1391878779155506,10.24543126014396,-0.8816999251335752,0.2216435891615761,-0.9958797555829512
2.4,-1.17025792625815,0.4997364665928822,1.5579846657355108,-0.0169700309282115,0.1038252128445893,0.0116719046798023,0.5929691865874726,-0.9365394944353516,-0.0505071734591693,-1.152538789650586,0.4712065025998441,1.5565867506393465,0.6575781087768593,-0.962592030924607,-0.043524965709931,0.5600022643129737,0.0874792245074085,0.5338426702562515,-0.1447823356936724,10.24543126014396,-0.8787000974143092,0.2211379726936716,-0.9984996830868372
2.42,-1.1583090581366462,0.4809380651425925,1.557094104748091,-0.0199487231889959,0.1042113112579683,0.0119621900128373,0.601889085412921,-0.9418239080738872,-0.037645907227631,-1.152538789650586,0.4712065025998441,1.5565867506393465,0.6575781087768593,-0.962592030924607,-0.043524965709931,0.8259869727148897,0.4459949412724207,-0.2642206819267745,0.6430633115769149,10.250723762507732,-0.8799355714108367,0.2223707863454903,-0.9989231663723748
2.44,-1.1461865073712578,0.4621525597489681,1.556472762239271,-0.0283600618043142,0.101273724257778,0.0119767360394993,0.6096358552146386,-0.9355279815319436,-0.0252066607038259,-1.152538789650586,0.4712065025998441,1.5565867506393465,0.6575781087768593,-0.962592030924607,-0.043524965709931,0.7974741178595589,0.3873384900858811,0.3147963270971832,0.6219623261902563,11.271683716703592,-0.8845231751701584,0.2325216849824511,-0.9899182837798824
2.46,-1.1345551519318584,0.4444989579638335,1.5560782143375236,-0.0366591339515674,0.0962255222279989,0.0120955494792416,0.613959971192914,-0.9231487862838034,-0.0169250955547538,-1.1459630085628174,0.461580582290598,1.556151500982247,0.6708498101127662,-0.965667167541433,-0.042707653502858,0.7754462832838224,0.2162057989137711,0.6189597624070065,0.4140782574536053,11.117608394732995,-0.8899202523414261,0.2435154093024715,-0.9794060445973766
2.48,-1.12226571569606,0.4262065646754791,1.5558017119350795,-0.0440504517275309,0.0899519653096439,0.0124265075699566,0.6144855022005176,-0.9069576179272338,-0.0112748587143316,-1.1328114463872805,0.4423287416721059,1.5552810016680485,0.6973932127845802,-0.9718174407750853,-0.0410730290887121,0.857839279736588,0.0262765503801776,0.8095584178284765,0.2825118420211091,10.70209172273735,-0.8964746398292704,0.2528933064430799,-0.9683225848178862
2.5,-1.110005765366685,0.4082598644619882,1.5556062213283877,-0.0494759632611594,0.0840593673554919,0.0129456292063246,0.6113937865446053,-0.8890375977373676,-0.0085104151486718,-1.1196598842117431,0.4230769010536138,1.55441050235385,0.7239366154563942,-0.9779677140087372,-0.0394384046745661,0.9196846980486648,-0.1545857827956132,0.8960010094933135,0.1382221782829888,10.55111730378485,-0.9019586709267108,0.2597071502808366,-0.9593827778598047
2.52,-1.098446561693246,0.3915491316948301,1.5554538493197638,-0.0528499196749092,0.0798646283094638,0.0135374081297941,0.6054569641897408,-0.8713599967135578,-0.0076359022452049,-1.1051811519026151,0.403517546773439,1.5536217342603589,0.7504800181282082,-0.9841179872423894,-0.0378037802604202,0.9334187303249132,-0.2968411177432239,0.8838800511904887,0.0437256451733451,10.55111730378485,-0.9056931762427192,0.2647113539900987,-0.9530726320801726
2.54,-1.0864261765627377,0.3743212077229302,1.5553071512708183,-0.0547694459160248,0.0780322860947806,0.0141645177221164,0.5969582708514696,-0.8526401673495299,-0.0070699998914992,-1.0907024195934871,0.3839581924932643,1.5528329661668674,0.7770234208000222,-0.9902682604760416,-0.0361691558462742,1.0283239340672623,-0.4249346669135623,0.935991468201397,0.0282951176852854,10.459319257727657,-0.907196611692951,0.2676936555161236,-0.9500073133982792
2.56,-1.0745707539872318,0.357470654174677,1.555173598757179,-0.0550880721929523,0.0790408167985721,0.0147630451060131,0.5893198039760693,-0.8335127696766378,-0.0062823029301639,-1.075560102217564,0.3642450813822482,1.5520850636837296,0.8035668234718361,-0.9964185337096936,-0.0345345314321283,1.0305629340880167,-0.3819233437700131,0.9563698836446032,0.0393848480667642,10.449349684978188,-0.9070332969093928,0.269281790505414,-0.9487024190885152
2.58,-1.062848766906842,0.3410086530264159,1.555062831354307,-0.0535284526834609,0.0820217604036814,0.0153955167697355,0.583545537676833,-0.813937767013818,-0.0048120677429247,-1.0597541997748454,0.3443782134403909,1.5513780268109456,0.83011022614365,-1.0025688069433458,-0.0328999070179824,1.0230890382191726,-0.2887133149618137,0.9787501331409876,0.0735117593619636,10.487483728746156,-0.90516832749944,0.2693286186097277,-0.949414929469426
2.6,-1.0517993195419606,0.3257272147357164,1.554994066133259,-0.0502430743569577,0.0858882957890517,0.0160806375917306,0.5800391881034357,-0.7962039596703335,-0.0024712704609891,-1.0336714900230004,0.300311764675725,1.5548222279671606,0.6505222339296559,-0.8064426766484082,0.0053793029901575,0.91140241131704,-0.1753174786698674,0.8866903671742254,0.1170398640967801,10.487483728746156,-0.9015393463799743,0.2678835662242008,-0.9520435521957636
2.62,-1.0401850283373786,0.3098956353587563,1.555016699818479,-0.048478686154498,0.089410967350138,0.0167267928731546,0.5815934387796815,-0.7870342456347945,0.0047734654114527,-1.0336714900230004,0.300311764675725,1.5548222279671606,0.6505222339296559,-0.8064426766484082,0.0053793029901575,0.5894606613668493,0.0777125338122908,0.4584857017769506,0.362236793622092,10.804205761616686,-0.8998611340165236,0.267458361385068,-0.9528478192808284
2.64,-1.0291208889250805,0.2950531792403301,1.555180711610803,-0.0497183895673563,0.0913515626326657,0.0172144108112621,0.5828878272224527,-0.7755418338216037,0.0120981222434796,-1.0336714900230004,0.300311764675725,1.5548222279671606,0.6505222339296559,-0.8064426766484082,0.0053793029901575,0.6844734626552494,0.0647194221385594,0.5746205906595414,0.3662328416013477,10.804205761616686,-0.8987286062753473,0.270870383814821,-0.9507434059393276
