t,x,y,z,roll,pitch,yaw,v_x,v_y,v_z,ref_x,ref_y,ref_z,ref_v_x,ref_v_y,ref_v_z,a_com,a_x,a_y,a_z,thrust,wind_x,wind_y,wind_z
0.0,0.9041282042107006,-1.1389393491098267,2.763728614845649,0.0214474955480166,0.0997609519700664,0.0424172106541051,0.0044909552905274,-0.0013610537605564,0.0149041922072573,0.9042706020786494,-1.139073838647195,2.764177939421665,-0.0953202359839518,0.0963369063150538,-0.0850413910787587,0.7812747469864728,0.2245477645263725,-0.0680526880278201,0.7452096103628657,10.240171428266876,-0.9445908308272494,0.2645284237059288,-0.8684642373429348
0.02,0.9043611553093984,-1.1392095599025087,2.763786489206104,0.0124538956338684,0.0946065428242199,0.0417166428161586,0.0185698003929418,-0.0211710608877568,-0.008597373392049,0.9042706020786494,-1.139073838647195,2.764177939421665,-0.0953202359839518,0.0963369063150538,-0.0850413910787587,1.69039481143904,0.7039422551207218,-0.9905003563600218,-1.175078279965318,8.898266252866051,-0.9459503987792608,0.2667904931230612,-0.871077505914705
0.04,0.9048319914919436,-1.1396331980672785,2.7633100039215632,-0.0039149491947769,0.0798080061580174,0.0405799483650017,0.0264683442179912,-0.0194489539753695,-0.0379087375644296,0.9042706020786494,-1.139073838647195,2.764177939421665,-0.0953202359839518,0.0963369063150538,-0.0850413910787587,1.520286746324384,0.394927191252466,0.0861053456193635,-1.4655682086190291,8.898266252866051,-0.9479894188535256,0.2785593263736428,-0.8654585680585306
0.06,0.9053506712795104,-1.139940631097392,2.762240987142332,-0.0207127696024778,0.0591665361851658,0.0397972032218489,0.0240111217885588,-0.011053992771341,-0.0675140596181752,0.90331739971881,-1.1381104695840445,2.763327525510878,-0.115320236281975,0.116336906613077,-0.1050413913767819,1.543525517760274,-0.1228611214716186,0.4197480602014276,-1.4802661026872823,8.630439685985039,-0.9556093247529968,0.2889104724362119,-0.8565863172023747
0.08,0.9057173386956476,-1.1400446142940015,2.76058556135104,-0.0368374167432862,0.0366752710868393,0.0395264835602555,0.0121696241068494,0.0005374759257151,-0.0965885931930584,0.9014109949991308,-1.1361837314577434,2.761626697689303,-0.1553202368780215,0.1563369072091235,-0.1450413919728283,1.673254102413744,-0.5920748840854716,0.5795734348528082,-1.453726678744157,8.615584095253325,-0.9669016708570608,0.2975131605763934,-0.8452370153390428
0.1,0.90576924363368,-1.1399040377168352,2.758479696798628,-0.0514229817352682,0.0162060345948494,0.0396750699120088,-0.0063749304503093,0.0139359011264397,-0.1236793614822548,0.8995045902794518,-1.1342569933314424,2.759925869867728,-0.195320237474068,0.19633690780517,-0.1850413925688748,1.7729410791688625,-0.9272277278579396,0.6699212600362312,-1.3545384144598194,8.65767681805346,-0.9808880769862898,0.3057024250572146,-0.831373571196062
0.12,0.9053830291423356,-1.1394564414069526,2.7557085433264628,-0.0660351017357013,-0.0027019096398373,0.0401075407203784,-0.0315216039313755,0.0304025662542512,-0.1520430153764834,0.8955981855299705,-1.130330255175339,2.75622504201635,-0.2353202380701144,0.2363369084012164,-0.2250413931649212,2.066399713164437,-1.2573336740533063,0.8233332563905735,-1.418182694711431,8.721490338514286,-0.9940266331113692,0.312607408182007,-0.8196093751649268
0.14,0.9044449822039402,-1.1386403859535368,2.7523646379177817,-0.0794551444619006,-0.0179421621854904,0.0406806437620934,-0.0610810633671513,0.0503904026369863,-0.1809733059712062,0.8916917807804892,-1.1264035170192357,2.7525242141649726,-0.2753202386661609,0.2763369089972629,-0.2650413937609677,2.296865777147944,-1.4779729717887906,0.9993918191367572,-1.4465145297361384,8.773606007707258,-1.004870559987037,0.3183426785803521,-0.8113133755744155
0.16,0.902875351855161,-1.1373837254452626,2.748436700213439,-0.0907895392449527,-0.0288230710447524,0.0412624722101856,-0.0941565156243773,0.073796066595016,-0.2103593788759709,0.8867853760161066,-1.121476778848231,2.747823386298694,-0.3153202392622073,0.3163369095933093,-0.3050413943570141,2.502674533424388,-1.6537726128613004,1.1702831979014807,-1.469303645238236,8.793110547997458,-1.0121949685620482,0.3224105586935114,-0.807649628958565
0.18,0.9007460930905044,-1.135738801849121,2.7441587635446503,-0.0993393996184607,-0.0346385094765516,0.0416702215909239,-0.1282091278278347,0.097688465349187,-0.2384660618716521,0.8808789712368229,-1.115550040662325,2.7421225584175137,-0.3553202398582538,0.3563369101893557,-0.3450413949530606,2.510185623179628,-1.702630610172868,1.19461993770855,-1.40533414978406,8.825953973775995,-1.0156254638531308,0.3251407509840516,-0.809951824681246
0.2,0.8977961302852417,-1.1335118358640743,2.739077408955047,-0.1062447662956681,-0.0355290110050577,0.041770083859643,-0.1644175746254886,0.1234788970759304,-0.2680972109922755,0.8943356366991126,-1.1308543785816616,2.732235460451068,-0.2282091293179508,0.1976884668393031,-0.3384660633617682,2.671237066584959,-1.8104223398826944,1.2895215863371703,-1.4815574560311695,8.88195591947624,-1.0169311785544646,0.3261798812112145,-0.81550666220982
0.22,0.8940936333341761,-1.130629250924997,2.733542948896621,-0.1075320342939375,-0.0306911660573591,0.04165717047801,-0.2033394604717758,0.1620117353964239,-0.2827857447455821,0.8943356366991126,-1.1308543785816616,2.732235460451068,-0.2282091293179508,0.1976884668393031,-0.3384660633617682,2.835245073484273,-1.9460942923143607,1.9266419160246768,-0.7344266876653321,8.88195591947624,-1.0203423666567135,0.3254047295504192,-0.8132358464776613
0.24,0.8896645405463401,-1.1270514625554775,2.727746000861766,-0.1027435973695661,-0.0206753758165265,0.041430834987463,-0.236853878440766,0.1926523720053363,-0.2961418513644798,0.8943356366991126,-1.1308543785816616,2.732235460451068,-0.2282091293179508,0.1976884668393031,-0.3384660633617682,2.366669816226461,-1.675720898449509,1.5320318304456195,-0.6678053309448817,9.711081401560476,-1.0170299760896877,0.3207381970480921,-0.8210395995636611
0.26,0.8848904203744539,-1.1231509389160244,2.721971419576941,-0.0965392803347123,-0.0084783101168233,0.0411123621486697,-0.2634792303375826,0.2161268032597673,-0.3109511786415822,0.8920535454059332,-1.1288774939132686,2.72885079981745,-0.248209129615974,0.2176884671373263,-0.3584660636597914,1.9230668609987625,-1.3312675948408292,1.1737215627215511,-0.7404663638551218,9.711081401560476,-1.0101000169469243,0.3149088506533615,-0.8331766722728764
0.28,0.8793736283526156,-1.118601422157626,2.715564983100688,-0.0901041658990465,0.0054697210687587,0.0407437762081357,-0.2863309381244638,0.2375464348199239,-0.3290359469155137,0.8874893628195741,-1.1249237245764825,2.7220814785502148,-0.2882091302120204,0.2576884677333728,-0.3984660642558378,1.80835561247758,-1.142585389344064,1.0709815780078304,-0.9042384136965732,9.329706279540003,-1.0006395732448408,0.3092755311503406,-0.8479217974166555
0.3,0.8734495649070195,-1.1136448755067774,2.708766110309822,-0.0844366706626544,0.0192175747910219,0.0404185714419581,-0.3046453926782126,0.2571518504345284,-0.3499552005207458,0.8829251802332151,-1.1209699552396963,2.7153121572829795,-0.3282091308080669,0.2976884683294192,-0.4384660648518843,1.701034051998022,-0.9157227276874376,0.9802707807302232,-1.0459626802616084,9.329706279540003,-0.9903443651490874,0.3046640672482928,-0.8626157899408412
0.32,0.8675190961668731,-1.1085846136378483,2.7018963918838765,-0.0798840020161525,0.0312624111116517,0.0401966582689871,-0.3185575009681452,0.274664924318367,-0.3721592902603584,0.8763609976170538,-1.115016185873108,2.7065428359859416,-0.3682091314041133,0.3376884689254656,-0.4784660654479307,1.5758141666265473,-0.6956054144966306,0.8756536941919274,-1.110204486980629,9.17388062302598,-0.979212772793026,0.3006190273103668,-0.8775579210395049
0.34,0.8610217070631027,-1.1029072857605038,2.694192350214294,-0.0759841663830904,0.0423186709262229,0.0400748406336753,-0.3303080721864345,0.2922551231848729,-0.3971850731522549,0.8697968150008925,-1.1090624165065197,2.697773514688904,-0.4082091320001598,0.3776884695215122,-0.5184660660439773,1.6384297585429577,-0.5875285609144631,0.8795099433252962,-1.2512891445948249,9.044011777562446,-0.9685026263255248,0.2970915619760159,-0.8918005041698984
0.36,0.8543092546008965,-1.096874764791208,2.685973651205082,-0.0726555988427306,0.0515361069681846,0.0400824715089645,-0.3402641859342057,0.3100692076997413,-0.4234990563042671,0.8622326323698299,-1.10210864712503,2.6880041933769654,-0.4482091325962062,0.4176884701175586,-0.5584660666400236,1.6650011391781483,-0.4978056873885611,0.8907042257434189,-1.3156991576006083,8.961929637284811,-0.9584931118621208,0.2939137092164763,-0.90501689872853
0.38,0.8474124795241841,-1.0904880057562714,2.6772169931065557,-0.069502199761958,0.0590349949013579,0.0402222080233167,-0.348895404744013,0.3276095580968572,-0.4508706791891936,0.8536684497238664,-1.0941548777286394,2.6772348720501253,-0.4882091331922527,0.457688470713605,-0.5984660672360701,1.6817903923728197,-0.4315609404903664,0.8770175198557967,-1.3685811442463252,8.911922938629687,-0.9498761516045224,0.2908938374496884,-0.9165519179014314
0.4,0.8407097359152907,-1.0841002455292663,2.6683826014047924,-0.0665489542031687,0.0647579714521755,0.0404612585948715,-0.3562190121065209,0.3438013353613158,-0.4777117968057621,0.8299677092869834,-1.0741075278514285,2.654673459147096,-0.4294772113441069,0.4276095595869733,-0.5508706806793098,1.6095453322976674,-0.3661803681253933,0.8095888632229292,-1.342055880828427,8.871741757794553,-0.9417747330194508,0.2876287021028451,-0.9276471453876998
0.42,0.833500524554666,-1.0770441882737956,2.6587287907243224,-0.0636740686191657,0.0702530800276343,0.0407402151045003,-0.3641174140438659,0.3610347448303135,-0.4852064042438092,0.8299677092869834,-1.0741075278514285,2.654673459147096,-0.4294772113441069,0.4276095595869733,-0.5508706806793098,1.019245181176277,-0.3949200968672489,0.8616704734498853,-0.3747303719023515,8.83602601070379,-0.9404927744438596,0.2842482508432489,-0.9312911461243218
0.44,0.8261532432033074,-1.0696595718156494,2.648930104450266,-0.0615419138702536,0.0757262159002366,0.0409736865420907,-0.3700892874271059,0.3767526745543411,-0.4946436845075142,0.8299677092869834,-1.0741075278514285,2.654673459147096,-0.4294772113441069,0.4276095595869733,-0.5508706806793098,0.9640783750435408,-0.2985936691620033,0.785896486201379,-0.4718640131852525,10.069769701854966,-0.9350716536468704,0.2832301728676759,-0.9366001634666028
0.46,0.8187016828660244,-1.0619611776347802,2.6388889580083643,-0.0602005018231182,0.0806151072482341,0.0411887064465791,-0.3747249672058739,0.3923745846794848,-0.508996461652213,0.8256729371735423,-1.0698314322555589,2.649164752340303,-0.4455935726641256,0.4476095598849965,-0.570870680977333,1.085743771263201,-0.2317839889383999,0.7810955062571873,-0.7176388572349396,9.80426753475058,-0.928589791918169,0.2825003153435906,-0.943356410351302
0.48,0.8115464820741575,-1.054361534661089,2.629048471503085,-0.0595237154294718,0.0844769055740526,0.0413958641872807,-0.3782249572181614,0.4068517546221896,-0.5261339327985328,0.8170833929466602,-1.0612792410638192,2.6381473387267165,-0.4778262953041632,0.487609560481043,-0.6108706815733794,1.1352657144111813,-0.1749995006143756,0.7238584971352408,-0.8568735573159902,9.558598752074433,-0.9223214837058752,0.2819900312535327,-0.9502579782946512
0.5,0.8039494651067556,-1.0460696273381278,2.6183084329294,-0.0595355707752111,0.087602014043947,0.0416142867647193,-0.3813015635569351,0.4216177777729313,-0.5471095651651482,0.808493848719778,-1.0527270498720798,2.62712992511313,-0.5100590179442007,0.5276095610770895,-0.6508706821694259,1.2917798762090071,-0.1538303169386828,0.7383011575370829,-1.0487816183307686,9.3713506422082,-0.9168400134725982,0.2819910140474779,-0.9563704030226188
0.52,0.7962951225384244,-1.0374840383559716,2.607122140282696,-0.0603936259539885,0.0897245707165811,0.0418270097795601,-0.3840439829024696,0.4362840881036026,-0.5704734066111155,0.7982926683608941,-1.042174858650538,2.6141125114697417,-0.5422917405842382,0.5676095616731359,-0.6908706827654724,1.3860831592067415,-0.137120967276727,0.733315516533567,-1.168192072298363,9.217754646796491,-0.9129193627781956,0.2827061321903791,-0.9606216151917352
0.54,0.7889744648319844,-1.0290542586052225,2.5960542788605623,-0.0619905732739337,0.0908649117834533,0.0420220501349583,-0.3864868869972257,0.4504072935375829,-0.5934045272737598,0.78809148800201,-1.031622667428996,2.601095097826353,-0.5745244632242759,0.6076095622691824,-0.7308706833615188,1.3520993001545247,-0.1221452047378029,0.7061602716990162,-1.1465560331322178,9.108872202801647,-0.909791521451421,0.284020975684547,-0.964185034695152
0.56,0.7812143695187818,-1.0198770462340654,2.5839270301597868,-0.064150545515134,0.0913300163848889,0.0422356423439033,-0.3894500005766055,0.4666642855502267,-0.6181425133887171,0.7770844895771251,-1.0200704761925532,2.5870776841680634,-0.6067571858643134,0.6476095628652287,-0.7708706839575652,1.4874792338107508,-0.1481556789689891,0.81284960063219,-1.2368993057478628,9.077459220391574,-0.908103549356208,0.2860063885367133,-0.9658042991169437
0.58,0.7733903254010178,-1.0103561392629512,2.571301165063345,-0.0659993978329898,0.091310820695081,0.0424994415500033,-0.3928393625370586,0.4844346940324081,-0.6431965212866152,0.7652716730862392,-1.007518284941209,2.5720602704948727,-0.6389899085043509,0.6876095634612752,-0.8108706845536117,1.5451363239779945,-0.1694680980226542,0.8885204241090683,-1.2527003948949067,9.053396968905872,-0.9071825182455214,0.2876854993793343,-0.96666685057379
0.6,0.7654942169078159,-1.0004698137126078,2.5581711949479167,-0.0670436398701432,0.0910293325725858,0.042833873082016,-0.3966194897125941,0.5031354033203866,-0.6685378425346374,0.7537483572741649,-0.9861344045613308,2.539141338999014,-0.4637311675302112,0.5844346955225243,-0.7431965227767313,1.586023685141691,-0.1890063587767776,0.9350354643989256,-1.267066062401112,9.04601434754568,-0.9065875258817506,0.2887683025730206,-0.9674052951802108
0.62,0.7578902512015562,-0.9906808625963504,2.545439796760142,-0.0659213090769875,0.0921780202259858,0.0431994899245601,-0.4031239436551583,0.5257691707044199,-0.67027949747419,0.7537483572741649,-0.9861344045613308,2.539141338999014,-0.4637311675302112,0.5844346955225243,-0.7431965227767313,1.1807081656932974,-0.3252226971282079,1.131688369201661,-0.0870827469776291,9.035716476343625,-0.90611805774778,0.2860334004425058,-0.9714165237525434
0.64,0.7497762486695576,-0.9799432186282614,2.531986609312571,-0.0623225975796379,0.0956922719546051,0.0435978029378089,-0.4076304918355341,0.5462915289722694,-0.6752099906432953,0.7537483572741649,-0.9861344045613308,2.539141338999014,-0.4637311675302112,0.5844346955225243,-0.7431965227767313,1.0791037117286448,-0.2253274090187912,1.026117913392477,-0.246524658455266,10.423300507515703,-0.9040179527571592,0.2847124683343155,-0.9714377229396594
0.66,0.7415956320984408,-0.9688304552441296,2.518376931170592,-0.0578597750355853,0.100323134598619,0.0439909606455015,-0.4099904813927865,0.5637233412179933,-0.6854761629587511,0.7491110455988628,-0.9802900576061055,2.5317093737712466,-0.4779095285288417,0.6044346958205474,-0.7631965230747545,1.0183711539649238,-0.1179994778626208,0.8715906122861938,-0.5133086157727895,10.110854362124885,-0.8996033917034892,0.2822541187424385,-0.9748479260729068
0.68,0.7337981780884099,-0.9579706019795112,2.505216005334629,-0.0536135854354571,0.1049441912486014,0.0443594885526977,-0.4105705640264419,0.5784834139141662,-0.699364181308393,0.7398364222482586,-0.9686013636956552,2.516845443315712,-0.5062662505261027,0.6444346964165939,-0.803196523670801,1.0137471276632146,-0.0290041316827693,0.7380036348086483,-0.6944009174820909,9.57580056398183,-0.8951458834032892,0.27941205084091,-0.9785321164534176
0.7000000000000001,0.725593020920468,-0.9462513367012744,2.4910411288858185,-0.0494886028648777,0.1094698522675132,0.0447481526563608,-0.4098410887239485,0.5926444641328926,-0.7175606591998047,0.7305617988976544,-0.9569126697852046,2.5019815128601777,-0.5346229725233638,0.6844346970126404,-0.8431965242668474,1.1534505680423364,0.0364737651246699,0.7080525109363189,-0.9098238945705884,9.57580056398183,-0.8904523703083866,0.2764759244116729,-0.9829846207434296
0.72,0.7174135936624707,-0.9342585626015812,2.476470132058989,-0.0458338035231609,0.1132791487675895,0.0451422856336554,-0.4081160699390514,0.605921278000956,-0.7387501215602243,0.7198693394471871,-0.9432239758449518,2.4851175823748406,-0.5629796945206248,0.7244346976086868,-0.8831965248628939,1.2532385960174215,0.0862509392448557,0.6638406934031671,-1.0594731180209815,9.377673261250491,-0.8865638528463123,0.2740160151752128,-0.9864343055839956
0.74,0.709277817346097,-0.9220083518541096,2.4614574302785344,-0.0426741087925486,0.1161376706203665,0.0455434195274305,-0.4055996902859657,0.6184877523275065,-0.7614579527578601,0.7091768799967199,-0.9295352819046988,2.4682536518895035,-0.5913364165178859,0.7644346982047333,-0.9231965254589404,1.3037388937768917,0.1258189826542827,0.6283237163275279,-1.1353915598817876,9.226566551805265,-0.8833565858406447,0.2716645898010459,-0.9898186178558244
0.76,0.7015973431633943,-0.9101348732150432,2.4467663596036946,-0.0398484163975477,0.1179752283681099,0.045943840304075,-0.4030383434088576,0.6305915742218196,-0.7838310005866748,0.697775502496321,-0.914846587949545,2.4503897213892656,-0.619693138515147,0.8044346988007797,-0.9631965260549868,1.2782960058458208,0.1280673438554064,0.6051910947156514,-1.1186523914407331,9.122163977940543,-0.8805937756014371,0.2691921236021489,-0.9930332832698324
0.78,0.6935651725214348,-0.8973930429146466,2.4308335390738467,-0.0368451191135224,0.1191169169670633,0.0463893942683236,-0.4003503782647397,0.6428286788890004,-0.8083136153884564,0.6856652069459906,-0.8991578939794899,2.4315257908741263,-0.648049860512408,0.8444346993968261,-1.0031965266510332,1.3751093727263557,0.1343982572058977,0.6118552333590432,-1.22413074008908,9.122163977940543,-0.878598474256908,0.2666332182048209,-0.995621794899738
0.8,0.6855858630128994,-0.8844118187411711,2.4144029145040884,-0.0337599987308461,0.1195709580356749,0.0468533089648265,-0.3977573841738742,0.6545399340120991,-0.8335487951069184,0.6735476536081978,-0.8652516089701966,2.390417858304424,-0.4462874209481026,0.7428286803791165,-0.8807039631076489,1.3970427788158857,0.1296497045432748,0.5855627561549337,-1.2617589859231004,9.071504078789983,-0.8771928341162784,0.2638261219287048,-0.9979354770126804
0.8200000000000001,0.6776274248061039,-0.8711884096928443,2.3977673771428103,-0.0303492363475146,0.1215789214849502,0.0472765037631164,-0.3977420900294693,0.6670081312864448,-0.8271447960719462,0.6735476536081978,-0.8652516089701966,2.390417858304424,-0.4462874209481026,0.7428286803791165,-0.8807039631076489,0.7008341116533532,0.000764707220241,0.6234098637172836,0.3201999517486065,9.033792067459215,-0.8691986083506291,0.2552753425313604,-1.0147368850184846
0.84,0.6700920492188143,-0.8584159248870981,2.382098852796241,-0.0271593527725933,0.1262954880332863,0.0475849754397551,-0.3950903409469618,0.6769098522403768,-0.8226840491134866,0.6735476536081978,-0.8652516089701966,2.390417858304424,-0.4462874209481026,0.7428286803791165,-0.8807039631076489,0.558959109581201,0.1325874541253768,0.4950860476966023,0.223037347922983,11.031488285402702,-0.8655235256813447,0.2539854181921926,-1.0159989151313826
0.86,0.6622461907604096,-0.844777271581929,2.3656428153498106,-0.0242945948938323,0.1325906769312557,0.0478409695782178,-0.38937824022209,0.6864887714438515,-0.823413318961258,0.6690847793987168,-0.8578233221664054,2.381610818673347,-0.4554748294847752,0.7628286806771397,-0.8951820326514873,0.5588282882707454,0.2856050362435886,0.4789459601737322,-0.036463492388572,10.68062810660831,-0.859700858771526,0.253333030259073,-1.0187781100816402
0.88,0.6545413907982573,-0.830951944784051,2.34912045828236,-0.0219616767083365,0.1390043814191559,0.0480588430397146,-0.3812360860589369,0.6956215866018228,-0.8289876019535118,0.6601590309797547,-0.842966748558823,2.3639967394111943,-0.4738496465581204,0.8028286812731862,-0.9241381717391643,0.6722641184905556,0.4071077081576557,0.4566407578985687,-0.278714149612691,10.347775773530884,-0.8535349386621043,0.253176296928403,-1.0217106413216197
0.9,0.6470204650613693,-0.8169479133981971,2.332441849777722,-0.0201284769378631,0.144658974042711,0.0482572654661416,-0.3712423963939803,0.704421732320835,-0.8385933389433463,0.6512332825607927,-0.8281101749512407,2.3463826601490414,-0.4922244636314656,0.8428286818692327,-0.9530943108268414,0.8209545981861359,0.4996844832478309,0.440007285950611,-0.4802868494917234,9.886103926168287,-0.8480393321340911,0.2531722615861456,-1.0244981329743013
0.92,0.6400737918232763,-0.80348459448433,2.3163912835892555,-0.0188436557578398,0.1488622240783367,0.0484327389052764,-0.3605408218284587,0.7123784308979755,-0.8504634123864598,0.6413887932881635,-0.811253601313856,2.3273207739325046,-0.5105992807048108,0.8828286824652791,-0.9820504499145184,0.8926524995397084,0.5350787282760783,0.3978349288570215,-0.5935036721556763,9.886103926168287,-0.8429927719159765,0.2531610358368697,-1.027358727053507
0.94,0.6329905327113641,-0.7891552980617849,2.299241225296156,-0.0181622960634941,0.1518147892233196,0.0485900351420585,-0.3484065290470622,0.720176289241853,-0.863955631891886,0.6315443040155341,-0.7943970276764715,2.308258887715968,-0.5289740977781561,0.9228286830613256,-1.0110065890021953,0.9875318263712208,0.6067146390698247,0.3898929171938736,-0.6746109752713059,9.738512272486332,-0.8388896356412329,0.2532023834581104,-1.0301421879286543
0.96,0.6261541534278595,-0.7746636125831836,2.281816772030958,-0.0180722497279423,0.1532039023852846,0.0487239616188547,-0.3359386672453311,0.7285876148216157,-0.8778204182452857,0.6212404443160712,-0.7765404540241856,2.288473098022239,-0.5473489148515012,0.962828683657372,-1.0399627280898722,1.02277841752412,0.6233930900865575,0.4205662789881381,-0.6932393176699858,9.694677588168815,-0.8363282775373838,0.253721501483801,-1.0316382931167676
0.98,0.6195698093295658,-0.7599978105386912,2.2641120918177093,-0.0181974942315498,0.1530132968135612,0.0488608254189677,-0.3232359162685028,0.7375041213964391,-0.8919450072989997,0.6104772141897745,-0.7576838803569986,2.267963404851318,-0.5657237319248464,1.0028286842534184,-1.0689188671775494,1.049247334776791,0.6351375488414163,0.4458253287411673,-0.7062294526857027,9.682437106315774,-0.8357437780650925,0.2544994332395813,-1.0313516644640108
1.0,0.6135518382285907,-0.7458956415011055,2.247028669045404,-0.0182724637847132,0.1512048290853261,0.0490141726847715,-0.3109772723082846,0.7464098643932723,-0.9055895310222408,0.6034080135161407,-0.7231226044688692,2.2195148414527592,-0.3887611127611747,0.8375041228865552,-0.8945737851736334,1.0195092418697391,0.6129321980109098,0.445287149841661,-0.6822261861620493,9.67038602514458,-0.8370296335756932,0.2553471990478772,-1.0294069656548834
1.02,0.607546996561425,-0.7308215012050329,2.229117060235747,-0.0169584614345504,0.1464485486787634,0.0493107750814673,-0.2901422637720848,0.7602189320916344,-0.8829445055173314,0.6034080135161407,-0.7231226044688692,2.2195148414527592,-0.3887611127611747,0.8375041228865552,-0.8945737851736334,1.6864052830795575,1.0417504268099869,0.6904533849181049,1.132251275245466,9.655874623613272,-0.8331374468707202,0.2473913713246732,-1.0431457698819742
1.04,0.6019440853927335,-0.7154925048344772,2.211707183177997,-0.0137250350288541,0.1381304036613799,0.0497664898102262,-0.2718433074189347,0.7714500648931684,-0.8594902084007475,0.6034080135161407,-0.7231226044688692,2.2195148414527592,-0.3887611127611747,0.8375041228865552,-0.8945737851736334,1.5898853738974243,0.9149478176575075,0.5615566400766991,1.172714855829193,12.14143904717821,-0.8414608164980343,0.248946350134452,-1.0307118514102032
1.06,0.5969241450187298,-0.7007546818560472,2.195561683902226,-0.0102989912765097,0.1277357763800325,0.0502069264792176,-0.2580711700635951,0.7792724881417322,-0.8411270270550018,0.599520402388529,-0.7147475632400037,2.210569103601023,-0.4018661520597091,0.8575041231845784,-0.8950995407485601,1.212506187562312,0.6886068677669777,0.3911211624281929,0.9181590672872886,11.857209785194756,-0.8525468282327903,0.2495142300130838,-1.016965696439195
1.08,0.5918778166934356,-0.6851006704643265,2.178913762210964,-0.0071056002484646,0.1149241644630864,0.0505998761735506,-0.247883386978497,0.7857437483851093,-0.8247194847228828,0.5917451801333055,-0.6979974807822726,2.19267762789755,-0.4280762306567779,0.8975041237806248,-0.8961510518984136,1.018424737900153,0.5093891542549036,0.3235630121688537,0.820377116605947,11.565922860277167,-0.8659639690110577,0.2499378855644846,-1.0014566696921916
1.1,0.5869869368693111,-0.6693289780622758,2.162566506076165,-0.0046007770156998,0.1009411503672388,0.050894869732822,-0.2422702150105938,0.7911795395128892,-0.8108940304483679,0.5839699578780819,-0.6812473983245415,2.174786152194077,-0.4542863092538467,0.9375041243766712,-0.8972025630482671,0.794038271468711,0.2806585983951629,0.271789556388996,0.6912727137257435,11.156772525192537,-0.8806059595947405,0.2505642693150853,-0.9849573550246428
1.12,0.5821599922583994,-0.6534571004952285,2.1464741744336084,-0.0028543153993987,0.0864996687377818,0.0510913474901501,-0.2412046002319237,0.7958197357683436,-0.7990824332291898,0.574884231693005,-0.6624973158370081,2.156842100933112,-0.4804963878509155,0.9775041249727178,-0.8982540741981205,0.6367510993585913,0.053280738933506,0.232009812772721,0.5905798609589064,11.156772525192537,-0.8949408851067585,0.251297125197145,-0.9690379022660106
1.14,0.5775530772315295,-0.6383022319619932,2.131402159648492,-0.0020729080102154,0.0729558347894728,0.0511855930398312,-0.244150781659042,0.7993292737693867,-0.7879957293237798,0.5657985055079281,-0.6437472333494746,2.1388980496721466,-0.5067064664479843,1.0175041255687642,-0.899305585347974,0.599816316609709,-0.1473090713559166,0.1754769000521516,0.5543351952705,11.016020027183004,-0.9102133897871456,0.2524903016557712,-0.951959436101456
1.16,0.5725998533234495,-0.6222760604785605,2.115766636123071,-0.002169107979325,0.0594963729724098,0.051204128988685,-0.251366787057767,0.8031350906686304,-0.7761164009770536,0.5560575273579245,-0.6239971508470401,2.120927710632435,-0.532916545045053,1.0575041261648106,-0.9003570964978275,0.7205439232870041,-0.3608002699362511,0.1902908449621876,0.5939664173363113,11.00582111516178,-0.9249693896474032,0.2543245965464514,-0.934893926924765
1.18,0.5674602916210133,-0.6061723529189574,2.100368848409259,-0.003049054598049,0.0474649293216943,0.0511638460913601,-0.2624126420939912,0.8070915465439524,-0.7642362069040884,0.5456612972429941,-0.6032470683297043,2.102931083813977,-0.5591266236421218,1.097504126760857,-0.9014086076476808,0.8348704507077211,-0.5522927518112092,0.1978227937661003,0.5940097036482572,11.009466280916968,-0.9378761133278392,0.2564248151297918,-0.9195317649062926
1.2,0.5620652800483714,-0.5899860460486229,2.085207077589493,-0.0045817008307402,0.0372887476449329,0.0510811176028654,-0.2766180420991015,0.8113916748458464,-0.7525152214324855,0.5543396595163137,-0.5658177755917598,2.0621570380640546,-0.3476006509388437,0.880729084202167,-0.7236604679078211,0.945602973165093,-0.7102700002555168,0.2150064150946984,0.586049273580147,11.004227323172016,-0.949936251460622,0.2588885587283757,-0.9047561805634664
1.22,0.5566285155898152,-0.5743987674674145,2.071192218395119,-0.0024599794317802,0.0303233373203324,0.0512386923410053,-0.2951276218969711,0.8280183767289155,-0.7222734621540126,0.5543396595163137,-0.5658177755917598,2.0621570380640546,-0.3476006509388437,0.880729084202167,-0.7236604679078211,1.9580703281925689,-0.92547898989348,0.831335094153457,1.5120879639236473,12.517972763576836,-0.9629620790252692,0.2544381993473026,-0.8954236211787866
1.24,0.5505066273959792,-0.557743191253107,2.057088869613051,0.0048128632907443,0.0271989582548036,0.0517025138319395,-0.3158005151561808,0.8357148559095188,-0.6898235611829552,0.5543396595163137,-0.5658177755917598,2.0621570380640546,-0.3476006509388437,0.880729084202167,-0.7236604679078211,1.9618870893323372,-1.0336446629604812,0.3848239590301616,1.6224950485528689,12.326564800619051,-0.971677540382561,0.2524921208089563,-0.8814128017937495
1.26,0.543985826766417,-0.5410070110370406,2.0435957741420645,0.0127567297168168,0.0277380892408354,0.0521961177619948,-0.3348446283348742,0.8374289992528263,-0.6610585476717069,0.5508636530069253,-0.5570104847497381,2.0549204333849764,-0.3646382527078141,0.8954565917338099,-0.7155453201085676,1.7270223916227792,-0.9522056589346712,0.0857071671653775,1.4382506755624136,12.326564800619051,-0.9758951776646344,0.2494009520667994,-0.8739767555557385
1.28,0.5374596113598086,-0.5251095163994115,2.0312788315267687,0.0194861694940161,0.0305053718998419,0.05262784433374,-0.3509029531700905,0.8360970998642466,-0.6368692491877094,0.5439116399881484,-0.5393959030656948,2.04044722402682,-0.3987134562457551,0.9249116067970956,-0.6993150245100608,1.4532428510425837,-0.8029162417608177,-0.0665949694289846,1.2094649241998767,12.038501012567394,-0.9774205988723732,0.2459846363773494,-0.8705963216731964
1.3,0.5302844413847749,-0.5084211605016761,2.018785764037678,0.0252202767527706,0.0348007005679395,0.0530192769337716,-0.3655335268298429,0.8330040179821692,-0.6138050765126406,0.5369596269693715,-0.5217813213816515,2.025974014668664,-0.4327886597836961,0.9543666218603816,-0.6830847289115538,1.3743879568084696,-0.7315286829876172,-0.1546540941038732,1.1532086337534386,11.796300636803608,-0.9770110347797448,0.2427986294039204,-0.8704237600905219
1.32,0.5228392585747628,-0.4918061597027492,2.006729617406772,0.0294530863257992,0.0397248333583716,0.0533285009199503,-0.378071931235821,0.8289044245042891,-0.5930469544464226,0.5283038537736976,-0.5026939889444438,2.012312320090432,-0.4668638633216371,0.9838216369236674,-0.6668544333130468,1.229753921977617,-0.6269202202989044,-0.2049796738940013,1.0379061033108985,11.621095439286364,-0.9754646616996836,0.2404997214647731,-0.8716406580299915
1.34,0.5151647469100471,-0.4752807127821881,1.995075872033797,0.0321874566102583,0.0446683771794297,0.0535367848606473,-0.3886486693676684,0.8242509950858342,-0.5733459782982935,0.5196480805780237,-0.4836066565072361,1.9986506255122007,-0.5009390668595781,1.0132766519869534,-0.65062413771454,1.141983204836406,-0.5288369065923726,-0.2326714709227462,0.9850488074064578,11.468745882543772,-0.9737632713972328,0.2389655990303222,-0.8734067501338301
1.36,0.5076903245707874,-0.459663822738201,1.9843639421734864,0.0337205213861024,0.0490883874563507,0.053649553527176,-0.3975212947079591,0.8200394520751543,-0.5552052107996531,0.5101404272939012,-0.4637829486934464,1.9853946883239328,-0.535014270397519,1.0427316670502391,-0.634393842116033,1.031440764658473,-0.4436312670145353,-0.210577150533997,0.9070383749320176,11.40983414146649,-0.9720589575917764,0.2383498701665093,-0.8747663717532196
1.38,0.4996524916860223,-0.4433125119891909,1.9734572151124885,0.0343548160848073,0.0533314269183065,0.0536802235415805,-0.4057068741796195,0.8153964930229969,-0.5364344762184424,0.4997808939213302,-0.4432228655030745,1.972544508525627,-0.5690894739354599,1.072186682113525,-0.6181635465175261,1.0498824419490218,-0.409278973583016,-0.2321479526078695,0.9385367290605352,11.371924840126669,-0.970610960979623,0.2385101461530417,-0.8756599188169855
1.4,0.4914615413762174,-0.4270563897689556,1.9629211387643144,0.0338454524036707,0.0570643524918986,0.0536046077340864,-0.4129182779039859,0.8105566903174605,-0.518129424221413,0.4793671479770413,-0.402542687338041,1.9466354913015664,-0.4225594225255429,0.8247740293868966,-0.5273106488876743,1.0130436349416003,-0.3605701862183202,-0.2419901352768205,0.9152525998514738,11.351797060413446,-0.969529085232916,0.2395671983328367,-0.8758637236041356
1.42,0.4830331578562788,-0.4106502812130478,1.95269757640546,0.0400087116071849,0.0629735952064375,0.0540685173692057,-0.4289255746482347,0.8266573454156624,-0.5054804160282114,0.4793671479770413,-0.402542687338041,1.9466354913015664,-0.4225594225255429,0.8247740293868966,-0.5273106488876743,1.2994826392851264,-0.8003648372124417,0.8050327549100955,0.6324504096600791,11.32241228820658,-0.9662766592087964,0.2409119211676108,-0.8727610594843433
1.44,0.4747757716798497,-0.3949277162772456,1.943189931035196,0.0526708313231916,0.0721492095035306,0.0551876331128815,-0.438841509534973,0.8264867446077858,-0.4959536463454808,0.4793671479770413,-0.402542687338041,1.9466354913015664,-0.4225594225255429,0.8247740293868966,-0.5273106488876743,0.6875940115749183,-0.4957967443369127,-0.0085300403938282,0.4763384841365292,10.975152345387867,-0.9605410531929722,0.2303616903216789,-0.8820119765051055
1.46,0.4659341603883304,-0.3784782120470955,1.9333514626345212,0.0669095168989915,0.0835269707540661,0.0566448586890201,-0.4443008324787263,0.8181565534498599,-0.4885476985249375,0.4751415537517859,-0.394294947044172,1.9413623848126893,-0.4259299321947276,0.8266495366596766,-0.5254858834215207,0.620573031263017,-0.2729661471876671,-0.416509557896294,0.3702973910271634,10.808219591428497,-0.951196827901111,0.2177087160228815,-0.8962694595147811
1.48,0.4570271298800878,-0.3622542685064501,1.9236303514016773,0.079894394399485,0.0955228243360471,0.0581970262488509,-0.445728696655941,0.804850164167225,-0.4839638213439717,0.466690365301275,-0.3777994664564341,1.930816171834936,-0.432670951533097,0.8304005512052364,-0.5218363524892135,0.7073024845491738,-0.0713932088607344,-0.6653194641317473,0.2291938590482878,10.531628143810847,-0.9401856552059064,0.2056831087698961,-0.9120822034428238
1.5,0.4485720631537465,-0.3471191960916336,1.9144610256948544,0.090326268897863,0.1069135033309174,0.0596535007958917,-0.4439119529521549,0.7893408112002077,-0.4814791040863452,0.4582391768507642,-0.3613039858686962,1.9202699588571823,-0.4394119708714663,0.8341515657507963,-0.5181868215569062,0.7905921941670074,0.0908371851893047,-0.7754676483508638,0.1242358628813278,10.531628143810847,-0.92725192149173,0.1937320392023529,-0.9298473051135584
1.52,0.4397404728379104,-0.3315236553208072,1.904848185473384,0.0991980676095813,0.1185742785604681,0.0611029009870731,-0.4390296680855595,0.7712868584838355,-0.4799942632919096,0.4494509374333348,-0.3446209545536803,1.9099062224260444,-0.4461529902098357,0.8379025802963562,-0.514537290624599,0.9380653846992892,0.2441142433297682,-0.9026976358186112,0.074242039721778,10.458285992436686,-0.913539096497694,0.1829346914067887,-0.9478374466582108
1.54,0.4310358033652934,-0.3163042213078273,1.8952543420053556,0.1059687970553864,0.1297296992148918,0.0624210193201348,-0.4314030964802622,0.7518750502073457,-0.4795099064940307,0.4406626980159056,-0.3279379232386643,1.8995424859949064,-0.4528940095482051,0.841653594841916,-0.5108877596922917,1.0430933521521173,0.3813285802648641,-0.9705904138244904,0.0242178398939446,10.432175685587026,-0.8993922522022159,0.1735856086312643,-0.9654548687350232
1.56,0.4225223176164915,-0.3014824939524853,1.8856634451348424,0.1107432284879749,0.1399318311890748,0.0635340822844072,-0.420195762910853,0.7317387515646293,-0.4796142199336671,0.431705933115017,-0.3111611165600094,1.889269987837076,-0.4596350288865744,0.845404609387476,-0.5072382287599845,1.1522648676176397,0.5603666784704642,-1.0068149321358189,-0.0052156719818202,10.414271447010831,-0.8862721429831644,0.1660248594523471,-0.9813129872793656
1.58,0.4146746722297443,-0.2877778842029155,1.8765479416665856,0.1136748974770066,0.148081135996137,0.0643170224410167,-0.406450378534361,0.7122617228295418,-0.4799089638823806,0.4225806427306692,-0.2942905345177155,1.8790887279525528,-0.4663760482249438,0.8491556239330358,-0.5035886978276772,1.1920330469414817,0.6872692188245988,-0.9738514367543748,-0.0147371974356713,10.419901931572896,-0.8734444628102372,0.1596987896748546,-0.9961625702355512
1.6,0.4067200605425398,-0.2737525356079093,1.8669476653920865,0.1152571151022855,0.1545667916172854,0.0647867628449279,-0.3897343466700736,0.6914928391968492,-0.4800953654367236,0.3943521533030262,-0.2521647980614384,1.8525524934724664,-0.3962536731855713,0.6805325014855477,-0.4533534908974705,1.3330481932170142,0.8358015932143692,-1.038444181634629,-0.0093200777171509,10.444174077973004,-0.8622921745640602,0.154948846307346,-1.008729024737915
1.62,0.3990944252067714,-0.2600376081768398,1.8573880922413788,0.1188967864268844,0.1593693784135207,0.0651871583846678,-0.3735421728331949,0.6795059443059835,-0.4758758909658843,0.3943521533030262,-0.2521647980614384,1.8525524934724664,-0.3962536731855713,0.6805325014855477,-0.4533534908974705,1.0291696987115675,0.8096086918439327,-0.5993447445432842,0.2109737235419628,10.485042102240186,-0.8536193067543004,0.1495774421520988,-1.0178925992322514
1.64,0.3918148034575824,-0.2466446617962183,1.8479167728800072,0.1249099171551675,0.1629440109341472,0.0655935873206484,-0.3552047414595692,0.6600883026334201,-0.4715014051244932,0.3943521533030262,-0.2521647980614384,1.8525524934724664,-0.3962536731855713,0.6805325014855477,-0.4533534908974705,1.3531835831503405,0.9168715686812878,-0.9708820836281716,0.2187242920695553,10.77396686314114,-0.8467087552151115,0.1422749786253667,-1.0256722894777106
1.66,0.3852556044435271,-0.2343231937090336,1.839002297503092,0.1302458487348202,0.164827036702183,0.0657436756213167,-0.3363159173589815,0.6380450365345192,-0.4670792330792468,0.3903896165711705,-0.2453594730465829,1.848018958563492,-0.3942143321158133,0.6741866572167489,-0.4480423963004886,1.4682037169681663,0.9444412050293838,-1.1021633049450474,0.2211086022623182,10.830573339082548,-0.8406967794467763,0.1346916933926943,-1.0327468241299251
1.68,0.3787467987889615,-0.2218256757199419,1.8297156089367557,0.1346806497912862,0.1650585096977304,0.0655572586694439,-0.315642631283772,0.6130432446178786,-0.4617580410148,0.3824645431074591,-0.231748823016872,1.8389518887455425,-0.3901356499762975,0.6614949686791511,-0.4374202071065246,1.6437681110615754,1.0336643037604758,-1.2500895958320268,0.2660596032223433,10.830573339082548,-0.8369683588776521,0.1282289943131123,-1.03771200871575
1.7,0.3726616504284507,-0.2098441635614382,1.820545935041605,0.137592713514721,0.1631660844391929,0.0649359352262236,-0.2940924164805227,0.5867674470024371,-0.4554163832641669,0.3745394696437477,-0.218138172987161,1.8298848189275927,-0.3860569678367816,0.6488032801415535,-0.4267980179125605,1.7284718116156776,1.0775107401624655,-1.313789880772076,0.3170828875316556,10.974844034717536,-0.8361058997401248,0.1235563040997097,-1.039945625363573
1.72,0.3672843862391005,-0.1989573226601928,1.811963781158614,0.1388715276984959,0.1589762606387885,0.0638721718337414,-0.2732849695799361,0.5608517711377066,-0.4482175486562419,0.366818330287012,-0.2051621073843299,1.8213488585693416,-0.3819782856972657,0.6361115916039559,-0.4161758287185965,1.7002906529169972,1.0403723450293278,-1.2957837932365268,0.359941730396246,11.058068122931218,-0.8374846736201098,0.1200492086346343,-1.040246044082545
1.74,0.3620331952132867,-0.1880376056911692,1.8030936072807884,0.1384491433068946,0.1521324047561755,0.0622573192011627,-0.2533963436513133,0.53264135635603,-0.4390414366341686,0.3590971909302763,-0.1921860417814989,1.8128128982110907,-0.3778996035577499,0.6234199030663582,-0.4055536395246325,1.785767324796655,0.994431296431142,-1.410520739083826,0.4588056011036678,11.058068122931218,-0.8414901199970445,0.1182618344157398,-1.0382051351629564
1.76,0.3571500491781989,-0.1776954555792446,1.7944245008814197,0.1356934590814248,0.1436515541075421,0.0602414800396892,-0.2363245515729982,0.5032927574736049,-0.4281776430261633,0.3514780186270286,-0.1795272683921077,1.8045424925826885,-0.373820921418234,0.6107282145287606,-0.3949314503306685,1.7824199509964287,0.8535896039157553,-1.4674299441212568,0.5431896804002634,11.247325358878696,-0.8482633399620937,0.1189750075686525,-1.03344596355844
1.78,0.3525763282856184,-0.1679261060236503,1.7859947522000903,0.1306718308331078,0.1342881456002045,0.0579715541581544,-0.2223222638793341,0.4758940112835433,-0.4151930141634966,0.3439608133772688,-0.1671857872161566,1.7965376416841357,-0.3697422392787181,0.5980365259911629,-0.3843092611367045,1.669847253601919,0.7001143846832036,-1.3699373095030802,0.6492314431333357,11.247325358878696,-0.8570221437565835,0.122625977150643,-1.025823920919334
1.8,0.3484601963831163,-0.1591280998678798,1.7782448619907831,0.1249345852211601,0.1251673334284445,0.0557651326266924,-0.2119495005515899,0.4519968093806322,-0.4011497704921899,0.3414602150916517,-0.1441314054594732,1.7652351014919156,-0.2633587020762316,0.4601440818107392,-0.3692246455140139,1.4797661729590832,0.5186381663872072,-1.1948600951455557,0.7021621835653358,11.332590124159651,-0.8670608335595396,0.1277898317088092,-1.0164771971723636
1.82,0.3443556653949142,-0.150349812024345,1.7703488662727442,0.1178344920887702,0.1142436851387304,0.0532742518332593,-0.1996089417777179,0.4277374992064326,-0.3892103465680041,0.3414602150916517,-0.1441314054594732,1.7652351014919156,-0.2633587020762316,0.4601440818107392,-0.3692246455140139,1.4860630577307534,0.6170279386935997,-1.212965508709976,0.5969711962092922,11.404851698091989,-0.8781637018918783,0.1333087589417296,-1.006522164488101
1.84,0.3404518956859849,-0.1420241592244806,1.7627102757334825,0.1100051534157319,0.1012626111654252,0.0505921320923264,-0.1919956857008276,0.4063621645555009,-0.3750496189046096,0.3414602150916517,-0.1441314054594732,1.7652351014919156,-0.2633587020762316,0.4601440818107392,-0.3692246455140139,1.337341399464303,0.3806628038445184,-1.068766732546586,0.7080363831697245,11.173376743957306,-0.8917935774703152,0.1404882900639454,-0.9928256917905224
1.86,0.3366466720672389,-0.1341043592460971,1.7553831325603462,0.102156261238823,0.0876043876507979,0.0479568543384648,-0.1893879658112458,0.386957786466279,-0.3583126981769537,0.3388266280708893,-0.1395299646413658,1.7615428550367755,-0.2715659897156111,0.4569940959161784,-0.3600309717841173,1.287880630625209,0.1303859944790902,-0.9702189044610982,0.8368460363827934,11.293659509181452,-0.9065886020034554,0.1475621361359829,-0.9774538834645228
1.88,0.3330341839462495,-0.1269229430141407,1.7487504725101557,0.0949527416261513,0.0749896101592871,0.0456233775002403,-0.1913055650289205,0.3701309609146365,-0.3406580721482594,0.3335594540293647,-0.130327083005151,1.7541583621264951,-0.2879805649943701,0.4506941241270568,-0.3416436243243242,1.223218158300153,-0.0958799608837351,-0.841341277582125,0.8827313014347166,11.501938094964316,-0.9228869961306672,0.1549946597615288,-0.9597833442718268
1.9,0.3291499330802125,-0.1196918805355683,1.7421455911611914,0.0877759350163202,0.0628401379431453,0.0434148741872888,-0.1973174558223303,0.3540207183993188,-0.3206727350479598,0.3282922799878401,-0.1211242013689362,1.746773869216215,-0.3043951402731291,0.4443941523379351,-0.3232562768645312,1.3182340875455716,-0.3005945396704915,-0.8055121257658809,0.9992668550149768,11.57284405466089,-0.9391968475778908,0.1623135505208935,-0.9411955590867916
1.92,0.3251066238059286,-0.1127670155557263,1.7359509758460687,0.0810755146503376,0.0523949467860762,0.0414888121502898,-0.2069051126112776,0.3394105202056827,-0.2997284109901488,0.3222043771823775,-0.1122363183221775,1.7403087436789242,-0.3208097155518881,0.4380941805488135,-0.3048689294047381,1.3638601139766662,-0.4793828394473662,-0.7305099096818091,1.0472162028905496,11.57284405466089,-0.953756093212351,0.1691153818293089,-0.923611834803129
1.94,0.3208380598172378,-0.1061185580124949,1.730180719453226,0.0748825557527553,0.0441000940954475,0.0398536381337342,-0.2195265024456611,0.3262663972907461,-0.2783104342475772,0.3161164743769149,-0.1033484352754188,1.7338436181416337,-0.3372242908306471,0.4317942087596919,-0.286481581944945,1.406055809969663,-0.6310694917191745,-0.6572061457468276,1.070898837128581,11.615018732912176,-0.967612789903248,0.1761175497232187,-0.9057598414176592
1.96,0.316520451894473,-0.1000333435218216,1.7250969720137306,0.0694663766229049,0.0386879465815812,0.0385746655715742,-0.2343929819651967,0.3150094999176258,-0.2578684418244407,0.3096182071894833,-0.0946180515233881,1.727838176290838,-0.3536388661094061,0.4254942369705702,-0.2680942344851519,1.3834784114698926,-0.7433239759767785,-0.562844868656015,1.0220996211568243,11.62919969525774,-0.9786904064118124,0.1827175811265127,-0.8903710643474865
1.98,0.3116462065160719,-0.0938460710424643,1.7201664732641593,0.0642540486799657,0.0363582997043357,0.03753539957268,-0.252082794716478,0.3043960316508352,-0.2362189056664436,0.3027095756200828,-0.0860451670660855,1.7222924181265369,-0.3700534413881651,0.4191942651814486,-0.2497068870253588,1.4952237288128374,-0.8844906375640629,-0.5306734133395302,1.0824768078998528,11.638723679887336,-0.9879026770020156,0.1883469579285656,-0.8776190881168199
2.0,0.3064215990766987,-0.0878575903613628,1.7156684365849095,0.0595550738454814,0.0374232281178247,0.0367707627198601,-0.2690818599877167,0.2950265414534745,-0.2146172434898796,0.299042066780248,-0.0786262694599226,1.7083555279808371,-0.2544888258426344,0.2888660842954456,-0.2039784143060177,1.452056623762201,-0.8499532635619367,-0.4684745098680359,1.0800831088282046,11.598956234231991,-0.9941411696347978,0.193073395446697,-0.8685883731950569
2.02,0.3008102816426756,-0.0819910434324605,1.7115246081470592,0.0569676712275133,0.0429431415769342,0.0364217559841735,-0.2905824205747053,0.2914146602824813,-0.2012623401946601,0.299042066780248,-0.0786262694599226,1.7083555279808371,-0.2544888258426344,0.2888660842954456,-0.2039784143060177,1.2783517054911038,-1.0750280293494283,-0.1805940585496573,0.6677451647609745,11.598956234231991,-0.991195216262974,0.1982150829974017,-0.867219415631712
2.04,0.2951316945940661,-0.0765032327769398,1.7078201853394477,0.0567768824427207,0.0525032016589622,0.0364975402279987,-0.3054574401815698,0.2862327204366521,-0.1892759595929879,0.299042066780248,-0.0786262694599226,1.7083555279808371,-0.2544888258426344,0.2888660842954456,-0.2039784143060177,0.9896868555236804,-0.7437509803432274,-0.2590969922914604,0.5993190300836088,11.0633632240324,-0.9894963119172964,0.1973110647702541,-0.8710315954469252
2.06,0.2889059784397588,-0.0708440974715118,1.7041695825742778,0.0579398421841819,0.0646847687474335,0.0368075282809083,-0.3157862836323839,0.2798796047081438,-0.1764076966887786,0.2964971785218216,-0.0757376086169681,1.706315743837777,-0.2549700320678657,0.2857600948243677,-0.1975303160339325,0.8840804214876224,-0.5164421725407042,-0.3176557864254165,0.6434131452104627,11.013030747853009,-0.9841351324241292,0.1957243974513115,-0.8784533330398745
2.08,0.2825217365995794,-0.0653210606067614,1.700775128668893,0.0600698179684078,0.0776565658059674,0.0372597334692758,-0.3216680926549185,0.2726960018890569,-0.1636956485055425,0.291407402004969,-0.0699602869310592,1.7022361755516566,-0.2559324445183283,0.2795481158822119,-0.1846341194897621,0.7870768638654028,-0.29409045112673,-0.359180140954346,0.6356024091618048,11.003245001757932,-0.9768264573835884,0.1941912023201771,-0.8869428603459645
2.1,0.2763844610885859,-0.0602211028097056,1.697782925668741,0.0625053949926068,0.0900129698312062,0.0377554635790206,-0.3237197282925872,0.264409716829149,-0.151935799874021,0.2863176254881163,-0.0641829652451503,1.6981566072655363,-0.2568948569687909,0.273336136940056,-0.1717379229455918,0.7265771960364991,-0.1025817818834373,-0.414314252995393,0.5879924315760787,10.988881475893322,-0.9677658178344324,0.1922019473478742,-0.8971177189074092
2.12,0.2699166698317276,-0.0550369788164915,1.694872171602963,0.0648150570758284,0.1026681079303788,0.0382746151910096,-0.3225926831816193,0.25450021415895,-0.1397830136134458,0.2811797283487404,-0.0587162425063491,1.6947218488066245,-0.2578572694192534,0.2671241579979002,-0.1588417264014214,0.7860640682350002,0.0563522555483975,-0.4954751335099511,0.60763931302876,10.983662941440343,-0.9580968001530836,0.1904192739354016,-0.907554359019956
2.14,0.2635162343648519,-0.0500580200085797,1.6921978389421597,0.0665611347548706,0.1143429392553242,0.0387212260331145,-0.3172521504846786,0.2439851281282316,-0.12831345032119,0.2760418312093646,-0.053249519767548,1.6912870903477126,-0.258819681869716,0.2609121790557444,-0.145945529857251,0.8225557820530541,0.2670266348470368,-0.5257543015359203,0.5734781646127909,10.957563110911906,-0.9493911810366568,0.1891139205280665,-0.916690732302463
2.16,0.2572626737369303,-0.0452964021670014,1.6897449136052558,0.0674716919486473,0.1241441274622731,0.0390042454836872,-0.3083498527069746,0.2328431406808319,-0.1175834151409307,0.2708798737587272,-0.0479380965023008,1.688174736802405,-0.2597820943201786,0.2547002001135885,-0.1330493333130806,0.8923682605439953,0.445114888885198,-0.5570993723699846,0.5365017590129625,10.938965364101932,-0.9405435385423152,0.1882820292314486,-0.9256008151046016
2.18,0.2515116514809359,-0.0409834051177664,1.6876091680727634,0.0672964333903261,0.1312773949525379,0.0390611857682564,-0.2975472139946065,0.2218591684070527,-0.1077852619356841,0.2656938559968283,-0.0427819727106075,1.6853847881707016,-0.2607445067706412,0.2484882211714326,-0.1201531367689102,0.9128916369079466,0.5401319356184042,-0.5491986136889601,0.48990766026233,10.938965364101932,-0.9329597050397525,0.1883438058700604,-0.9327994351441138
2.2,0.2456943305651003,-0.036668024089395,1.6855617206362958,0.065841418124666,0.1363726938294605,0.0388705732147582,-0.2848179829334882,0.2103793196494465,-0.0974737250241527,0.2366342907812056,-0.0298904466974138,1.6822199049759792,-0.2674881203851543,0.192776044976443,-0.1008832480303377,1.0001850383588096,0.6364615530559142,-0.573992437880308,0.5155768455765715,10.937591253917162,-0.9271770077429408,0.1895815790641535,-0.9377273381566328
2.22,0.2400982336530658,-0.0325245493357998,1.6836335896879628,0.0645875062202081,0.1399634896728169,0.0385938250551636,-0.2754828913444862,0.204321151835488,-0.0963640664408715,0.2366342907812056,-0.0298904466974138,1.6822199049759792,-0.2674881203851543,0.192776044976443,-0.1008832480303377,0.559188417281217,0.4667545794501015,-0.3029083906979257,0.05548292916406,10.954892666309206,-0.9186047426290004,0.1918185496981775,-0.9432931198701612
2.24,0.2346937090847235,-0.0285026280341194,1.681713256718348,0.0647752705661057,0.1429898039337358,0.038384425091804,-0.2653948035680365,0.1979768351500887,-0.0957008145431329,0.2366342907812056,-0.0298904466974138,1.6822199049759792,-0.2674881203851543,0.192776044976443,-0.1008832480303377,0.5967825656590586,0.5044043888224853,-0.3172158342699641,0.0331625948869263,10.345833428026708,-0.9138390264115568,0.1907527358264019,-0.9483724861810054
2.26,0.2297553514951034,-0.0248055169169702,1.6799088723595177,0.0659734325292586,0.1452333628562686,0.0382202760642626,-0.2549480629957047,0.1914090493341444,-0.0942856283237787,0.2339594095773541,-0.0279626862476493,1.6812110724956757,-0.2614763016632638,0.1869594202903211,-0.0995028452492684,0.6210333146159955,0.5223370286165874,-0.3283892907972166,0.0707593109677127,10.39316333539864,-0.9096849400915508,0.1889129683007963,-0.952781973391557
2.28,0.224777442847598,-0.021056084200926,1.6780452966213228,0.0681160148217924,0.1469059037634592,0.0380679029824302,-0.243392139829104,0.183764006034743,-0.092126670694342,0.228609647169651,-0.0241071653481205,1.679193407535069,-0.2494526642194829,0.1753261709180772,-0.0967420396871299,0.7011546643355595,0.5777961583300378,-0.3822521649700677,0.1079478814718336,10.45114079861196,-0.9060782472738728,0.1864222211175701,-0.9565950386067718
2.3000000000000003,0.2200356160411712,-0.0174775740770249,1.6762304387692548,0.0706786618541794,0.147895396618242,0.0379010086971083,-0.2313886669846474,0.1743487751901797,-0.0894546721286231,0.2232598847619479,-0.0202516444485916,1.6771757425744622,-0.237429026775702,0.1636929215458333,-0.0939812341249913,0.7743860608882797,0.6001736422228288,-0.4707615422281652,0.1335999282859455,10.500130424795316,-0.9030310521546434,0.1834720998122433,-0.960000532155732
2.32,0.2155364224610829,-0.0141026148802798,1.674474094003808,0.0729959410863806,0.1482483518949006,0.0376725919913994,-0.2191713660732736,0.1636489672353476,-0.0862888735694089,0.2185113042264339,-0.0169777860176749,1.6752961178919623,-0.2254053893319211,0.1520596721735894,-0.0912204285628527,0.8273007499495957,0.6108650455686884,-0.5349903977416054,0.1582899279607093,10.540908982342444,-0.901009030074486,0.1810220666003005,-0.962208065299306
2.34,0.2112816413843886,-0.0109501402922768,1.67278311071798,0.0748058758263953,0.1480357401571195,0.0373669380175434,-0.2069945060774198,0.1522568174689154,-0.0829579210998429,0.2137627236909198,-0.0137039275867583,1.6734164932094624,-0.2133817518881402,0.1404264228013455,-0.0884596230007142,0.8502238528969243,0.6088429997926942,-0.5696074883216107,0.1665476234783018,10.578514581875424,-0.9001549933616828,0.179392535809894,-0.9627420961057062
2.36,0.2074644862471269,-0.0081742314307734,1.671239452415954,0.0758848976318251,0.147368640004123,0.0369966770997788,-0.1954989219667594,0.1406275159564105,-0.0796862221882904,0.2093147340915003,-0.0107209003901477,1.671605888666016,-0.2013581144443593,0.1287931734291016,-0.0856988174385756,0.8338062147193893,0.5747792055330186,-0.5814650756252467,0.1635849455776244,10.589494997508154,-0.8998608213483932,0.1782344165059089,-0.9627949214133684
2.38,0.2036797854765518,-0.0054965784171406,1.6696837239433813,0.076069391490093,0.146229686975699,0.036508655561865,-0.1836346284410882,0.1278290516935917,-0.0760369317889101,0.2051673354281753,-0.0080287044278432,1.6698643042616232,-0.1893344770005784,0.1171599240568578,-0.0829380118764371,0.8914587325963853,0.5932146762835585,-0.6399232131409388,0.1824645199690153,10.599979298053768,-0.9001630376560162,0.1778965544099527,-0.9622022483108248
2.4,0.2001299412994516,-0.003079253110896,1.6682035373716433,0.0750123093452093,0.144665606402455,0.0359066632621543,-0.1720029790258375,0.1146651603816238,-0.0721374191338314,0.1944980540544974,0.0008948741675389,1.6658818773539357,-0.1723795774317312,0.1160734744050237,-0.0966785641670114,0.8997075935265372,0.5815824707625372,-0.658194565598394,0.1949756327539333,10.614245593065789,-0.9010323541869084,0.1785648073806823,-0.9609674175200064
2.42,0.1968249453838138,-0.000972466632077,1.6667184740741057,0.0707550450519227,0.1418378472351212,0.0350022830099561,-0.1591336758989877,0.0980194239048281,-0.0768738433169574,0.1944980540544974,0.0008948741675389,1.6658818773539357,-0.1723795774317312,0.1160734744050237,-0.0966785641670114,1.0783473696682508,0.6434651563424904,-0.8322868238397854,-0.2368212091562987,10.628215553086193,-0.9018544328362254,0.1809778671205776,-0.9602204719921592
2.44,0.1939182843098554,0.0007840225354176,1.6652121669368216,0.0643960864843517,0.1369693196065463,0.0338667111230742,-0.1477682370375289,0.0881147293699839,-0.0813504745712954,0.1944980540544974,0.0008948741675389,1.6658818773539357,-0.1723795774317312,0.1160734744050237,-0.0966785641670114,0.7863148251963809,0.5682719430729357,-0.4952347267422128,-0.2238315627169029,10.09783041625542,-0.9034541865584044,0.1856781071737718,-0.9581805504054812
2.46,0.1910611448282911,0.0024719866568329,1.6635437137265503,0.0576198105353008,0.1302291043026823,0.0326247269697182,-0.1388896603279711,0.0812744414100414,-0.0852148449093893,0.1927742582801801,0.0020556089115891,1.6649150917122657,-0.1701285672298598,0.1137223589473101,-0.1008068906426317,0.592773189914104,0.4439288354778928,-0.3420143979971243,-0.1932185169046925,10.143979375608067,-0.9069332354662256,0.1911025021998882,-0.9536430520812088
2.48,0.1883467742014034,0.0040469644849604,1.6618050155010706,0.0516414539044591,0.1230304391312967,0.0314816286464355,-0.1331857703784238,0.0764375692660444,-0.0884576305168997,0.1893266667315454,0.0043770783996896,1.662981520428925,-0.165626546826117,0.1090201280318829,-0.1090635435938722,0.4075700896477706,0.2851944974773646,-0.2418436071998458,-0.1621392803755214,10.143979375608067,-0.9115347858168964,0.1956275196493611,-0.9482526173307254
2.5,0.1857171424174548,0.0055382613686976,1.6600048663446576,0.046673651890799,0.1162730392297477,0.0304938863328504,-0.1301534710590072,0.0727656456272426,-0.091396724029527,0.1858790751829108,0.0066985478877901,1.6610479491455852,-0.1611245264223743,0.1043178971164557,-0.1173201965451128,0.2798040968592717,0.1516149659708282,-0.1835961819400898,-0.1469546756313618,10.163193913033863,-0.9166386946562898,0.1994231358291819,-0.9426453335244008
2.52,0.1832525385841211,0.0068942948751741,1.6582412305233325,0.0428693670323842,0.1108707364012732,0.0297129638535125,-0.1295095163974689,0.069996087981694,-0.0941068401893309,0.1826565846544633,0.0087849058301192,1.658701545214683,-0.1566225060186315,0.0996156662010284,-0.1255768494963533,0.1964042817619088,0.0321977330769149,-0.1384778822774317,-0.1355058079901994,10.174277580903436,-0.9208159293668272,0.2023491591367353,-0.9381036692393616
2.54,0.1806488748563919,0.0082689711709331,1.656325145119227,0.0397082585722963,0.1069335663601236,0.0290604067507208,-0.1310199427173809,0.0675203915178534,-0.0973882908155447,0.1794340941260158,0.0108712637724483,1.6563551412837807,-0.1521204856148887,0.0949134352856012,-0.1338335024475939,0.2189656300725883,-0.0755213159955969,-0.1237848231920295,-0.1640725313106883,10.174277580903436,-0.9232653555672417,0.2043810711711869,-0.9355902928623816
2.56,0.1779956433796447,0.0095973969195521,1.6543382966586986,0.0372757269470671,0.1055231256042255,0.0285839302247856,-0.1340160840265931,0.0653263381569556,-0.1011415584014936,0.1763241541076619,0.0128400659418918,1.6538023210290975,-0.1476184652111459,0.090211204370174,-0.1420901553988344,0.2639969245416002,-0.1498070654606109,-0.1097026680448934,-0.1876633792974417,10.125969942237134,-0.9241317619375788,0.2050239833252853,-0.9357427584765524
2.58,0.1754270904027913,0.0108208607911674,1.6523770801568871,0.0354848647745869,0.106386561796654,0.0282649135369383,-0.1359544515835284,0.0634829423344141,-0.1051252339095166,0.1733267645994016,0.0146913123384495,1.6510430844506332,-0.1431164448074031,0.0855089734547468,-0.150346808350075,0.2399221097437938,-0.0969183778467649,-0.0921697911270717,-0.1991837754011523,10.097753874372756,-0.9232765449020168,0.2049133004782334,-0.9382195148494452
2.6,0.1726998977917609,0.0120734143482518,1.6502265626192882,0.034060181524486,0.1088357533357905,0.028027070369187,-0.1364592274090716,0.0618557736670644,-0.1097469229811582,0.1686293678236149,0.0139950079078881,1.6471208184614117,-0.1321233660673885,0.0611537232017523,-0.0983399715334466,0.2462848268823565,-0.0252387912771628,-0.0813584333674847,-0.2310844535820803,10.097753874372756,-0.920365168583276,0.2044609612519865,-0.9427069094154042
2.62,0.1700191463879165,0.013271613949263,1.6480982497148498,0.0324333628086729,0.1113365197199494,0.0277869934749502,-0.1314871948388389,0.0582638204778364,-0.1022244682216142,0.1686293678236149,0.0139950079078881,1.6471208184614117,-0.1321233660673885,0.0611537232017523,-0.0983399715334466,0.4853106252763456,0.2486016285116382,-0.1795976594613991,0.3761227379772011,10.07296101377142,-0.9219975980939884,0.2034628413457682,-0.9439184913731276
2.64,0.1674460269690535,0.0144138709625201,1.6461369335322382,0.0304464364039123,0.1127633396926837,0.0274974877834899,-0.1261725353662091,0.0562097839793723,-0.0943465803705474,0.1686293678236149,0.0139950079078881,1.6471208184614117,-0.1321233660673885,0.0611537232017523,-0.0983399715334466,0.4861218680563067,0.2657329736314898,-0.1027018249232049,0.3938943925533372,10.851000231953549,-0.9216102501558326,0.2065221686583054,-0.941964829158953
