t,x,y,z,roll,pitch,yaw,v_x,v_y,v_z,ref_x,ref_y,ref_z,ref_v_x,ref_v_y,ref_v_z,a_com,a_x,a_y,a_z,thrust,wind_x,wind_y,wind_z
0.0,-1.008642837833995,2.467519391388734,2.816064873293286,0.0340854330731043,0.1008788945244571,0.044196840397167,0.0044508666114848,-0.002027038699088,0.0339452177855594,-1.0085175707920262,2.467567843052585,2.817095651938597,-0.0494112842805571,-0.0993428483009124,-0.0657484987099364,1.7147863642374632,0.2225433305742405,-0.1013519349544004,1.6972608892779746,10.220035759264649,-0.9486701049237284,0.2598414936387454,-0.8617936731084792
0.02,-1.0084605947952614,2.467743758637396,2.816514994186521,0.0416273658238233,0.0967126803767101,0.0445341037355557,0.0132159928557048,0.0187895497777887,0.0108966071644429,-1.0085175707920262,2.467567843052585,2.817095651938597,-0.0494112842805571,-0.0993428483009124,-0.0657484987099364,1.613533579954722,0.4382563122110007,1.040829423843838,-1.152430531055829,10.221500014266894,-0.9522011254652984,0.2590082313623773,-0.8529847652955692
0.04,-1.0081328272105203,2.4681404331353543,2.8164311577294225,0.055498327807711,0.0854489954708819,0.0448840875902772,0.0180846477068647,0.0191792815840206,-0.018090016794655,-1.0085175707920262,2.467567843052585,2.817095651938597,-0.0494112842805571,-0.0993428483009124,-0.0657484987099364,1.469761936068782,0.2434327425579948,0.0194865903115929,-1.4493311979548968,8.887570081952163,-0.9492448047480992,0.2438739734787772,-0.8630943540236345
0.06,-1.0078022983913202,2.468453511372368,2.8158101285453805,0.0690445032977748,0.0709952593364262,0.0448161744326695,0.0158993068113899,0.0134477429973812,-0.0458565197333147,-1.0090116836348315,2.466574414569576,2.8164381669514977,-0.0601431184537596,-0.1193428485989356,-0.0857484990079596,1.4217989791476942,-0.1092670447737382,-0.2865769293319689,-1.3883251469329867,8.650139733466858,-0.951230289274955,0.2251781420473685,-0.8712277086856992
0.08,-1.0075666728908323,2.4686275596471168,2.8145878318483644,0.0827677794700583,0.0546115723347512,0.0443572559709331,0.0072996640244069,0.0039235592338141,-0.0749481623413925,-1.009999909320443,2.4645875576035574,2.8151231969772987,-0.0816067868001646,-0.1593428491949821,-0.125748499604006,1.5898015615651755,-0.429982139349149,-0.4762091881783519,-1.4545821304038884,8.663027595252515,-0.9564575246564482,0.2050623821864472,-0.8779730024530916
0.1,-1.0075637459597266,2.4685791586316777,2.8127881668237693,0.0958306462860911,0.0391008583859376,0.0436551674522507,-0.0067512835744913,-0.008586895298683,-0.1036341713781083,-1.010988135006054,2.462600700637539,2.8138082270031,-0.1030704551465696,-0.1993428497910285,-0.1657485002000525,1.715246130655311,-0.7025473799449161,-0.6255227266248599,-1.4343004518357898,8.756024713629813,-0.9630606037011205,0.1857360816816108,-0.8832969232732403
0.12,-1.0078616237656803,2.468275334387548,2.810550229885288,0.1076458287898676,0.0263817818890508,0.0429189973578421,-0.0239022880881082,-0.023013523818753,-0.1305634693249429,-1.0130495441089855,2.458613843641719,2.810493256999099,-0.1245341234929747,-0.2393428503870749,-0.2057485007960989,1.751764577641352,-0.8575502256808437,-0.7213314260035025,-1.3464648973417286,8.81422960672171,-0.9703190336633511,0.1654791340876241,-0.8888117403192966
0.14,-1.008554081449154,2.4676344366500733,2.807633857715869,0.1194872554588137,0.0157089170480726,0.0422048435662296,-0.0444552133484787,-0.0405884516820702,-0.1597402123450271,-1.015110953211917,2.454626986645898,2.8071782869950983,-0.1459977918393797,-0.2793428509831215,-0.2457485013921454,1.9890846886314395,-1.0276462630185257,-0.8787463931658596,-1.4588371510042109,8.806658312875697,-0.9759711840701772,0.1447178788324334,-0.896821327040478
0.16,-1.009682364437669,2.466616782961072,2.804128905958905,0.130745528165501,0.008190398078746,0.0416778496647349,-0.0673947552978011,-0.0605581586365031,-0.189354746974788,-1.0177089540235085,2.4496401296351764,2.802863316976196,-0.1674614601857847,-0.3193428515791679,-0.2857485019881918,2.1225176336299034,-1.1469770974661193,-0.9984853477216438,-1.4807267314880457,8.806658312875697,-0.979117402524012,0.1243004943669258,-0.9071626055264128
0.18,-1.0112946942378624,2.465175398892344,2.8000300344471007,0.1414467424325858,0.0045736436174196,0.0415236673249818,-0.092578348997774,-0.0828152057484711,-0.2191037329979504,-1.02084354654376,2.443653272609553,2.7975483469423925,-0.1889251285321898,-0.3593428521752143,-0.3257485025842382,2.244210165735369,-1.259179684998644,-1.112852355598401,-1.4874493011581196,8.873265457878915,-0.9803655157416764,0.1075195900662506,-0.9159200174003216
0.2,-1.0132917357181317,2.4633534083179494,2.795583453516423,0.1504709519878119,0.0049985475924942,0.041797857003443,-0.1159107373593086,-0.1075890251630439,-0.2474142599663268,-1.0159236116877512,2.46103463860492,2.7890748477972034,-0.1330379520689867,-0.1828152072385872,-0.3191037344880665,2.2133845193879607,-1.1666194180767322,-1.2386909707286418,-1.415526348418819,8.873265457878915,-0.9798876537845906,0.0898273619562927,-0.927826347216272
0.22,-1.0159049370933586,2.4607665585989684,2.790442548427786,0.1545623061546814,0.0105727211391356,0.0424741752276539,-0.1435934211118665,-0.1480438299762049,-0.2640618464757954,-1.0159236116877512,2.46103463860492,2.7890748477972034,-0.1330379520689867,-0.1828152072385872,-0.3191037344880665,2.5884668960628625,-1.3841341876278952,-2.022740240658047,-0.8323793254734299,8.904112120860646,-0.9764195793518458,0.074613382191212,-0.9446710563133685
0.24,-1.0190226480082505,2.457433907768958,2.785000218727327,0.1526354934560917,0.0215737589378903,0.0435515942424792,-0.1660396884823233,-0.1825984336133718,-0.2793515284832524,-1.0159236116877512,2.46103463860492,2.7890748477972034,-0.1330379520689867,-0.1828152072385872,-0.3191037344880665,2.1975156013535457,-1.1223133685228384,-1.7277301818583446,-0.7644841003728503,9.87321923184345,-0.9707511722404942,0.0731677118367719,-0.9538543013522134
0.26,-1.022344450107398,2.4536751929010943,2.779530876563072,0.1478880110615922,0.0346964056818899,0.0447216453236249,-0.182004870382358,-0.2105859776353953,-0.2954628486831648,-1.017253991208441,2.4592064865325343,2.7858838104523227,-0.1411298726832293,-0.2028152075366104,-0.3391037347860897,1.8012247861316557,-0.7982590950017382,-1.3993772011011776,-0.805566009995623,9.733773480500986,-0.9610843175652336,0.074364687411963,-0.966471044635555
0.28,-1.0261147797806716,2.449195378028444,2.773425446091807,0.142106865585073,0.0494326644056163,0.0459418249005221,-0.1937277676487314,-0.2356871776758992,-0.314335526520121,-1.019914750249821,2.455550182387763,2.7795017357625613,-0.1573137139117144,-0.2428152081326569,-0.3791037353821361,1.6760627468332383,-0.5861448633186661,-1.255060002025196,-0.943633891847806,9.41357712269928,-0.9488068951431972,0.0769388732478999,-0.9807894034643212
0.3,-1.030069944681359,2.4442423310204195,2.766919463094551,0.136493972497656,0.0637175869283751,0.0470089969363634,-0.2008777726492665,-0.2582581569132394,-0.3354449275076643,-1.0225755092912006,2.451893878242991,2.7731196610728,-0.1734975551401995,-0.2828152087287033,-0.4191037359781826,1.586015830069971,-0.3575002500267557,-1.1285489618670084,-1.055470049377169,9.41357712269928,-0.9348672013724192,0.0788140680966582,-0.996878190480778
0.32,-1.0341266325673202,2.438858817192951,2.7599669458400418,0.1314067035548855,0.0765405788232245,0.0478231534383921,-0.2042981983252935,-0.2789914253329093,-0.3588048049180863,-1.0260454603940046,2.446237574068417,2.7647375863532364,-0.1896813963686846,-0.3228152093247498,-0.459103736574229,1.5710280104101024,-0.1710212838013536,-1.036663420983494,-1.1679938705211002,9.285652837838825,-0.9212140544422942,0.0797311777724441,-1.012619328260888
0.34,-1.038015571332697,2.433373261187632,2.7529170157321583,0.1271729056668344,0.0868540344021371,0.0483245420951917,-0.204864916011299,-0.2974752621397771,-0.3821848265493722,-1.0295154114968086,2.4405812698938427,2.756355511633673,-0.2058652375971697,-0.3628152099207963,-0.4991037371702755,1.490468721172929,-0.0283358843002748,-0.9241918403433912,-1.1690010815642915,9.180174506788717,-0.9074335967977624,0.0797613752309602,-1.0287046545415923
0.36,-1.042101915261466,2.427221574300225,2.745004104770561,0.1231288446621046,0.0955793394340912,0.0485541232357779,-0.2036955433159128,-0.3166405398776464,-0.4079497390889294,-1.0333899586303248,2.433924965704368,2.746973436899208,-0.2220490788256548,-0.4028152105168427,-0.5391037377663219,1.606631586146475,0.0584686347693125,-0.9582638868934652,-1.2882456269778602,9.130775485269623,-0.894784731362576,0.079476690976555,-1.0434140868280566
0.38,-1.046150916404756,2.4206916378675403,2.7365670612893727,0.1192307809850229,0.1021976189581607,0.0484887268025373,-0.2012711137187139,-0.3352801035450561,-0.4345096681785461,-1.037669101794553,2.426268661499991,2.736591362149842,-0.2382329200541399,-0.4428152111128891,-0.5791037383623684,1.6269150452840673,0.1212214798599453,-0.9319781833704854,-1.327996454480837,9.089961260388918,-0.8839386618493171,0.0792982547981642,-1.0561253698015831
0.4,-1.0501425289059974,2.4137954699331683,2.727591885895455,0.1153523208303664,0.1068673789902251,0.0481562937019238,-0.198107039947582,-0.3532636305133674,-0.4616941557549904,-1.0562144720906916,2.403927632690288,2.7148415778804456,-0.2348872355770723,-0.4352801050351723,-0.5345096696686622,1.6373873776866277,0.1582036885565935,-0.8991763484155646,-1.359224378822213,9.067034881957625,-0.8755104323485227,0.0793003915464143,-1.066326333845591
0.42,-1.0538447905443735,2.406916614096331,2.7187546033401944,0.1123106795898245,0.1094895908454888,0.047651194000835,-0.191915075308166,-0.3702498080637629,-0.4672395710995494,-1.0562144720906916,2.403927632690288,2.7148415778804456,-0.2348872355770723,-0.4352801050351723,-0.5345096696686622,0.9455451935431312,0.3095982319708021,-0.8493088775197721,-0.2772707672279495,9.0485084832726,-0.8759698685047014,0.079613684996659,-1.0683772803077836
0.44,-1.0576165968825837,2.399335448299049,2.7093193797184734,0.1102355811088207,0.1103530338938234,0.0469673343499636,-0.1857103698788281,-0.3871662478287166,-0.4763048156152249,-1.0562144720906916,2.403927632690288,2.7148415778804456,-0.2348872355770723,-0.4352801050351723,-0.5345096696686622,1.008517429094742,0.3102352714668924,-0.8458219882476858,-0.4532622257837765,10.259654449499068,-0.8720389672394353,0.0796493336329788,-1.0730772881134296
0.46,-1.0612696566231965,2.3914136828567365,2.6996538441162903,0.1090199599767082,0.1093845351520129,0.0461276434613753,-0.1800268392262,-0.404226938207149,-0.4897822321189993,-1.0585633444464624,2.399574831639936,2.7094964811837587,-0.2416104599487439,-0.4552801053331954,-0.5545096699666854,1.123621858638739,0.2841765326314041,-0.8530345189216193,-0.6738708251887215,9.990854765913356,-0.8704660338162258,0.078677178153598,-1.0760517319547578
0.48,-1.0646409423401269,2.383573137966477,2.6901922990323914,0.1083492888452489,0.1067946833554093,0.0451703162138043,-0.1752478371862731,-0.420259122915502,-0.5054867519657164,-1.0632610891580037,2.3908692295392324,2.6988062877903856,-0.2550569086920873,-0.4952801059292419,-0.5945096705627319,1.1472812979347122,0.2389501019963463,-0.8016092354176524,-0.7852259923358501,9.77275698702124,-0.8707855903193193,0.076852886226673,-1.077933734151843
0.5,-1.0681021416922325,2.3749947463206618,2.679886245632274,0.1081417167667924,0.1023405162169863,0.0439980632733634,-0.1713415904821979,-0.4367616299197975,-0.524396659882212,-1.0679588338695452,2.382163627438529,2.6881160943970124,-0.2685033574354307,-0.5352801065252883,-0.6345096711587783,1.2700158642220418,0.1953123352037608,-0.8251253502147754,-0.9454953958247804,9.478585470970756,-0.8723086212846565,0.0739954734460825,-1.0794754369194255
0.52,-1.071508637880287,2.3660861735689425,2.669181987882676,0.1084699339363175,0.0965481932613962,0.0427038112267898,-0.1697933673467826,-0.4533059473685849,-0.545151727747113,-1.0733289010182538,2.3714580253080237,2.675425900973837,-0.281949806178774,-0.5752801071213348,-0.6745096717548248,1.32936477010632,0.0774111567707638,-0.8272158724393686,-1.03775339324505,9.478585470970756,-0.8752074998820912,0.0702859269637912,-1.0803024280280915
0.54,-1.074739331801534,2.3573138471185318,2.6586212476025226,0.1092315638094195,0.0905343069544552,0.0414336378593331,-0.1705316759342903,-0.4693082633136357,-0.5654577478426666,-1.0786989681669623,2.3607524231775177,2.662735707550661,-0.2953962549221174,-0.6152801077173813,-0.7145096723508713,1.2932069317172712,-0.0369154293753837,-0.8001157972525375,-1.01530100477768,9.385410266245344,-0.8797831549772116,0.0665116401081624,-1.0793603031686638
0.56,-1.0781775128126136,2.347738264115674,2.64708252277812,0.1101523612579223,0.0842860172102092,0.0400942753624588,-0.1734099439189011,-0.4873815474319793,-0.5873584101940518,-1.0844051965342547,2.3490468210321107,2.6490455141125846,-0.3088427036654607,-0.6552801083134276,-0.7545096729469176,1.427031041045525,-0.1439133992305413,-0.9036642059171818,-1.0950331175692607,9.36203425173153,-0.8848660288520321,0.0622980836028644,-1.0782598897230642
0.58,-1.081693216366875,2.3377878051625665,2.635101607892162,0.1105830361959209,0.0786144910845162,0.0387669408258719,-0.178139661265279,-0.5066754180664159,-0.6096354546876019,-1.0904475861201304,2.3363412188718025,2.634355320659606,-0.322289152408804,-0.6952801089094741,-0.7945096735429641,1.4923893439737976,-0.2364858673188932,-0.9646935317218304,-1.1138522246775084,9.330875867029135,-0.8896742905161417,0.0584796970805082,-1.077438394083715
0.6,-1.0853230165709584,2.327439535332694,2.6226701563370143,0.1099007538880123,0.0739879861277304,0.0374680261681753,-0.1847017310718101,-0.5269517704508101,-0.6323666460224792,-1.090600199430139,2.312454034259245,2.604619835157782,-0.1862436652311336,-0.606675419556532,-0.7096354561777181,1.5579620387422093,-0.3281034903265575,-1.013817619219709,-1.136559566743861,9.330875867029135,-0.8937477859035184,0.056144030063654,-1.076689346030607
0.62,-1.0889738277061454,2.317190719477761,2.6106544487373946,0.1074765008906994,0.0736685739370999,0.0365545411711128,-0.1985761190803018,-0.5503281071760988,-0.6312116235153034,-1.090600199430139,2.312454034259245,2.604619835157782,-0.1862436652311336,-0.606675419556532,-0.7096354561777181,1.3604097161299809,-0.6937194004245834,-1.1688168362644358,0.0577511253587903,10.8235500771616,-0.8966295616538968,0.0537321702239191,-1.078916551089298
0.64,-1.0930704864902028,2.305964411202261,2.598013462909904,0.1036341457225416,0.0793534505719004,0.0361385178027578,-0.2096593975999384,-0.5707467201523669,-0.633215491974263,-1.090600199430139,2.312454034259245,2.604619835157782,-0.1862436652311336,-0.606675419556532,-0.7096354561777181,1.165948441633759,-0.5541639259818306,-1.0209306488134062,-0.1001934229479806,10.8235500771616,-0.8941114614053413,0.0576547615448677,-1.079808421916861
0.66,-1.0973350023420718,2.294355358517444,2.5852785806171945,0.0996020026214908,0.0886535165343327,0.0360536723561741,-0.2157090520676179,-0.5889445207104602,-0.6403710339412589,-1.0924626360824503,2.30638728006368,2.597523480596005,-0.1878644660243046,-0.6266754198545552,-0.7296354564757412,1.0234256753324775,-0.3024827233839747,-0.909890027904664,-0.3577770983497985,10.11342966583561,-0.8865151351140568,0.0613368038652672,-1.085453236562399
0.68,-1.101677854853745,2.282402153211269,2.5723484796562905,0.0956324516314254,0.0996124059099759,0.0360965405767556,-0.2178360528143586,-0.6053530001439389,-0.6522631758293914,-1.096187509387073,2.2942537716725493,2.5833307714724505,-0.1911060676106464,-0.6666754204506017,-0.7696354570717877,1.018804898131879,-0.1063500373370343,-0.8204239716739337,-0.594607094406624,10.11342966583561,-0.8759776177415096,0.0644134195415243,-1.093957225839263
0.7000000000000001,-1.1058122536019122,2.270757229187695,2.559809783776798,0.0920785840090786,0.1105672294261147,0.036162842093974,-0.2169384277554937,-0.6195643606552899,-0.6670171322205175,-1.0999123826916957,2.282120263281419,2.569138062348896,-0.1943476691969883,-0.7066754210466482,-0.8096354576678342,1.0252411027669763,0.0448812529432463,-0.7105680255675484,-0.7376978195563044,9.857486113997766,-0.8639916286104858,0.0675316528756947,-1.1033658111233495
0.72,-1.1101169071080044,2.2582216959100343,2.5462779187629607,0.0887078317707611,0.1220507535724952,0.0362126189641184,-0.2132739566785549,-0.6332218980728621,-0.6855546534235836,-1.1037993360756355,2.2679867548604857,2.5529453531955397,-0.1975892707833301,-0.7466754216426946,-0.8496354582638806,1.1657576602152688,0.1832235538469409,-0.6828768708786126,-0.9268760601533031,9.662734426819044,-0.851019261565927,0.0699568827802387,-1.1137850389431416
0.74,-1.114314796611276,2.245422486152336,2.532356220856071,0.0857770258896672,0.1328821735112811,0.0361987766547608,-0.2064684478399772,-0.6460212463082152,-0.7057746188626273,-1.1076862894595751,2.253853246439553,2.5367526440421826,-0.200830872369672,-0.7866754222387411,-0.8896354588599271,1.2439707273062313,0.3402754419288847,-0.6399674117676557,-1.0109982719521848,9.43700863705908,-0.8380372547689864,0.0715901282841933,-1.1244502036635755
0.76,-1.118346813074292,2.232366119931805,2.51801633939939,0.0829955536575604,0.1424533659665957,0.0360573304182621,-0.1969851841210882,-0.6588316703910091,-0.727226267847538,-1.1116542828831737,2.2387197380037187,2.5195599348739246,-0.2040724739560138,-0.8266754228347875,-0.9296354594559736,1.3362377222212751,0.474163185944447,-0.6405212041396935,-1.072582449245535,9.43700863705908,-0.8261392929057613,0.0727558757545129,-1.134399337146149
0.78,-1.121981536225594,2.219729309205794,2.5039863112137484,0.0802510189917906,0.1500806490950562,0.0357704652735091,-0.1860798602204145,-0.6705670606302105,-0.7485634778633797,-1.1157033163464305,2.2225862295529835,2.5013672256907657,-0.2073140755423557,-0.8666754234308339,-0.96963546005202,1.3340933294798836,0.5452661950336862,-0.5867695119600724,-1.0668605007920884,9.39699180926982,-0.8146116893458366,0.0739779522158265,-1.1441439153943431
0.8,-1.125569882081265,2.206194688689929,2.48876884669852,0.0772555561839018,0.1564525973261321,0.0353076189592739,-0.1733085378147732,-0.6821549114337245,-0.7721193937431142,-1.1312855292366149,2.1862009561742832,2.4665581373205794,-0.1777884620453537,-0.7705670621203267,-0.8485634793534959,1.459679875149397,0.6385661202820664,-0.5793925401756994,-1.1777957939867243,9.361527649605703,-0.8044242735757763,0.075310414938057,-1.1528447282757004
0.8200000000000001,-1.1288635918071566,2.1924204973103056,2.473317452543226,0.0743131758536422,0.161495517488686,0.0347293442599091,-0.1564433736826954,-0.694713789452792,-0.7705916409783327,-1.1312855292366149,2.1862009561742832,2.4665581373205794,-0.1777884620453537,-0.7705670621203267,-0.8485634793534959,1.054150376855736,0.8432582066038863,-0.627943900953376,0.0763876382390782,9.315095881285744,-0.7942481409293566,0.0727556685282916,-1.1659405327487593
0.84,-1.131807582938474,2.178411389440167,2.457902030840886,0.0718399386458617,0.1655469005196237,0.0340988768839293,-0.1388224946250179,-0.7056516030931741,-0.7714530980543969,-1.1312855292366149,2.1862009561742832,2.4665581373205794,-0.1777884620453537,-0.7705670621203267,-0.8485634793534959,1.0378743352291346,0.8810439528838767,-0.5468906820191022,-0.043072853803211,10.90371719781433,-0.7877005925696857,0.0751352029881017,-1.169998706336243
0.86,-1.1343946486503786,2.1641890653059463,2.442407648609646,0.0699164164943743,0.1683488914330071,0.0334111640463639,-0.1208519413272208,-0.7161107577352995,-0.777932416730843,-1.1330634138570683,2.17849528555308,2.4580725025270445,-0.1761301824103416,-0.7905670624183498,-0.868563479651519,1.0889401638379923,0.8985276648898574,-0.5229577321062717,-0.3239659338223066,10.569633095960851,-0.7817940372873695,0.0767829725887202,-1.1739410662562788
0.88,-1.136519458466911,2.150489570096858,2.427528163391228,0.068465967621717,0.1696919034994365,0.0326902717139155,-0.1038352039985779,-0.7254565722332295,-0.7879996316188087,-1.1366191830979755,2.163083944310673,2.4411012329399746,-0.1728136231403173,-0.8305670630143963,-0.9085634802475656,1.093460577183997,0.8508368664321447,-0.4672907248964963,-0.5033607443982846,10.2755598954991,-0.7770179615982411,0.0775803649918727,-1.1776481945944897
0.9,-1.138411035350806,2.135885264746101,2.411626547861708,0.0674697346293485,0.1697078081182076,0.0318738959557281,-0.0863018462241915,-0.7345053415875865,-0.8017742964349859,-1.1401749523388824,2.147672603068267,2.4241299633529048,-0.169497063870293,-0.8705670636104428,-0.948563480843612,1.2031627617149454,0.8766678887193159,-0.4524384677178528,-0.6887332408088587,10.053357221711847,-0.7739456153877929,0.0775164985178305,-1.1805524425931198
0.92,-1.1399534838819856,2.121106469158293,2.395419506201675,0.067235245032309,0.1681343445649119,0.0310054606197589,-0.0689277995746274,-0.7430140314871492,-0.81822724853203,-1.1435648936162883,2.130261261796058,2.4051586937360323,-0.1661805046002687,-0.9105670642064893,-0.9885634814396584,1.2697981468483273,0.8687023324782064,-0.425434494978133,-0.8226476048522058,9.739271987890788,-0.7728480168822061,0.0765227289795427,-1.1823225833241522
0.94,-1.1411494662101067,2.1061602087446265,2.378873917625518,0.0679159332994456,0.1646987569889594,0.0300753542569215,-0.0516816137718733,-0.7513084063334816,-0.835497570832028,-1.1469548348936942,2.1128499205238493,2.3861874241191603,-0.1628639453302444,-0.9505670648025356,-1.028563482035705,1.28888673976847,0.8623092901377044,-0.4147187423166221,-0.8635161149999016,9.739271987890788,-0.7736431001648274,0.0741471247367789,-1.1833831833383006
0.96,-1.1419721645188512,2.091796461235364,2.3628318689113006,0.0691916311883909,0.1595293530511435,0.0291006116345469,-0.0361650509398832,-0.7602494836984119,-0.852243074969718,-1.1502618621893494,2.0944385792367397,2.366216154487387,-0.1595473860602201,-0.990567065398582,-1.0685634826317514,1.2258858994520625,0.7758281415995046,-0.4470538682465164,-0.8372752068844969,9.698462516463223,-0.7758930305334873,0.0706202460565953,-1.184088399365476
0.98,-1.1425449203597895,2.076484208731416,2.345597442644873,0.0708033041880677,0.152590493919955,0.0279785758997672,-0.0222535212556579,-0.7705262913879691,-0.8703190137304714,-1.153485975503254,2.0750272379347283,2.3452448848407124,-0.1562308267901958,-1.0305670659946284,-1.1085634832277975,1.2508826848726975,0.6955764842112654,-0.5138403844778594,-0.9037969380376708,9.678427488976013,-0.7804199745866908,0.06665490184064,-1.1833914330851472
1.0,-1.14286452346838,2.0609538459943466,2.327996879218559,0.0722889921210139,0.14474756898743,0.0267702274587986,-0.0107148521288584,-0.7819305084981355,-0.8887986268911473,-1.1436575964225724,2.0379578941620173,2.302081491958349,-0.0154094430650332,-0.8705262928780853,-0.9703190152205876,1.2295254731824323,0.5769334563399746,-0.5702108555083185,-0.923980658033796,9.643839421618395,-0.7866373848027602,0.0627273482633211,-1.1815764133787774
1.02,-1.1429794463645202,2.0451319429752868,2.310314357063316,0.0722591106218387,0.1379253751239783,0.0255234023453919,-0.0013829575582034,-0.7991672010731564,-0.8784838089898326,-1.1436575964225724,2.0379578941620173,2.302081491958349,-0.0154094430650332,-0.8705262928780853,-0.9703190152205876,1.1074557502908244,0.4665947285327527,-0.8618346287510459,0.5157408950657361,9.617484617541775,-0.7907847762954038,0.0566463099109365,-1.1855734336098156
1.04,-1.142935299407232,2.029799239378129,2.293679129419292,0.0704336129841269,0.1338060474451556,0.0243945299385186,0.0055268313451268,-0.8138049112264233,-0.8731702724546728,-1.1436575964225724,2.0379578941620173,2.302081491958349,-0.0154094430650332,-0.8705262928780853,-0.9703190152205876,0.8518236491934749,0.3454894451665119,-0.7318855076633435,0.2656768267579878,11.40687834921573,-0.7953500617178102,0.0587062165753556,-1.181755650621245
1.06,-1.1427597624057513,2.013374900232657,2.2762187139035364,0.0671582278653388,0.1318162991801816,0.0232952598883556,0.0117404745527725,-0.8274085539591255,-0.8733824269597824,-1.1438116908532228,2.0292526312332364,2.2923783018061434,-0.0140406274269083,-0.8905262931761084,-0.9903190155186108,0.7478527044895963,0.3106821603822852,-0.6801821366351102,-0.0106077252554792,10.98523493661196,-0.7978093106986867,0.0622825769127855,-1.1792044257333574
1.08,-1.1424566600912047,1.9967082149617403,2.258698360698309,0.0633858587731106,0.1315858149993668,0.0222973386082807,0.0183756187479487,-0.8384126724030279,-0.8788455210244268,-1.1441198797145231,2.011842105375675,2.272971921501732,-0.0113029961506584,-0.9305262937721548,-1.0303190161146571,0.6981424603499018,0.3317572097588105,-0.5502059221951183,-0.2731547032322201,10.29315811806282,-0.7979854097371261,0.066092843673196,-1.1785900591230962
1.1,-1.142015393547599,1.9798408349841377,2.2410175169487228,0.0597189719822423,0.1322808222287548,0.0213795460071594,0.0255087235028811,-0.8477316214082928,-0.8889448458343735,-1.144428068575824,1.994431579518113,2.25356554119732,-0.0085653648744085,-0.9705262943682014,-1.0703190167107035,0.7741452635396868,0.3566552377466182,-0.4659474502632488,-0.5049662404973343,10.29315811806282,-0.7967159421163286,0.0691997894961437,-1.1795553915522363
1.12,-1.1414598116566346,1.963656310047484,2.2239998299122146,0.0565591939217745,0.1332922749586473,0.0205624062856207,0.032659320405764,-0.8554608852457386,-0.9018842284406214,-1.1445993758733124,1.975021053630749,2.2321591608631057,-0.0058277335981586,-1.0105262949642475,-1.11031901730675,0.8341165652461862,0.3575298451441482,-0.3864631918722883,-0.646969130312397,10.04416792937991,-0.7946427645390401,0.0718597720756936,-1.1814446742659066
1.14,-1.1407239437257066,1.9464710996651329,2.205802044865448,0.05371027606025,0.1343960117503701,0.0197491425374881,0.0405758171147376,-0.862697075840002,-0.9172949658174472,-1.1447706831708004,1.955610527743385,2.210752780528892,-0.0030901023219087,-1.0505262955602943,-1.1503190179027964,0.9387813922277028,0.3958248354486809,-0.3618095297131696,-0.7705368688412928,9.850229933180344,-0.7921627066646848,0.073684448041594,-1.1840739558592672
1.16,-1.139825009649391,1.9291386600061808,2.1872818345015546,0.0511205517065023,0.1353005378751664,0.0189555103009119,0.0489204647783758,-0.8700945602405298,-0.934000849231576,-1.1448735496863824,1.93520000184112,2.188346400179777,-0.0003524710456588,-1.090526296156341,-1.1903190184988428,1.0042938573106714,0.4172323831819102,-0.3698742200263893,-0.835294170706441,9.75366136566936,-0.7898326467165557,0.0750125461876128,-1.1867860042903162
1.18,-1.1387563053892604,1.911661176859373,2.168414136886605,0.0485002462731442,0.1358157799174184,0.0181535142365401,0.0574882908954048,-0.8771476174746395,-0.9519262440640558,-1.144907975420058,1.913789475923953,2.16494001981576,0.002385160230591,-1.130526296752387,-1.2303190190948892,1.0541264637361598,0.4283913058514471,-0.352652861705488,-0.896269741623984,9.69091861639572,-0.7876185574985914,0.0763960337267835,-1.1895976771113297
1.2,-1.1375819876739444,1.894931906821388,2.150146742503128,0.0459401238788175,0.1358662985377012,0.0173797732360763,0.0656395521673201,-0.8833554524607355,-0.9700555846806334,-1.13588189084449,1.867803795985641,2.120817824683402,0.0809458199186945,-0.9771476189647555,-1.0257761679727664,1.0412171564202073,0.4075630635957658,-0.3103917493048003,-0.906467030828878,9.6306648403679,-0.785829097493697,0.0778462937312697,-1.1922014148625542
1.22,-1.1361657166237382,1.87717709914318,2.1308933918844866,0.042960128055348,0.1365627468300436,0.0165897519818877,0.0759228481227712,-0.8916253395611139,-0.952483197250412,-1.13588189084449,1.867803795985641,2.120817824683402,0.0809458199186945,-0.9771476189647555,-1.0257761679727664,1.0987788771611409,0.5141647977725532,-0.4134943550189174,0.8786193715110635,9.56945735044792,-0.7821936661976108,0.0758495321816728,-1.2008768973834605
1.24,-1.1345301677883532,1.8592764064259824,2.1120096083575977,0.0399548114193028,0.1386636483944199,0.0158714924781837,0.0872443653960283,-0.897973299970219,-0.9373144544045297,-1.13588189084449,1.867803795985641,2.120817824683402,0.0809458199186945,-0.9771476189647555,-1.0257761679727664,0.9982035291571794,0.5660758636628578,-0.3173980204552562,0.7584371422941272,12.002025233601673,-0.7795377246273801,0.0802256545787289,-1.2006275422850303
1.26,-1.1327579546095343,1.8421672379587688,2.0942799099383107,0.0374856671341893,0.141155044372113,0.0152461049462665,0.0988200901178161,-0.9027497031002918,-0.9297085950188066,-1.1350724326453032,1.8580323197959936,2.1105600630036747,0.0856373257233524,-0.9971476192627788,-1.0405461527545086,0.7325648890899813,0.5787862360893888,-0.2388201565036385,0.3802929692861445,11.527197401954254,-0.7761572246131635,0.0834262657627533,-1.2016714953753906
1.28,-1.1306478500031718,1.8240692653055568,2.0757203180020127,0.035435496465736,0.1436691557079309,0.0146330978372962,0.1116132610768644,-0.906878443043878,-0.9268880012586552,-1.1334535162469292,1.8384893674166984,2.0900445396442198,0.0950203373326683,-1.0371476198588254,-1.0700861223179927,0.6867813805517121,0.6396585479524146,-0.2064369971793156,0.1410296880075656,11.104685422517832,-0.772040546220291,0.0857525318501975,-1.2038460560909796
1.3,-1.1282769785960738,1.805896935780815,2.05716564670268,0.0340641653411845,0.1456576518635255,0.0140617672331189,0.1248109286169218,-0.9102577419896476,-0.9287092774496132,-1.1318345998485553,1.8189464150374035,2.069529016284764,0.1044033489419841,-1.0771476204548718,-1.0996260918814769,0.6872320147274016,0.6598833770028706,-0.1689649472884746,-0.0910638095478866,10.78730459848066,-0.7681080665564671,0.0870238141627281,-1.206408617284914
1.32,-1.1256401525254678,1.787665138855893,2.0385384668090194,0.0335784390427963,0.1468905763305913,0.0135407808080869,0.1381475589698759,-0.912885404809575,-0.933919318025033,-1.1297465328697156,1.7974034626283055,2.0475364944471344,0.1137863605513,-1.117147621050918,-1.129166061444961,0.7278647605566702,0.6668315176477042,-0.1313831409963717,-0.260502028770998,10.352292728444809,-0.7649089167176825,0.087104762136153,-1.2088792603080134
1.34,-1.1228864168366106,1.7703015962768205,2.020734591754243,0.0342182628249197,0.1472686354544442,0.0131091445677002,0.1509667733565658,-0.91488840974783,-0.939912382160424,-1.127658465890876,1.7758605102192084,2.025543972609505,0.1231693721606159,-1.1571476216469647,-1.1587060310084452,0.7145997201327161,0.6409607193344963,-0.1001502469127557,-0.2996532067695512,10.300042819268128,-0.7622955176029963,0.0855489383329992,-1.2115608165494418
1.36,-1.1197237613739297,1.7519748227559502,2.0018633398241006,0.0360139534790779,0.1467668492964475,0.012713537837156,0.1645662252147798,-0.9177694580324406,-0.9469283378868082,-1.1253358236218032,1.7533175577952098,2.002812951532788,0.1325523837699318,-1.197147622243011,-1.1882460005719295,0.7785710706427507,0.6799725929107006,-0.1440524142305221,-0.3507977863192069,10.300042819268128,-0.7607688669733812,0.0825773694742945,-1.2137625926040565
1.38,-1.1162862852407591,1.7335780605012308,1.9828446994797917,0.0385783548016872,0.145114421434162,0.0123368898404497,0.1784020712715893,-0.9220039914037292,-0.9545873884432888,-1.1227786060624978,1.72977460535631,1.9793434312169849,0.1419353953792476,-1.2371476228390574,-1.2177859701354137,0.8185703457965804,0.6917923028404743,-0.211726668564427,-0.382952527824032,10.231694583009812,-0.7606175509850236,0.0786241088585493,-1.2152746033258448
1.4,-1.1127635138050054,1.7160048639695515,1.9646292515117556,0.0410310728588431,0.1421776694646689,0.0119289185256182,0.1916076245381314,-0.92758078105452,-0.962435020742002,-1.1073661816771796,1.6874778609310443,1.9351153300576267,0.2035976847750454,-1.0220039928938451,-0.9609375988454496,0.8171177280240212,0.6602776633271037,-0.2788394825395446,-0.3923816149356607,10.200188831724518,-0.7623514204339887,0.074754108406196,-1.2155838889355255
1.42,-1.1087281688393171,1.6973084240159202,1.945701287869256,0.0414167359869219,0.1373212630579462,0.0112761206772378,0.2112919866226887,-0.9412843985248104,-0.927742577214957,-1.1073661816771796,1.6874778609310443,1.9351153300576267,0.2035976847750454,-1.0220039928938451,-0.9609375988454496,2.1088082418306886,0.9842181042278644,-0.6851808735145237,1.7346221763522518,10.200188831724518,-0.7662772885452638,0.068713716282854,-1.2199034074146493
1.44,-1.1043116572348266,1.6783539857545964,1.9275127376450327,0.0385208440114233,0.1306810521399259,0.0103459628339723,0.2288868586797273,-0.9530396464222096,-0.8932982486104536,-1.1073661816771796,1.6874778609310443,1.9351153300576267,0.2035976847750454,-1.0220039928938451,-0.9609375988454496,2.0212478502449174,0.8797436028519318,-0.5877623948699617,1.7222164302251708,13.294967370154154,-0.7731422309054939,0.0729481942178348,-1.2140596835830333
1.46,-1.099823277468767,1.6601706409479742,1.910807561725404,0.0341885112443272,0.1231549895223684,0.0093542926202878,0.242329570256542,-0.9600660451781228,-0.8667906098847272,-1.1053302048294291,1.677257821002106,1.925505954069172,0.2086368074757367,-1.0420039931918683,-0.9622076409258818,1.5270328130300206,0.6721355788407324,-0.3513199377956522,1.3253819362863184,12.387715298212242,-0.7815115234423717,0.0788001439599551,-1.2069980892096526
1.48,-1.0948596970375828,1.6409217234023508,1.893716046819231,0.0296457927924884,0.1144602561365873,0.0083500830974442,0.2529387467995826,-0.9644132889921876,-0.8439636547169902,-1.1012582511339282,1.656817741144229,1.9062872020922632,0.2187150528771191,-1.082003993787915,-0.9647477250867462,1.2772265244761845,0.5304588271520333,-0.2173621907032408,1.1413477583868514,12.387715298212242,-0.7911451540410539,0.0846524183824718,-1.199253017876832
1.5,-1.0897210944876117,1.621605159073648,1.8770298377388737,0.0257408719737926,0.1054840907312678,0.0074475080823212,0.2600608448495738,-0.967079269523073,-0.8259768075378033,-1.0971862974384272,1.636377661286352,1.8870684501153543,0.2287932982785016,-1.1220039943839613,-0.9672878092476106,0.9764199970711512,0.3561049024995599,-0.1332990265442701,0.899342358959343,11.684449080771628,-0.8007633428508796,0.0894107879414799,-1.1915921598233812
1.52,-1.0844753414576087,1.6022485857349325,1.8606569886885,0.0226940624404414,0.0966968071553786,0.0066672352369636,0.263920112006503,-0.9686358421516212,-0.8121684461682351,-1.0926104314728573,1.613937581398673,1.867722693930402,0.238871543679884,-1.1620039949800076,-0.969827893408475,0.721088942241317,0.1929633578464568,-0.0778286314274068,0.69041806847841,11.684449080771628,-0.8108684366458868,0.0932643141623357,-1.1836670358388568
1.54,-1.0794467946327877,1.5838378027058877,1.8453448564759347,0.0206276224743176,0.0888933426884407,0.0060396321448086,0.2650584802960506,-0.969475134224707,-0.800306254843202,-1.0880345655072872,1.5914975015109936,1.84837693774545,0.2489497890812665,-1.2020039955760542,-0.9723679775693392,0.5973103811635223,0.0569184144773804,-0.0419646036542931,0.5931095662516594,11.346524758131636,-0.8205823124573615,0.0958279438904446,-1.1762318407657293
1.56,-1.074152729068369,1.564436703510904,1.829462391227341,0.0190653579589633,0.0815120806931219,0.0054750462166028,0.2641266327296389,-0.9706026749023828,-0.7885873813008013,-1.0832067434066823,1.568057421608413,1.828967679456476,0.2590280344826489,-1.2420039961721006,-0.9749080617302036,0.590490653968415,-0.046592378320584,-0.0563770338837865,0.5859436771200321,11.346524758131636,-0.8296269923310284,0.097650203529878,-1.1691273773636268
1.58,-1.0688998443994882,1.5450148039375495,1.81380353561824,0.0179325784845754,0.0752043152156591,0.0049916193878111,0.2610861314151951,-0.9715349020229136,-0.7778679762495861,-1.0781269651710434,1.5436173416909316,1.8094949190634808,0.2691062798840313,-1.282003996768147,-0.977448145891068,0.5590602389264622,-0.1520250657221916,-0.046611356026549,0.5359702525607579,11.291944874724322,-0.837179335652685,0.0990001794670482,-1.1629379777631363
1.6,-1.0639860269068255,1.526549476988103,1.799117181829127,0.0172444676084313,0.0705292103390536,0.0046069590016139,0.2562144277614117,-0.9721463756326362,-0.7685891359367439,-1.0558455378287284,1.496438058836404,1.7749101368057605,0.2886582025949427,-1.07153490351303,-0.7794103522546769,0.5248911173207721,-0.243585182689171,-0.0305736804861234,0.4639420156421103,11.2300440152776,-0.8441581989942921,0.1002412436093473,-1.156524268472633
1.62,-1.0589449271176117,1.5070571034107816,1.783997453904483,0.0156385390164295,0.0682509583626874,0.00420854566583,0.2481788769638734,-0.9766813198430616,-0.7430545336135863,-1.0558455378287284,1.496438058836404,1.7749101368057605,0.2886582025949427,-1.07153490351303,-0.7794103522546769,1.3575268979041402,-0.4017775398769102,-0.226747210521272,1.2767301161578817,11.172987221151743,-0.8466743112943053,0.1000459229320249,-1.1569407332953467
1.64,-1.054062308280152,1.4875111464558628,1.7693903679672225,0.0130744360619564,0.0694634520898145,0.0038211736237514,0.2408508726420378,-0.9775829910404108,-0.7191732932296542,-1.0558455378287284,1.496438058836404,1.7749101368057605,0.2886582025949427,-1.07153490351303,-0.7794103522546769,1.2498262884938476,-0.3664002160917834,-0.0450835598674648,1.1940620191966067,12.34452751455683,-0.8501829768772817,0.1049236600995535,-1.1494422242317217
1.66,-1.049306784616227,1.4679702676667097,1.7552224229518043,0.0109681430366259,0.0731121251516425,0.0035146919090541,0.2353754940359915,-0.9765950708121712,-0.698956318132417,-1.052958955802779,1.4857227098012735,1.7671160332832136,0.2941726168308922,-1.0915349038110531,-0.7797188274556951,1.0484295867382116,-0.2737689303023122,0.0493960114119895,1.0108487548618594,11.791244312360504,-0.8500116851509565,0.108889407333563,-1.145534047132293
1.68,-1.0448714012084157,1.4494377117909294,1.7421063645527448,0.0098967220872956,0.07801286845954,0.003317454757506,0.2320558671750533,-0.9744540236287724,-0.6826733796628752,-1.04718579175088,1.464292011731013,1.7515278262381202,0.3052014453027912,-1.1315349044070997,-0.7803357778577313,0.8377620347394072,-0.1659813430469114,0.107052359169929,0.8141469234770882,11.595319084185576,-0.8471034362503784,0.1115871781754455,-1.1444852950769768
1.7,-1.0402482393314183,1.4299832488784587,1.728614299652781,0.0102056434905092,0.0839632535143981,0.0032347221383615,0.2306831537470433,-0.9712655655489808,-0.6674786164835728,-1.0414126276989812,1.4428613136607524,1.7359396191930268,0.3162302737746902,-1.171534905003146,-0.7809527282597677,0.7793128947302138,-0.068635671400502,0.1594229039895867,0.7597381589651231,11.595319084185576,-0.8425364879337992,0.1124545017583418,-1.145400234344354
1.72,-1.0356299767473656,1.410599800873858,1.7154077445682996,0.012525903504454,0.0901375449955239,0.0033194574465797,0.231410918021977,-0.9675841291704536,-0.6539384144312984,-1.0350880222234875,1.4194306155606895,1.7203205646278317,0.3272591022465893,-1.2115349055991924,-0.781569678661804,0.7025305798778945,0.0363882137466881,0.1840718189263623,0.6770101026137176,11.464253901261143,-0.8370538862208685,0.1109890932557535,-1.1476258053701196
1.74,-1.0309748898488162,1.391271784491913,1.7024683860666976,0.0166826054122936,0.0960551456101023,0.0035630111845334,0.23419874845787,-0.9660548872404928,-0.6406924866410098,-1.0287634167479938,1.3959999174606266,1.704701510062636,0.3382879307184883,-1.251534906195239,-0.7821866290638403,0.681111559227237,0.1393915217946503,0.0764620964980422,0.6622963895144329,11.367563468119442,-0.8314726166978422,0.1074435372380541,-1.1507432854066602
1.76,-1.0264817960879742,1.372904799402796,1.690421616259915,0.0210565860848609,0.1010634897139162,0.0038478839369287,0.2386692793132267,-0.9674892850211032,-0.628064639870242,-1.0221630905607024,1.3715692193456626,1.6890670317373897,0.3493167591903873,-1.2915349067912854,-0.7828035794658766,0.6736201770799819,0.2235265427678323,-0.0717198890305248,0.631392338538389,11.367016441290616,-0.8265067147240488,0.1032442929472426,-1.15328231260787
1.78,-1.0216453944742718,1.353523158456073,1.6780000811164897,0.025390278288645,0.1054073234022383,0.0041405084380923,0.244784327528238,-0.9706413546757942,-0.6147593200324791,-1.0152870436616137,1.3461385212157972,1.6734171296520923,0.3603455876622864,-1.3315349073873315,-0.7834205298679129,0.7489340654642137,0.3057524107505663,-0.1576034827345473,0.6652659918881421,11.367016441290616,-0.8228039212215681,0.0995051259439692,-1.1546183356707165
1.8,-1.0166740051881755,1.3340639756363055,1.665842535024493,0.0291483990192148,0.1086069438479006,0.0043888109137035,0.2519945281108594,-0.9750389985838086,-0.6016666687091353,-1.0094061780978598,1.3049910907222833,1.6472621151148656,0.2809414475474355,-1.0706413561659105,-0.5925737857936638,0.7790118469220908,0.3605100291310698,-0.2198821954007224,0.6546325661671903,11.375340944029633,-0.820371326459293,0.0965417878809966,-1.1550982411181656
1.82,-1.0117739598613047,1.3154003073457332,1.654700649638871,0.0294555240443951,0.1099476938458449,0.0043641668786234,0.2631846518981806,-0.9879441031465775,-0.5717637148430081,-1.0094061780978598,1.3049910907222833,1.6472621151148656,0.2809414475474355,-1.0706413561659105,-0.5925737857936638,1.7218792379775831,0.5595061893660602,-0.6452552281384527,1.495147693306359,12.681055770297462,-0.8201940443900189,0.0946898880932873,-1.156486459933336
1.84,-1.0063940789946393,1.2955449383399846,1.6435843410577409,0.025824436224596,0.1092665086788791,0.0040194780506114,0.2740481568272139,-0.9962039279236462,-0.541577855799843,-1.0094061780978598,1.3049910907222833,1.6472621151148656,0.2809414475474355,-1.0706413561659105,-0.5925737857936638,1.656371433936877,0.5431752464516632,-0.4129912388534273,1.5092929521582588,12.681055770297462,-0.8250525174339801,0.1017575296082902,-1.1476356251155275
1.86,-1.0008099726459805,1.2755853597262188,1.6330354957562434,0.0210302129070444,0.1067868483358324,0.0035781502707991,0.2836549670520841,-0.9991713587127592,-0.5149551025250297,-1.0065967636223854,1.2942846771606242,1.641336377256929,0.2881728715512749,-1.0906413564639337,-0.5881366789459007,1.4229085003228643,0.4803405112435099,-0.148371539455655,1.3311376637406611,12.467967068320831,-0.8317222063549584,0.1099559272826861,-1.137436875679753
1.88,-0.9950501862326468,1.2556001336044338,1.6229827684899316,0.0167576376823225,0.1027173621345172,0.0031800223465549,0.2916488117605749,-0.9992984365430412,-0.4917724763305439,-1.0009779346714367,1.272871850037306,1.6294849015410555,0.3026357195589539,-1.13064135705998,-0.5792624652503746,1.2261238306872542,0.3996922354245397,-0.0063538915140937,1.15913130972429,12.19320872937351,-0.8388498751983957,0.1167908926079249,-1.1278099269930475
1.9,-0.989449621513214,1.236628885580895,1.6138317000505482,0.0137507853836294,0.0976465395584636,0.0028937657788367,0.2972808635398224,-0.997965017338659,-0.4726223034566494,-0.995359105720488,1.2514590229139877,1.6176334258251823,0.3170985675666329,-1.1706413576560264,-0.5703882515548485,1.000283878604949,0.2816025889623763,0.0666709602191062,0.957508643694724,11.94966126307827,-0.8468782211025677,0.1224037098031088,-1.1179815826032338
1.92,-0.9834670307541248,1.2166942217293937,1.6045724526917289,0.0118106596780251,0.0916217332110032,0.0027044432220433,0.3004066404088573,-0.9957878957692492,-0.4543811419188319,-0.9890171343691554,1.228046195760867,1.6062256607940857,0.3315614155743119,-1.2106413582520728,-0.5615140378593224,0.9317326784165874,0.1562888434517462,0.1088560784704983,0.9120580768908788,11.753295742107184,-0.8552685821406198,0.126327609721547,-1.108430308290857
1.94,-0.9774521486405496,1.1968125511972445,1.595664635216664,0.0113538358523805,0.0857019287988177,0.0026466066693756,0.3007691253813951,-0.9927623462487932,-0.4372834491360395,-0.9826751630178228,1.2046333686077466,1.5948178957629886,0.3460242635819909,-1.2506413588481191,-0.5526398241637963,0.8683554049909488,0.0181242486268884,0.1512774760227986,0.8548846391396192,11.618252664449756,-0.8633473173631806,0.1284666878042384,-1.0994543823382814
1.96,-0.9717541589624664,1.1779772027445807,1.5875125769790095,0.0123056800282513,0.0807687440319724,0.0027094101630876,0.2988688477553871,-0.9902023356063328,-0.4216654577880143,-0.975971620466298,1.1802205414397249,1.5836319860742798,0.3604871115896699,-1.2906413594441657,-0.5437656104682701,0.7970043338847151,-0.0950138813003986,0.1280005321230182,0.7808995674012609,11.50596325359129,-0.8709333865796163,0.1290762004414085,-1.091011538628195
1.98,-0.965817727980456,1.1581978375971005,1.5792490818011449,0.014643226251777,0.076930125241153,0.0028901969037755,0.2947209205788609,-0.9880221770744262,-0.4055093075717384,-0.9689065067145816,1.154807714256802,1.5726679317279593,0.3749499595973489,-1.330641360040212,-0.534891396772744,0.8410998467733789,-0.2073963588263117,0.1090079265953281,0.8078075108137933,11.50596325359129,-0.876935893239536,0.1281570199315352,-1.084127034326772
2.0,-0.9599834564386928,1.1384418140852763,1.571305691994735,0.017870455098391,0.0751352307074208,0.0031647131719469,0.2889732158606458,-0.9879457553351488,-0.3896386015607417,-0.951081681951513,1.1087967287433789,1.558973616422558,0.3397267077428337,-1.0880221785645423,-0.3945521019036466,0.8439805375385053,-0.2873852359107559,0.0038210869638677,0.7935353005498358,11.489106874533718,-0.8814595440186656,0.1264501678410272,-1.0782167796812263
2.02,-0.9542733808278198,1.1185988747160882,1.5637313966355373,0.0189442353509931,0.0759286632601473,0.0033431421208138,0.2827158418346959,-0.9952360660229228,-0.368529911087993,-0.951081681951513,1.1087967287433789,1.558973616422558,0.3397267077428337,-1.0880221785645423,-0.3945521019036466,1.1596121906689454,-0.3128687012974945,-0.364515534388693,1.055434523637433,11.468282586321038,-0.8847093287296527,0.1263781192164562,-1.0735184538564082
2.04,-0.9489516604859274,1.0996535236461014,1.5569166928897429,0.017678389075249,0.0788390448078761,0.0034066860253685,0.2780758672777455,-0.9985746208052966,-0.3498558367222554,-0.951081681951513,1.1087967287433789,1.558973616422558,0.3397267077428337,-1.0880221785645423,-0.3945521019036466,0.9764685931216096,-0.2319987278475183,-0.166927739118694,0.9337037182868824,11.833212621146233,-0.8861163742605849,0.1298487645142379,-1.0684527321880188
2.06,-0.9434255203297104,1.0796659402866502,1.5501087873873811,0.0154387958557646,0.0834172671567188,0.0034467578876937,0.2750469359720682,-0.999971760021806,-0.331993334922654,-0.9476844148740846,1.0979165069577337,1.5550280954035216,0.3487278651756283,-1.1080221788625657,-0.3923606607700283,0.9085639677336756,-0.1514465652838637,-0.0698569608254651,0.8931250899800708,11.548287997309671,-0.8850764470944071,0.134116746426446,-1.065706088777709
2.08,-0.937939349876381,1.0596749912376564,1.5436365427191814,0.0132622828454391,0.0888655326838478,0.0035108982077517,0.2739664958668542,-0.999169995143674,-0.316114453244586,-0.940889880719228,1.0761560633864429,1.5471370533654487,0.3667301800412175,-1.148022179458612,-0.3879777785027916,0.7967889637269777,-0.054022005260701,0.0400882439065941,0.7939440839034001,11.548287997309671,-0.8825349342731457,0.1380601256559584,-1.0646377911776876
2.1,-0.9327286253829776,1.0407144853467438,1.5377673194937893,0.0120072322848173,0.0943103374902495,0.0036383918410021,0.2747479548819404,-0.996939025460243,-0.3024951795588417,-0.9340953465643712,1.0543956198151518,1.5392460113273758,0.3847324949068066,-1.1880221800546584,-0.3835948962355548,0.6911449190434894,0.0390729507543097,0.1115484841715475,0.6809636842872113,11.420072267922478,-0.878989062351435,0.1412547292974235,-1.0646394417999838
2.12,-0.9272092998673896,1.0208123309862875,1.5318587921456643,0.0120796824122714,0.0998970584246285,0.0038791947390385,0.2772969783278116,-0.9935533160493052,-0.2891220736704143,-0.9264006966662351,1.0306351762140586,1.5315741134026648,0.4027348097723957,-1.2280221806507048,-0.3792120139683181,0.7014280252563435,0.1274511722935606,0.1692854705468927,0.6686552944213692,11.26135906424588,-0.875202443208485,0.1430080992555946,-1.065150655590459
2.14,-0.9216209490743434,1.0009858775913922,1.5262115255124795,0.0141415848383902,0.1049890030349624,0.0042707734591238,0.2814941639076109,-0.9895952767410008,-0.2762785999171162,-0.918706046768099,1.0068747326129657,1.5239022154779538,0.4207371246379849,-1.2680221812467514,-0.3748291317010814,0.703983771135768,0.2098592789899628,0.1979019654152147,0.642173687664907,11.26135906424588,-0.8715875902482901,0.1427152505447651,-1.0659589984834503
2.16,-0.915931369845801,0.981215974424235,1.5208195519266638,0.0178524233974647,0.1092670843241719,0.0047890337519531,0.2872672828963801,-0.9881118492093258,-0.2635740543859908,-0.9105613389983233,0.9821142889969712,1.5163398896099236,0.438739439503574,-1.3080221818427975,-0.3704462494338447,0.7016675445904876,0.2886559494384627,0.0741713765837537,0.6352272765562689,11.235151099836912,-0.8688021801383861,0.1409254224982222,-1.0664102171858605
2.18,-0.9104077015320324,0.9624327593423838,1.5159333307766905,0.0216306224876414,0.1123504529980235,0.0053020047670968,0.2938413374489856,-0.9891880724017168,-0.2514048712492566,-0.9019665733569076,0.9563538453660756,1.5088871357985745,0.4567417543691631,-1.348022182438844,-0.366063367166608,0.693659620844133,0.3287027276302728,-0.0538111596195545,0.6084591568367131,11.228847369757204,-0.867036169761682,0.1387326790899319,-1.0660290992853376
2.2,-0.904451986836703,0.9426236421727604,1.5110406286344364,0.0252700444900922,0.1144911850088851,0.0058105978461432,0.3013474944470724,-0.9916700956871196,-0.2384996096854687,-0.8957156346595831,0.912973355722298,1.5033630872142276,0.3472740404671741,-1.0891880738918331,-0.2465033349745552,0.7567175967608196,0.3753078499043383,-0.124101164270135,0.6452630781893925,11.24917119087968,-0.8664850269328754,0.1368891588556642,-1.064643673213303
2.22,-0.8983152552055165,0.9226692433828618,1.5064692599061331,0.0256661290888797,0.114882482378634,0.00606074976062,0.3117155859458304,-1.0022555278869345,-0.2192355144691604,-0.8957156346595831,0.912973355722298,1.5033630872142276,0.3472740404671741,-1.0891880738918331,-0.2465033349745552,1.2151687749922662,0.5184045749379002,-0.5292716099907335,0.9632047608154128,11.24917119087968,-0.8710323948070868,0.1379104917628031,-1.058645965269535
2.24,-0.8923040679537056,0.9035666535442602,1.502473221181988,0.0227493233450703,0.1133980985069104,0.0060367014569451,0.3203719781095998,-1.007645168022053,-0.2023504163103971,-0.8957156346595831,0.912973355722298,1.5033630872142276,0.3472740404671741,-1.0891880738918331,-0.2465033349745552,0.9862655396876188,0.43281960818847,-0.2694820067559389,0.8442549079381662,11.682826839843983,-0.8747299841404979,0.1433049071631529,-1.052072822929691
2.26,-0.8858161492042919,0.8833998579332518,1.4985903603539752,0.0187621029818295,0.1104295918612927,0.0059425997821149,0.3277880754473103,-1.0086424747032838,-0.1869224845449585,-0.8922428942549114,0.9020814749833796,1.500898053864482,0.3579605810708117,-1.1091880741898563,-0.2455230277196149,0.8573421121376437,0.3708048668855296,-0.0498653340615384,0.7713965882719289,11.53549634713636,-0.878918136430979,0.1493017797992405,-1.0454651893245177
2.28,-0.8792013669453796,0.8632432315407489,1.4949888282412078,0.0154642584920507,0.1065699620924231,0.0059119635718627,0.3331333222496263,-1.0071530855267523,-0.1740999418438629,-0.8852974134455679,0.880297713505543,1.495967987164991,0.3793336622780872,-1.149188074785903,-0.2435624132097344,0.6985834682023643,0.2672623401157953,0.0744694588265648,0.6411271350547809,11.19211185655604,-0.8836293090795873,0.1543520854083315,-1.038818044633883
2.3000000000000003,-0.8725048325304107,0.8431310671166059,1.4916182589811997,0.0134293081097084,0.1025001003218762,0.0059943246268464,0.336116562226581,-1.0045162174192814,-0.1635719061056168,-0.8783519326362245,0.8585139520277063,1.4910379204654998,0.4007067434853625,-1.1891880753819493,-0.2416017986998538,0.5627884386740855,0.1491619988477355,0.1318434053735551,0.5264017869123047,11.19211185655604,-0.8880824446473163,0.1578410109077506,-1.032865164112048
2.32,-0.8661104707508428,0.8240811231399875,1.4885960996846448,0.0128604110879657,0.0991498599756059,0.006193084900453,0.3367345028668641,-1.001134961198746,-0.1550618585804166,-0.8703377977665172,0.8347301905200674,1.4862058844915027,0.4220798246926379,-1.2291880759779956,-0.2396411841899733,0.4588999159538712,0.0308970320141571,0.1690628110267655,0.4255023762600091,10.965136793670354,-0.892183847267856,0.1598459093253046,-1.0276658417321836
2.34,-0.8593877304885676,0.8041042022165434,1.485582438611286,0.0141112774817379,0.0969547398854679,0.0065585006204734,0.3354071876129768,-0.9969466661613344,-0.1467726620431522,-0.86232366289681,0.8109464290124283,1.4813738485175056,0.4434529058999134,-1.2691880765740422,-0.2376805696800928,0.4690798448478812,-0.0663657626943647,0.2094147518705791,0.4144598268632213,10.965136793670354,-0.8951901965280756,0.1598451848287997,-1.023894539639106
2.36,-0.8526971042110589,0.7841996332659367,1.4827308127868004,0.0172558544206605,0.0965300325719207,0.0070849034143498,0.3339096691168145,-0.9941467648404314,-0.1388084789055369,-0.8537752009969208,0.7861626674898883,1.4765908279062556,0.4648259871071887,-1.3091880771700886,-0.2357199551702122,0.4286905122072915,-0.0748759248081154,0.1399950660451565,0.3982091568807674,10.927954160477384,-0.8978406619976448,0.1584474307261973,-1.0200097135129975
2.38,-0.8460273497294138,0.7643183393500912,1.480039022096137,0.0211450740315039,0.0974279403917418,0.0076903633905676,0.3332966037215107,-0.9942798123420918,-0.1307624018333787,-0.8446924120668499,0.760378905952447,1.4718568226577524,0.4861990683144641,-1.349188077766135,-0.2337593406603317,0.4035248042801291,-0.0306532697651878,-0.0066523750830216,0.402303853607909,10.898934340531923,-0.8989770492331561,0.1562475896198298,-1.0179538007363194
2.4,-0.8396922282286484,0.7454094798721588,1.4776327187711842,0.0246317985200374,0.0990335832734813,0.0082738445149318,0.3336926956292084,-0.9960786495582866,-0.1229322980580051,-0.8293625195433383,0.7146043487329866,1.473500902004468,0.4062455289186352,-1.0652973980368818,-0.12159765870794,0.402191587625944,0.0198045953848841,-0.0899418608097391,0.3915051887686802,10.899271913263874,-0.8992331852518588,0.1540167443676721,-1.0167851847272462
2.42,-0.8330064978861125,0.7252925485597598,1.4753478531832356,0.0225350696628207,0.1014793479753918,0.0085133231950232,0.3350402878209196,-1.0135783904803697,-0.1054192459529052,-0.8293625195433383,0.7146043487329866,1.473500902004468,0.4062455289186352,-1.0652973980368818,-0.12159765870794,1.2397216734928085,0.0673796095855577,-0.874987046104142,0.8756526052549923,10.907501138638509,-0.9014893595800564,0.1564426110394823,-1.013869016728154
2.44,-0.8262853014936347,0.7049523049921631,1.4734197633851038,0.014104459968106,0.1047670268352185,0.0083301758781231,0.337166211550208,-1.0185186341859311,-0.0883866177794885,-0.8293625195433383,0.7146043487329866,1.473500902004468,0.4062455289186352,-1.0652973980368818,-0.12159765870794,0.8930789187789654,0.1062961864644218,-0.2470121852780837,0.851631408670836,11.581885004363356,-0.901136948083354,0.1660688083191437,-1.0108655145656888
2.46,-0.8195130957256292,0.6846064123298718,1.4717962525846553,0.0050239537203327,0.1086075373634489,0.008099588205194,0.3401238415021859,-1.015823770325299,-0.0748133317107544,-0.8253000642541519,0.7039513747526178,1.4722849254173886,0.4208353139580601,-1.07950091517584,-0.1197647100828523,0.7075379157046442,0.1478814975988923,0.1347431930316056,0.6786643034367053,11.19896961228369,-0.8990046414427848,0.176363203411737,-1.0087698238431717
2.48,-0.8130155709456681,0.6653704380914819,1.4704765529098744,-0.0023251576695572,0.1124999157893148,0.0079599886215075,0.3438109027607377,-1.0095162800319992,-0.0647843822706368,-0.8171751536757792,0.6826454267918801,1.46985297224323,0.4500148840369099,-1.1079079494537558,-0.1160988128326768,0.6204004380172944,0.1843530629275919,0.31537451466499,0.5014474720058802,11.19896961228369,-0.8958428073193997,0.1858173335920099,-1.007741573272981
2.5,-0.8060901333458824,0.6452714097620252,1.4692725441274068,-0.0081583650674808,0.1166337021519179,0.0079381619858866,0.3486613307273613,-1.0010409465864432,-0.0562349362626902,-0.8090502430974065,0.6613394788311425,1.467421019069071,0.4791944541157597,-1.1363149837316715,-0.1124329155825013,0.6489432862653722,0.2425213983311802,0.4237666722778033,0.4274723003973319,10.902866523726516,-0.8921535539729355,0.193194805525169,-1.0078152073646494
2.52,-0.7990566060718239,0.6253550556133256,1.4682216813003592,-0.0119331528390043,0.1206084207016827,0.0080599418673609,0.354550020561543,-0.9915653176068392,-0.0492746850323164,-0.7994663540150913,0.6386131791565091,1.465172360757421,0.5083740241946095,-1.1647220180095876,-0.1087670183323258,0.6574749229290475,0.2944344917090863,0.4737814489801928,0.3480125615186871,10.902866523726516,-0.888425854613891,0.1983048298800913,-1.008559268125416
2.54,-0.7918939175345483,0.605632186410436,1.4673050049250853,-0.0138627071152789,0.124245391362737,0.0083194934066152,0.3614934900196324,-0.981656826264253,-0.0427390924795154,-0.7898824649327761,0.6158868794818756,1.4629237024457709,0.5375535942734594,-1.1931290522875035,-0.1051011210821503,0.6875753391770165,0.347173472904469,0.4954245671293156,0.3267796276400496,10.8223799380512,-0.884794808440121,0.2020584875053617,-1.0093213891940298
2.56,-0.7849484049292471,0.5870763984927517,1.4665549420314463,-0.0142105108284996,0.127164556336105,0.008686073472073,0.369266613916395,-0.9722878614258236,-0.0365426233301193,-0.7795690865984897,0.5924504039502942,1.4607666915653752,0.5667331643523091,-1.2215360865654197,-0.1014352238319749,0.6829992444680363,0.3886561948381273,0.4684482419214653,0.3098234574698055,10.80974354976479,-0.8817781412946355,0.2043127690535772,-1.009822873424666
2.58,-0.7774691834821427,0.5677359657121699,1.4658942655551874,-0.0130445084724742,0.1294670469942394,0.0092014169718017,0.3782479117854569,-0.9623946724114796,-0.0298395733816505,-0.7685262190122321,0.568303752561765,1.458701328116234,0.5959127344311589,-1.2499431208433356,-0.0977693265817994,0.7474452804353414,0.4490648934530994,0.4946594507172108,0.3351524974234413,10.80974354976479,-0.8793410917907094,0.2051341161489673,-1.0100824800524677
2.6,-0.7698032764481618,0.5485904968177713,1.4653703354638314,-0.010234853114175,0.1308643367753555,0.0098544779176612,0.3878204472336816,-0.9530184218211688,-0.0228806165899383,-0.7585567878928698,0.5196162320915959,1.4644022868861049,0.4556347082599137,-0.9742266432968756,-0.040138513734746,0.7549413713473643,0.4786267724112308,0.4688125295155332,0.3479478395856109,10.824373503039167,-0.8777257139809858,0.2045693057134725,-1.009747316710686
2.62,-0.7619147726471033,0.5293639543276798,1.464990004573365,-0.0143382526207793,0.1305065387581546,0.01005814918521,0.4003083632348885,-0.965647673883071,-0.0155254457883938,-0.7585567878928698,0.5196162320915959,1.4644022868861049,0.4556347082599137,-0.9742266432968756,-0.040138513734746,0.961177131459331,0.6243958000603483,-0.631462603095112,0.3677585400772233,10.85889352473987,-0.8801760705715616,0.210051657410457,-1.004439052910776
2.64,-0.7542052245182316,0.5110314063021281,1.4647496824474453,-0.024905012558986,0.1281410329220298,0.0098562550340433,0.4104379580273101,-0.9624161508346832,-0.0101372802011358,-0.7585567878928698,0.5196162320915959,1.4644022868861049,0.4556347082599137,-0.9742266432968756,-0.040138513734746,0.5959944636207385,0.5064797396210796,0.1615761524193959,0.2694082793629019,10.85889352473987,-0.8812544712529882,0.2213109361169986,-1.0006578295447273
