t,x,y,z,roll,pitch,yaw,v_x,v_y,v_z,ref_x,ref_y,ref_z,ref_v_x,ref_v_y,ref_v_z,a_com,a_x,a_y,a_z,thrust,wind_x,wind_y,wind_z
0.0,0.6996303306042567,1.6648302094731369,2.094470585527048,0.0227052855812949,0.0997586406623024,0.0420959906726184,0.003347487245222,-0.0048332761683889,0.0097025046589978,0.6997383474888386,1.6646166943048315,2.094772477742709,-0.0965490558805183,-0.1063761458256826,-0.0902699197133299,0.5672407470261529,0.1673743622611,-0.2416638084194475,0.4851252329498916,10.2479263284431,-0.9429643666398168,0.2611278278593406,-0.8730852935416674
0.02,0.6998402835501861,1.6650092775868988,2.094449769707864,0.0294600849854572,0.0939836275534888,0.0424130241376106,0.0171885120878955,0.0188886917554507,-0.0129812430859009,0.6997383474888386,1.6646166943048315,2.094772477742709,-0.0965490558805183,-0.1063761458256826,-0.0902699197133299,1.7810517557256629,0.692051242133678,1.186098396191983,-1.1341873872449406,10.247107253821014,-0.9508758680673828,0.2606928052968456,-0.8599010294540328
0.04,0.700282049080471,1.6654398064812743,2.093925425687474,0.0436766112261329,0.0780603793820277,0.0427733889489688,0.0249735582219792,0.0220545224808559,-0.0381576414492562,0.6997383474888386,1.6646166943048315,2.094772477742709,-0.0965490558805183,-0.1063761458256826,-0.0902699197133299,1.3271025412925774,0.3892523067041833,0.1582915362702641,-1.2588199181677613,8.876950512860276,-0.951678399636742,0.2468490618220857,-0.8643782330612303
0.06,0.7007526539073569,1.665826655936428,2.0929554942463167,0.0577320486964145,0.0575058632496408,0.0426106630388729,0.0232912473661088,0.0181735612093098,-0.0626937180547105,0.6997383474888386,1.6646166943048315,2.094772477742709,-0.0965490558805183,-0.1063761458256826,-0.0902699197133299,1.2449006841870394,-0.0841155427935212,-0.1940480635773097,-1.2268038302727158,8.804457432180698,-0.9599070025464562,0.2303917177050587,-0.8630207754069615
0.08,0.7011151058417112,1.666113055339794,2.091427128928101,0.0720026935232242,0.0338627051334019,0.0419019028322401,0.0122955260998983,0.0103135956924694,-0.0889131444893711,0.6987728569300333,1.6635529328465746,2.093869778545576,-0.1165490561785415,-0.1263761461237058,-0.1102699200113531,1.4749095452371728,-0.5497860633105215,-0.3929982758420181,-1.3109713217330288,8.80428943923107,-0.972206888112926,0.2120531125108636,-0.8599547957379704
0.1,0.7011673374350108,1.666208371002536,2.0893729107284478,0.0856038832062069,0.011123503095514,0.0408216271165449,-0.0068465589946652,-0.0007072161401116,-0.1152758804176167,0.696841875812423,1.661425409930061,2.092064380151309,-0.156549056774588,-0.1663761467197523,-0.1502699206073996,1.7196449930429587,-0.957104254728183,-0.5510405916290539,-1.31813679641228,8.80428943923107,-0.9855701688416768,0.1937087999361977,-0.8567240365447732
0.12,0.700800363307051,1.6660671855489455,2.0869323212856274,0.0979212353507812,-0.0078547447108644,0.0396552261037815,-0.0308853632608953,-0.0138606636102881,-0.1403767797856822,0.6949108946948126,1.6592978870135473,2.0902589817570427,-0.1965490573706344,-0.2063761473157987,-0.190269921203446,1.8580449671540271,-1.2019402133115016,-0.6576723735088277,-1.2550449684032745,8.898431639132923,-0.9998682705531764,0.1742423415272387,-0.8535854002592217
0.14,0.6998778729432754,1.665622205267701,2.08383695731306,0.1102777074382429,-0.0241362741635335,0.0384680227749057,-0.0601756393658962,-0.0302304415344879,-0.167934974387408,0.6909799135474,1.6551703640672313,2.086453583332974,-0.2365490579666809,-0.2463761479118451,-0.2302699217994925,2.171027402695207,-1.464513805250045,-0.8184888962099901,-1.3779097300862937,8.898431639132923,-1.0121095142536134,0.1539858726089434,-0.8539891585004379
0.16,0.6983379993567529,1.664823466246688,2.080182915003896,0.1220292603585979,-0.0362941813349373,0.0374728325463503,-0.0922853681156224,-0.0490933794711185,-0.1961358459838999,0.6870489323999872,1.6510428411209157,2.082648184908905,-0.2765490585627274,-0.2863761485078916,-0.270269922395539,2.335666000728698,-1.605486437486312,-0.94314689683153,-1.4100435798245936,8.888850809893029,-1.021449558232102,0.13478999626423,-0.8571247587703303
0.18,0.6961255680372477,1.6636218139959429,2.075963814349181,0.1331906865401161,-0.0439534699825163,0.0368329577825594,-0.1272372490451272,-0.0703736726441063,-0.2244066983989327,0.6821179512376734,1.6459153181596984,2.077842786469935,-0.3165490591587738,-0.3263761491039381,-0.3102699229915854,2.486828278305095,-1.7475940464752384,-1.064014658649385,-1.4135426207516413,8.964174326363263,-1.0283820571492002,0.1177069184025188,-0.8600659703337242
0.2,0.6933560706549365,1.6620471224710305,2.07143004257411,0.1427082392819566,-0.0464116667512174,0.0367123949453706,-0.1621069110539325,-0.0941280059250641,-0.2513530863167138,0.6761869700604584,1.63978779518358,2.072037388016064,-0.3565490597548202,-0.3663761496999845,-0.3502699235876318,2.503132787152273,-1.743483100440267,-1.1877166640478949,-1.347319395889053,8.964174326363263,-1.0323810145878085,0.1005038616639642,-0.8673747319477152
0.22,0.6897441669750166,1.659872456886034,2.066106305904673,0.1509155437694387,-0.0443763185381601,0.0370957688349684,-0.1967944768559607,-0.1218142855848162,-0.2794840365516509,0.6852507251022399,1.6573407221747771,2.0588623882582744,-0.2621069125440487,-0.1941280074151803,-0.3513530878068299,2.6273121549354106,-1.7343782901014098,-1.384313982987602,-1.4065475117468529,9.011496969401378,-1.034574645486108,0.0863284340561421,-0.8746433770788281
0.24,0.6854354773406818,1.656988308225831,2.06033220330787,0.1532574392612603,-0.0378710228992599,0.0377482808790644,-0.2318721852093724,-0.1635561694045386,-0.2954496500019539,0.6852507251022399,1.6573407221747771,2.0588623882582744,-0.2621069125440487,-0.1941280074151803,-0.3513530878068299,2.840656306644074,-1.753885417670581,-2.0870941909861185,-0.7982806725151531,9.899069660825262,-1.0362172578815936,0.0778649253873161,-0.8811385518389295
0.26,0.6804714637032906,1.6533366829468663,2.054271166022023,0.1490017900815598,-0.0276193114216283,0.0384874145277425,-0.2622337969350642,-0.19806974563438,-0.3096222934905389,0.6852507251022399,1.6573407221747771,2.0588623882582744,-0.2621069125440487,-0.1941280074151803,-0.3513530878068299,2.405139410829064,-1.5180805862845912,-1.7256788114920707,-0.7086321744292468,9.899069660825262,-1.0339107736012303,0.0785760818519048,-0.8868387331070597
0.28,0.6752369184248378,1.6492986041164412,2.048240102647261,0.1426867355160749,-0.0162947477590943,0.0392013075066094,-0.2868891914802861,-0.2247663279831332,-0.3244084650473043,0.6826296559767995,1.6553994421006253,2.055348857380206,-0.2821069128420719,-0.2141280077132035,-0.3713530881048532,1.9616490885160989,-1.2327697272610931,-1.3348291174376608,-0.7393085778382713,9.77169774158483,-1.0276406992198412,0.0813660591129914,-0.896708424140287
0.3,0.669263686678391,1.6445470573574337,2.041568901775696,0.1356669415403776,-0.0040504454602174,0.0398833953540938,-0.3087904429669364,-0.2487828446492258,-0.3420359313127503,0.6773875177259184,1.6515168819523218,2.0483217956240694,-0.3221069134381183,-0.25412800830925,-0.4113530887008996,1.8487735504880276,-1.095062574332517,-1.200825833304629,-0.881373313272299,9.604277295458814,-1.0198301611664888,0.0847282320671109,-0.9077857915070596
0.32,0.6628900920186309,1.6393436700200843,2.0345202631716037,0.1290616958528677,0.0075615938515661,0.0404188519766901,-0.3272288844726919,-0.2702711769373432,-0.3620666193792405,0.6721453794750375,1.647634321804018,2.041294733867933,-0.3621069140341648,-0.2941280089052964,-0.451353089296946,1.734180652428368,-0.921922075287776,-1.0744166144058696,-1.0015344033245135,9.437055284988674,-1.01069396719231,0.0872577645870887,-0.9205889939065998
0.34,0.6561791378027074,1.6337322297769157,2.027044675715751,0.1231652226765493,0.0179061073114118,0.0407636911163778,-0.3428361051310266,-0.2898494213041238,-0.3845208204187381,0.6649032411943542,1.6417517616259123,2.032267672081994,-0.4021069146302112,-0.3341280095013428,-0.4913530898929925,1.6815797137554127,-0.7803610329167321,-0.9789122183390286,-1.122710051974876,9.291030464419237,-1.0017473604624652,0.0891511910544943,-0.932749681095676
0.36,0.649535911781059,1.6280523142344625,2.0195127529413024,0.1183002199683586,0.0262503854473103,0.0409044949569197,-0.355638831625096,-0.3071503825842127,-0.4072317047859482,0.6576611029136709,1.6358692014478062,2.023240610296055,-0.4421069152262578,-0.3741280100973894,-0.531353090489039,1.5644626358896163,-0.6401363247034719,-0.8650480640044478,-1.135544218360507,9.165542888511482,-0.993056230137266,0.0902625275304836,-0.9448945760623906
0.38,0.6422921650039514,1.62172126786334,2.0111043584864867,0.1137245226145729,0.0334868149600374,0.0408641547422497,-0.3680047467425394,-0.3249752292310458,-0.4324861072649607,0.6494189646180863,1.628986641254799,2.013213548495215,-0.4821069158223042,-0.4141280106934358,-0.5713530910850854,1.6646515095109873,-0.6182957558721724,-0.8912423323416546,-1.2627201239506225,9.093020634229106,-0.9849756098759188,0.0906199986884492,-0.9565672240445324
0.4,0.6348098382642615,1.615039534539343,2.00217982640658,0.1094235335300913,0.0393842898392665,0.0406562335047056,-0.3795683447946228,-0.3422034298039863,-0.4587502411576166,0.6401768263076008,1.6211040810468909,2.0021864866794736,-0.5221069164183506,-0.4541280112894822,-0.6113530916811318,1.6735683613337806,-0.5781799026041701,-0.861410028647025,-1.3132066946327985,9.031490996485443,-0.9778856615092064,0.0907023833122131,-0.967190286376552
0.42,0.6271025369808838,1.6080210266918455,1.9927209617575692,0.1052788106846062,0.0442014746996298,0.0403138214670714,-0.3905490428176665,-0.3586775910687352,-0.4858627062367934,0.6158314210245304,1.5979293630491436,1.9792423143486992,-0.479568346284739,-0.4422034312941024,-0.5587502426477328,1.6785853278280236,-0.5490349011521817,-0.8237080632374438,-1.3556232539588375,8.98998226302865,-0.9720449626222678,0.090720471834204,-0.9762667989466464
0.44,0.6196023095492533,1.6010545265533933,1.9834134969141368,0.1020167307071947,0.0475654795411808,0.039889234428766,-0.3983603331847569,-0.3741169855172008,-0.4914919063781031,0.6158314210245304,1.5979293630491436,1.9792423143486992,-0.479568346284739,-0.4422034312941024,-0.5587502426477328,0.9097788912219704,-0.390564518354522,-0.7719697224232797,-0.2814600070654843,8.953474083932633,-0.9744575986218929,0.0916142281245726,-0.9759774241746716
0.46,0.6119617079203451,1.593802567966116,1.9740031296391984,0.0998888347966982,0.0493363140812152,0.0393699518217888,-0.4056080745277327,-0.3886303106680183,-0.4991733347620846,0.6158314210245304,1.5979293630491436,1.9792423143486992,-0.479568346284739,-0.4422034312941024,-0.5587502426477328,0.8974557141250312,-0.3623870671487866,-0.7256662575408745,-0.3840714191990751,10.207295307035563,-0.972353668277154,0.0920588720097108,-0.9789798051896424
0.48,0.6037656588892486,1.5858698433256455,1.9638887400392189,0.0985966083981474,0.0496079410969907,0.0387231311722801,-0.4137104800066941,-0.4039217356925638,-0.5120569858132658,0.611035737561683,1.5935073287362025,1.973654811922222,-0.4995683465827622,-0.4622034315921257,-0.5787502429457559,1.0787320314093334,-0.405120273948073,-0.7645712512272751,-0.6441825525590583,9.673179486875595,-0.9709478607500494,0.0911361748797209,-0.9821118932508468
0.5,0.5958241661128423,1.5780533647994328,1.9540036655776256,0.0980253243136763,0.0485736268750557,0.03802155621471,-0.4219177714313718,-0.4181528496147731,-0.5278219749883009,0.6014443706359882,1.5846632601103203,1.9624798070692675,-0.5395683471788086,-0.5022034321881721,-0.6187502435418024,1.138440951131704,-0.4103645712338843,-0.7115556961104691,-0.7882494587517552,9.673179486875595,-0.9710818698274104,0.0893216841771819,-0.9840800513633128
0.52,0.5872897862769815,1.5695372050567815,1.9432481216691164,0.0981141888890804,0.0462635741705909,0.0372050160851601,-0.4311839015380113,-0.4327551556846153,-0.5470229658958246,0.5918530037102934,1.5758191914844384,1.9513048022163129,-0.5795683477748551,-0.5422034327842186,-0.6587502441378489,1.2920589784732424,-0.4633065053319757,-0.7301153034921071,-0.9600495453761848,9.493723277055324,-0.97262781525099,0.0867912972765233,-0.9847995559985612
0.54,0.5785608584311683,1.5607298839113346,1.9320855477301764,0.0989618579497974,0.0428205831393479,0.0363206372531685,-0.4413700678102831,-0.4473254961344687,-0.5682659151248953,0.5802616367547963,1.564975122828754,1.938129797333556,-0.6195683483709016,-0.582203433380265,-0.6987502447338954,1.3850231912317212,-0.5093083136135906,-0.7285170224926696,-1.0621474614535389,9.35285353076415,-0.976008142077736,0.0842316114660504,-0.9830781379577204
0.56,0.5700688222572439,1.552090044613304,1.9210825821078263,0.1004389183895505,0.0386931670047912,0.0354294416835792,-0.4521426276914806,-0.4614765796516783,-0.5888788466770437,0.5686702697992991,1.5541310541730695,1.9249547924507984,-0.659568348966948,-0.6222034339763115,-0.7387502453299418,1.3612440617671957,-0.5386279940598732,-0.7075541758604809,-1.0306465776074192,9.256183712054735,-0.9807273026631226,0.0807583914898025,-0.980301608040114
0.58,0.5608898712112576,1.542690717276203,1.9090730250543837,0.1023595609999308,0.0338844477488011,0.0344520432351629,-0.4653765973981184,-0.4777278045051532,-0.6110066762959264,0.5560789028289009,1.542286985502484,1.9107797875531405,-0.6995683495629944,-0.6622034345723579,-0.7787502459259882,1.5238775435354948,-0.661698485331888,-0.8125612426737455,-1.1063914809441355,9.237772182515982,-0.9858097612362154,0.0767627127257219,-0.9773438658042052
0.6,0.5514215048906943,1.5329489006946833,1.8966179933333505,0.1039866828262231,0.0294121233737785,0.0334701807985153,-0.4809219060432387,-0.4955073212525195,-0.6333752647400156,0.5424875358436014,1.5294429168169974,1.8956047826405813,-0.7395683501590409,-0.7022034351684043,-0.8187502465220347,1.6264390440644974,-0.7772654322560191,-0.8889758373683165,-1.1184294222044588,9.230009874430834,-0.990855129388536,0.073000425558702,-0.974403112068278
0.62,0.5416182567057328,1.522838365792405,1.8837123720330893,0.1047409584227793,0.0261827861891489,0.0325440648239491,-0.4987091093112442,-0.5144789570949949,-0.6560506549813344,0.5273754095885324,1.5081735346320573,1.8649492300963495,-0.55296000521297,-0.5955073227426357,-0.7022251710653559,1.7251673029252388,-0.889360163400274,-0.9485817921237676,-1.1337695120659408,9.230009874430834,-0.9947748901004222,0.0700848852322839,-0.9725007768829008
0.64,0.5318944075909093,1.512802773743218,1.8713152036165568,0.1029821781113527,0.0274223137045366,0.0319371751659768,-0.523037159472135,-0.5401982464408471,-0.6476035977714242,0.5273754095885324,1.5081735346320573,1.8649492300963495,-0.55296000521297,-0.5955073227426357,-0.7022251710653559,1.819813619985562,-1.2164025080445395,-1.2859644672926107,0.4223528604955118,9.23084845675976,-0.9981275548736336,0.0681858683624015,-0.9726114836515306
0.66,0.521201493927302,1.501751264077455,1.8584388416716715,0.0982647873758713,0.0344780713649946,0.0316751354830445,-0.5442780635770644,-0.5627515089449303,-0.6406496203342158,0.5273754095885324,1.5081735346320573,1.8649492300963495,-0.55296000521297,-0.5955073227426357,-0.7022251710653559,1.5875952404266134,-1.0620452052464702,-1.1276631252041591,0.347698871860419,11.247281581219797,-0.996385860550731,0.073496861380937,-0.9722979941813322
0.68,0.5101337394617337,1.4902977706200755,1.845642733194059,0.0926336324584719,0.0451306886696477,0.0316594407825801,-0.5607979063373388,-0.5811430144796648,-0.6392171553053962,0.5218458095364027,1.502218461404631,1.857926978385696,-0.5673676250469162,-0.6155073230406589,-0.7159951523304239,1.238148453051117,-0.8259921380137203,-0.9195752767367228,0.0716232514409775,10.50601053491755,-0.9891992241866584,0.0788989352587541,-0.9782752377597164
0.7000000000000001,0.4993582391036997,1.4791053470324371,1.833465344504981,0.08726684686244,0.0569420631956539,0.031742410082906,-0.5722058304609172,-0.5959655646694563,-0.6426574086727003,0.5107866094321433,1.4903083149497782,1.843882474964389,-0.5961828647148086,-0.6555073236367054,-0.74353511486056,0.950899666328494,-0.5703962061789192,-0.7411275094895753,-0.1720126683652012,10.187767506410635,-0.9796052138780752,0.0832983603125216,-0.9875136409502644
0.72,0.4878252979208916,1.4670433012728394,1.820533252353545,0.0820249863661317,0.069843816019719,0.0318341612557559,-0.5800991992293508,-0.6093941589016008,-0.6505804693002434,0.4997274093278838,1.4783981684949254,1.829837971543082,-0.6249981043827011,-0.6955073242327519,-0.7710750773906961,0.8737953182436249,-0.3946684384216803,-0.6714297116072243,-0.3961530313771555,10.187767506410635,-0.9680699407276008,0.0872690851433499,-0.9988338602291958
0.74,0.4761734610775734,1.4547301313555192,1.807400115955858,0.0773831985765826,0.0822542170590412,0.0318676283692425,-0.5844071287062379,-0.6212357471726081,-0.6625212562321235,0.4872274472402298,1.4644880220102705,1.814416469995268,-0.6538133440505935,-0.7355073248287983,-0.7986150399208323,0.8679917362948384,-0.2153964738443536,-0.5920794135503671,-0.5970393465940083,9.927691806758048,-0.9560227831508488,0.0904108151056878,-1.01078365574856
0.76,0.4644702683261587,1.442194353183711,1.794002602688051,0.0734258755122527,0.0934565241453024,0.0318076123100611,-0.5855523794328182,-0.6318457360135616,-0.6766610294570798,0.4747274851525758,1.4505778755256151,1.798994968447454,-0.682628583718486,-0.7755073254248448,-0.8261550024509684,0.8857435425746588,-0.0572625363290169,-0.5304994420476772,-0.7069886612478149,9.715434252113482,-0.9450514585609232,0.0926247398980205,-1.021734748748486
0.78,0.4527682428052529,1.429447245185561,1.7803067615098649,0.0698829525653068,0.1031261752351208,0.0316287467476333,-0.5845038389096254,-0.6422589934867914,-0.692243213808233,0.4615071420732244,1.435667729026059,1.7828849678363867,-0.7114438233863785,-0.8155073260208912,-0.8536949649811044,0.938535877824968,0.0524270261596404,-0.5206628736614871,-0.7791092175576553,9.622567205408814,-0.9343211838432082,0.0943920411553127,-1.032544556507108
0.8,0.4416876099540113,1.4171498374807938,1.7669955999198788,0.0666740933477566,0.1108348811731261,0.0313419369997207,-0.5818994369329469,-0.6516014957325986,-0.7081726903781658,0.4475664180021758,1.4197575825116018,1.7660864681620658,-0.7402590630542709,-0.8555073266169376,-0.8812349275112406,0.9324879109954712,0.1302200988339275,-0.4671251122903619,-0.7964738284966411,9.562626997004372,-0.9247590166335492,0.0959249897999961,-1.0422349049434
0.8200000000000001,0.4300901005719341,1.4040215838320829,1.7526455124195337,0.0634389407265009,0.1174191035490461,0.030929182450755,-0.5779466020474128,-0.660661348678327,-0.7260619308357847,0.412592638107364,1.384569762694164,1.7315869654009706,-0.5832388407289566,-0.7516014972227147,-0.6831955204472309,1.0219231419008854,0.1976417442767053,-0.4529926472864209,-0.8944620228809486,9.5128821874423,-0.9164556463473786,0.0972742686941566,-1.0507605369097912
0.84,0.4185795562234461,1.3906786464504155,1.738340017091108,0.0599061850552354,0.1241931262229127,0.030490128242038,-0.572756385898283,-0.6729562040355739,-0.7014375188274433,0.412592638107364,1.384569762694164,1.7315869654009706,-0.5832388407289566,-0.7516014972227147,-0.6831955204472309,1.4004137591144783,0.2595108074564867,-0.6147427678623418,1.2312206004170712,9.461885071274082,-0.9113171180734162,0.0980813510361428,-1.0574593067743487
0.86,0.4072074296367218,1.3771060412274911,1.7245857908215696,0.0560708318648519,0.1324497072868921,0.0300970945414343,-0.5643548772289149,-0.6834877840007749,-0.6756503433342692,0.412592638107364,1.384569762694164,1.7315869654009706,-0.5832388407289566,-0.7516014972227147,-0.6831955204472309,1.45471470089555,0.4200754334684087,-0.5265789982600522,1.2893587746587054,12.311847921739172,-0.9036976116613852,0.1023198589267694,-1.062273566228478
0.88,0.3960300348946289,1.36334751573587,1.7112977149926092,0.0525215712088412,0.1412752568207822,0.0297308251371613,-0.553473621073027,-0.6918810208200965,-0.6544660397092126,0.4067602497000744,1.377053747721937,1.7247550101964984,-0.5835067214881585,-0.7716014975207379,-0.6782000864610439,1.262559780677583,0.5440628077943932,-0.419661840966079,1.0592151812528317,12.03821238900582,-0.894224642007462,0.1063129457674976,-1.0687717083729111
0.9,0.3856360412347155,1.350135678305047,1.6990307832995992,0.0497388955133043,0.1496553433608342,0.0294035351589018,-0.5409432433601693,-0.6985455778583461,-0.6378795546164988,0.3950954728854953,1.3620217177774825,1.7110910997875537,-0.5840424830065625,-0.8116014981167844,-0.6682092184886699,1.0914877162315888,0.6265188856428849,-0.333227851912482,0.8293242546356883,11.755242026019914,-0.8842463815916486,0.1094925883458095,-1.075876788327664
0.92,0.3749839254043852,1.3361013377821704,1.6864306639282296,0.047546529096498,0.1577706983929327,0.029060940342976,-0.5247573294666482,-0.7046569243646646,-0.6231550426393571,0.3834306960709162,1.3469896878330283,1.697427189378609,-0.5845782445249663,-0.8516014987128309,-0.658218350516296,1.1359397185301707,0.8092956946760543,-0.3055673253159252,0.7362255988570876,11.53332020729158,-0.8746945206993109,0.1117046941510402,-1.0828436492949622
0.94,0.3646825953164211,1.3219522749104735,1.674099480730215,0.0461692397781806,0.1643700705020202,0.0286965172670088,-0.5061374062242944,-0.7100178367920165,-0.6108130137846918,0.3717391311804168,1.3299576578587715,1.6842628223682832,-0.5851140060433702,-0.8916014993088773,-0.648227482543922,1.1486585652994046,0.930996162117692,-0.2680456213675908,0.6171014427332644,11.376286253034776,-0.8660212794452373,0.1128874468927244,-1.089334813466895
0.96,0.3547770781165734,1.3077046712697118,1.6620131742596842,0.0458592243034795,0.1688889390275942,0.0283114304249608,-0.48548965989494,-0.7146478404109873,-0.5984476323540152,0.3600475662899175,1.3129256278845152,1.671098455357957,-0.5856497675617741,-0.9316014999049238,-0.638236614571548,1.225427496752839,1.03238731646772,-0.2315001809485406,0.6182690715338279,11.253687323536724,-0.8596021563243176,0.1127971667756039,-1.0943337442806151
0.98,0.3457608354289835,1.2940778500569663,1.6507654037037212,0.0464993144542876,0.1710654232212716,0.0279185366496459,-0.4648197693986131,-0.7195808253368842,-0.5861504259082242,0.3483426073614581,1.2948935978953573,1.6581838600469403,-0.586185529080178,-0.9716015005009702,-0.6282457465991741,1.227599282929567,1.0334945248163443,-0.2466492462948444,0.614860322289551,11.288519715386428,-0.8550255964392671,0.1116203768724801,-1.0980224714754363
1.0,0.3366992182314431,1.2796268065130143,1.6391855479819235,0.0479330258696085,0.1711076094474163,0.0274574750200702,-0.4425112718768825,-0.7253272218988152,-0.5724433848072799,0.3366242543950386,1.2758615678912983,1.6455190364352337,-0.5867212905985819,-1.0116015010970163,-0.6182548786268001,1.3403107017283409,1.1154248760865264,-0.2873198280965494,0.685352055047217,11.399339657143171,-0.8531068157081665,0.1096575019180445,-1.0996656543167291
1.02,0.3280900333928536,1.2650512567255077,1.6278876425228632,0.0499084785969493,0.1685742108442196,0.0269098304985591,-0.4196299409959922,-0.7320097558318204,-0.5579902599105644,0.314573654637599,1.2433604454180738,1.6105633787415594,-0.4437064608378743,-0.8253272233889313,-0.5281699748148234,1.3938296003516788,1.1440665440445168,-0.3341266966502609,0.7226562448357732,11.399339657143171,-0.8546287490828929,0.1072714073005183,-1.0984929842464308
1.04,0.319931745130735,1.2502586228887422,1.6169142244005512,0.049818649368341,0.1634585464826996,0.0260876063988902,-0.397746879106745,-0.7459653554551635,-0.5399972099870909,0.314573654637599,1.2433604454180738,1.6105633787415594,-0.4437064608378743,-0.8253272233889313,-0.5281699748148234,1.579063808118822,1.094153094462358,-0.697779981167157,0.8996524961736752,11.448767323586251,-0.8579939636342394,0.1064032651818688,-1.09631834101778
1.06,0.3125672818114995,1.2359773819576978,1.606838666501993,0.0470691322085916,0.1568054616791691,0.0250508467786908,-0.3789555210189189,-0.7564102824685792,-0.5214437561351698,0.314573654637599,1.2433604454180738,1.6105633787415594,-0.4437064608378743,-0.8253272233889313,-0.5281699748148234,1.4198963773246398,0.9395679043913058,-0.5222463506707853,0.9276726925960544,11.75557185501475,-0.8633928160787934,0.1086534305622606,-1.0919666276375597
1.08,0.3051720839425421,1.2207675124663475,1.596623326791226,0.0430841139807814,0.1485285731258078,0.0238674431316306,-0.3619345404388324,-0.7637983333223193,-0.5009992448080648,0.3101365900292203,1.2351071731841845,1.6052816789934112,-0.4439454986300727,-0.8453272236869545,-0.5193152928163322,1.380466514198423,0.8510490290043277,-0.3694025426870029,1.0222255663552504,11.75557185501475,-0.8705583726334042,0.1122437200594247,-1.0858297317005343
1.1,0.2980861306273032,1.205438219809936,1.5868219213734458,0.0394613002195037,0.1395254883235664,0.0227311276140443,-0.3478744366152301,-0.768900244507934,-0.4801323579849107,0.3012624608124628,1.2186006287164055,1.5947182794971146,-0.4444235742144694,-0.8853272242830009,-0.5016059288193495,1.283689003387014,0.7030051911801144,-0.255095559280738,1.0433443411577037,11.78220962317755,-0.8791554332481565,0.1157052652867802,-1.0781560781559485
1.12,0.2912493179054017,1.1900198751156426,1.5774406482689014,0.0366838248123077,0.130342616707688,0.0216949644303732,-0.3368110001793546,-0.7729092120593144,-0.4590125725623678,0.2923883315957053,1.2020940842486272,1.5841548800008185,-0.4449016497988661,-0.9253272248790474,-0.483896564822367,1.208839094847752,0.5531718217937742,-0.200448377569018,1.0559892711271446,11.778071165869733,-0.8879779815119161,0.1183289021323211,-1.070103614413638
1.14,0.2849317227616374,1.1753046414441342,1.5689218217880756,0.0349557338075174,0.1218825872986683,0.0208191555902602,-0.3289579991846846,-0.7760768949689923,-0.438743543100669,0.283490298599728,1.1835875397510462,1.5744769487043708,-0.4453797253832628,-0.965327225475094,-0.4661872008253844,1.0983366912720416,0.3926500497334978,-0.1583841454838974,1.013451473084939,11.776233707628307,-0.8974085149218025,0.1202487801948663,-1.061306264451383
1.16,0.278416682470722,1.1597557177113742,1.5603752231723953,0.0342585129105743,0.1136093529664528,0.0200227897612939,-0.3231684484315028,-0.7787619358773306,-0.4169497825876749,0.2745922656037506,1.165080995253465,1.5647990174079236,-0.4458578009676596,-1.0053272260711403,-0.4484778368284018,1.1354474227158875,0.2894775376590913,-0.1342520454169105,1.089688025649707,11.776233707628307,-0.9067354714990364,0.1212570029404652,-1.0522486008579113
1.18,0.271992565225154,1.1441485720772226,1.5522671737737417,0.0347214861251903,0.1062747968929797,0.0193521836327596,-0.3196882184238678,-0.781889910683229,-0.3949226845800477,0.2656822807181634,1.145574450740983,1.5555638202114008,-0.4463358765520563,-1.0453272266671867,-0.4307684728314193,1.125932140417433,0.1740115003817516,-0.1563987402949218,1.10135490038136,11.79644628830738,-0.9159255867904516,0.1214963622593347,-1.042774451460296
1.2,0.265614146529855,1.128472900275379,1.5446023107612918,0.0361054056142648,0.1002030040336072,0.0187930540688425,-0.3184653667063882,-0.7855884452783805,-0.3726444037362398,0.2567603439429663,1.1250679062136,1.5467713571148023,-0.446813952136453,-1.085327227263233,-0.4130591088344367,1.1308142219547523,0.06114258587398,-0.1849267297575729,1.1139140421903948,11.79644628830738,-0.9242061388219744,0.1210847712513249,-1.0337516238964932
1.22,0.259237780004133,1.1127143689344,1.5373849171172975,0.0381763965302635,0.0958544724143205,0.0183431174310675,-0.3193831483866134,-0.7901562172035564,-0.3501921326764098,0.2496908781945356,1.08919347801146,1.5259700905744795,-0.3330031481833627,-0.8855884467684966,-0.321729341308719,1.146528825757406,-0.0458890840112607,-0.2283885962587994,1.1226135529914998,11.818256515603936,-0.9307347561164124,0.1202310843259251,-1.0261707787839416
1.24,0.2531465876656505,1.0975826083105589,1.5309312093878529,0.0383455315287958,0.0938320924959723,0.0178738342767349,-0.3216816676190754,-0.8015113264162659,-0.330218032056509,0.2496908781945356,1.08919347801146,1.5259700905744795,-0.3330031481833627,-0.8855884467684966,-0.321729341308719,1.1545414581864042,-0.1149259616230996,-0.5677554606354718,0.9987050309950368,11.818256515603936,-0.9373985225016898,0.1216077841526979,-1.0173061941074475
1.26,0.2466935416999496,1.081460098239871,1.5245534234943816,0.0358368480407532,0.093730082281103,0.0172861136413765,-0.3233172929332235,-0.809963640398309,-0.3085592440138399,0.2496908781945356,1.08919347801146,1.5259700905744795,-0.3330031481833627,-0.8855884467684966,-0.321729341308719,1.1653540034004597,-0.0817812657074035,-0.4226156991021579,1.0829394021334564,11.733516256217628,-0.9421988090505532,0.1256196640260218,-1.009811336939807
1.28,0.2402196119775321,1.0652043975026155,1.5186084755913765,0.0322850292283499,0.0949220491280866,0.0166898251545324,-0.3238635481757324,-0.8149434480500826,-0.2870222072454516,0.246360846712702,1.0803375935437751,1.5227527971613926,-0.3359107044787576,-0.9055884470665198,-0.3115463288232149,1.1056003253906257,-0.0273127621254476,-0.2489903825886763,1.076851838419418,11.747798236773631,-0.944786494411794,0.1306803671236913,-1.0041580406942932
1.3,0.2337462380405184,1.048880285556569,1.5130888740800312,0.0291873303242265,0.0967883337123494,0.0161623876834517,-0.3233431186118043,-0.8174222467831056,-0.2660087177255946,0.2397007837490347,1.062625824608405,1.5163182103352182,-0.3417258170695473,-0.9455884476625662,-0.2911803038522066,1.058279301379114,0.0260214781964029,-0.1239399366511517,1.0506744759928492,11.708913657306766,-0.9466210606709704,0.1351901888000354,-0.999286701722048
1.32,0.2276159815367089,1.0333388039602058,1.5082300087986418,0.0271502719939068,0.0987480325299398,0.0157434165782485,-0.3219212796483663,-0.8186797128707708,-0.2465001118924721,0.2330407207853675,1.0449140556730352,1.5098836235090438,-0.3475409296603372,-0.9855884482586128,-0.2708142788811983,0.9800364132925324,0.071091948171903,-0.0628733043832596,0.9754302916561208,11.661002155819917,-0.9481736292672266,0.1390368886708083,-0.9946777540905724
1.34,0.221201096440764,1.01696145029815,1.5035145091258533,0.0261703226581093,0.1006746639724945,0.0153946945962291,-0.3196020497713393,-0.8191120180827957,-0.2260786774722317,0.2260899021921607,1.025202286707863,1.5044673379314195,-0.353356042251127,-1.0255884488546592,-0.25044825391019,1.0278627082434433,0.1159614938513492,-0.0216152606012431,1.0210717210120206,11.621225634524308,-0.949557971048298,0.14173683998036,-0.9904629128596968
1.36,0.2148395516451939,1.0005839952562352,1.499205777326403,0.0267960028679248,0.1022298034815519,0.015164032833615,-0.3166609518542719,-0.818782640708182,-0.2058205056029592,0.219139083598954,1.0054905177426907,1.499051052353796,-0.3591711548419167,-1.0655884494507055,-0.2300822289391816,1.0236601900748994,0.1470548958533685,0.0164688687306846,1.0129085934636282,11.607849698914832,-0.951162899476784,0.1430059745864322,-0.9862313766616572
1.38,0.2085407874997237,0.9842060785262734,1.4953017915602915,0.0290803407320365,0.1032988100884144,0.0150512505285288,-0.3133952492944848,-0.8191989169114751,-0.1855817358867521,0.2120428871909775,0.9847787487626172,1.4941439174004472,-0.3649862674327065,-1.105588450046752,-0.2097162039681734,1.0252388730340949,0.1632851279893571,-0.0208138101646548,1.0119384858103528,11.590888125327185,-0.9531388274247716,0.1428091962886054,-0.9820249549235878
1.4,0.2023092381244471,0.9677973560452028,1.4918050074648053,0.0323690554783479,0.1038826239895282,0.0150075207369862,-0.3099672734012526,-0.8219417030089641,-0.1651041876373373,0.2048013129682312,0.9630669797676428,1.4897459330713736,-0.3708013800234963,-1.1455884506427985,-0.1893501789971651,1.047143586868908,0.1713987946616119,-0.1371393048744507,1.0238774124707417,11.597481855218575,-0.9559616039538108,0.1416890539941571,-0.9770646212587848
1.42,0.1964530574124323,0.9521357964283576,1.4888656200962638,0.0354180164350606,0.1040207408684971,0.0149574445200246,-0.3066940278936753,-0.8264642364123987,-0.1453178473736833,0.1868108744543845,0.9267002708947546,1.4835497980829384,-0.2931368011256378,-0.9219417044990802,-0.1395365536061607,1.0279429769777482,0.1636622753788619,-0.2261266701717335,0.9893170131826972,11.617372950644494,-0.959004422538857,0.1405837548547773,-0.971976500712682
1.44,0.1902896435225233,0.9354801319524916,1.4860832791091416,0.035934785097902,0.1055865088635611,0.0147801784380207,-0.3096491752025211,-0.8380941430296651,-0.1344182823442134,0.1868108744543845,0.9267002708947546,1.4835497980829384,-0.2931368011256378,-0.9219417044990802,-0.1395365536061607,0.8105370771515612,-0.1477573654422886,-0.5814953308633186,0.5449782514734963,11.617372950644494,-0.9571529244725664,0.1415487687538688,-0.9717201449680108
1.46,0.1840830927675173,0.9186364972057622,1.4835038436979202,0.0331868095367517,0.109850627457511,0.0144839168640132,-0.3104725503807947,-0.8454091178917839,-0.123981892738363,0.1868108744543845,0.9267002708947546,1.4835497980829384,-0.2931368011256378,-0.9219417044990802,-0.1395365536061607,0.6385629019969936,-0.0411687589136816,-0.3657487431059369,0.5218194802925208,10.983677854416785,-0.9553636703886808,0.1446197983130014,-0.9721700774433952
1.48,0.1778899198446697,0.9016910475732796,1.4811338464237491,0.0295129799248821,0.1155661082644425,0.014174341996438,-0.3085174238864917,-0.8486792716344663,-0.1135487639791425,0.1838795064431281,0.9174808538497636,1.4821544325468767,-0.2897707066705149,-0.9419417047971036,-0.1344230267999254,0.5553525925391448,0.0977563247151508,-0.1635076871341234,0.5216564379610252,10.99529769273795,-0.9520844236142272,0.1485417576288388,-0.9737595956651516
1.5,0.1720683623498027,0.8855593765143707,1.4790724912048392,0.0265994747814718,0.1214389414745381,0.0139332626762904,-0.3042062472212414,-0.8494844746532016,-0.1039773799114741,0.1780167704206153,0.8990420197597822,1.4793637014747536,-0.283038517760269,-0.98194170539315,-0.1241959731874548,0.5264171091235402,0.2155588332625135,-0.0402601509367661,0.4785692033834166,10.95090099177014,-0.9480131210926804,0.1522728269763287,-0.9759505662625976
1.52,0.166052645391504,0.8685738253051986,1.477097021546098,0.0246556283977635,0.1273859264896234,0.0137552203325104,-0.2974380785408035,-0.8492489852875786,-0.0940975087418784,0.1721540343981026,0.8806031856698006,1.4765729704026305,-0.2763063288500231,-1.0219417059891964,-0.1139689195749841,0.5989061213078196,0.3384084340218946,0.0117744682811504,0.4939935584797862,10.95090099177014,-0.9437900210610424,0.1549888476348372,-0.978400695242754
1.54,0.1601933406382928,0.8516016300173544,1.4753178048845526,0.0241486642420427,0.1325816890012196,0.0136693945263719,-0.2887468073132352,-0.8481400172849917,-0.0843341502077246,0.1666279078211021,0.8601643515500167,1.4742935920111309,-0.2695741399397772,-1.0619417065852428,-0.1037418659625135,0.6559176309727349,0.4345635613784177,0.0554484001293487,0.4881679267076922,10.944011324249004,-0.9399120440382916,0.1564481854661478,-0.9806517096963444
1.56,0.1545242573153154,0.8346602112147832,1.4737317081566508,0.0255397038787175,0.1366649278909642,0.0137060134640772,-0.2786239623162542,-0.8463743718909847,-0.0747764838930214,0.1611017812441016,0.8397255174302327,1.472014213619631,-0.2628419510295313,-1.1019417071812894,-0.0935148123500429,0.7016738556364581,0.5061422498490509,0.088282269700346,0.4778833157351586,10.944381741049256,-0.9369863835069556,0.1563045668010351,-0.9822315025967446
1.58,0.149336120148682,0.8185858981401426,1.4724029573765811,0.0285051918326632,0.1393639547088427,0.0138437585232791,-0.2680720287811199,-0.8461460120793566,-0.0655783481509912,0.1557439593898573,0.8182866832955477,1.469990511568443,-0.2561097621192854,-1.1419417077773355,-0.0832877587375722,0.7000020547510375,0.5275966767567114,0.0114179905814082,0.4599067871015078,10.938080715133763,-0.935389583598515,0.1545926745377199,-0.9827408173304152
1.6,0.1440965852506083,0.8016388254040263,1.4711976661334718,0.0322330932432032,0.140953950021826,0.0140121202783753,-0.2564980746476377,-0.8487142049821451,-0.0554098242229549,0.1505544422583692,0.7958478491459614,1.468222485857567,-0.2493775732090395,-1.181941708373382,-0.0730607051251016,0.780946393718756,0.5786977066741139,-0.1284096451394267,0.508426196401816,10.950868613921555,-0.9347230632061244,0.1521819904488573,-0.9825938837315586
1.62,0.13909049167815,0.7846196543929213,1.4702016709400585,0.0356688095206682,0.141349746700476,0.0141335472634992,-0.244782846959004,-0.8530492683261387,-0.0446670663731484,0.1312716815182264,0.759203115154919,1.468427174922324,-0.2309555416224921,-0.9436758929046228,-0.0271722485578386,0.8237811909307987,0.5857613844316836,-0.2167531671996792,0.5371378924903272,11.02604850055286,-0.9351791704903272,0.15012742524824,-0.9814034810327068
1.64,0.1345531902538451,0.7682683477525089,1.469444319401995,0.0353479358121817,0.1406159767936801,0.0139694883665897,-0.233532535132535,-0.8664130087494237,-0.0355367344060627,0.1312716815182264,0.759203115154919,1.468427174922324,-0.2309555416224921,-0.9436758929046228,-0.0271722485578386,0.9855481166880156,0.5625155913234494,-0.6681870211642515,0.4565165983542857,11.02604850055286,-0.9382139890572004,0.1514275253768222,-0.9770895329592154
1.66,0.1300013085055699,0.750853590163766,1.4688426670515655,0.030857336474343,0.1387247857371877,0.0134915492138647,-0.2223575433262081,-0.8735162225639882,-0.0250308425968812,0.1312716815182264,0.759203115154919,1.468427174922324,-0.2309555416224921,-0.9436758929046228,-0.0271722485578386,0.8451476957803286,0.5587495903163459,-0.3551606907282234,0.5252945904590735,10.97775995284792,-0.9399624661433886,0.1559875188676902,-0.97399473131309
1.68,0.125662156224929,0.7333626395951417,1.4684518463501643,0.0257253564019997,0.1359393443461207,0.0129781771651974,-0.2122431421265592,-0.875212806505396,-0.014584195180923,0.1289621261020015,0.7497663562258727,1.4681554524367455,-0.225847035017463,-0.9626682304891184,-0.0215247334248153,0.7319698609421142,0.5057200599824437,-0.0848291970703907,0.5223323707979092,11.007650948366065,-0.9433969682131657,0.1616555505886329,-0.9685284289519984
1.7,0.1215110440053783,0.7158683207895705,1.4682665381649918,0.0215477477169976,0.132576089280936,0.0125561998341343,-0.2035136848890696,-0.8743530390986541,-0.0044782981175034,0.1243430152695516,0.7308928383677803,1.467612007465589,-0.2156300218074048,-1.0006529056581095,-0.0102297031587688,0.669088520136329,0.4364728618744817,0.0429883703370936,0.505294853170981,10.947632813808925,-0.947473881849657,0.1665539137625594,-0.9624001836928135
1.72,0.1175178203885855,0.6984042043712732,1.468280989883771,0.0187949324637648,0.1290601736721837,0.0122653346161727,-0.1963866631592374,-0.8724016208708181,0.0054176113241134,0.1197239044371018,0.7120193205096879,1.4670685624944322,-0.2054130085973466,-1.038637580827101,0.0010653271072776,0.6175182092742545,0.3563510864916075,0.0975709113918033,0.4947954720808444,10.947632813808925,-0.951423034210075,0.1700063746625491,-0.9566711367061508
1.74,0.1138398456212749,0.6818576088265205,1.4684778865798112,0.0176582228912328,0.1260700768424867,0.0121235407745351,-0.1912071581916997,-0.8697565482707366,0.0148252956431882,0.1156156442651549,0.6912465688931458,1.4670898690365777,-0.1951959953872884,-1.0766222559960918,0.0123603573733241,0.5530104090697933,0.2589752483768831,0.1322536300040755,0.4703842159537423,10.92856703990674,-0.9551880491308408,0.1722842686200544,-0.9512251877986267
1.76,0.1100593506057598,0.6644994260031122,1.4688806844069149,0.018256461626851,0.1238277588975911,0.0121325131786984,-0.187210397451735,-0.8664002879068368,0.0249777619738901,0.1115073840932079,0.6704738172766038,1.4671111755787232,-0.1849789821772302,-1.1146069311650828,0.0236553876393707,0.5707695520935806,0.1998380369982372,0.1678130181949899,0.5076233165350915,10.925777296399248,-0.9580896188654546,0.1729385421970186,-0.946939192153282
1.78,0.1063509207230963,0.6472010400911584,1.4694898089060449,0.0207459967986653,0.122886497260679,0.0123072785718074,-0.1836731847885338,-0.8638426251016265,0.0354344149571109,0.1076545492515125,0.6487514487808371,1.46741485787752,-0.174761968967172,-1.152591606334074,0.0349504179054172,0.5665578171320403,0.1768606331600614,0.1278831402605151,0.5228326491610428,10.93930117553009,-0.9611456335745292,0.1721931094695921,-0.9426046438845176
1.8,0.1028990646409035,0.6307912110889504,1.4702663854612976,0.0241511285046614,0.1229431041890336,0.0125726188449937,-0.1797683329491141,-0.8638927535104363,0.0457886588840692,0.1040571397400684,0.6260794634058455,1.468000915932968,-0.1645449557571137,-1.190576281503065,0.0462454481714637,0.5533099222952296,0.1952425919709857,-0.00250642044049,0.5177121963479127,10.947175529556262,-0.9632303920766964,0.170582730913073,-0.939528842752788
1.82,0.0993531599387987,0.6134930162704864,1.471301579266543,0.0277134182087091,0.1236333236780085,0.0128744677964367,-0.1749527957271221,-0.8659524375219174,0.0572122088218608,0.0971672614836696,0.604008908836077,1.4712615296539004,-0.1456213609485152,-0.9041524277019112,0.0524741798720269,0.6283494054758882,0.240776861099598,-0.1029842005740577,0.5711774968895827,10.998508941640466,-0.9645408649008766,0.1688198754540239,-0.9373188196278572
1.84,0.0958877795216739,0.5958937471105321,1.4724822090588976,0.0227928442237945,0.1251397702335173,0.0126199090401166,-0.1717739051183006,-0.8901187636767571,0.0599883904459227,0.0971672614836696,0.604008908836077,1.4712615296539004,-0.1456213609485152,-0.9041524277019112,0.0524741798720269,1.2266049177860023,0.1589445304410755,-1.2083163077419856,0.1388090812030912,10.998508941640466,-0.9652571126374936,0.1742439148254495,-0.934051755242165
1.86,0.0924909704728545,0.5780122095525349,1.4737067445182073,0.009221846874599,0.1276182030229063,0.0117940371499201,-0.1678899194532738,-0.8953855291476625,0.0623983239995742,0.0971672614836696,0.604008908836077,1.4712615296539004,-0.1456213609485152,-0.9041524277019112,0.0524741798720269,0.3486830326552664,0.1941992832513395,-0.263338273545266,0.1204966776825744,10.453386292473624,-0.9619002424416758,0.185395145081381,-0.935733903331741
1.88,0.0893445515841532,0.5610453277410481,1.4749012158314865,-0.0043302224229679,0.1304871509333792,0.0109670380013205,-0.1633860817916861,-0.8903959472777561,0.0631911217427948,0.0957110478741844,0.594967384559058,1.4717862714526206,-0.1387919665483954,-0.9122043625402062,0.0538112840696184,0.3384117653838671,0.2251918830793856,0.2494790934953195,0.0396398871610331,10.351866798761876,-0.9590790618520332,0.1982792663643723,-0.9354597022268808
1.9,0.0861343708191865,0.5433473871028156,1.4761599826354983,-0.0166763386260599,0.1337342349513826,0.0102245479844557,-0.1577612795142057,-0.8799256600052101,0.0625651427148344,0.0927986206552141,0.5768843360050196,1.4728357550500613,-0.1251331777481558,-0.928308232216796,0.0564854924648015,0.595099079930882,0.2812401138740206,0.5235143636272976,-0.0312989513980212,10.278986339979385,-0.9559986495216194,0.2096092974951061,-0.9355095779923058
1.92,0.0830466845557528,0.5258927461567741,1.4773935797499345,-0.0262292976042481,0.1369566594302357,0.0096763614288183,-0.1512007180690606,-0.8665061420905205,0.0607807942912295,0.0898861934362438,0.5588012874509815,1.473885238647502,-0.1114743889479162,-0.944412101893386,0.0591597008599846,0.7521773840574809,0.3280280722572554,0.6709758957344825,-0.0892174211802435,10.278986339979385,-0.9528680681046042,0.2181595371093716,-0.9361471192918293
1.94,0.080243971588996,0.509577102657262,1.4785271962173974,-0.0325890455658197,0.139789987314481,0.0093567836240237,-0.1441028086278253,-0.8522680527342894,0.0586466952176395,0.0876567056572855,0.5399130454131137,1.4750684326647017,-0.0978156001476767,-0.960515971569976,0.0618339092551677,0.8025862660921471,0.3548954720617614,0.7119044678115527,-0.1067049536794997,10.231681192745782,-0.9496131961808912,0.2246998665934576,-0.9373282272077889
1.96,0.0774471679366701,0.4926958579043859,1.4796753658873882,-0.0368907259686569,0.1424031232513777,0.0092122076105573,-0.1359028708853072,-0.8370318969384916,0.0562889563039714,0.0854272178783272,0.521024803375246,1.4762516266819012,-0.0841568113474371,-0.976619841246566,0.0645081176503508,0.8731242110948803,0.4099968871259074,0.7618077897898923,-0.1178869456834055,10.223002101639397,-0.9463710961770816,0.2291241766961214,-0.9389650570736772
1.98,0.0748232981460996,0.4761169727384214,1.4807784987388308,-0.03926576413873,0.1445080067361209,0.0092386483262653,-0.126872747918407,-0.8219485640136918,0.0541632421004454,0.0835391998193748,0.5017339645954635,1.4775016759089803,-0.0704980225471975,-0.992723710923156,0.0671823260455339,0.8853935760337884,0.4515061483450086,0.7541666462399899,-0.1062857101763029,10.246886189474026,-0.9434647723932574,0.2319065592281151,-0.9406472579379586
2.0,0.0723874308223761,0.4598429084456257,1.4818442719747933,-0.0399785155955141,0.1459592418175235,0.0094268322188134,-0.1172071695870052,-0.8065021253078299,0.0525267771057782,0.0819926514804285,0.4820405290737663,1.4788185803459395,-0.056839233746958,-1.008827580599746,0.069856534440717,0.9147320520966522,0.4832789165700894,0.772321935293091,-0.0818232497333582,10.246886189474026,-0.9410463060995408,0.2332412156434347,-0.9422038175675724
2.02,0.0702561009161415,0.4446722403468894,1.4828322759912582,-0.0389936294409392,0.1466979697585772,0.0097654433951044,-0.1076806877698498,-0.791434832481016,0.0515657839182841,0.0665270723430258,0.4195178021802342,1.4844706108300822,-0.0889457855915914,-0.7818828142135459,0.054735730596259,0.8926094846683538,0.4763240908577694,0.753364641340698,-0.0480496593747031,10.280075546374974,-0.9391001276357596,0.233232883447558,-0.9435050909504014
2.04,0.0682375076205143,0.428796514745758,1.4838323977764432,-0.0428894369250087,0.1458281386793675,0.0098646066372627,-0.0947128004074224,-0.7943342957670138,0.048258471214959,0.0665270723430258,0.4195178021802342,1.4844706108300822,-0.0889457855915914,-0.7818828142135459,0.054735730596259,0.6846738407976268,0.648394368121371,-0.1449731642998886,-0.165365635166257,10.133048928380958,-0.942807433620849,0.2379804587240367,-0.9375083924130936
2.06,0.0664737536774538,0.4130002641863513,1.484759415738481,-0.05286800265119,0.1422218199299203,0.0097141117443204,-0.0825276990233127,-0.784105806953222,0.0446010743355588,0.0665270723430258,0.4195178021802342,1.4844706108300822,-0.0889457855915914,-0.7818828142135459,0.054735730596259,0.8162034536320321,0.609255069205486,0.5114244406895896,-0.1828698439700095,10.133048928380958,-0.943298674211088,0.2464739969785535,-0.934789938775162
2.08,0.0650016524425176,0.3982684468888171,1.4855679539373403,-0.0627236849718538,0.1368293072899681,0.0097348416821027,-0.0733903990487817,-0.7672010841955424,0.0407078727299805,0.0656376144871099,0.4116989740380988,1.485017968136045,-0.0832935087925087,-0.7769589519946891,0.0551775212943551,0.9803276506865573,0.4568649987265499,0.8452361378839757,-0.1946600802789175,10.14369265998721,-0.9443134376154952,0.2562106562807568,-0.9307112033960824
2.1,0.0636043502429992,0.3831491084421439,1.4863373641686828,-0.0716424451105064,0.1303197409439355,0.0100119826672838,-0.0670645595669093,-0.745821882023008,0.0364592221165527,0.0638586987752781,0.3960613177538279,1.48611268274797,-0.0719889551943432,-0.7671112275569755,0.0560611026905474,1.1348321051145582,0.3162919740936201,1.0689601086267209,-0.2124325306713869,10.12959040496753,-0.9469222924518826,0.2648212790670065,-0.9251164312765188
2.12,0.0623018986588313,0.368484045414929,1.4870225868256877,-0.0784271656792758,0.124070829089087,0.0105105489942862,-0.0635764483245985,-0.7222797041857183,0.0323212148735899,0.0620797830634462,0.380423661469557,1.4872073973598952,-0.0606844015961777,-0.7572635031192618,0.0569446840867398,1.207812238413036,0.1744055621155385,1.1771088918644868,-0.2069003621481383,10.130698530066184,-0.9498545351104662,0.2713316638628461,-0.9197104951610368
2.14,0.0611056763768623,0.354998420642824,1.4876009661753309,-0.0829290023566091,0.1191355523796969,0.0111045891757648,-0.062598750163129,-0.6989253484757099,0.0288107900498228,0.0608660950315227,0.3652783914071717,1.48834629104163,-0.0493798479980121,-0.7474157786815482,0.0578282654829321,1.1818469727167142,0.0488849080734779,1.1677177855004215,-0.1755212411883548,10.145609550031622,-0.952223009343742,0.2763645771313693,-0.9153739954507284
2.16,0.0598437744960022,0.3412824739968911,1.4881427838007146,-0.085941954287609,0.1158381405483744,0.0117372226979858,-0.0637588645804856,-0.6742119095284812,0.0256051683320539,0.0596524069995991,0.3501331213447864,1.4894851847233648,-0.0380752943998466,-0.7375680542438345,0.0587118468791244,1.2473731805850938,-0.0580057208678312,1.235671947361433,-0.1602810858884477,10.17960907226734,-0.9531300808163838,0.2798587803480942,-0.9130296811829276
2.18,0.0585446694575604,0.3280686769244955,1.488626592315489,-0.0872726541216161,0.1151987725502709,0.0122872712750217,-0.0657423249220592,-0.6487923912104014,0.0229695258205986,0.0587213328076297,0.3352340443933441,1.4906461679400045,-0.0267707408016811,-0.727720329806121,0.0595954282753167,1.2816323945441397,-0.0991730170786811,1.270975915903988,-0.1317821255727642,10.216290402925551,-0.9534624386829752,0.2821090484764117,-0.9113202295869948
2.2,0.0572214955748926,0.3153702789005517,1.4890642274176176,-0.0867239543268486,0.1167452151028241,0.0127968715676029,-0.0662073253198795,-0.6226502076723444,0.0209530438885355,0.0580728724556144,0.3205811605528445,1.4918292406915488,-0.0154661872035156,-0.7178726053684074,0.060479009671509,1.311198101823074,-0.0232500198910155,1.3071091769028542,-0.1008240966031566,10.246645418091248,-0.951979199735596,0.2830272633657401,-0.9116272937622808
2.22,0.0559736186682369,0.3037943953473841,1.4894496655030294,-0.0841284113375421,0.1194615544990922,0.0133343635640405,-0.064942556553683,-0.5975623309191301,0.0197504156461002,0.0552575532114575,0.2956290573639755,1.489775068606519,-0.0501362242510659,-0.6190619073208217,0.0469547235882139,1.2574254597250645,0.0632384383098261,1.254393837660711,-0.0601314121217659,10.2799535658678,-0.9490254701762466,0.2822728658255153,-0.9138158074314764
2.24,0.0547452372461549,0.2921010291624494,1.489843550161253,-0.0796466173417368,0.1216578636751883,0.0140955066248326,-0.0579738206092401,-0.5735936252605235,0.0197864722913151,0.0552575532114575,0.2956290573639755,1.489775068606519,-0.0501362242510659,-0.6190619073208217,0.0469547235882139,1.2480619292466597,0.3484367972221469,1.1984352829303324,0.0018028322607478,10.319984932891202,-0.948675683983226,0.2804465448444668,-0.9129721226202407
2.26,0.0536619755719622,0.2808576527011861,1.4902614486470405,-0.0746490684619599,0.1217678646110724,0.0150703889206097,-0.0508642680148419,-0.5521345209019203,0.0220106022938535,0.0552575532114575,0.2956290573639755,1.489775068606519,-0.0501362242510659,-0.6190619073208217,0.0469547235882139,1.1357658784209532,0.3554776297199073,1.0729552179301605,0.1112065001269169,10.377432794148262,-0.9466398759889878,0.2777838235405302,-0.91505611250486
2.28,0.0527607497214523,0.2705584221286591,1.490716594537938,-0.0700163571250182,0.1203276308333896,0.0161039252579325,-0.0444726701440416,-0.5331451445777008,0.0257959521258308,0.0547561909689468,0.2894384382907672,1.4902446158424012,-0.0470150041168672,-0.6131158105429058,0.051751763141737,1.0195315221650787,0.3195798935400132,0.9494688162109745,0.1892674915988669,10.584848660813805,-0.9466597118303146,0.2752444506978005,-0.9146976865277008
2.3000000000000003,0.0519352162897275,0.2600947761405659,1.491287258703741,-0.065480078044411,0.1174801069938226,0.0172528439001183,-0.0385475731086825,-0.5142738460487892,0.0311406828415347,0.0537534664839255,0.2770572001443508,1.4911837103141654,-0.0407725638484699,-0.6012236169870738,0.0613458422487831,1.0244496442835902,0.2962548517679561,0.943564926445578,0.2672365357851943,10.657478795218594,-0.948337215404085,0.2731745111953661,-0.912260488309202
2.32,0.0512154632869609,0.2499992786619979,1.4919769403305456,-0.0613511776090581,0.1136278615981865,0.0184251813919965,-0.0338810236292031,-0.4962651118247739,0.0376156344352942,0.0527507419989042,0.2646759619979344,1.4921228047859296,-0.0345301235800726,-0.5893314234312419,0.0709399213558293,0.9849063287150428,0.2333274739739713,0.9004367112007639,0.3237475796879757,10.657478795218594,-0.9512219545290448,0.2715452132491096,-0.9083157438221784
2.34,0.0505715657253672,0.2402558586721807,1.492805403892269,-0.0576109460573693,0.1092577408732073,0.0195857551183658,-0.0309157567484999,-0.4790200837439203,0.0449509150778835,0.0520601395273027,0.2528893335293096,1.4935416032130462,-0.0282876833116752,-0.57743922987541,0.0805340004628754,0.9486703106042292,0.1482633440351622,0.8622514040426799,0.3667640321294654,10.75243498043801,-0.9546030259538392,0.2702204151335269,-0.9037817949017484
2.36,0.0499654902247208,0.230849638244025,1.4937877999520577,-0.0542353732784789,0.1050222948183067,0.0206970272661868,-0.0299936984009325,-0.4633055278318214,0.052531536334797,0.0513695370557013,0.2411027050606847,1.4949604016401628,-0.0220452430432779,-0.565547036319578,0.0901280795699215,0.8735892595373024,0.0461029173783676,0.7857277956049485,0.3790310628456774,10.75243498043801,-0.9577658623368018,0.2691950582193056,-0.8995049363107108
2.38,0.049388155329868,0.2222145850545661,1.4948737268632395,-0.0513105655637024,0.1017770919310115,0.021678386290608,-0.0309309154342952,-0.4473241059045669,0.0609887605840485,0.0508349955908098,0.2296133814309557,1.4966190520449554,-0.0158028027748806,-0.5536548427637462,0.0997221586769676,0.9052746331731076,-0.0468608516681332,0.7990710963627246,0.4228612124625702,10.782699628472985,-0.9616100165550324,0.2687542261099622,-0.8937621666715044
2.4,0.0487438979246132,0.213432343202656,1.4961852209190762,-0.0484208522166494,0.0998424369427172,0.0226134501597199,-0.0334974812946244,-0.4317763600581033,0.069760443422006,0.0504565151326282,0.2184213626401224,1.4985175544274243,-0.0095603625064832,-0.5417626492079143,0.1093162377840138,0.9017511866243249,-0.1283282930164596,0.7773872923231784,0.4385841418978766,10.808477838218096,-0.9648279109186304,0.268500048577905,-0.8886114745885538
2.42,0.0480459284752371,0.2049551452031922,1.4976749316055056,-0.0456642595405516,0.0996741529070991,0.0234493568628951,-0.0359901981095697,-0.4167855249765245,0.0787938108105914,0.047069023859882,0.1918435251997508,1.4996732430901765,-0.0323054434635638,-0.4100879155181987,0.0724958817129894,0.8839407501916667,-0.1246358407472655,0.749541754078939,0.4516683694292707,10.8213693889129,-0.9675243252846116,0.2684038966579646,-0.8839648435119948
2.44,0.0473195649775405,0.1967595912713691,1.499236293082701,-0.0432927873569286,0.100077664323674,0.0242308653458526,-0.0365450910272512,-0.403466897023932,0.076295755507782,0.047069023859882,0.1918435251997508,1.4996732430901765,-0.0323054434635638,-0.4100879155181987,0.0724958817129894,0.6781114159663701,-0.0277446458840743,0.6659313976296266,-0.124902765140468,10.823216207128098,-0.9665562578888928,0.2687459005430296,-0.8830090862687022
2.46,0.0466202184975116,0.1892201112965436,1.5006592965760237,-0.0414161586300557,0.1001015649280034,0.0249619797687989,-0.0370780744804583,-0.3908196646813256,0.0736832080947041,0.047069023859882,0.1918435251997508,1.4996732430901765,-0.0323054434635638,-0.4100879155181987,0.0724958817129894,0.6462622557345469,-0.0266491726603593,0.6323616171303198,-0.1306273706538949,10.07008046989904,-0.9655767228521096,0.2681087836800787,-0.8838656775851055
2.48,0.0458711495364368,0.1815421079783132,1.5021145030872292,-0.0396501245902828,0.0999259851513404,0.025723661320894,-0.0378159481468594,-0.3776645331438526,0.0720256461170481,0.0467459694252464,0.1877426460445688,1.5003982019073063,-0.0320670358973517,-0.4057502266102178,0.0730429693711861,0.6639831606026537,-0.0368936833200543,0.6577565768736499,-0.0828780988828006,10.133197006006412,-0.96510617207699,0.2677753801399286,-0.8839297740462823
2.5,0.0451055990791479,0.1741256440366205,1.503546958799159,-0.0380103719960762,0.0996969541281992,0.0264763496661137,-0.0387063624384234,-0.364678360585158,0.0713430895869737,0.0460998605559751,0.1795408877342048,1.5018481195415665,-0.0315902207649274,-0.397074848794256,0.0741371446875795,0.651727317886016,-0.044520714578199,0.6493086279347277,-0.0341278265037214,10.197553323857392,-0.9649310247924862,0.2676160372437632,-0.8835421282446799
2.52,0.0443210644531764,0.1669662379538944,1.5049740652714565,-0.0364516079417475,0.0995218651729144,0.0272185283924058,-0.0396972037579079,-0.3519574735554306,0.0714342774529764,0.0454537516867038,0.1713391294238409,1.503298037175826,-0.0311134056325032,-0.3883994709782941,0.0752313200039729,0.6379871639978193,-0.0495420659742239,0.6360443514863728,0.0045593933001367,10.250472905127936,-0.9649083920150224,0.2675872239901656,-0.8829140241748148
2.54,0.0435568633960935,0.1603976724929903,1.5063378571210009,-0.0350476954914639,0.0994682642872493,0.0279111685688069,-0.0406785122528471,-0.3401491955786249,0.0721191132783848,0.0448314835740537,0.163571140004275,1.5048026635759055,-0.0306365905000789,-0.3797240931623323,0.0763254953203662,0.5934378553132538,-0.049065424746961,0.5904138988402863,0.0342417912704187,10.291523674528436,-0.9649479576697252,0.2676943619369488,-0.8820645388280166
2.56,0.0427321253286638,0.1537221991180749,1.507787721544767,-0.033681563152053,0.0995561930203421,0.0286241365764167,-0.0417270668467956,-0.3280586929550572,0.0728302010017526,0.0442092154614037,0.1558031505847091,1.5063072899759848,-0.0301597753676547,-0.3710487153463704,0.0774196706367596,0.6078350232121195,-0.0524277296974261,0.6045251311783822,0.0355543861683918,10.318265217715634,-0.9648176775043028,0.2679426484128908,-0.8812964540382938
2.58,0.0418865655037952,0.1472880791390088,1.5092509378997974,-0.0323758081660144,0.0997983477204007,0.029324153320954,-0.0427469516560835,-0.3160288776904954,0.0734609490006961,0.0435988677270642,0.1482520456105423,1.5078392707589745,-0.0296829602352305,-0.3623733375304086,0.078513845953153,0.6044718011658436,-0.0509942404643908,0.6014907632280908,0.0315373999471721,10.318265217715634,-0.9645742649406152,0.2682269307803763,-0.8806795851705056
2.6,0.0410652731183722,0.1413975049959858,1.5106523935446046,-0.0310987858265612,0.1001547734296682,0.0299840356357033,-0.04362717550526,-0.3047039244726445,0.0740332870764438,0.0430004403710354,0.1409178250817745,1.5093986059248734,-0.0292061451028062,-0.3536979597144468,0.0796080212695464,0.5686759408576249,-0.0440111924588263,0.5662476608925465,0.0286169037873873,10.31249863918856,-0.9641968985468616,0.2684760733642655,-0.8802023872285548
2.62,0.0401842227700821,0.1354268618328079,1.5121395777087443,-0.029671875060136,0.1006335657565098,0.030677004322515,-0.0444063503423586,-0.2930163987060619,0.0746588848495115,0.0388839143431092,0.1261623087723536,1.5143540578984267,-0.0296863820431623,-0.2805486560270335,0.071778013326392,0.5865081937726173,-0.038958741854932,0.5843762883291304,0.0312798886533807,10.30968945926452,-0.9637504685213047,0.268663716413834,-0.8798106860204986
2.64,0.0392721161630821,0.1296731210563997,1.5136233786207909,-0.0285635744126572,0.1017061016297776,0.0313260851236927,-0.046674602366049,-0.2828963678428104,0.0736025650832909,0.0388839143431092,0.1261623087723536,1.5143540578984267,-0.0296863820431623,-0.2805486560270335,0.071778013326392,0.5212384371970424,-0.1134126011845173,0.5060015431625736,-0.05281598831103,10.309689196799807,-0.9614176784583356,0.2689004460767464,-0.8815961627797074
