t,x,y,z,roll,pitch,yaw,v_x,v_y,v_z,ref_x,ref_y,ref_z,ref_v_x,ref_v_y,ref_v_z,a_com,a_x,a_y,a_z,thrust,wind_x,wind_y,wind_z
0.0,2.486950328464027,-1.9492838898842288,2.5168615446299096,0.0238663720181167,0.099430878113037,0.042199094939663,0.0050188884124271,-0.0058246037377596,0.0056787875994058,2.487105207827238,-1.9495051142048463,2.5170319123369174,-0.0948737836231522,0.0930288590433436,-0.04697703017538,0.4779222693008919,0.2509444206213584,-0.2912301868879842,0.2839393799702936,10.252602974913316,-0.9416900708124152,0.2592470924711716,-0.875823479907896
0.02,2.4872214629935465,-1.9496311961481176,2.516866398710323,0.014078185031158,0.0938330311777964,0.0414207074781788,0.0213829063790298,-0.0245649302592222,-0.0055184777771163,2.487105207827238,-1.9495051142048463,2.5170319123369174,-0.0948737836231522,0.0930288590433436,-0.04697703017538,1.3641477871317609,0.8182008983301337,-0.937016326073128,-0.5598632688261116,9.635201650236922,-0.9485148771491072,0.2617118431024188,-0.8736907815154832
0.04,2.4877630352113296,-1.9501223433696575,2.516599437287677,-0.0024820936806374,0.0781024431515619,0.0402397018117119,0.0303592740138368,-0.0228597692532601,-0.0204792632835691,2.487105207827238,-1.9495051142048463,2.5170319123369174,-0.0948737836231522,0.0930288590433436,-0.04697703017538,0.8765099157190845,0.4488183817403485,0.0852580502981047,-0.7480392753226379,9.635201650236922,-0.9544676263737644,0.2763935627708919,-0.8594289632455108
0.06,2.4883362029358533,-1.950483788113775,2.5160720087380035,-0.0185384128021557,0.0577563516642648,0.0394587299764642,0.028621761188792,-0.0149649817514767,-0.0342608815451097,2.486156469991007,-1.948574825614413,2.516562142035164,-0.1148737839211754,0.1130288593413668,-0.0575082746023457,0.7988736170733483,-0.086875641252236,0.3947393750891713,-0.6890809130770333,9.380707925852676,-0.9668103359011734,0.2901267545099367,-0.8398956871951683
0.08,2.4888006443646087,-1.950665153131749,2.5152396625466533,-0.0347710620344732,0.0344409136030932,0.0391529724291856,0.0171192513677731,-0.0032470273052765,-0.0482449294860821,2.484258994318544,-1.9467142484335465,2.515622601431656,-0.1548737845172219,0.1530288599374133,-0.0785707634562772,1.078392073182652,-0.5751254910509448,0.5858977223100077,-0.6992023970486178,9.375506575465806,-0.983032900882248,0.3021830678472597,-0.8168922674275763
0.1,2.488941278318232,-1.9505817029277157,2.5141332757833927,-0.0502072683156561,0.0120548589832812,0.0393066239760272,-0.0029929258176891,0.0113282409904926,-0.0617022786660112,2.482361518646081,-1.9448536712526796,2.5146830608281485,-0.1948737851132683,0.1930288605334598,-0.0996332523102086,1.4124786405319776,-1.0056088592731187,0.7287634147884595,-0.6728674589964533,9.40779960071268,-1.00037348382314,0.3126136881693045,-0.7930892771688882
0.12,2.4886015285783376,-1.950169137483948,2.5127627510574118,-0.0645841896559767,-0.0072874194466043,0.039762809591412,-0.0300497443482937,0.0293071878420349,-0.0747137117735891,2.4784640429438154,-1.94099309404201,2.512690395781944,-0.2348737857093148,0.2330288611295062,-0.12069574116414,1.7497223711217893,-1.352840926530226,0.8989473425771145,-0.6505716553788982,9.53984399512956,-1.0157934004768128,0.3210097222773664,-0.772138970886883
0.14,2.487728425725125,-1.949404215261361,2.511218765285595,-0.0766246380317745,-0.0218098546858009,0.0403351589520368,-0.0603683109980932,0.0500297657232692,-0.0871591056975513,2.47456656724155,-1.937132516831341,2.5106977307357403,-0.2748737863053613,0.2730288617255527,-0.1417582300180715,1.938768002923992,-1.5159283324899775,1.036128894061715,-0.6222696961981091,9.53984399512956,-1.0295288162397218,0.327841516313839,-0.754231715462247
0.16,2.4861512798036296,-1.9481447912424887,2.5093361341112064,-0.0870537520603747,-0.0324878060319521,0.040931453823726,-0.0957560973220767,0.0745087965957142,-0.1004294046522386,2.4696690915243837,-1.9322719396057704,2.508178503468188,-0.3148737869014077,0.3130288623215991,-0.1628207188720029,2.251454645175428,-1.7693893161991727,1.223951543622253,-0.6635149477343665,9.585418966607904,-1.0395022315170226,0.3327561119356507,-0.7420992908170583
0.18,2.483827769489249,-1.9463732978578547,2.5071883281248177,-0.0948836013641927,-0.0375719408418246,0.0413246094052506,-0.1345406506898809,0.1007917139811005,-0.1136268104834882,2.463771615792316,-1.9264113623652992,2.505132713979287,-0.3548737874974541,0.3530288629176455,-0.1838832077259343,2.433723919686555,-1.9392276683902117,1.314145869269314,-0.6598702915624796,9.629097908111817,-1.0451398529072924,0.3355734555541783,-0.7368808418666414
0.2,2.48090102710889,-1.9441951013247247,2.5049082941369685,-0.1000983450881281,-0.0369918530931575,0.0413703752125713,-0.1709333375726561,0.1266553561479285,-0.1255913057408664,2.477100736954755,-1.9413337121588,2.5015069876006435,-0.234540652179997,0.2007917154712166,-0.141770592652115,2.311117041305601,-1.81963434413876,1.2931821083413972,-0.5982247628689082,9.713029755080242,-1.0481839982325554,0.3358115817760161,-0.7385192207411115
0.22,2.477057487367247,-1.9412367626276472,2.5023508819222804,-0.0996100837587312,-0.0307676540394755,0.0412753978255846,-0.2107691428270305,0.1663432385828263,-0.1287229525626062,2.477100736954755,-1.9413337121588,2.5015069876006435,-0.234540652179997,0.2007917154712166,-0.141770592652115,2.815948598717146,-1.9917902627187192,1.9843941217448893,-0.1565823410869915,9.713029755080242,-1.0491261501863458,0.3338263160133083,-0.7410395398933324
0.24,2.472476108490499,-1.9375801500516625,2.4997702992850206,-0.0928676090734923,-0.019624222514183,0.0411662668848816,-0.2445920875801438,0.1961911407371586,-0.1290369198095698,2.477100736954755,-1.9413337121588,2.5015069876006435,-0.234540652179997,0.2007917154712166,-0.141770592652115,2.255541747684421,-1.691147237655667,1.492395107716615,-0.0156983623481793,10.401256588012076,-1.04536522309867,0.3275905416889825,-0.7522241874519778
0.26,2.4672842150213112,-1.9334040595694229,2.4971822564216013,-0.0847938361326584,-0.0059983014799651,0.0410091451486261,-0.2723149840628112,0.2196917604660536,-0.1296819974080612,2.4747553304329557,-1.9393257950040876,2.5000892816741223,-0.2545406524780202,0.2207917157692398,-0.1473993490858404,1.817453054509866,-1.3861448241333687,1.1750309864447517,-0.032253879924568,10.22953926901664,-1.0395429333717507,0.3216836634380032,-0.7643133052047948
0.28,2.4618934310660507,-1.929038051832891,2.494701660349908,-0.0775818552025931,0.0075540557289784,0.0408742019492772,-0.2934110551266145,0.2388062781806591,-0.1313974020870961,2.470064517389355,-1.935309960694663,2.49725386982108,-0.2945406530740667,0.2607917163652863,-0.1586568619532911,1.4259660015265636,-1.0548035531901645,0.955725885730277,-0.0857702339517443,10.22953926901664,-1.032860922918917,0.3164324964389233,-0.7760755281720657
0.3,2.455835880929542,-1.9240713155540992,2.4920414712336725,-0.0710904929253135,0.0211269156767452,0.0408005701454838,-0.3109235514340143,0.2569772562129452,-0.1346323578596498,2.465373704345755,-1.9312941263852388,2.4944184579680377,-0.3345406536701132,0.3007917169613328,-0.1699143748207418,1.2721408220170545,-0.875624815369988,0.908548901614302,-0.1617477886276877,10.013584140660896,-1.0250266343487424,0.3120767846495859,-0.788519151114363
0.32,2.449470028765392,-1.9187536977322768,2.489299314719324,-0.0658448000309864,0.0330600639181598,0.040826403954217,-0.324611382329475,0.2740144518904113,-0.1395273340549067,2.458682891272353,-1.925278292046012,2.491020170471623,-0.3745406542661596,0.3407917175573792,-0.1811718876881925,1.1198030442081464,-0.6843915447730387,0.8518597838733072,-0.2447488097628417,10.013584140660896,-1.017473280248117,0.3088123910458362,-0.7997158393669571
0.34,2.442863382270605,-1.9131041354720144,2.486446271503679,-0.0617739581433127,0.042763940189293,0.0409615860863184,-0.3353966846447695,0.2903167242349482,-0.1455761616859931,2.4519920781989506,-1.9192624577067856,2.487621882975208,-0.4145406548622061,0.3807917181534257,-0.1924294005556432,1.0230776428726485,-0.5392651157647227,0.8151136172268425,-0.302441381554322,9.920003140523477,-1.010322006195664,0.3062136677071205,-0.8098316322084621
0.36,2.436401472248813,-1.9074311134118809,2.483615365228721,-0.0585669266716895,0.0498711646371992,0.0411977139758791,-0.344306810790436,0.3060281322059359,-0.152133974567921,2.444301265110647,-1.9122466233526576,2.483942157657107,-0.4545406554582525,0.4207917187494721,-0.2036869134230939,0.9607856136476092,-0.4455063072833276,0.7855703985493845,-0.327890644096393,9.86813712996991,-1.0042299864240882,0.3043524981368495,-0.8178374332094187
0.38,2.4294249863141784,-1.9011397069553568,2.4804943370591,-0.0555375210981049,0.0553920202474947,0.0415497460578713,-0.3528871887866917,0.3222436311158195,-0.1596617134937128,2.435610452007442,-1.9042307889836287,2.4799809945173195,-0.494540656054299,0.4607917193455185,-0.2149444262905447,0.9915040907504452,-0.429018899812783,0.8107749454941804,-0.3763869462895933,9.832815995762758,-0.9994771094130116,0.3027275541934273,-0.8240007510552101
0.4,2.422281387519774,-1.894527561317744,2.4772173959636765,-0.0527067223537353,0.0592279726435648,0.0419870486106221,-0.3610770362890834,0.3380886481810537,-0.1676801114934982,2.411780626874844,-1.8850275253995656,2.472511251384414,-0.4528871902768078,0.4222436326059356,-0.1932987603076777,0.9777945520314534,-0.4094923751195828,0.7922508532617112,-0.4009198999892674,9.784919647215249,-0.995968500243431,0.3012119979614217,-0.8285721067914101
0.42,2.4149875206770304,-1.8876006739323044,2.473841157265749,-0.0500119566611315,0.0614491222892471,0.0424993413903249,-0.368051212994114,0.3537406509932946,-0.1695435925283572,2.411780626874844,-1.8850275253995656,2.472511251384414,-0.4528871902768078,0.4222436326059356,-0.1932987603076777,0.8618249449781944,-0.3487088352515294,0.7826001406120442,-0.0931740517429516,9.784919647215249,-0.9966488965494552,0.2995096387244761,-0.82880830111083
0.44,2.407933309185324,-1.880749847092752,2.470589236757481,-0.048035189262793,0.0619814421015597,0.0430191359587274,-0.3743033891634322,0.3668826923811281,-0.1727033677091807,2.411780626874844,-1.8850275253995656,2.472511251384414,-0.4528871902768078,0.4222436326059356,-0.1932987603076777,0.7446259763885983,-0.312608808465914,0.6571020693916768,-0.1579887590411763,10.141112232426169,-0.9966208108024136,0.2992752134167402,-0.827817167979606
0.46,2.400375127477434,-1.8732713261740768,2.4670862267492497,-0.0468179437300938,0.0609381681856134,0.0435748598078145,-0.3812833104744296,0.3803388835879163,-0.177495402658459,2.407251754972076,-1.8808050890735064,2.4705782637813374,-0.4728871905748311,0.4422436329039588,-0.2000261696704706,0.7949087718984832,-0.3489960655498669,0.6728095603394074,-0.2396017474639133,10.030489414400108,-0.99771264096027,0.2994721807260924,-0.8256082645014579
0.48,2.3926712124044105,-1.8655285890503133,2.4634748071289065,-0.0466007365787051,0.058374348180238,0.0441242205419493,-0.3889002104896755,0.3933807813308393,-0.1833986540763871,2.3981940111665394,-1.8723602164213875,2.4667122885751835,-0.5128871911708776,0.4822436335000052,-0.2134809883960566,0.8107968917712761,-0.3808450007622949,0.652094887146154,-0.2951625708964039,9.886973365847552,-0.999882719420947,0.3001233976149939,-0.8222521425829371
0.5,2.385201652186143,-1.8579328297281372,2.459928326809964,-0.0474024463447399,0.0547017716801192,0.044630177832755,-0.397126717981451,0.4056298266296222,-0.1896145629777347,2.3891362673610037,-1.8639153437692688,2.46284631336903,-0.552887191766924,0.5222436340960517,-0.2269358071216425,0.8005499043059818,-0.4113253745887751,0.6124522649391451,-0.3107954450673814,9.886973365847552,-1.0032934933746696,0.3014578432906762,-0.8172596300905905
0.52,2.3771559641681166,-1.84968501099889,2.4560634357337485,-0.0493868220776871,0.0497945302188205,0.0451367567939498,-0.4072182525613973,0.4186163110310835,-0.1965641300471234,2.378078523525665,-1.853470471087348,2.458307597226597,-0.5928871923629705,0.5622436346920981,-0.2403906258472284,0.892726623524217,-0.5045767289973163,0.6493242200730609,-0.3474783534694339,9.849945965460392,-1.0075507355176232,0.3036017372581317,-0.8109320545471587
0.54,2.3688850972853506,-1.841163995844516,2.452059566405926,-0.0522839905526629,0.0443469328273668,0.0456199095486853,-0.4195845454168865,0.4331261543156988,-0.2034739088096749,2.367020779690326,-1.843025598405427,2.4537688810841645,-0.632887192959017,0.6022436352881446,-0.2538454445728144,1.0139104912161008,-0.6183146427744618,0.7254921642307677,-0.3454889381275777,9.833809195870344,-1.012798353238179,0.3065207079512863,-0.8028848308621557
0.56,2.36033587323335,-1.8323246101743196,2.447919360203323,-0.0549651389901652,0.0392739321895843,0.0461149277116192,-0.4348314944399687,0.4499028745371556,-0.2101861630510081,2.3549630358400866,-1.8315807257086043,2.448893794473592,-0.6728871935550633,0.642243635884191,-0.2673002632984003,1.182140170307438,-0.7623474511541078,0.838836011072841,-0.3356127120666588,9.833809195870344,-1.0176294480484531,0.3092857486304007,-0.7951369393367315
0.58,2.351905614059899,-1.8236063105895688,2.443863311767737,-0.056743075537349,0.0357661629295121,0.0465759871254891,-0.45186218144444,0.4667239364246762,-0.2164144286761704,2.341905291974946,-1.819135852996881,2.44368233739488,-0.7128871941511098,0.6822436364802374,-0.2807550820239862,1.2367130988689763,-0.8515343502235678,0.8410530943760264,-0.3114132812581119,9.879123924250052,-1.021906540418584,0.3115285747300018,-0.7883034772880242
0.6,2.34266100608923,-1.814080644646928,2.439464908180833,-0.0576347265139302,0.0344221732971672,0.046997317433697,-0.4716026122804171,0.484865087232258,-0.223081629687979,2.329312504987677,-1.800270113768335,2.4330425903339283,-0.5518621829345562,0.5667239379147924,-0.2519092107067528,1.3813376954471384,-0.9870215417988548,0.9070575403790916,-0.3333600505904324,9.879123924250052,-1.0254348687291364,0.3125553814810827,-0.7836210765656155
0.62,2.3329904081470256,-1.804132817888812,2.4350107253381683,-0.0556379785910654,0.0367420884977613,0.0474048787064214,-0.4937560515610154,0.5081822085579855,-0.2218827349613246,2.329312504987677,-1.800270113768335,2.4330425903339283,-0.5518621829345562,0.5667239379147924,-0.2519092107067528,1.6092703062595208,-1.1076719640299104,1.165856066286372,0.0599447363327218,9.877465419591315,-1.0285374065047157,0.3119280931874037,-0.7800438451169951
0.64,2.323428758497351,-1.794296802539756,2.4307963182409877,-0.0511506225953583,0.0419983909822111,0.0478061154879287,-0.5112122994189486,0.5254797011242844,-0.2217617453391165,2.329312504987677,-1.800270113768335,2.4330425903339283,-0.5518621829345562,0.5667239379147924,-0.2519092107067528,1.2287579876113215,-0.872812392896663,0.8648746283149489,0.0060494811104053,10.37545366874474,-1.028242816437592,0.3091888540458875,-0.7818846678545929
0.66,2.3130432289043763,-1.7836315784751091,2.426340917203794,-0.0461446702555332,0.049134331599017,0.0481839404971719,-0.5260916458296887,0.5400902173329302,-0.223895170943417,2.323793883158331,-1.794602874389187,2.4305234982268606,-0.5718621832325794,0.5867239382128155,-0.2590081671128693,1.0481097727611697,-0.7439673205370034,0.7305258104322865,-0.1066712802150288,10.22359595243961,-1.024902537867424,0.3062994431279219,-0.7874127298002762
0.68,2.3023936726965264,-1.772694388026404,2.421816961346847,-0.0417302579297569,0.0567483900242714,0.0485203449526769,-0.5378850457876252,0.5529678035295608,-0.2285084400536732,2.31275663949964,-1.7832683956308912,2.4254853140127257,-0.6118621838286259,0.626723938808862,-0.2732060799251022,0.903048670758048,-0.5896699978968245,0.6438793098315299,-0.2306634555128084,10.058515711172731,-1.0198951322997334,0.3035153881795649,-0.7951443070417373
0.7000000000000001,2.291537267289244,-1.7615113792994337,2.4171754168612174,-0.0381777403103722,0.0639633233337198,0.0488304355819585,-0.5470606206297299,0.5648746790552162,-0.2354302023731294,2.301719395840949,-1.7719339168725954,2.420447129798591,-0.6518621844246724,0.6667239394049085,-0.2874039927373352,0.8274594432260112,-0.4587787421052369,0.5953437762827696,-0.3460881159728091,9.793437817943412,-1.0144557103024308,0.3011842626033076,-0.80324898267167
0.72,2.2810739234065927,-1.7506721177946238,2.412620781121019,-0.0355853706111675,0.0699240692571654,0.0491131730872175,-0.5538675131110529,0.5756745360772075,-0.2436822060606117,2.288682152152456,-1.7585994380844971,2.4146990499438443,-0.6918621850207188,0.706723940000955,-0.3016019055495682,0.7600431925324518,-0.3403446240661467,0.5399928510995688,-0.412600184374115,9.70368228258667,-1.0086426980279315,0.2990104776965569,-0.8118524185737191
0.74,2.269935715571387,-1.7390439703704383,2.407646078325346,-0.0336219660382639,0.0749372668894476,0.0494038564986196,-0.5595772381096498,0.5866949127618071,-0.2534179299954903,2.275644908463962,-1.745264959296399,2.4089509700890974,-0.7318621856167653,0.7467239405970014,-0.3157998183618012,0.7887236245451174,-0.2854862499298449,0.5510188342299771,-0.4867861967439282,9.653861610235252,-1.0033977245448813,0.2972163045765624,-0.8196186365988445
0.76,2.2586894873793426,-1.7271884727786526,2.4024685939367263,-0.0320926810751969,0.0786488639449328,0.0497040889571647,-0.5647677887095237,0.5982694907770782,-0.2638772868456606,2.261607664760568,-1.7309304804933996,2.402847942414045,-0.7718621862128117,0.7867239411930478,-0.3299977311740341,0.8220565939773473,-0.2595275299936972,0.5787289007635588,-0.5229678425085149,9.653861610235252,-0.9988950796549964,0.2958410177772888,-0.8260408092785876
0.78,2.2473425682783974,-1.7150996336424098,2.3970766998505653,-0.0306031556965195,0.081287410970792,0.0500290697541469,-0.5696952827212013,0.609944856053163,-0.2747973714583441,2.246570421042272,-1.7155960016754992,2.3963899669186866,-0.8118621868088581,0.8267239417890943,-0.3441956439862671,0.8364248315199789,-0.246374700583879,0.5837682638042352,-0.5460042306341756,9.626914352338645,-0.9954282043033608,0.2945496834110798,-0.8310954154944837
0.8,2.236472554383159,-1.703399906092643,2.391748836490958,-0.0290688827452083,0.0830223761740282,0.0503617088305249,-0.5742912956819927,0.6209150210561373,-0.2854897063008846,2.218857804142337,-1.6846023908397516,2.383336831277648,-0.6696952842113174,0.7099448575432791,-0.3100087222271486,0.7996778721980036,-0.2298006480395686,0.548508250148716,-0.5346167421270254,9.5988088061913,-0.9924319787390122,0.2930494848075288,-0.8356781866095228
0.8200000000000001,2.224931587239932,-1.690846980373251,2.386011876296213,-0.0268497207937157,0.0846031429832286,0.0507515365087168,-0.5794718435884851,0.6334684911281272,-0.28714136749698,2.218857804142337,-1.6846023908397516,2.383336831277648,-0.6696952842113174,0.7099448575432791,-0.3100087222271486,0.6840242542602154,-0.2590273953246236,0.6276735035994963,-0.0825830598047694,9.5988088061913,-0.9931932233627256,0.2913445910508941,-0.8360881791049359
0.84,2.21330005572468,-1.678073401246154,2.380244881985554,-0.0245644447912947,0.0860834831386896,0.0511381278059686,-0.5834091107311782,0.6433567239549746,-0.2896370328935184,2.218857804142337,-1.6846023908397516,2.383336831277648,-0.6696952842113174,0.7099448575432791,-0.3100087222271486,0.5465975822356681,-0.1968633571346523,0.4944116413423682,-0.1247832698269196,10.062072708454252,-0.9923061524092124,0.2904847805639597,-0.8368724605814278
0.86,2.202182387220463,-1.6657625040174362,2.3746990996928017,-0.0229619927437894,0.086995468582656,0.0514677176491503,-0.586707349514533,0.6520990675778766,-0.2940985620549536,2.2121608513002244,-1.6775029422643188,2.3802367440553764,-0.6896952845093406,0.7299448578413023,-0.3170509923809095,0.517716605758544,-0.1649119391677389,0.4371171811451024,-0.2230764580717636,9.940066498943452,-0.990933431157658,0.2897112647324383,-0.8383800404580241
0.88,2.1904143519521733,-1.6526316323564365,2.368750728110222,-0.022066481660507,0.0872806760461373,0.0517637235927071,-0.5899879524147351,0.66059146766691,-0.3005758497893508,2.198766945615998,-1.663304045113453,2.374036569610833,-0.7296952851053871,0.7699448584373487,-0.3311355326884314,0.5586556879134078,-0.1640301450101078,0.4246200044516701,-0.3238643867198576,9.940066498943452,-0.9898550804411564,0.2892408063746841,-0.8397315297251063
0.9,2.1785801642157683,-1.6393355718312417,2.3626593609531645,-0.0222089302410806,0.0868320002889506,0.0519928856987538,-0.5933358033138784,0.6686707481707064,-0.3082859621472128,2.1853730399317715,-1.6491051479625876,2.3678363951662904,-0.7696952857014335,0.8099448590333952,-0.3452200729959532,0.5829423463619166,-0.1673925449571622,0.403964025189818,-0.3855056178931004,9.846675778924691,-0.9893062312779182,0.2893261597705742,-0.8405142312331795
0.92,2.166678045199241,-1.6258798338478266,2.356404629499501,-0.0235644531397145,0.0856104180612406,0.0521469347508964,-0.5967957755968081,0.6766501970683296,-0.3167991545001464,2.169979134217743,-1.6329062507819196,2.3609319937063717,-0.80969528629748,0.8499448596294417,-0.359304613303475,0.6085175776969604,-0.1729986141464856,0.3989724448811627,-0.4256596176466815,9.783542308252436,-0.9896756949428864,0.2901822214233001,-0.8400815026328967
0.94,2.1553052105429438,-1.6129449648282503,2.3503051078330106,-0.0259925416701948,0.083665447564523,0.0522300649450493,-0.6002651516638676,0.6847871814113317,-0.3248313145654797,2.154585228503714,-1.6167073536012515,2.354027592246452,-0.8496952868935265,0.8899448602254881,-0.3733891536109968,0.5974166883509364,-0.1734688033529774,0.4068492171501014,-0.4016080032666624,9.748418706149096,-0.9910144208936316,0.2919806446225372,-0.8382502841464595
0.96,2.143252623295493,-1.5991343154442728,2.343721656591685,-0.0289224102246891,0.0808711763569364,0.0523142300126941,-0.6049217483849282,0.6958849659279855,-0.3330758174856577,2.138191322774784,-1.5995084564056827,2.346771077278845,-0.8896952874895728,0.9299448608215346,-0.3874736939185186,0.7294116509240491,-0.2328298360530278,0.5548892258326943,-0.4122251460089016,9.748418706149096,-0.9930216829839712,0.2943311018933077,-0.8351295869091765
0.98,2.1310933478002334,-1.5850846827183134,2.336977498130873,-0.0313293820436904,0.077655178697232,0.0524516123467614,-0.6108874522740438,0.7083875733981438,-0.3408996691750152,2.1207974170309534,-1.5813095591952129,2.33916244880355,-0.9296952880856192,0.9699448614175812,-0.4015582342260405,0.7954832991687024,-0.2982851944557829,0.625130373507915,-0.3911925844678726,9.76343126277152,-0.9957608432631442,0.2964946988910657,-0.8309723392359978
1.0,2.1187984526361245,-1.5707758102261964,2.3300806613173406,-0.0328400706866001,0.0745070378278876,0.0526508244958978,-0.6183871041867126,0.7216487129440669,-0.348378237316189,2.1005489751865314,-1.549665304048406,2.319932514672123,-0.71088745376416,0.80838757488826,-0.3711253335522277,0.8485746612847619,-0.3749825956334385,0.6630569772961503,-0.3739284070586907,9.807684326221532,-0.998800723741026,0.2981993489948296,-0.826315723579014
1.02,2.1069261584103005,-1.5568871036367442,2.3234828300158554,-0.0318521817888828,0.0734586494919421,0.0529399382588571,-0.6306248402047946,0.7389160290396681,-0.3457078969054517,2.1005489751865314,-1.549665304048406,2.319932514672123,-0.71088745376416,0.80838757488826,-0.3711253335522277,1.066598689647246,-0.611886800904099,0.8633658047800641,0.1335170205368663,9.807684326221532,-1.00177660309249,0.2979577359073593,-0.8228267936889453
1.04,2.0941988292807032,-1.541951285971932,2.3165889649303395,-0.0280196689826409,0.075345280560005,0.0533330091990656,-0.6411065055082558,0.7531941680805692,-0.3439029460581879,2.1005489751865314,-1.549665304048406,2.319932514672123,-0.71088745376416,0.80838757488826,-0.3711253335522277,0.8902084159989196,-0.5240832651730587,0.7139069520450514,0.0902475423631893,10.312753963070463,-1.0037024686890754,0.2968091723932035,-0.8196930912278567
1.06,2.0812881140830277,-1.5267731488436642,2.309702136868119,-0.0234896727170895,0.0788490233816108,0.0537251006426127,-0.6492125339837136,0.7638177181403764,-0.3448546666513777,2.09344010064889,-1.5415814282995235,2.3162212613366004,-0.7308874540621831,0.8283875751862831,-0.3771704664276702,0.6698381998767768,-0.4053014237728913,0.5311775029903598,-0.0475860296594937,10.312753963070463,-1.0026589964283497,0.2947168944761824,-0.8209324274988008
1.08,2.0688935168233047,-1.5121780185167435,2.303117911930761,-0.019575859078647,0.0827493685785063,0.0540577012623346,-0.6549655795841709,0.7720911322998678,-0.348177079459414,2.0792223515736064,-1.5254136768017583,2.308798754665556,-0.7708874546582296,0.8683875757823296,-0.3892607321785552,0.5305312017271429,-0.2876522800228653,0.4136707079745727,-0.166120640401815,9.993089424137906,-1.0001101565786354,0.2922951252837662,-0.8244795859418038
1.1,2.0557467106543843,-1.4966561460350096,2.296097937722408,-0.016226976636601,0.0867384302503434,0.0543566293734097,-0.6593300452693887,0.7797806746526875,-0.3537490441032364,2.0650046024983237,-1.5092459253039932,2.3013762479945115,-0.8108874552542761,0.908387576378376,-0.4013509979294402,0.5225524191534695,-0.2182232842608877,0.3844771176409856,-0.2785982321911157,9.993089424137906,-0.9969498380208032,0.2900959497060637,-0.8289130734788004
1.12,2.042526851195148,-1.480986050383361,2.2889476690262867,-0.0137280771196936,0.090107849754688,0.0546032118629967,-0.6624170996122194,0.7869757579070278,-0.3610773921339623,2.0487868533932376,-1.4910781737764256,2.2933492280359227,-0.8508874558503225,0.9483875769744224,-0.4134412636803252,0.5361991523956422,-0.1543527171415371,0.3597541627170131,-0.3664174015362953,9.874661286255105,-0.9937938378843972,0.2882801734256532,-0.8333274154536475
1.14,2.029256050166997,-1.465176252308065,2.281640161908345,-0.0120498833062366,0.0925385323108014,0.054798548344332,-0.6645810953924642,0.7938052873491421,-0.3693128182447927,2.0325691042881524,-1.472910422248858,2.285322208077334,-0.890887456446369,0.9883875775704688,-0.4255315294312102,0.5457737474553263,-0.1081997890122421,0.3414764721057173,-0.4117713055415223,9.78481674644354,-0.9912206623850762,0.2868905972786143,-0.8370228883078394
1.16,2.0166092415250443,-1.450024237968006,2.2745416475682387,-0.0109154713689995,0.0939982560244047,0.0549535301958037,-0.6665992389352225,0.8007718194227851,-0.3774906772358559,2.015351355168165,-1.4537426707063894,2.276992931474973,-0.9308874570424156,1.0283875781665153,-0.4376217951820952,0.5465410555712774,-0.1009071771379155,0.3483266036821475,-0.4088929495531607,9.746530748948317,-0.9893095675197532,0.2859022344455934,-0.8397345708214323
1.18,2.00325461929343,-1.4339315286555605,2.266899009765684,-0.0099375016206202,0.0948376094182202,0.0550987681872613,-0.6687917317811708,0.8080946161545527,-0.3863554248584452,1.9971336060332776,-1.4335749191490197,2.26836139822884,-0.970887457638462,1.0683875787625616,-0.4497120609329803,0.5852651691039769,-0.1096246422974123,0.3661398365883805,-0.4432373811294632,9.732183211401209,-0.9879528364715487,0.2850118938241017,-0.8417695817394181
1.2,1.9898543718888697,-1.4176919220513846,2.2590774485259595,-0.0090474554350443,0.0951401894112262,0.055231946927558,-0.6711568510427939,0.815449406017624,-0.3953625324285425,1.9698150327043715,-1.3935267978478327,2.2475812385227614,-0.7687917332712869,0.9080946176446688,-0.4012553418053332,0.5933268699269835,-0.1182559630811541,0.3677394931535627,-0.4503553785048658,9.720824188505503,-0.9870873675681688,0.2841522492419989,-0.8432450508316889
1.22,1.9763912239566856,-1.401278194175438,2.2512073055517385,-0.0072484585018373,0.0958521495847873,0.0554130540398696,-0.674807291228389,0.8250719861335857,-0.3911805417124337,1.9698150327043715,-1.3935267978478327,2.2475812385227614,-0.7687917332712869,0.9080946176446688,-0.4012553418053332,0.5554475852551923,-0.1825220092797563,0.4811290057980866,0.2090995358054376,9.715940457504075,-0.988317233514752,0.2822029242201785,-0.843642791297017
1.24,1.9635498940640088,-1.3855385745938362,2.2438044636318057,-0.0049946202042539,0.0971416924575598,0.0556074997921144,-0.6766913013647184,0.831297509887375,-0.3883107653005873,1.9698150327043715,-1.3935267978478327,2.2475812385227614,-0.7687917332712869,0.9080946176446688,-0.4012553418053332,0.3554653881068392,-0.0942005068164719,0.3112761876894687,0.1434888205923246,10.49860899209034,-0.9886038029851436,0.2816330370406366,-0.8424606546870677
1.26,1.9500052975270756,-1.368856174532082,2.236050500197822,-0.0030686769281714,0.0984044320545629,0.0557708187837705,-0.6776654229819027,0.8367257695613992,-0.3873321093766964,1.9621271153716584,-1.384445851671386,2.243568685104708,-0.7887917335693101,0.928094617942692,-0.4042353251947108,0.2800566167361038,-0.0487060808592121,0.271412983701208,0.0489327961945423,10.37497691171302,-0.988044735984736,0.2810396690794586,-0.8424901227583839
1.28,1.9364482910619023,-1.3520722457078438,2.228297178011467,-0.001881987316096,0.0991379426150341,0.0558732358425758,-0.6780306196526176,0.841456933752188,-0.3881177636732105,1.946751280706233,-1.3662839593184928,2.2355435782686013,-0.8287917341653566,0.9680946185387386,-0.4101952919734659,0.2404918703518599,-0.0182598335357442,0.2365582095394391,-0.039282714825703,10.250113128016892,-0.987629825917393,0.2807806891833383,-0.8424466667368079
1.3,1.923565887419824,-1.3360470137253466,2.220903564978103,-0.0017450439082676,0.0991047711198232,0.0558931658195004,-0.6781073649962731,0.8453154561965461,-0.390110495987408,1.9313754460408072,-1.348122066965599,2.2275184714324947,-0.868791734761403,1.008094619134785,-0.4161552587522211,0.2171696766208119,-0.0038372671827768,0.1929261222179068,-0.0996366157098749,10.152989529019578,-0.9875949866707254,0.2810448997687337,-0.8419631451848022
1.32,1.9100044561537064,-1.3191025122797415,2.213072452111807,-0.0029159873695921,0.0981763314544821,0.0558163937246849,-0.678089217821123,0.8490630797609459,-0.392923403600117,1.9139996113455795,-1.3279601745829035,2.21919536625745,-0.9087917353574496,1.0480946197308314,-0.4221152255309763,0.2342939443201981,0.000907358757507,0.1873811782199863,-0.1406453806354513,10.08572410740635,-0.988386242375642,0.2821188035917613,-0.8404810125623016
1.34,1.896444565318023,-1.302080058763463,2.205186502413816,-0.0055905594398305,0.0961069721859215,0.0556365178347168,-0.6779857011940639,0.8533104853664935,-0.3955081703388348,1.896623776650351,-1.307798282200208,2.210872261082406,-0.948791735953496,1.088094620326878,-0.4280751923097315,0.248657340348605,0.0051758313529548,0.2123702802773797,-0.1292383369358912,10.043846284654135,-0.990078764112354,0.2841184043697499,-0.8378390126309605
1.36,1.8828789917714863,-1.2849404534960696,2.1972563110827785,-0.0088549868609267,0.092812921473164,0.0554290276293968,-0.6787139752174863,0.8604804759997992,-0.3973709482231231,1.8782479419402216,-1.286636389802611,2.202400156737893,-0.9887917365495424,1.1280946209229243,-0.4340351590884867,0.3721864122354448,-0.0364137011711229,0.358499531665285,-0.0931388942144145,10.058175447416945,-0.9927797438073468,0.2867900067672942,-0.8333849941457068
1.38,1.869966564126212,-1.2685074674641896,2.189695864111947,-0.0115305492838603,0.0887487843583103,0.05527956182357,-0.6805779092575047,0.8687902916331398,-0.3983578313409947,1.8588721072151917,-1.264474497390113,2.1937790532239103,-1.0287917371455888,1.1680946215189707,-0.4399951258672419,0.4286642749693281,-0.0931967020009194,0.4154907816670328,-0.0493441558935769,10.095547429269573,-0.996938629877308,0.2896306832966185,-0.8267526371534573
1.4,1.8563206006525912,-1.251033150538049,2.18172335342888,-0.0136444214390727,0.0838102414281442,0.0551882148302094,-0.6840918977939623,0.878073548419557,-0.3988020261206532,1.835937668663337,-1.2250679528825326,2.169777972544897,-0.7805779107476208,0.968790293123256,-0.4100158376887105,0.4968004654768139,-0.1756994268228784,0.4641628393208585,-0.0222097389829284,10.137574586865412,-1.001978954026729,0.2921275477949427,-0.8189162176540936
1.42,1.8425325832819472,-1.233319198005583,2.173800542259348,-0.0133245095287363,0.0803653221015646,0.0552474325472692,-0.69486630866587,0.8923414496928096,-0.3931336019988334,1.835937668663337,-1.2250679528825326,2.169777972544897,-0.7805779107476208,0.968790293123256,-0.4100158376887105,0.9378059079638948,-0.5387205435953835,0.7133950636626307,0.2834212060909891,10.60416937517948,-1.0061296674380256,0.2934650262488719,-0.8119387511337979
1.44,1.8285210191078232,-1.2153512949900225,2.1659968357496484,-0.0099726884106114,0.0806799298789881,0.0554564531199016,-0.7052321793729005,0.9033189103631732,-0.3875744077867699,1.835937668663337,-1.2250679528825326,2.169777972544897,-0.7805779107476208,0.968790293123256,-0.4100158376887105,0.8044572060894426,-0.5182935353515272,0.5488730335181768,0.2779597106031761,10.510719073338803,-1.009554131198604,0.2924405807575556,-0.8073553623210833
1.46,1.8150438012232168,-1.1981163387438354,2.158666147444998,-0.0058724020937587,0.0831970785643046,0.0556898676146997,-0.712658659729143,0.910228412714444,-0.3843443461799661,1.828131889555861,-1.2153800499513,2.16567781416801,-0.800577911045644,0.9887902934212792,-0.4123474389582537,0.5322760825164413,-0.3713240178121246,0.3454751175635373,0.1615030803401917,10.510719073338803,-1.009659852914642,0.2903425814918473,-0.807340687463608
1.48,1.8007303574968487,-1.179857335108046,2.1509953984336327,-0.0019407121578269,0.086956331890412,0.0559025914515355,-0.7181111571426302,0.9153906451711568,-0.3829992645172214,1.8125203313409084,-1.196004244088835,2.157477497414236,-0.8405779116416905,1.0287902940173257,-0.41701064149734,0.3814040398995454,-0.2726248706743595,0.2581116228356495,0.0672540831372359,10.233127155182956,-1.0080145958398905,0.2880438947639278,-0.8099010218067252
1.5,1.7863294319898475,-1.1615062412854242,2.143330549139739,0.0011531580248954,0.0909166128868597,0.0560582805759731,-0.7216046410297325,0.9196032311920964,-0.3836401245024849,1.796908773125956,-1.17662843822637,2.1492771806604614,-0.880577912237737,1.068790294613372,-0.4216738440364264,0.2755041386892861,-0.1746741943551177,0.2106293010469717,-0.0320429992631793,10.233127155182956,-1.0055461178047491,0.2861365722901626,-0.8134477130698188
1.52,1.772599820025176,-1.1440002500179411,2.1360207994709834,0.003225707734395,0.0942432394295865,0.0561446396685324,-0.723454565005081,0.923142737383225,-0.3857770569295021,1.7792972148812014,-1.1552526323341024,2.140843703779733,-0.9205779128337834,1.1087902952094184,-0.4263370465755127,0.2264773884367103,-0.0924961987674222,0.1769753095564374,-0.1068466213508562,10.122330780146513,-1.0027974907826278,0.2846006832344484,-0.8172233121573249
1.54,1.7581212808855575,-1.125503836745106,2.1282744247545264,0.0044983415342643,0.0968877905143623,0.0561654799077358,-0.7243156978587327,0.926403826283832,-0.3887843821367787,1.7616856566364467,-1.133876826441835,2.1324102268990046,-0.96057791342983,1.148790295805465,-0.431000249114599,0.2259438841373125,-0.0430566426825873,0.1630544450303528,-0.1503662603638295,10.041932063871172,-1.0005967235628408,0.2836397079302876,-0.8201665273687533
1.56,1.7436284382635094,-1.1069371836388735,2.1204637565833084,0.0049624224851881,0.0985668995145473,0.0561193849542724,-0.7249653455696834,0.9301137551977836,-0.3921446502561206,1.7430740983767907,-1.1115010205346665,2.1238601699547988,-1.0005779140258764,1.1887902964015111,-0.4356634516536854,0.252373812670723,-0.0324823855475331,0.1854964456975749,-0.168013405967099,10.004141896507464,-0.9989564725400988,0.2832531988627744,-0.8221635448529174
1.58,1.7291231171996766,-1.088292836592609,2.1125851478655777,0.0049167454363777,0.0994281603302571,0.0560269020767833,-0.7255998436075484,0.9341224872593548,-0.3955488701236122,1.7234625401022337,-1.0881252146125966,2.115193532947116,-1.0405779146219227,1.2287902969975577,-0.4403266541927717,0.2648642737693539,-0.0317249018932486,0.2004366030785576,-0.1702109933745754,9.990868402551314,-0.9979626110392192,0.2832269058052319,-0.8232428944497298
1.6,1.7153299732751073,-1.0705031747701317,2.105038201700548,0.0045793132428456,0.0996397277613853,0.0559097213238601,-0.7263343539325823,0.9382466984511714,-0.3986955525765243,1.6928431250192992,-1.0415867122296412,2.092807704359397,-0.8255998450976645,1.0341224887494709,-0.4057660831954949,0.2619648537101499,-0.0367255162516955,0.2062105595908303,-0.1573341226456082,9.992112941029518,-0.9976801245397936,0.283510871838944,-0.8233162277444863
1.62,1.7007688975097248,-1.0516582510208554,2.0970843770483256,0.0051304898676965,0.1002681500246499,0.055845178227687,-0.7296096272144539,0.945755339025694,-0.3962267842840695,1.6928431250192992,-1.0415867122296412,2.092807704359397,-0.8255998450976645,1.0341224887494709,-0.4057660831954949,0.4277905890448559,-0.1637636640935802,0.3754320287261248,0.1234384146227424,9.998515734705506,-0.9977436994893276,0.2827893494987914,-0.8238487780925933
1.64,1.6861593639966368,-1.0326878132005075,2.089183300468421,0.0068182364195123,0.1017548980101109,0.055857105978362,-0.731068292273944,0.9508811673959048,-0.3940865070847736,1.6928431250192992,-1.0415867122296412,2.092807704359397,-0.8255998450976645,1.0341224887494709,-0.4057660831954949,0.2871524278430494,-0.0729332529745052,0.2562914185105513,0.1070138599647912,10.367081083309133,-0.9977029422074966,0.2822704948840953,-0.8234763604481449
1.66,1.671534532882659,-1.0136279191839055,2.0813092071346806,0.0086436213814022,0.1032111987108615,0.0558718968864888,-0.7313238790775146,0.9548610077696342,-0.3934982245267497,1.6845871265683223,-1.0312454873421464,2.088750043527442,-0.8455998453956877,1.054122489047494,-0.4078095258098714,0.20155973297388,-0.0127793401785314,0.1989920186864668,0.0294141279011977,10.297215424689966,-0.9970845074486168,0.2816176061578483,-0.8237775207720457
1.68,1.6569141656291952,-0.9945006820953818,2.073431354966113,0.0100942787557592,0.10413666005875,0.055849264668053,-0.7307963579529747,0.9576102538586626,-0.3942660412328293,1.6680751296663694,-1.010563037567157,2.0806347218635324,-0.8855998459917341,1.0941224896435406,-0.4118964110386245,0.1451393734398822,0.0263760562269954,0.1374623044514189,-0.0383908353039808,10.204976227052612,-0.99647325299012,0.2809444793175306,-0.8241866819866785
1.7,1.6430390990141237,-0.976284994449812,2.0659233241198933,0.0107131771992483,0.1042775569183306,0.0557610549816249,-0.7298931294084053,0.959662562553307,-0.3959644337953238,1.651563132764416,-0.9898805877921676,2.0725194001996226,-0.9255998465877806,1.134122490239587,-0.4159832962673776,0.1406443215897326,0.0451614272284683,0.1026154347322172,-0.0849196281247272,10.132154792583606,-0.9962865169505356,0.2806461970591291,-0.8241143612607421
1.72,1.6284535461674037,-0.9570774902890724,2.057980914114369,0.0101845881450102,0.1034966103232894,0.0555708473230398,-0.7287683834483077,0.9611055159939256,-0.3982063749995228,1.6330511358326605,-0.967198137987376,2.064199734274275,-0.9655998471838272,1.1741224908356334,-0.4200701814961307,0.1446847302727041,0.0562372980048797,0.072147672030931,-0.112097060209948,10.082132869761152,-0.9968306532693758,0.2809709952021189,-0.8232116901558917
1.74,1.6138932563862296,-0.93784325604886,2.0499947388671336,0.0081357983070597,0.1014999533565169,0.0552621672967756,-0.7274409077751174,0.962461941218534,-0.4002864981481926,1.6145391389009047,-0.944515688182584,2.055880068348928,-1.0055998477798735,1.21412249143168,-0.4241570667248838,0.1407923414687247,0.0663737836595179,0.0678212612304218,-0.1040061574334921,10.053655293248994,-0.9983244765766291,0.2821525538996074,-0.8210596745127724
1.76,1.6000789708624847,-0.9195254396483123,2.042375928860799,0.0052091227000603,0.0983987452498697,0.0548985909306983,-0.7268923530132928,0.9659065250562312,-0.4015768056576509,1.595027141954248,-0.9208332383628912,2.047458230292861,-1.04559984837592,1.2541224920277263,-0.4282439519536369,0.1859500175491412,0.0274277380912291,0.172229191884865,-0.0645153754729149,10.063404585283024,-1.0009800130027655,0.284404763777319,-0.8168728944565677
1.78,1.5855373126226366,-0.9001501542409162,2.034337992869401,0.0022055247421077,0.0940245023825026,0.0545299542363274,-0.7274563124472164,0.9714183988517326,-0.4020991530240696,1.57451514499269,-0.8961507885282972,2.038934220106076,-1.0855998489719665,1.2941224926237729,-0.4323308371823899,0.2782608926522473,-0.0281979716961811,0.2755936897750666,-0.0261173683209325,10.099037215190949,-1.0051979718444817,0.2871183614081342,-0.8101802690270853
1.8,1.5709677072716204,-0.8806527579145834,2.0262991900490173,-0.0002267468510807,0.0888093366163134,0.0542152781792375,-0.7296916635706656,0.977930665871852,-0.4017046482427993,1.5491644970002758,-0.8515792342983295,2.0142330352181976,-0.8274563139373325,1.0714184003418488,-0.3795748520613831,0.3448262258329707,-0.1117675561724595,0.3256133510059655,0.0197252390635171,10.14145297097548,-1.0104652195771142,0.2897423331793024,-0.8018595481122002
1.82,1.5562947356245291,-0.860971198617037,2.018388689796737,-0.0002955145700767,0.0846979572807425,0.0540728815382962,-0.7377605278688557,0.9893636924239374,-0.3887258802190928,1.5491644970002758,-0.8515792342983295,2.0142330352181976,-0.8274563139373325,1.0714184003418488,-0.3795748520613831,0.95429173555114,-0.4034432149095046,0.5716513276042723,0.6489384011853228,10.18631694779924,-1.0162000428345022,0.2892804448520562,-0.7958531832032852
1.84,1.5421918752414223,-0.842087015441199,2.0111355080610904,0.0024408715931672,0.083793463557626,0.0541243418931538,-0.7460098060616218,0.9976105866342936,-0.3754606603519239,1.5491644970002758,-0.8515792342983295,2.0142330352181976,-0.8274563139373325,1.0714184003418488,-0.3795748520613831,0.8832155922293078,-0.4124639096383053,0.4123447105178146,0.6632609933584444,11.034246470306243,-1.0211371736499264,0.2896190081887203,-0.7880415490077938
1.86,1.5271997572164475,-0.8220795912839458,2.0037581250913905,0.0064380510694959,0.0850756252740461,0.0542538526486067,-0.7525374130747317,1.0024993879108677,-0.3630473871611526,1.5408899338609026,-0.840865050294911,2.010437286697584,-0.8474563142353557,1.091418400639872,-0.3750699918688457,0.742629420619991,-0.3263803506554918,0.2444400638286992,0.6206636595385645,10.977200753281975,-1.0235557437606695,0.2888157225408965,-0.7839764613389217
1.88,1.5120986660610538,-0.8020015549759845,1.996608228743681,0.0100502540809245,0.0874600582090884,0.0543617404148204,-0.7571089725118348,1.0051634580939548,-0.3526465108459067,1.5243408075821558,-0.8194366822880741,2.002845789656356,-0.8874563148314022,1.1314184012359183,-0.3660602714837712,0.5834694802481617,-0.2285779718551595,0.1332035091543559,0.5200438157622944,10.850299051762704,-1.0240399283491268,0.2878457449606079,-0.7827571654334007
1.9,1.4969243872906906,-0.7818829645735509,1.989645816315302,0.0127328229175353,0.0900524965678627,0.0544074940124564,-0.7600574084136557,1.006830948001037,-0.3441045468293885,1.5077916813034091,-0.7980083142812371,1.9952542926151284,-0.9274563154274488,1.1714184018319649,-0.3570505510986965,0.4594533330950464,-0.1474217950910405,0.0833744953541049,0.4270982008259122,10.71882726061358,-1.0237511982638152,0.287066263220513,-0.7826488787488661
1.92,1.4824665651302904,-0.7627443917090101,1.983177592348948,0.0143240749202292,0.0921479346937084,0.0543793301600698,-0.7617066880470071,1.0078937044409746,-0.3371839735389745,1.48924255499486,-0.7745799462445978,1.9881132815931544,-0.9674563160234952,1.2114184024280112,-0.3480408307136219,0.3596661967283305,-0.0824639816675743,0.0531378219968847,0.3460286645207006,10.61284747217178,-1.0234057300754744,0.2868014213928949,-0.7825266096642014
1.94,1.4672231310605015,-0.7425817006063512,1.9765083153436376,0.0148302295491921,0.0935911885192768,0.0542557379858324,-0.762590803940514,1.0084375965390178,-0.330110282896835,1.4706934286863111,-0.7511515782079584,1.9809722705711803,-1.0074563166195416,1.2514184030240578,-0.3390311103285473,0.3574723025220194,-0.0442057946753449,0.0271946049021587,0.3536845321069765,10.53995071837744,-1.0235821586973934,0.2871723370945709,-0.7816743838780666
1.96,1.4519620821115815,-0.7224020366975004,1.969981369457077,0.0141732021553925,0.0941878200568969,0.0540370632668189,-0.7635342715181337,1.0095670195811028,-0.3229262860254606,1.451144302362861,-0.726723210156418,1.9740565025588332,-1.047456317215588,1.2914184036201042,-0.3300213899434727,0.366659032774076,-0.0471733788809825,0.0564711521042538,0.3591998435687166,10.530360200201358,-1.0243765839244596,0.2884177374468839,-0.7796123672866474
1.98,1.4366796558952066,-0.7021927174783755,1.963602114939125,0.0126676849560805,0.0941193551308032,0.0537502059851198,-0.7647250160427153,1.0113599526137054,-0.3153331000795367,1.4305951760245097,-0.7012948420899764,1.9673659775561132,-1.0874563178116343,1.3314184042161503,-0.3210116695583981,0.3946167577270207,-0.0595372262290783,0.0896466516301264,0.3796592972961948,10.536976915672312,-1.025818132659184,0.2902177063787789,-0.7765209838326181
2.0,1.422136093669103,-0.6829520077196201,1.9576877262060624,0.0107266134971252,0.0935894783935789,0.0534389605265475,-0.7661829701131446,1.013904969701373,-0.3076057091817188,1.398443405093071,-0.6516247198476902,1.947835459935148,-0.8647250175328314,1.0700978042930305,-0.3070183070814016,0.4132653872987657,-0.0728977035214684,0.127250854383365,0.3863695448908966,10.559158372199818,-1.0280056662111705,0.2927005738215416,-0.7720320199563057
2.02,1.4067475312039268,-0.6624535655031969,1.9515811161462435,0.0143743072552806,0.0936938842934086,0.0535150312076142,-0.7724108631303603,1.033574724216279,-0.3036600555139975,1.398443405093071,-0.6516247198476902,1.947835459935148,-0.8647250175328314,1.0700978042930305,-0.3070183070814016,1.050302429036707,-0.3113946508607856,0.9834877257453134,0.1972826833860658,10.32312580191865,-1.0300772258613171,0.2941705517110711,-0.7652975236637959
2.04,1.3912560931568605,-0.6416960997851899,1.94554386054002,0.0245805812329038,0.0949612666301449,0.0540564338123628,-0.7762536371651284,1.040028263925953,-0.3002419706206489,1.398443405093071,-0.6516247198476902,1.947835459935148,-0.8647250175328314,1.0700978042930305,-0.3070183070814016,0.412608747498057,-0.1921387017384035,0.3226769854837052,0.1709042446674302,10.32312580191865,-1.031249895761268,0.289007508713352,-0.7649309083276904
2.06,1.3764833269887564,-0.6219398559039973,1.9398538683201807,0.0349992739370133,0.0964042429439894,0.0546227739937486,-0.7785516163549104,1.0391680771663965,-0.2988897942542646,1.3897961549177429,-0.6409237418047599,1.9447652768643344,-0.8847250178308546,1.0818453746288954,-0.3053553484817746,0.1400804281814195,-0.1148989594891014,-0.0430093379778284,0.0676088183192147,10.292297478316868,-1.0305188937021852,0.2818720612543082,-0.7681768812310235
2.08,1.3608970869615715,-0.6012054619029275,1.933874502746466,0.044859487694847,0.097700362401769,0.0551292332815506,-0.7799508801032391,1.0344049262401915,-0.2991996124668897,1.372501654567086,-0.6195217857188993,1.938624910722706,-0.924725018426901,1.1053405153006255,-0.3020294312825206,0.2487043079043264,-0.069963187416433,-0.238157546310247,-0.0154909106312578,10.176586996823062,-1.029063030723705,0.2744116438980494,-0.7730269315716859
2.1,1.3452901991893766,-0.5805928439466073,1.9278736484746284,0.0529474507361037,0.0984391588859158,0.0554780872450276,-0.7807166821520185,1.0273118599389188,-0.3009227491604315,1.3552071542164297,-0.5981198296330387,1.932484544581078,-0.9647250190229476,1.1288356559723556,-0.2987035140832665,0.3669715329449793,-0.0382901024389703,-0.3546533150636355,-0.0861568346770869,10.087564311276765,-1.0274918814374527,0.267436797859171,-0.7781407226579387
2.12,1.3296724458067624,-0.5601397279395702,1.9218293063249647,0.0590989405897172,0.0984251661148295,0.0556382340155575,-0.7811495051449908,1.018769264787963,-0.3034138271211618,1.3359126538359705,-0.5755431165135916,1.9265104742994128,-1.004725019618994,1.1523307966440857,-0.2953775968840125,0.4454456674579324,-0.0216411496486157,-0.427129757547795,-0.1245538980365168,10.024122044946123,-1.0262958155550368,0.2615377936974418,-0.7825998636676972
2.14,1.3148288713042666,-0.5408754373794322,1.916038394691545,0.0633079757462484,0.09763172119638,0.0556148175378097,-0.7814066957539706,1.0098499723781813,-0.3060186918689182,1.3166181534555117,-0.5529664033941444,1.9205364040177475,-1.0447250202150404,1.1758259373158158,-0.2920516796847585,0.4647721066679868,-0.0128595304489886,-0.445964620489081,-0.1302432373878198,9.997775166012616,-1.0256956045754504,0.2562189278040818,-0.786314292432452
2.16,1.2991941139165206,-0.5207781191741111,1.9098917550538228,0.066424251759216,0.0959883686364833,0.0554305273778372,-0.7821410830734647,1.0005139335127045,-0.3084853209629582,1.2963236530601514,-0.529802311757904,1.9146454816660636,-1.0847250208110868,1.1993210779875456,-0.2887257624855044,0.4842138100062115,-0.0367193659747078,-0.4668019432738424,-0.1233314547019998,9.992700793491167,-1.0259922071408292,0.2519879308043321,-0.788419126315927
2.18,1.2835379532568498,-0.5008696806661718,1.9037014414673143,0.0685543661132383,0.0936999870135786,0.0551185047270312,-0.783534272148801,0.9909353612363064,-0.3103886402280393,1.2750291526498905,-0.5060508416048705,1.9088377072443607,-1.1247250214071332,1.2228162186592757,-0.2853998452862504,0.4932358636561368,-0.0696594537668127,-0.4789286138199011,-0.0951659632540569,10.013725469994824,-1.0270193306280615,0.2484328440500629,-0.7894289786908869
2.2,1.2678452792108763,-0.481157028851854,1.897480147029498,0.0698414123334435,0.0909991121705843,0.0547057378766049,-0.7857658845695729,0.980869779432395,-0.3116119140440395,1.2443612396494097,-0.4513229126043564,1.8881820094559123,-0.8835342736389171,0.9811188357323134,-0.3104501782984796,0.5191156660049107,-0.1115806210385927,-0.5032790901955742,-0.061163690800009,10.049167269323334,-1.028659989716113,0.2456615743450275,-0.7894105393277736
2.22,1.2528319073683072,-0.4624144254281259,1.8915250974067097,0.0768424931409958,0.089590316980749,0.0547816455820844,-0.7941096248191698,0.9881421517428474,-0.3154293910154473,1.2443612396494097,-0.4513229126043564,1.8881820094559123,-0.8835342736389171,0.9811188357323134,-0.3104501782984796,0.5854027049856528,-0.4171870124798471,0.3636186155226206,-0.1908738485703887,10.090520618179651,-1.029164999528297,0.2414863772476878,-0.7886314291774321
2.24,1.236881209678263,-0.4427305039662987,1.885161597827537,0.0891862244309172,0.0902574759934986,0.0553458836491258,-0.8002558028064798,0.9792830578750956,-0.3207728555735349,1.2443612396494097,-0.4513229126043564,1.8881820094559123,-0.8835342736389171,0.9811188357323134,-0.3104501782984796,0.6016885853430923,-0.3073088993654993,-0.4429546933875872,-0.2671732279043798,9.87278215713468,-1.028660574562446,0.2302503211447455,-0.7945648650852606
2.26,1.2208288249515935,-0.4232882964031262,1.8786743172167968,0.1018624122105114,0.0919375379222283,0.0560095617930666,-0.8045475114689821,0.9650686554149632,-0.327737279414127,1.2355258969130205,-0.4415117242470333,1.885077507672928,-0.9035342739369404,0.9791555306315148,-0.3104624859125677,0.8200170729530976,-0.214585433125114,-0.7107201230066251,-0.3482211920296074,9.848039200284802,-1.0264588974455855,0.2185484236097634,-0.8026959082314676
2.28,1.2055156129211948,-0.4051293702688931,1.87236958734036,0.1128365021102421,0.0937939243018638,0.0565857740663182,-0.8071268843630184,0.9473027189020145,-0.3355768875927372,1.2178552114402423,-0.421889347532387,1.878868504106958,-0.9435342745329868,0.9752289204299176,-0.3104871011407438,0.9794655699701068,-0.1289686447018156,-0.8882968256474388,-0.3919804089305062,9.782872085264898,-1.0237390421948411,0.2065885911765325,-0.8115733157835329
2.3000000000000003,1.1893567588423506,-0.3864078457990287,1.8655644211180853,0.1225434596274944,0.0954966185256274,0.0570268036808827,-0.8086110559073206,0.9259805749279072,-0.3445440299961455,1.200184525967464,-0.4022669708177407,1.8726595005409885,-0.9835342751290332,0.9713023102283204,-0.3105117163689199,1.1589286342442202,-0.0742085772151124,-1.0661071987053516,-0.4483571201704173,9.745676315945277,-1.020602023382679,0.1953050965966015,-0.8207686096647443
2.32,1.173179125433197,-0.3681362985519789,1.858577552469704,0.1300834641324221,0.0965567773884533,0.0572227851491824,-0.8091734350144119,0.9026999445186412,-0.3536669937092278,1.1805138404648834,-0.3828409246131743,1.8664492662136096,-1.0235342757250796,0.9673757000267232,-0.310536331597096,1.2505323760534544,-0.0281189553545613,-1.16403152046331,-0.4561481856541149,9.735141760173974,-1.0178624474459224,0.1855979097980028,-0.8289711350198191
2.34,1.1578053524306795,-0.3512215020312631,1.8517738368236911,0.1353341569032254,0.0967886869061439,0.0571549230695459,-0.809210862699635,0.8794001381383034,-0.3620236482767354,1.1608431549623026,-0.3634148784086079,1.8602390318862316,-1.0635342763211262,0.963449089825126,-0.3105609468252722,1.2376550950825222,-0.0018713842611595,-1.1649903190168842,-0.417832728375378,9.791818039362624,-1.0155634695793774,0.1766126772970541,-0.836559810883878
2.36,1.141619221066694,-0.3338996828105416,1.844447845058517,0.1391074435217428,0.0962722005247717,0.0568342832713129,-0.8094717505460147,0.8542881769220312,-0.3700698993446678,1.1401724694448208,-0.3440869974590814,1.8540281821781488,-1.1035342769171723,0.9595224796235288,-0.3105855620534483,1.318541632679978,-0.0130443923189838,-1.255598060813612,-0.4023125533966193,9.849390531881909,-1.0140169579977818,0.1689793222551665,-0.8428376088643801
2.38,1.1254253923858215,-0.3170874950260951,1.8369722079233444,0.1412685024216195,0.0951499387924764,0.0562929481680009,-0.8099660214460133,0.8284673149193009,-0.3770063280580621,1.1185017839124378,-0.3248572817645949,1.8478167170893616,-1.143534277513219,0.9555958694219316,-0.3106101772816244,1.3370445594506437,-0.0247135449999269,-1.291043100136513,-0.3468214356697169,9.849390531881909,-1.0138024215233947,0.163700757893744,-0.8463908787799446
2.4,1.110029832694355,-0.3016044410896008,1.829754702753224,0.1417211642014073,0.0936315085521176,0.0555843808096131,-0.8106722324843966,0.8029144221893807,-0.3823537273551879,1.0849270913135212,-0.27566412928013,1.8181218915204411,-0.8927797686732052,0.7807686793113431,-0.3348881177125554,1.3057983574622518,-0.0353105519191654,-1.2776446364960117,-0.2673699648562899,9.92305843313261,-1.0145162565945762,0.1600817419428963,-0.848213791104091
2.42,1.09374919925864,-0.2857417014952675,1.8221004314237688,0.1435283200825822,0.0933799180852765,0.0551087055541389,-0.8171733595667909,0.7838458975098309,-0.382700119080622,1.0849270913135212,-0.27566412928013,1.8181218915204411,-0.8927797686732052,0.7807686793113431,-0.3348881177125554,1.0074637388306955,-0.3250563541197182,-0.953426233977489,-0.0173195862717051,10.282826192539687,-1.0130942936651135,0.155658734932732,-0.8521834163676891
2.44,1.0773630791041346,-0.270321999667066,1.8144622181676795,0.1474666164314675,0.0955964867069288,0.0551231133418228,-0.820798206570017,0.7588272445085531,-0.3810524936276881,1.0849270913135212,-0.27566412928013,1.8181218915204411,-0.8927797686732052,0.7807686793113431,-0.3348881177125554,1.2666759485246215,-0.1812423501613036,-1.2509326500638906,0.0823812726466949,10.415024961420386,-1.0130994385726104,0.1506458039434521,-0.8549738276853566
2.46,1.0609357618981192,-0.2554423479314812,1.8068705052544096,0.1510490651931742,0.098807907778338,0.0552503104835309,-0.8216286204116381,0.7306284912407529,-0.3781964384607421,1.075999293626789,-0.2678564424870166,1.814773010343316,-0.9093425181186436,0.7712289521897515,-0.3264644756434541,1.417759080488701,-0.041520692081054,-1.4099376633900096,0.142802758347299,10.415024961420386,-1.0113045508964176,0.1458037169116325,-0.8596172654390004
2.48,1.0453371234203537,-0.2418448916676173,1.7997213154536618,0.1534083249366791,0.1018670193233627,0.0552907741032351,-0.8202841870930623,0.7024417504732539,-0.3744559490776284,1.058143698253325,-0.2522410689007898,1.8080752479890647,-0.9424680170095204,0.7521494979465684,-0.3096171915052514,1.423280644205032,0.0672216659287905,-1.4093370383749526,0.187024469155686,10.573530240129005,-1.0100855558793642,0.1422468813719803,-0.8630398120098327
2.5,1.028962731238514,-0.2281175546973097,1.7922844234659332,0.1545750123387312,0.104426226019643,0.0551274598425454,-0.8172222198425925,0.6719295479465536,-0.3693573825427946,1.040288102879861,-0.2366256953145629,1.8013774856348137,-0.9755935159003972,0.7330700437033852,-0.2927699073670488,1.5543210150926448,0.1530983625234905,-1.525610126335014,0.2549283267416907,10.573530240129005,-1.0091112259468442,0.1395937337086744,-0.8659804618266581
2.52,1.01266391883895,-0.2150157708249638,1.784963597446816,0.1538545069012243,0.1058438868953344,0.0546403185214632,-0.8129652663013812,0.640120215361729,-0.3629418101655481,1.020776232561853,-0.2219642944404952,1.7955220874874724,-1.008719014791274,0.7139905894602021,-0.2759226232288461,1.6363945595971805,0.2128476770605625,-1.5904666292412273,0.3207786188623246,10.655719274414878,-1.0089529642435435,0.1383265264551753,-0.8676797035330529
2.54,0.9972658439221516,-0.203164799377229,1.7781434794642166,0.1509414455277226,0.1059163087148491,0.0538134832939878,-0.8082534402116696,0.6094794769543943,-0.3552055981195371,1.001264362243845,-0.2073028935664274,1.7896666893401314,-1.0418445136821506,0.694911135217019,-0.2590753390906434,1.597580304763465,0.2355913044855828,-1.532036920366736,0.3868106023005496,10.743974878442714,-1.0101002304203397,0.1390316631545107,-0.8674535914841683
2.56,0.9811522191430918,-0.1912940879978324,1.7711464321943209,0.1460523606465804,0.1045709097990305,0.052598363770746,-0.8034644576728271,0.5797110666476339,-0.3447364369002854,0.9809243544535652,-0.1931184790484393,1.7842324732962456,-1.0749700125730273,0.6758316809738358,-0.2422280549524407,1.5958508252525192,0.2394491269421206,-1.488420515338018,0.5234580609625866,10.8492279548218,-1.0126499017002526,0.1415916953110487,-0.8649779114826325
2.58,0.9651304374437208,-0.179996699432768,1.764383444783354,0.1403182261543095,0.1017735927792386,0.0511231614651191,-0.7990851487900212,0.551853123845615,-0.3319468471217139,0.9597562091910136,-0.1794110508865308,1.7792194393558147,-1.1080955114639042,0.6567522267306527,-0.2253807708142381,1.5482384588264488,0.2189654441402955,-1.392897140100946,0.639479488928571,10.96618958421368,-1.0165340715579998,0.1450539577840027,-0.8605355278708486
2.6,0.94918815449065,-0.1692403692412226,1.7579002981143723,0.1341775889657831,0.0975546895612066,0.049445539229442,-0.7955624165773407,0.5255100896761228,-0.3169517996889254,0.9385880639284616,-0.1657036227246222,1.774206405415384,-1.1412210103547809,0.6376727724874696,-0.2085334866760354,1.5257920394084428,0.1761366106340256,-1.317151708474612,0.7497523716394255,11.081276936230095,-1.021575343571519,0.1489293309933283,-0.8543408023915107
2.62,0.933949829646186,-0.1594557661510358,1.7518935690485833,0.1291345175466965,0.0965447964835066,0.04832867874011,-0.8079887769796665,0.5054195145576288,-0.3161392805663191,0.9251761800042198,-0.1524040432404872,1.7477861024272685,-0.830056243755956,0.5084328016062161,-0.2858015905129893,1.1818479478817714,-0.6213180201162904,-1.0045287559246996,0.0406259561303162,11.18647086058536,-1.0130023689748473,0.1478218963790441,-0.8651972388538033
2.64,0.9177006131874398,-0.1495755147948194,1.7456057068131787,0.1247857490285264,0.1015860397622509,0.0480063326400835,-0.8155199139931452,0.4837065417476052,-0.3124517281333387,0.9251761800042198,-0.1524040432404872,1.7477861024272685,-0.830056243755956,0.5084328016062161,-0.2858015905129893,1.1637968636220315,-0.3765568506739314,-1.08564864050118,0.1843776216490178,10.371026773814265,-1.0144290958446442,0.1511686541678634,-0.8643851990127345
