t,x,y,z,roll,pitch,yaw,v_x,v_y,v_z,ref_x,ref_y,ref_z,ref_v_x,ref_v_y,ref_v_z,a_com,a_x,a_y,a_z,thrust,wind_x,wind_y,wind_z
0.0,0.6992083734161333,1.6636759369853549,2.095020598107235,0.0218356356940046,0.0997606083126171,0.0421206071625784,0.0034001994745822,-0.0031290208664193,0.0111170645908675,0.6992528156416488,1.6635380986653183,2.095145137649221,-0.096358926949772,-0.1065867716195519,-0.0888105980213818,0.601957750109918,0.1700099737291119,-0.1564510433209696,0.5558532295433761,10.24562905554194,-0.9435121306498188,0.2625655407870799,-0.8714576367978997
0.02,0.6994195574413299,1.663886212475578,2.095029142208825,0.0289133035155131,0.0939972760584797,0.0424652142813194,0.0172641372297289,0.0202410473899304,-0.0114491245066728,0.6992528156416488,1.6635380986653183,2.095145137649221,-0.096358926949772,-0.1065867716195519,-0.0888105980213818,1.7660703204933423,0.6931968877573359,1.168503412817491,-1.1283094548770196,10.244897926004342,-0.9513457300197812,0.2617171052892204,-0.8586366644979153
0.04,0.6998670170006018,1.664344703346088,2.094485726297179,0.0432101870593543,0.077806437217207,0.0428295341617523,0.0254163257888134,0.0235620479700649,-0.0418774250157912,0.6992528156416488,1.6635380986653183,2.095145137649221,-0.096358926949772,-0.1065867716195519,-0.0888105980213818,1.5837997782463964,0.407609427954223,0.1660500290067281,-1.5214150254559176,8.883114711439703,-0.951171221493346,0.2472252094890942,-0.8640759883073466
0.06,0.7003686445000892,1.664782481347586,2.0933268841002635,0.0580247887537498,0.0554535425327409,0.0426226743145404,0.0233098987524297,0.0196577839834967,-0.0724531801497652,0.6982892263721511,1.662472230949123,2.0942570316690072,-0.1163589272477952,-0.1265867719175752,-0.108810598319405,1.544795386247935,-0.1053213518191818,-0.1952131993284133,-1.528787756698703,8.553609755289017,-0.9581921038311664,0.2303464317252014,-0.8651219542732569
0.08,0.7007123361032008,1.6650875408313692,2.091668741390172,0.0715872487980782,0.0322679559063023,0.0419011489482277,0.0124053787103805,0.0123509800105489,-0.1006175981527275,0.6963620478331556,1.660340495516732,2.09248081970858,-0.1563589278438416,-0.1665867725136216,-0.1488105989154515,1.5536508480769784,-0.5452260021024623,-0.3653401986473864,-1.4082209001481154,8.567411646267828,-0.9703249266067988,0.2107051732301836,-0.8639014169905469
0.1,0.7007669762041793,1.6652262845317665,2.0893493528498537,0.0852092889689766,0.0086263037748461,0.0407573121522798,-0.0068715662493614,0.0015799517344323,-0.1298805267154367,0.6944348692941602,1.658208760084341,2.090704607748152,-0.1963589284398881,-0.2065867731096681,-0.1888105995114979,1.832985709963424,-0.9638472479870984,-0.5385514138058345,-1.463146428135459,8.635718981587615,-0.9851835732374938,0.1910417159910855,-0.8601378976329166
0.12,0.7003649686793046,1.665118508854611,2.086450089641434,0.0981814426241663,-0.0122845318416772,0.0394388404688958,-0.032628185564195,-0.012124658626897,-0.1586133819277527,0.6905076907253624,1.6540770246221477,2.086928395757922,-0.2363589290359345,-0.2465867737057145,-0.2288106001075444,2.0474354399693704,-1.2878309657416804,-0.6852305180664687,-1.4366427606157972,8.790526800007228,-0.9999380433394488,0.1707650701892916,-0.8575373114011148
0.14,0.6993937744036423,1.6647080159891494,2.082973498136366,0.1105310670412848,-0.029224398235879,0.0381681238152837,-0.0631030088339998,-0.0285164361430072,-0.1876830357038721,0.6865805121565647,1.6499452891599542,2.083152183767692,-0.276358929631981,-0.286586774301761,-0.2688106007035909,2.2596736457544835,-1.5237411634902394,-0.81958887580551,-1.4534826888059695,8.790526800007228,-1.0121026883137023,0.1509316963961203,-0.8580756918280477
0.16,0.6978727362092789,1.6639900976134852,2.0791299966562984,0.1217026349387976,-0.0411221912571065,0.0371739047711499,-0.0952392416368807,-0.0464587715448602,-0.2154721801948629,0.6816533335728657,1.6448135536828596,2.0783759717625605,-0.3163589302280274,-0.3265867748978074,-0.3088106012996373,2.3059170680960728,-1.6068116401440464,-0.8971167700926511,-1.3894572245495422,8.876696763607015,-1.022682845267097,0.1312904170735275,-0.8598336606742472
0.18,0.6955916062397521,1.662842127906072,2.0745121907441155,0.1328844237229191,-0.0490035880392124,0.0365007027966347,-0.1312329850878357,-0.0676495793812686,-0.244883999191536,0.6757261549742657,1.6386818181908638,2.0725997597425283,-0.3563589308240739,-0.3665867754938539,-0.3488106018956837,2.554239124018057,-1.79968717254775,-1.0595403918204176,-1.4705909498336556,8.920566893768864,-1.0298045953239416,0.1139364196495961,-0.8629013076353297
0.2,0.692564945918325,1.661244148678357,2.069308177624648,0.1434293314780015,-0.0514683463059295,0.0364187604480284,-0.169075663514928,-0.0912775415213427,-0.2740140820173927,0.6890299569853604,1.6594596489370086,2.0622679907845387,-0.2312329865779518,-0.1676495808713847,-0.3448840006816521,2.664071428692537,-1.892133921354615,-1.1813981070037032,-1.4565041412928317,8.920566893768864,-1.0339695504097897,0.0974221975872075,-0.8692260446985994
0.22,0.6889611829820704,1.659098426564093,2.063934280855936,0.1480670981474344,-0.0477944037609466,0.0368081606099905,-0.2075523858366139,-0.1304325623388522,-0.2896086786113308,0.6890299569853604,1.6594596489370086,2.0622679907845387,-0.2312329865779518,-0.1676495808713847,-0.3448840006816521,2.853403782663519,-1.923836116084296,-1.9577510408754744,-0.7797298296969069,8.976798951360252,-1.0389860360468433,0.0848148926099111,-0.8744571221032598
0.24,0.6844326150299761,1.6561266875044465,2.0579822500193585,0.146993450304562,-0.0384158900190161,0.0376134733253571,-0.2425718380296481,-0.1641757020318963,-0.304701489250439,0.6890299569853604,1.6594596489370086,2.0622679907845387,-0.2312329865779518,-0.1676495808713847,-0.3448840006816521,2.545954850951049,-1.7509726096517062,-1.6871569846522076,-0.7546405319554084,9.755514555821264,-1.0382350282552644,0.08310295134607,-0.8785774250328908
0.26,0.6792616914143463,1.6525214157238464,2.0517171603276494,0.1425827284329512,-0.0259605678716885,0.0385974859719193,-0.2722282072154436,-0.1937692479975865,-0.3209653180234463,0.6867176271195808,1.6577831531282947,2.058819150777722,-0.2512329868759751,-0.1876495811694079,-0.3648840009796754,2.2471038707997675,-1.482818459289778,-1.4796772982845068,-0.8131914386503653,9.755514555821264,-1.032623827807351,0.0834822424978539,-0.8886479962111242
0.28,0.6738481075708322,1.6485946524500965,2.0454481981283505,0.1372548727770736,-0.0129695360409947,0.0395477813526884,-0.2957738760929436,-0.2178049797891988,-0.3380383710874345,0.6820929673880218,1.6544301615108672,2.051921470764089,-0.2912329874720215,-0.2276495817654544,-0.4048840015757218,1.8865339028049235,-1.1772834438749962,-1.2017865895806157,-0.8536526531994132,9.596728938712658,-1.0245194982258414,0.0855729174357922,-0.9004612862951146
0.3,0.6677123494783767,1.6440008932283607,2.0384797982908167,0.1316536932324004,0.0005862667812503,0.0404475353481703,-0.3162186508807,-0.2401924039682917,-0.3580154344150033,0.6774683076564628,1.6510771698934394,2.0450237907504563,-0.331232988068068,-0.2676495823615009,-0.4448840021717682,1.8153984663775653,-1.0222387393878234,-1.1193712089546448,-0.9988531663784356,9.447756209582622,-1.0149043940702642,0.087498058099252,-0.913839085978832
0.32,0.6612072496790478,1.6389797565760762,2.0310890278873277,0.1265183679511105,0.0130849469242644,0.0411604926831194,-0.3330369873371703,-0.2607570595897895,-0.3801821821326437,0.6708436478951014,1.6457241782462095,2.0361261107070208,-0.3712329886641144,-0.3076495829575473,-0.4848840027678147,1.7299755824659453,-0.840916822823512,-1.0282327810748906,-1.1083373858820216,9.17593181891425,-1.004841344762235,0.0884815948168477,-0.9277808802689614
0.34,0.6543984535136382,1.6335629927475566,2.023237465966211,0.1220032366801572,0.0239222523502103,0.0416405119124076,-0.3469266061929953,-0.2799512209577733,-0.4039066200439186,0.66421898813374,1.6403711865989794,2.0272284306635853,-0.4112329892601609,-0.3476495835535938,-0.5248840033638612,1.676444374849812,-0.6944809427912507,-0.95970806839919,-1.1862218955637465,9.17593181891425,-0.994580402415305,0.0891688267890903,-0.9416198619306758
0.36,0.6476896953416408,1.62806299224521,2.015326757351201,0.1180527115470309,0.0325675105202264,0.0418706903654142,-0.3585247034244699,-0.2979323993901919,-0.4276312009068211,0.6565943283574776,1.6340181949368482,2.017330750605249,-0.4512329898562073,-0.3876495841496402,-0.5648840039599076,1.597415392383597,-0.5799048615737296,-0.8990589216209321,-1.186229043145126,9.050332958749095,-0.9848785533860432,0.0891628701818404,-0.9550352996319512
0.38,0.6404025873679065,1.621912545306185,2.0065007844744915,0.1140482675015457,0.0400886830667547,0.0418966452888216,-0.3695150865089202,-0.3160584479872449,-0.4537842492351132,0.6479696685663139,1.626665203259816,2.0064330705320117,-0.4912329904522537,-0.4276495847456866,-0.604884004555954,1.6832439625227205,-0.5495191542225164,-0.9063024298526484,-1.3076524164146008,9.050332958749095,-0.9761851657742882,0.088967599942224,-0.9672983510280332
0.4,0.6329059305146811,1.6154068201155936,1.9971408333605143,0.1101291890660807,0.0461730964879459,0.0417307089865899,-0.3795911044952511,-0.3334766731633051,-0.4809139855397984,0.6219268330424604,1.6061096229068226,1.983811572012736,-0.4695150879990363,-0.416058449477361,-0.5537842507252293,1.688892609601451,-0.5038008993165449,-0.8709112588030088,-1.3564868152342646,8.994696930677492,-0.9685980482761836,0.0886761713591104,-0.9783640185422388
0.42,0.6252446756207254,1.6085547773836777,1.9874382408964064,0.106752051784366,0.0503850105143941,0.0413710468696512,-0.386034255856412,-0.3511070906384648,-0.4869798177094832,0.6219268330424604,1.6061096229068226,1.983811572012736,-0.4695150879990363,-0.416058449477361,-0.5537842507252293,0.9863317643192232,-0.3221575680580457,-0.8815208737579849,-0.303291608484238,10.19513418749375,-0.9706504991210986,0.0895098866418351,-0.9783413963422444
0.44,0.6178556538506493,1.601729770477858,1.9781068697328503,0.1044913198503039,0.0520791207695617,0.0408347879992246,-0.3916255214419407,-0.3667113543618936,-0.4951371258624638,0.6219268330424604,1.6061096229068226,1.983811572012736,-0.4695150879990363,-0.416058449477361,-0.5537842507252293,0.9237112285515928,-0.2795632792764346,-0.7802131861714412,-0.4078654076490273,10.19513418749375,-0.9680499347969086,0.0899369328541082,-0.9821114666065088
0.46,0.6099566136396752,1.59422357196939,1.9680719780338536,0.1028447537647459,0.0516504321492638,0.0400824492362872,-0.3980923249625897,-0.3831225767667368,-0.5081244104881661,0.61723168216247,1.601949038412049,1.9782737295054835,-0.4895150882970596,-0.4360584497753842,-0.5737842510232525,1.095236653131312,-0.3233401760324494,-0.8205611202421609,-0.6493642312851183,9.912492674171515,-0.967229272065916,0.0891685141484113,-0.984748919528216
0.48,0.6019211553245535,1.5863926468778633,1.957736999519977,0.1016881755602095,0.0491524348649719,0.0391467033247275,-0.4052807541597977,-0.399180130691924,-0.5247096803287589,0.6078413804024894,1.593627869422502,1.967198044490979,-0.5295150888931061,-0.4760584503714307,-0.613784251619299,1.2089145214497596,-0.3594214598604012,-0.8028776962593576,-0.829263492029636,9.672755150133526,-0.9686085409031318,0.0878459106745476,-0.9853963621139372
0.5,0.5941439372558275,1.5786594272875456,1.9475878888116336,0.1010069552391307,0.0450340370810014,0.038105985522943,-0.413217558514123,-0.4140699509894809,-0.5427885340648637,0.5984510786425086,1.5853067004329546,1.9561223594764745,-0.5695150894891525,-0.5160584509674772,-0.6537842522153454,1.236471354564925,-0.3968402177162627,-0.7444910148778489,-0.9039426868052424,9.498069056574424,-0.9714070537166604,0.085646248372697,-0.985256836788267
0.52,0.5857718001033094,1.5702178305430217,1.9365135874591988,0.1008336375303239,0.0393719753342804,0.0369095802252173,-0.4238680542445198,-0.4293432438945312,-0.5637846276531246,0.5870607768527255,1.5749855314136052,1.9430466744321675,-0.609515090085199,-0.5560584515635236,-0.6937842528113919,1.4031593649989222,-0.5325247865198418,-0.7636646452525125,-1.049804679413047,9.37149398049769,-0.9759727268137336,0.083077623383398,-0.983259168248417
0.54,0.5771605174135163,1.561470394298436,1.925012035099515,0.1013057638369032,0.0331696757676437,0.0356949850376827,-0.4369362906182374,-0.4446877492686832,-0.5853298267072518,0.5756704750629424,1.5646643623942555,1.9299709893878605,-0.6495150906812455,-0.5960584521595701,-0.7337842534074384,1.475151051061124,-0.6534118186858812,-0.7672252687075998,-1.077259952706355,9.268131288969926,-0.9825481695893492,0.0804740248699602,-0.9786523998830072
0.56,0.5682602040533219,1.552402156866752,1.913077060582356,0.1020667164829915,0.0272469276632127,0.0345166761659338,-0.452522242663039,-0.4612890834316936,-0.6070731812631686,0.5632801732582583,1.5533431933600048,1.9158953043286524,-0.6895150912772918,-0.6360584527556165,-0.7737842540034847,1.5742455847795005,-0.7792976022400783,-0.8300667081505231,-1.0871677277958405,9.25586690968612,-0.9889494343581422,0.0777591799162059,-0.9740789615369458
0.58,0.5594946148296878,1.543469392237414,1.9013339047677316,0.1025361762336194,0.0225713370343813,0.0334666958715921,-0.4694760374048286,-0.4780484817019045,-0.6279468533468533,0.5498898714386729,1.541022024310853,1.9008196192545432,-0.7295150918733383,-0.6760584533516629,-0.8137842545995312,1.5843127633010785,-0.8476897370894798,-0.8379699135105445,-1.0436836041842368,9.25586690968612,-0.9949122949256344,0.0751156084470148,-0.9699919977658162
0.6,0.5498983521909858,1.5337165575190974,1.8885384059712904,0.1023727944556228,0.0194174972270275,0.0324912661093274,-0.4893770652917064,-0.4962626375912894,-0.6505202783804022,0.5360208129594464,1.519566968152319,1.8699365621003887,-0.5457444793799453,-0.5780484831920207,-0.6935802695226956,1.7588106090923714,-0.9950513943438876,-0.9107077944692454,-1.1286712516774433,9.257501817996854,-0.9993433156165036,0.0731523415956698,-0.9673016234817758
0.62,0.5398304355191647,1.5235257120204442,1.8755819364417168,0.1000517737701264,0.0208894033180682,0.0318357966190608,-0.5158200823739117,-0.5215121999165313,-0.6422723413073399,0.5360208129594464,1.519566968152319,1.8699365621003887,-0.5457444793799453,-0.5780484831920207,-0.6935802695226956,1.874034428704067,-1.3221508541102682,-1.2624781162620915,0.412396853653113,9.237312314527117,-1.0038688732833791,0.0721248285628343,-0.9657524786100882
0.64,0.5292675126241845,1.51286811828005,1.86282014932364,0.095516241853855,0.0281272970104255,0.0315879529449481,-0.5383551535949852,-0.5424093951297999,-0.6343577833780136,0.5360208129594464,1.519566968152319,1.8699365621003887,-0.5457444793799453,-0.5780484831920207,-0.6935802695226956,1.5867911251461002,-1.1267535610536727,-1.0448597606634302,0.3957278964663135,11.291565386891309,-1.0022107135712444,0.077026485681611,-0.9653744364453528
0.66,0.5188616844760997,1.5023909597502956,1.8507941593307584,0.090734511577789,0.0382540964524966,0.0315937525816397,-0.5553201150652212,-0.5591914553833424,-0.6318657475236507,0.5305633681656469,1.513786483320399,1.8630007594051616,-0.5609981677749687,-0.5980484834900439,-0.706706952757864,1.1996433915330325,-0.8482480735117981,-0.8391030126771226,0.1246017927181486,10.944094922174372,-0.9955778003848584,0.0820766573987548,-0.9706239139716312
0.68,0.5076088741090655,1.4910448894044035,1.838139428218723,0.0858301835236211,0.0506318505880348,0.0317115926016475,-0.5685777765581685,-0.5744125929358705,-0.633948067956589,0.519648478578048,1.5022255136565583,1.849129154014708,-0.5915055445650154,-0.6380484840860904,-0.7329603192282009,1.0146239143643274,-0.6628830746473691,-0.7610568776264093,-0.1041160216469161,10.567020800146564,-0.985840379011871,0.0862487840652749,-0.97985898826919
0.7000000000000001,0.4961359688310511,1.4794145465756328,1.8253901903457064,0.0813467450690892,0.0634434277394302,0.0318396039606882,-0.5776827283977319,-0.5878435299171079,-0.6408613358146856,0.5087335889904491,1.490664543992718,1.835257548624254,-0.622012921355062,-0.6780484846821369,-0.7592136856985379,0.8818779516924794,-0.4552475919781695,-0.6715468490618659,-0.3456633929048325,10.2537029003106,-0.974629105896196,0.0895423874665254,-0.991009736943725
0.72,0.4845201439077778,1.4675314166076523,1.812461911829487,0.077388373205202,0.0757329620434522,0.0319114592470428,-0.5831936804002655,-0.5998360577376078,-0.6516441166610929,0.4962933305633478,1.4771035742990752,1.8200732749102837,-0.6525202981451087,-0.7180484852781833,-0.7854670521688748,0.8521438820430245,-0.2755476001266799,-0.5996263910249988,-0.5391390423203635,9.990326808508144,-0.9635753865813352,0.0919788706764051,-1.0021157259057538
0.74,0.4734139426984951,1.45603116422254,1.7999614236366768,0.0741811223617741,0.0862998795624249,0.0318953201936888,-0.5854820990897693,-0.6102025536838003,-0.6636881518504262,0.4838530721362465,1.4635426046054325,1.8048890011963123,-0.6830276749351555,-0.7580484858742298,-0.8117204186392117,0.8027451057820171,-0.11442093447519,-0.5183247973096217,-0.602201759466664,9.782444690052216,-0.9524856986599732,0.0938274165040484,-1.0133298447445334
0.76,0.4616987444023059,1.4437135575578293,1.786541010626667,0.0711812133248261,0.0959466241356655,0.0317663487575501,-0.5857837633530556,-0.6209517190918948,-0.6777996092230835,0.4706501292893942,1.4489816348968887,1.7890483933205832,-0.7135350517252022,-0.7980484864702762,-0.8379737851095486,0.8870862239357634,-0.015083213164313,-0.5374582704047282,-0.7055728686328644,9.693224935830584,-0.9421318312434476,0.0951064313245599,-1.023922164575304
0.78,0.4499968396538564,1.4311849753264196,1.7728241605146635,0.068310656152167,0.1040032534722215,0.0315111358415196,-0.5843524267054306,-0.6312715152484064,-0.69319879688647,0.4566845020227906,1.4334206651734436,1.7725514512830955,-0.7440424285152488,-0.8380484870663226,-0.8642271515798855,0.9296261318441164,0.0715668323812479,-0.5159898078255787,-0.7699593831693274,9.628693931987982,-0.933391529551748,0.0961366415827771,-1.0329244540996625
0.8,0.4389191848738638,1.4190972070112668,1.7594979574264562,0.0656276016275023,0.1102124259767315,0.0311578309936993,-0.5817884904000706,-0.6405235550087356,-0.7088047585949941,0.4207792183185849,1.3996213995639992,1.73816422067034,-0.5775108477189349,-0.7312715167385225,-0.694999731903415,0.9161332462482962,0.1281968152680002,-0.4626019880164589,-0.7802980854262065,9.576660686267132,-0.9254117668330476,0.0971190254973666,-1.0412592698499894
0.8200000000000001,0.42730247955962,1.4061559726187758,1.7454759523979562,0.0624915047171341,0.1171207507742417,0.0307732383305583,-0.5795118985399565,-0.6529105941049655,-0.6908275373381426,0.4207792183185849,1.3996213995639992,1.73816422067034,-0.5775108477189349,-0.7312715167385225,-0.694999731903415,1.0974995355202453,0.1138295930057042,-0.6193519548114979,0.8988610628425764,9.53298863459895,-0.9191877427780304,0.0977579310649665,-1.0487431554830025
0.84,0.4157644258012599,1.392985129520152,1.731851044231324,0.0591785897879522,0.1257247167236686,0.030462353059672,-0.5740168133250133,-0.6634253037842249,-0.6729727173429835,0.4207792183185849,1.3996213995639992,1.73816422067034,-0.5775108477189349,-0.7312715167385225,-0.694999731903415,1.0718554919135943,0.274754260747162,-0.5257354839629691,0.8927409997579572,11.800409088576998,-0.9113440368404312,0.1012404038613592,-1.0542073341735438
0.86,0.4043658662984694,1.379623448435016,1.7185385120644234,0.0562044765730814,0.1349989564413262,0.0301920993842611,-0.5657956571591839,-0.6722270181903287,-0.6593701992738714,0.4150041098413955,1.392308684396614,1.731214223351306,-0.5761425319216358,-0.7512715170365457,-0.695359918906804,0.9084135663480728,0.4110578082914706,-0.4400857203051889,0.6801259034556029,11.5092076163819,-0.9014828369277004,0.1043191166031583,-1.0616116730684677
0.88,0.3937114437734196,1.3667789432075956,1.706106307574334,0.0539405745936914,0.143913285891619,0.0299623483909357,-0.5558692527802576,-0.6795109448253569,-0.6499837026617088,0.4034538928870168,1.3776832540618436,1.7173142287132377,-0.5734059003270374,-0.7912715176325922,-0.696080292913582,0.7741049828165772,0.4963202189463167,-0.3641963317514096,0.469324830608131,11.251905283966153,-0.890836057779826,0.1065716105549237,-1.0698949256741868
0.9,0.3827217636127529,1.353117183979374,1.693186293877614,0.0522414525316029,0.1531079121635266,0.0297448087636608,-0.5433652719358311,-0.6863655532583885,-0.6426535566919676,0.3919036759326381,1.3630578237270732,1.7034142340751692,-0.5706692687324392,-0.8312715182286387,-0.69680066692036,0.8016642590038663,0.6251990422213249,-0.3427304216515825,0.3665072984870621,11.052571592692402,-0.8798309451601184,0.1079304725857008,-1.0786285458573035
0.92,0.3720021875773655,1.3393268944898922,1.6803877425901894,0.0514179094681159,0.1619480165544506,0.0295634665436284,-0.5289720018810075,-0.692447966549923,-0.6376053409324076,0.3804902905579894,1.3464323933625004,1.689478220736762,-0.5679326371378409,-0.8712715188246851,-0.6975210409271381,0.8210457610194245,0.7196635027411802,-0.3041206645767236,0.2524107879779969,10.912906794902485,-0.8692266558492895,0.1082806270127114,-1.0871307026400632
0.94,0.3615920987660651,1.3254211563007383,1.6676871491441956,0.0517104162076631,0.1703449216463694,0.0294391667411387,-0.5134002290107096,-0.6976822822774984,-0.6329859982213581,0.3690769051833406,1.3298069629979277,1.6755422073983548,-0.5651960055432426,-0.9112715194207316,-0.698241414933916,0.8532533307028659,0.7785886435148937,-0.2617157863787689,0.2309671355524734,10.80490740861842,-0.8582530788896997,0.1073633286095297,-1.09610319921385
0.96,0.3520333572257642,1.312101335797862,1.655711715303848,0.0529515764458381,0.1776284434369573,0.0293616040716333,-0.494371598260913,-0.7038825366570328,-0.6281001374641677,0.3577319355985567,1.3121815326184538,1.6615881847097782,-0.5624593739486443,-0.951271520016778,-0.698961788940694,1.0300528844696448,0.9514315374898302,-0.310012718976721,0.244293037859522,10.82013112370896,-0.8480638277638431,0.1053524341628074,-1.1044121340937212
0.98,0.3423731637010824,1.297951447747975,1.6432012070207718,0.0549691886022571,0.1839707750964136,0.0292725557466039,-0.4725304646017783,-0.71085348850355,-0.6232142468406515,0.3464553818036379,1.293556102224079,1.6476161526710322,-0.559722742354046,-0.9912715206128244,-0.699682162947472,1.1720721141930768,1.092056682956735,-0.3485475923258596,0.2442945311758093,10.84845831547591,-0.8390626045608902,0.1025320715835749,-1.111784861961575
1.0,0.3331745527124614,1.2836473808983568,1.630789517783087,0.0572689090465538,0.1883366169468004,0.0291063976595093,-0.4485675216998996,-0.7192949410892405,-0.6182221496042309,0.3187466404709935,1.2624087733227976,1.6120404946787392,-0.4671481088335447,-0.8108534899936661,-0.5674705935134249,1.2946059140651969,1.1981471450939307,-0.4220726292845256,0.2496048618210289,10.875729704008336,-0.8318428706657351,0.0993751708816002,-1.117919668151107
1.02,0.3249637877230636,1.269813552594422,1.6192437604335044,0.0569355652129755,0.1890982833064236,0.0285833888871052,-0.41724510017933,-0.7354276442312934,-0.5973049043188727,0.3187466404709935,1.2624087733227976,1.6120404946787392,-0.4671481088335447,-0.8108534899936661,-0.5674705935134249,2.048712614612946,1.5661210760284816,-0.806635157102642,1.0458622642679103,12.13170507374798,-0.8328988794128445,0.0983935848069753,-1.1178517561240844
1.04,0.3169667680802869,1.2549587448786714,1.6075454289080198,0.0530644042990179,0.184817736192303,0.0275115836304789,-0.3847417307138214,-0.7485504776733242,-0.5735508151574118,0.3187466404709935,1.2624087733227976,1.6120404946787392,-0.4671481088335447,-0.8108534899936661,-0.5674705935134249,2.1171528853918846,1.625168473275429,-0.6561416721015401,1.1877044580730467,12.150723979687427,-0.8330240494696208,0.1015679461770387,-1.117862800610016
1.06,0.3095833051340037,1.239894081199165,1.596328531342076,0.0480157551188242,0.1762345039493949,0.0261755727983292,-0.3558919218470874,-0.7570769117735084,-0.5492475466565118,0.3140751593826581,1.254300238422861,1.606365788743605,-0.466071637679898,-0.8308534902916893,-0.5563218628479796,1.933688450823136,1.4424904433367025,-0.4263217050092138,1.2151634250450016,12.150723979687427,-0.8386789989801213,0.1062739355365391,-1.1132541668271587
1.08,0.3027305798059018,1.224689274127258,1.585601813840971,0.0433691188287729,0.1646403090451006,0.0247929873118364,-0.3315183323746787,-0.7630985433073698,-0.5245576501354088,0.3047321972059872,1.2380831686229876,1.5950163768733363,-0.4639186953726046,-0.8708534908877358,-0.5340244015170889,1.7606269482217662,1.218679473620432,-0.3010815766930685,1.2344948260551492,12.129171221339677,-0.847795576530424,0.1105352050748709,-1.1057734367061225
1.1,0.2966249563010429,1.2101471744416363,1.575872606096202,0.0398047269133112,0.1519832705769598,0.0235358666631918,-0.3129225983848374,-0.7675560301828891,-0.5007476026775193,0.2953892350293163,1.2218660988231145,1.583666965003068,-0.4617657530653112,-0.9108534914837824,-0.5117269401861982,1.5269159045387184,0.9297866994920662,-0.2228743437759639,1.1905023728944752,12.106580400013629,-0.860137132603797,0.1142432146573033,-1.0954906667610655
1.12,0.2905289556705711,1.1947554702465837,1.5661254125982786,0.0370719828512171,0.1379881247505956,0.0223195191666039,-0.2981696462773653,-0.7715630601144564,-0.4751741610920192,0.2861539199680101,1.2036490289934385,1.573432426199344,-0.4596128107580178,-0.9508534920798288,-0.4894294788553076,1.4897204429731292,0.7376476053736036,-0.2003514965783659,1.2786720792750006,12.090150140176776,-0.8741843362459377,0.1170064074458606,-1.083478711006756
1.14,0.2846780579852074,1.1792881875440324,1.5568984627807754,0.0354006914980929,0.1242131754225813,0.0212333022946277,-0.2880780529249399,-0.7751032122699084,-0.4487389969474222,0.2769186049067038,1.185431959163763,1.56319788739562,-0.4574598684507244,-0.9908534926758752,-0.4671320175244169,1.4258250567884012,0.5045796676212716,-0.1770076077726001,1.3217582072298533,12.091054157247529,-0.8888808371674976,0.1188402014806969,-1.0704726742624295
1.16,0.2789820853276188,1.1637463258951004,1.548207558898414,0.0346374821981197,0.1114404235092567,0.0202761734560381,-0.2822970328279592,-0.7789665840572318,-0.421640827862244,0.26773711340308,1.1662148893191862,1.5535207851251684,-0.4553069261434309,-1.0308534932719216,-0.4448345561935263,1.3988000238576717,0.2890510048490363,-0.1931685893661716,1.35490845425891,12.124877680193094,-0.902729396533184,0.1200277222289689,-1.0575359848765045
1.18,0.2736416813451825,1.1489081095874485,1.540457386530686,0.0345505232083865,0.1007554692413512,0.0194778858619517,-0.2802805380143632,-0.7827847481701465,-0.3954916171135461,0.2586094454571384,1.145997819459708,1.544401119387989,-0.4531539838361375,-1.070853493867968,-0.4225370948626356,1.325165887074355,0.1008247406798001,-0.1909082056457345,1.3074605374348929,12.148645258956094,-0.9174108203193868,0.121462791515549,-1.042334413002605
1.2,0.2680312519093091,1.133208842337999,1.5328402562833234,0.0350549476395188,0.0913644965720992,0.0187519908640211,-0.2810154002620104,-0.7869732559205482,-0.3675611135731542,0.2596276544444643,1.1097688721789412,1.5206828056750088,-0.2919339566670765,-0.8827847496602627,-0.3526893913151777,1.4126187098064,-0.0367431123823591,-0.2094253875200846,1.3965251770195974,12.160940233234214,-0.9304995032944806,0.1224082449148505,-1.0280994183590977
1.22,0.262347766087379,1.117368910829872,1.5256981743418274,0.0343027296183586,0.0849159516436534,0.0180509121270515,-0.2875793333073982,-0.7963667028428987,-0.3484576009876409,0.2596276544444643,1.1097688721789412,1.5206828056750088,-0.2919339566670765,-0.8827847496602627,-0.3526893913151777,1.1138517127654517,-0.3281966522693913,-0.4696723461175223,0.955175629275662,12.17371685143462,-0.9380369805132402,0.1249452237233305,-1.0181775081063995
1.24,0.2565090960750149,1.1013753734229317,1.5189250691502978,0.0316667240076035,0.0827286647389604,0.0173884871575217,-0.2956173395691541,-0.8022490427009881,-0.3297025241443029,0.2596276544444643,1.1097688721789412,1.5206828056750088,-0.2919339566670765,-0.8827847496602627,-0.3526893913151777,1.061796089498365,-0.4019003130877968,-0.2941169929044696,0.9377538421668996,11.581153388550774,-0.9451845123917224,0.1287989093999473,-1.0086736227368267
1.26,0.2505256934693693,1.0852976960466243,1.5125301297600238,0.0289577767515666,0.0840544711354437,0.016852954126144,-0.301926106566802,-0.805317954674382,-0.3107091853782787,0.2567083148777935,1.1009410246823386,1.517155911761857,-0.2942646403976192,-0.9027847499582858,-0.344128946155504,1.0123804611064116,-0.3154383498823937,-0.1534455986696992,0.9496669383012136,11.56682361453568,-0.9488665577510218,0.1327514867509217,-1.0021986737630382
1.28,0.244746909436881,1.0699826057748192,1.5068061730555298,0.0270742451102144,0.0873968773307797,0.0164650289830891,-0.3057779237290287,-0.8068767918917251,-0.2927558723849786,0.250869635744452,1.0832853296891332,1.5101021239355534,-0.2989260078587045,-0.9427847505543324,-0.3270080558361566,0.9213955670025722,-0.1925908581113355,-0.0779418608671533,0.8976656496650054,11.56682361453568,-0.950025528640804,0.1362532321766496,-0.9980774011782558
1.3,0.2386100466314056,1.0538392352468378,1.5011495086544158,0.0261646325888358,0.0920825940635007,0.0161743386107496,-0.3074649206163233,-0.8074892336408827,-0.2738573138380655,0.2450309566111105,1.065629634695928,1.50304833610925,-0.3035873753197898,-0.9827847511503788,-0.3098871655168092,0.949179327820818,-0.0843498443647283,-0.0306220874578766,0.9449279273456512,11.535795596413664,-0.9490373668616364,0.1386629064671992,-0.9963140983902532
1.32,0.2324636729459374,1.037692856089865,1.4958695450332071,0.0268130578739918,0.0971322862229817,0.0160167167801322,-0.3069108757234574,-0.807282753986512,-0.2550957318991642,0.2389592091047147,1.0459739396729204,1.4968505927989135,-0.3082487427808751,-1.0227847517464252,-0.2927662751974618,0.9385448263683094,0.0277022446432961,0.0103239827185352,0.938079096945066,11.521946256052615,-0.9473597454536886,0.1397079629860308,-0.995377747624516
1.34,0.2263493962102558,1.0215532348319172,1.4909616228069935,0.0293843120899901,0.1019112732483576,0.0160067656115084,-0.3044289399457253,-0.8069788734490849,-0.2366560896387258,0.2328874615983189,1.0263182446499128,1.4906528494885776,-0.3129101102419604,-1.0627847523424718,-0.2756453848781144,0.9304202750353708,0.1240967888866018,0.0151940268713512,0.9219821130219186,11.505227992985963,-0.9457958855254318,0.1390466713632643,-0.9945664950816706
1.36,0.2206023860189606,1.0061984194724625,1.486638976350492,0.0330025352441909,0.1058000617041548,0.0160834481954923,-0.3006274206549521,-0.8095921850709049,-0.219289026509763,0.2266991799053959,1.005662549612004,1.4848831284362252,-0.3175714777030458,-1.1027847529385182,-0.2585244945587671,0.8984651193511082,0.1900759645386607,-0.1306655810909995,0.8683531564481414,11.474055406323714,-0.9449137147458476,0.1372811512438259,-0.9935149723227472
1.38,0.214642307199204,0.98995648052697,1.4824475225153122,0.0367742447445937,0.1090072687521875,0.0161550160093286,-0.2955637940428757,-0.8144947134938205,-0.2007562780700209,0.2203943640259459,0.984006854559194,1.4795414296418563,-0.3222328451641311,-1.1427847535345643,-0.2414036042394197,0.9913852229769028,0.2531813306038188,-0.2451264211457804,0.9266374219871032,11.474055406323714,-0.9444947034449164,0.1353768251214084,-0.992088015164902
1.4,0.2087916249958096,0.9736010818751514,1.47862868811285,0.0399949264328615,0.1112120684005838,0.0161697882517413,-0.2897844899661003,-0.820730676361917,-0.1820418586255,0.1998641174970602,0.9492317448522788,1.472409708611811,-0.2716541526130938,-0.9144947149839366,-0.1680255869350913,1.0277610175152256,0.2889652038387702,-0.3117981434048233,0.9357209722260452,11.496069066702148,-0.9449817181177758,0.13401516033844,-0.9897439521555986
1.42,0.2030052383968509,0.9570287451115588,1.4751363823171992,0.0397590535528624,0.1140623336515944,0.0159849520397355,-0.2887225323728003,-0.8347974370407839,-0.1680717475420035,0.1998641174970602,0.9492317448522788,1.472409708611811,-0.2716541526130938,-0.9144947149839366,-0.1680255869350913,0.9926801015580452,0.0530978796650011,-0.7033380339433459,0.6985055541748261,11.244013695807553,-0.9427181059017448,0.1351314850126667,-0.9903230941803068
1.44,0.197546834659727,0.941078753811737,1.4720768254085863,0.036080310175351,0.1182410796212899,0.0156341064876253,-0.2856640177078061,-0.842846901309463,-0.15465225068853,0.1998641174970602,0.9492317448522788,1.472409708611811,-0.2716541526130938,-0.9144947149839366,-0.1680255869350913,0.7972315892654888,0.1529257332497091,-0.402473213433957,0.670974842673673,11.244013695807553,-0.9406411063776862,0.13961234794457,-0.9903476159118204
1.46,0.1918867764627955,0.9241818516453086,1.4691298527239516,0.0315165692857832,0.123286765749259,0.015239075184815,-0.2803018263402606,-0.8463683710766975,-0.1407799244195056,0.1971475759709293,0.9400867977024396,1.47072945274246,-0.2668722243271375,-0.9344947152819598,-0.1614794487081053,0.7641912092172847,0.2681095683772755,-0.1760734883617221,0.6936163134512202,11.204701208541335,-0.9379709010942558,0.1450454167867321,-0.9905121971268932
1.48,0.1863555979028201,0.9072450958698168,1.4664529212687925,0.027798856096681,0.1283091632439179,0.0149012708455739,-0.2729674543146282,-0.8474296525604647,-0.1276245499788399,0.1917144929186674,0.9217969034027608,1.4673689410037585,-0.2573083677552247,-0.9744947158780064,-0.1483871722541335,0.7549556412006713,0.3667186012816209,-0.0530640741883581,0.6577687220332847,11.204701208541335,-0.9353038817406104,0.1495738494014548,-0.9907769074257442
1.5,0.1809892637930356,0.8902997588627457,1.464033586210325,0.0253443345242017,0.1328080299679968,0.0146413274080805,-0.2639820412638557,-0.8474306918948434,-0.1149830509129523,0.1862814098664055,0.903507009103082,1.4640084292650566,-0.2477445111833119,-1.0144947164740528,-0.1352948958001616,0.7754758980878234,0.449270652538622,-5.196671893914484e-05,0.6320749532943836,11.159884529550254,-0.9327185977727296,0.1531982062031688,-0.9910354479461287
1.52,0.1760705048448081,0.8742088403456022,1.4619673828985222,0.0243083051112156,0.136299261100794,0.0144744435416993,-0.2542395263662653,-0.8466126868896922,-0.1031529894301816,0.1813265196427393,0.8832171147736011,1.4613025313490533,-0.2381806546113991,-1.0544947170700991,-0.1222026193461898,0.7673592434517864,0.4871257448795213,0.0409002502575639,0.5915030741385358,11.132657157980248,-0.9305340834202056,0.1554622984029237,-0.9912214817384962
1.54,0.1711013777094676,0.8572944369857796,1.4600355821399686,0.0249168276354774,0.1390065593157756,0.0144080321690315,-0.2431908472382221,-0.8450588564844533,-0.0906486875668989,0.176371629419073,0.86292722044412,1.45859663343305,-0.2286167980394863,-1.0944947176661457,-0.1091103428922179,0.8379219302697525,0.5524339564021596,0.077691520261941,0.625215093164131,11.133491700699778,-0.9291106367543016,0.1561461661917992,-0.99093245583518
1.56,0.1663608376016308,0.840403887416266,1.4583557376383152,0.0273348118836464,0.1406346325061786,0.0144566578028925,-0.2315067112547625,-0.8442874614842283,-0.0779590792551428,0.1716558356097046,0.8416373260997378,1.456218042428396,-0.2190529414675736,-1.134494718262192,-0.096018066438246,0.8633369027096822,0.5842067991729801,0.0385697500112525,0.6344804155878083,11.133491700699778,-0.9289273260387532,0.1553509147545415,-0.9897169807600013
1.58,0.1620765866673432,0.8243495974925213,1.456999278563602,0.0306360415446694,0.1411847765939989,0.0145575761210962,-0.2201547284555433,-0.8459358493770631,-0.0654589343717934,0.167179138214634,0.8193474317404544,1.4541667583350917,-0.2094890848956608,-1.1744947188582384,-0.0829257899842742,0.8482899242354288,0.5675991399609615,-0.0824193946417417,0.6250072441674699,11.145462346250495,-0.929945981826812,0.1535636155269775,-0.9874497033056766
1.6,0.1577986023969004,0.8073930728333202,1.4558343808521257,0.0340824971587321,0.1408202508685232,0.0146410209935556,-0.2083326863079978,-0.8496596844425244,-0.0516491841853166,0.1510688502445661,0.7820528050236681,1.4537263318450122,-0.1860843484234808,-0.9459358508671792,-0.0329089160910488,0.9278157526497336,0.5911021073772754,-0.1861917532730628,0.6904875093238391,11.175512020146016,-0.9317185700646062,0.1517106630952268,-0.9845843231425032
1.62,0.1537465256330293,0.7902766050789544,1.4549223730928214,0.034702125552364,0.1397603620352355,0.0145117742973911,-0.1975758792522789,-0.8609866403852263,-0.0403342120889313,0.1510688502445661,0.7820528050236681,1.4537263318450122,-0.1860843484234808,-0.9459358508671792,-0.0329089160910488,0.9644135815404232,0.5378403527859412,-0.5663477971350972,0.5657486048192637,11.217746326804445,-0.9345655211611616,0.1526216662000935,-0.9801098584147416
1.64,0.149901753959669,0.7729777100562817,1.4542398887784196,0.0318315225738317,0.1383308014911062,0.0141450514085551,-0.1875116578004393,-0.8679905373478898,-0.0284068760797603,0.1510688502445661,0.7820528050236681,1.4537263318450122,-0.1860843484234808,-0.9459358508671792,-0.0329089160910488,0.8552842661521136,0.503211072591983,-0.3501948481331729,0.5963668004585513,11.09980761429142,-0.9364517385280408,0.1557492416903629,-0.976954020036814
1.66,0.1464282330880937,0.7564581151255867,1.4538151839895113,0.0281860678431537,0.1368515174703181,0.0137534342845185,-0.1786849144066193,-0.8705162364297065,-0.0168861199060602,0.1492080067603312,0.7725934465149964,1.4533972426841018,-0.1792702724170682,-0.9659358511652024,-0.0263989124348999,0.736577181302275,0.4413371696909973,-0.1262849540908384,0.5760378086850022,11.09980761429142,-0.9388599150946056,0.1602820452349867,-0.972671041258256
1.68,0.1429453953273778,0.7390462244917179,1.4536046534920182,0.0250081704065661,0.1353839018051741,0.0134163085973043,-0.1700971483170521,-0.8707305765780673,-0.0047747089040545,0.1454863197918616,0.7536747294976528,1.4527390643622806,-0.1656421204042432,-1.005935851761249,-0.0133789051226021,0.7424317217223165,0.4293883044783605,-0.0107170074180373,0.6055705501002866,11.09234175297479,-0.941648129701121,0.1644078569027767,-0.9678838811615244
1.7,0.1396287566173981,0.7216429251051896,1.4536349567169995,0.0230705638174536,0.1341328295650534,0.0131947822804615,-0.1620164406695494,-0.8698259633426584,0.0071946109868138,0.141764632823392,0.7347560124803092,1.4520808860404597,-0.1520139683914182,-1.0459358523572957,-0.0003588978103043,0.7234997923980765,0.4040353823751341,0.0452306617704456,0.5984659945434214,11.081279724382512,-0.9443401940942676,0.1675096219473698,-0.9632537088236052
1.72,0.1364697071135376,0.7042681775858668,1.4539047999498251,0.0227188227289921,0.1331569565606754,0.0131090275951485,-0.1542872618861702,-0.8679946401819082,0.019199169916727,0.1387243534555637,0.7138372954331633,1.4520737080842536,-0.1383858163785932,-1.0859358529533418,0.0126611095019935,0.7197280463590042,0.386458939168964,0.0915661580375093,0.6002279464956607,11.065310892702657,-0.9466574448588508,0.1692333616720472,-0.9592076514559152
1.74,0.1336098466550033,0.6878012734736457,1.454385063681197,0.0241967705572742,0.1324893018136969,0.013172384709986,-0.1471261347851588,-0.8657457741654462,0.0307610243752425,0.1356840740877353,0.6929185783860173,1.4520665301280475,-0.1247576643657682,-1.1259358535493884,0.0256811168142913,0.6892307636719551,0.3580563550505677,0.1124433008231007,0.5780927229257725,11.062769351280622,-0.9488905829579528,0.1694259667062026,-0.9554035856251868
1.76,0.1307471620930825,0.6704979710637832,1.4551320645209245,0.0275110151718213,0.1319974207445951,0.013375052643693,-0.139513391281559,-0.8651880470626934,0.0433504812838159,0.1329844985202275,0.6709998613239703,1.4523848523546488,-0.1111295123529432,-1.1659358541454348,0.0387011241265891,0.7361374675044966,0.3806371751799917,0.0278863551376407,0.629472845428671,11.067200795599092,-0.9515340469547556,0.1681651678034221,-0.9513763825001302
1.78,0.1280383269716676,0.6531710818533513,1.4561361585557917,0.0313295868828825,0.1316110201820259,0.0136214014613618,-0.1317548142775532,-0.8676218884548429,0.0564565177186585,0.1306256267530404,0.6480811442470221,1.4530286747640575,-0.0975013603401182,-1.2059358547414811,0.0517211314388869,0.7711797651660864,0.3879288502002878,-0.1216920696074763,0.6553018217421283,11.088016940120724,-0.9537843799934662,0.1664421583221919,-0.9480368760854372
1.8,0.12548606026573,0.6357752734503856,1.457408272016206,0.0347376071427658,0.1312261089147343,0.0138444599670264,-0.1238842766145188,-0.8717361332761143,0.0701083290471933,0.1214505862577899,0.6097899874306091,1.4589589844417246,-0.1051601717278,-0.9058172712585214,0.0841344765498496,0.8143161641901031,0.3935268831517194,-0.2057122410635714,0.6825905664267409,11.117761696164052,-0.956061448295444,0.1649518744718183,-0.9445958018958192
1.82,0.1232276069715459,0.6189007738934931,1.458821754991518,0.0287995559370989,0.1300368322428036,0.0134035497904615,-0.114409830538405,-0.8987370274423301,0.0782273741288504,0.1214505862577899,0.6097899874306091,1.4589589844417246,-0.1051601717278,-0.9058172712585214,0.0841344765498496,1.4872225012269975,0.4737223038056931,-1.350044708310788,0.4059522540828565,11.14709637753549,-0.9624264677192392,0.1719434148684932,-0.935329095588214
1.84,0.1210347290056082,0.6008335213692919,1.4604840213582675,0.0139975050155497,0.1271851614955492,0.0123622887617713,-0.1055377929348088,-0.9052894623738564,0.0876470929537495,0.1214505862577899,0.6097899874306091,1.4589589844417246,-0.1051601717278,-0.9058172712585214,0.0841344765498496,0.7252216170103919,0.4436018801798065,-0.327621746576312,0.4709859412449536,10.857665930223448,-0.9644211199732388,0.1850365292893767,-0.9302894938788444
1.86,0.1189994657420002,0.5827692182588992,1.462322597857765,-0.001504209175688,0.1231359642633085,0.011359945924374,-0.0986233905824376,-0.9006769569122807,0.095652753189303,0.1203989845405119,0.6007318147180238,1.459800329207223,-0.0998412432178494,-0.9134563478192572,0.0896700683160878,0.5770068507623285,0.3457201176185607,0.2306252730787827,0.4002830117776738,10.857665930223448,-0.9683255760896604,0.1988937080681869,-0.922028425491194
1.88,0.1170763092149406,0.5648696446990658,1.4643014821072422,-0.0147063046660326,0.1185642690340341,0.0106316392044502,-0.0941874139518656,-0.8900808841946417,0.1018505165838497,0.1182957811059559,0.5826154692928535,1.4614830187382202,-0.0892033861979481,-0.9287345009407284,0.1007412518485642,0.6526233921628487,0.2217988315286023,0.529803635881948,0.3098881697273362,10.643178163497396,-0.9728720698087204,0.2115594483026789,-0.9129725784998042
1.9,0.1153067643586408,0.5480933207157533,1.4662851893352338,-0.0243797821205491,0.1145127777101501,0.0102261177609751,-0.0924077372915291,-0.8770625358917178,0.1066709868521738,0.1161925776713999,0.564499123867683,1.463165708269217,-0.0785655291780468,-0.9440126540622,0.1118124353810406,0.699788495117248,0.0889838330168216,0.650917415146196,0.2410235134162053,10.643178163497396,-0.9769019383485952,0.2214356431627869,-0.9050386992446576
1.92,0.1134569214182791,0.53071280477104,1.468468539538004,-0.031670519680085,0.1114453042849436,0.0100412961362151,-0.09280567726732,-0.8621459537346675,0.111417089409534,0.1146212670878389,0.545618870786439,1.465401956976838,-0.0679276721581456,-0.9592908071836712,0.122883618913517,0.7829244359408893,-0.0198969987895411,0.7458291078525137,0.2373051278680094,10.588372896047986,-0.979619149240459,0.2286231325390517,-0.8992327202885909
1.94,0.1115810066290557,0.5136381551642356,1.4707447335949944,-0.0363507625596588,0.1104194141045333,0.0100195469336893,-0.0945816327105572,-0.8465338559345491,0.1159810915464859,0.113049956504278,0.5267386177051949,1.4676382056844588,-0.0572898151382443,-0.9745689603051428,0.1339548024459935,0.818110217151283,-0.0887977721618644,0.7806048900059204,0.2282001068475952,10.58071317145641,-0.9817424131222762,0.2337053163931489,-0.8945457769639035
1.96,0.1097723979675244,0.4977062471690233,1.4729931870015245,-0.0388067778958281,0.1112610027087895,0.0100978383872378,-0.095495484115481,-0.8317723605719806,0.1204937580798605,0.1117445923462146,0.5074764107959141,1.4701512339803915,-0.046651958118343,-0.989847113426614,0.1450259859784699,0.7731445999469514,-0.0456925702461856,0.7380747681284272,0.2256333266687289,10.571392802686203,-0.9824112085225816,0.2368473737386983,-0.8920701604539962
1.98,0.1078643100402518,0.4812359004772636,1.4754569815603311,-0.0398054191881854,0.1134240765870408,0.0102614195692567,-0.0950884794263606,-0.8161971838863135,0.1256741873640663,0.1107051746136487,0.4878322500585966,1.472941041864636,-0.0360141010984417,-1.0051252665480854,0.1560971695109463,0.8209577169004676,0.0203502344560159,0.7787588342833551,0.2590214642102912,10.599541919063997,-0.9816476704543228,0.2388246205241138,-0.8914662534202065
2.0,0.1059803158013317,0.4650840106423837,1.4780294490607937,-0.0389994501462878,0.116299218936803,0.0105420307495208,-0.093189948645357,-0.8000600126879693,0.1313217117350998,0.1031098860689338,0.4404260412829479,1.4817406909285344,-0.0640321796207195,-0.8063366133437991,0.114295869292701,0.8600977341740041,0.0949265390501809,0.8068585599172062,0.2823762185516734,10.599541919063997,-0.9801551146137566,0.2394336125036231,-0.8919758288472919
2.02,0.1042211021608839,0.4498658916301467,1.480448486763019,-0.0417521329785733,0.119346797768291,0.0105684973730476,-0.0920007665583683,-0.8000863474769022,0.1229213689227833,0.1031098860689338,0.4404260412829479,1.4817406909285344,-0.0640321796207195,-0.8063366133437991,0.114295869292701,0.4242069274586424,0.0594591043494387,-0.001316739446644,-0.4200171406158255,10.62506068217226,-0.976261265303335,0.2438652626182895,-0.8927265823124921
2.04,0.1024008966927531,0.4339616987555224,1.4828081246174358,-0.0490937790838952,0.122733142930051,0.0102876750808894,-0.0899649614107696,-0.7896403754188223,0.1135213877477872,0.1031098860689338,0.4404260412829479,1.4817406909285344,-0.0640321796207195,-0.8063366133437991,0.114295869292701,0.7099691558924517,0.1017902573799321,0.5222986029039978,-0.4699990587498016,9.731213667518205,-0.9712049056238432,0.2496520884782972,-0.8972659927089349
2.06,0.1006320340725351,0.4183371278129916,1.4849807253412115,-0.0567570663277598,0.1261398882412247,0.0099875992449835,-0.0869210489095356,-0.7733357957595708,0.1042026191351378,0.1024695642727266,0.4323626751495099,1.4828836496214617,-0.0578209196595912,-0.8043644992352963,0.1120202056784279,0.9512415172238672,0.1521956250617011,0.8152289829625736,-0.4659384306324718,9.77215274910941,-0.966259177393291,0.256144426544845,-0.900984555255306
2.08,0.0989346649212523,0.4030751712827559,1.4869688462259674,-0.0630900490877821,0.1293929954486612,0.0097953320787743,-0.0828906653121681,-0.754059798233172,0.0950740524229698,0.1011889206803122,0.416235942882634,1.4851695670073155,-0.0453983997373348,-0.8004202710182905,0.1074688784498817,1.0852866013157088,0.2015191798683729,0.9637998763199374,-0.4564283356083998,9.79637508607084,-0.9614419198999956,0.261412878569532,-0.9047616587208284
2.1,0.0973278048312624,0.3882145401688601,1.4887789337470865,-0.0676994177075988,0.1323643652487215,0.0097520151208176,-0.0779396040180825,-0.7334184762428269,0.0864008927505752,0.0999082770878978,0.400109210615758,1.4874554843931695,-0.0329758798150783,-0.7964760428012848,0.1029175512213356,1.146517422621384,0.2475530647042832,1.0320660995172593,-0.4336579836197285,9.82480867007689,-0.9564688255220132,0.265684841742576,-0.908879951139576
2.12,0.0959011073271024,0.3744852739672702,1.490344423546193,-0.0705331986560972,0.1348449330657223,0.0098558696268625,-0.0724524953701046,-0.713207338418971,0.0788324587270303,0.0992487594915963,0.3841796897597322,1.4895138354175963,-0.0205533598928218,-0.7925318145842791,0.0983662239927894,1.113417764159484,0.2743554323988907,1.0105568911927931,-0.3784217011772443,9.915837171321073,-0.9512255784785422,0.2687257028947464,-0.9134543652984828
2.14,0.094518035104231,0.3604481987753972,1.491839350423948,-0.0721046247437231,0.1370642784028443,0.0101088381769861,-0.0661046005882258,-0.6917627004409947,0.0710707541131362,0.0985892418952947,0.3682501689037065,1.491572186442023,-0.0081308399705653,-0.7885875863672733,0.0938148967642433,1.1836514739162158,0.317394739093943,1.0722318988988122,-0.3880852306947089,9.915837171321073,-0.9460906066274568,0.2707976615227351,-0.917892291364441
2.16,0.0932692283859498,0.3468468352965999,1.4931828201230213,-0.0721247973299571,0.1388292703880465,0.0105219574967891,-0.0590738780848915,-0.6696126537156267,0.0636889896950997,0.0982402872970495,0.352419253753106,1.4935167542857362,0.004291679951691,-0.7846433581502676,0.0892635695356972,1.2191657750058718,0.3515361251667133,1.107502336268401,-0.3690882209018246,9.935267684475548,-0.9414310188519992,0.2717271234107835,-0.9219732405241212
2.18,0.0921671834776581,0.3336947504762046,1.4943852224041017,-0.0701989679904854,0.1400529800929399,0.0111283628999654,-0.0515085493513767,-0.6470137830809777,0.0569331767347342,0.0982018956968608,0.3366869443079306,1.4953475389487354,0.0167141998739475,-0.7806991299332618,0.084712242307151,1.2385315514382238,0.3782664366757383,1.1299435317324524,-0.3377906480182741,9.967644880764963,-0.9374254126279344,0.2711502899714856,-0.9257581373983936
2.2,0.0912640770571443,0.3216096712602771,1.4954105694290736,-0.0665975662547032,0.1407018126883902,0.0118782728562117,-0.043962458238611,-0.6268579435212485,0.0513748362627409,0.0895917560100892,0.3013440613221557,1.4972318812408385,-0.0274124310651247,-0.6127652708427136,0.0721796891030556,1.1114140860209414,0.3773045556382876,1.0077919779864608,-0.2779170235996636,10.00865107910704,-0.933947746595446,0.2689513502323176,-0.929436525908372
2.22,0.0905215137063673,0.309194473104714,1.496430737187924,-0.0646463233266448,0.139445272079818,0.012677734293904,-0.0306110181655388,-0.6148323062239737,0.0511238399766606,0.0895917560100892,0.3013440613221557,1.4972318812408385,-0.0274124310651247,-0.6127652708427136,0.0721796891030556,0.898526437515991,0.6675720036536107,0.6012818648637397,-0.0125498143040168,10.374269442142577,-0.937621977435342,0.2683170582955693,-0.9253951253539148
2.24,0.0900458584915952,0.29705035548964,1.4974645621768874,-0.0658943356069126,0.1346621697983061,0.0134997236262829,-0.0180802164630766,-0.5999360074606861,0.0523075558604638,0.0895917560100892,0.3013440613221557,1.4972318812408385,-0.0274124310651247,-0.6127652708427136,0.0721796891030556,0.975092164163367,0.626540085123108,0.7448149381643787,0.0591857941901592,10.374269442142577,-0.938201096488228,0.2706614001260276,-0.9233797252424104
2.26,0.0897825513209711,0.285230654122425,1.4985290938905038,-0.0688380280717101,0.127526951188531,0.0143930457223385,-0.0092899986834132,-0.582412537777955,0.0541109409839234,0.089317631699438,0.2952164086137286,1.4979536781318687,-0.0225932074078743,-0.6059155683950608,0.0752289915767199,0.9843679650402876,0.4395108889831706,0.8761734841365554,0.0901692561729835,10.430937331334462,-0.9410839199370176,0.2744143918150972,-0.9184601383090428
2.28,0.0896572661763444,0.274359453285007,1.4995765183392442,-0.0717475463677936,0.120002592726309,0.0153277658031883,-0.0045462061140151,-0.5629128887365251,0.0560808514400172,0.0887693830781355,0.2829611031968743,1.49939727191393,-0.0129547600933735,-0.5922161634997551,0.0813275965240485,1.0082415730932752,0.237189628469905,0.9749824520714934,0.0984955228046886,10.472351380252803,-0.9459426996242822,0.2786421712687827,-0.9110720655392968
2.3000000000000003,0.0895890334418178,0.2633306268479141,1.500722343086912,-0.0741120671336812,0.1124252234248303,0.0163768501221504,-0.0027069537322785,-0.5411541530185112,0.0584369319340549,0.088221134456833,0.2707057977800201,1.500840865695991,-0.0033163127788727,-0.5785167586044495,0.087426201471377,1.098153614783108,0.0919626190868326,1.087936785900695,0.1178040247018858,10.487746965073711,-0.9514472714977584,0.2822758538736232,-0.9030561232534372
2.32,0.0895278049886397,0.252746314021132,1.5019181875097505,-0.0754648678592359,0.1060404322307188,0.0174389193249458,-0.003656283903913,-0.518524287974092,0.0610629576495624,0.0881548082012555,0.2591354626079311,1.5025893897254186,0.006322134535628,-0.5648173537091439,0.0935248064187056,1.1400745926932907,-0.0474665085817266,1.1314932522209609,0.1313012857753752,10.487746965073711,-0.9560492246964694,0.2849916745248974,-0.8962619148196072
2.34,0.0894206382434487,0.2426221013167561,1.5031710517482746,-0.0754976963936865,0.1016676024944241,0.0184587537041908,-0.0071483654773237,-0.4951742918170044,0.0641294987363667,0.0880884819456781,0.247565127435842,1.5043379137548465,0.0159605818501288,-0.5511179488138382,0.0996234113660342,1.190399752696987,-0.1746040786705368,1.16749980785438,0.1533270543402118,10.505591366449153,-0.9584814736212084,0.2863986303190514,-0.8924157272704467
2.36,0.0892226623272072,0.2329733723963785,1.5044906767887916,-0.073730221445521,0.100154637099156,0.0193951549440679,-0.012212859318095,-0.4711712175115585,0.0677166643519261,0.0882631168729631,0.2363372773861357,1.506238902907957,0.0255990291646296,-0.5374185439185326,0.1057220163133627,1.239621344533704,-0.2532246920385633,1.2001537152722952,0.1793582807779713,10.542089081272024,-0.9607944140013456,0.2867292644341224,-0.8885429858771398
2.38,0.0889505798899371,0.2242458361433987,1.505817601986828,-0.0702535005614482,0.101177241234334,0.0202321293246001,-0.0158803919030011,-0.4493551605781356,0.0718366344784753,0.0886787129831107,0.225451912458812,1.5082923571847509,0.0352374764791304,-0.523719139023227,0.1118206212606913,1.1251280918492716,-0.183376629245304,1.0908028466711432,0.205998506327458,10.570368944927395,-0.9617388161922974,0.2856037255105633,-0.8864342295352291
2.4,0.0886092916326093,0.2154750647130416,1.507307945749206,-0.0657526299120474,0.1039538146865232,0.0210607935316892,-0.0178207511618902,-0.4291049687875879,0.0770278287462996,0.088156560294787,0.2017780781144919,1.5094094337107518,-0.0001748567146838,-0.4160004609664718,0.0929160983627097,1.0497425393088218,-0.0970179629444586,1.0125095895273828,0.2595597133912184,10.59328006427313,-0.9609528953419324,0.283850470745695,-0.8863175892670957
2.42,0.0882715832448587,0.2070819553706231,1.5088668792177764,-0.061347452407135,0.1068440560409711,0.0218865012345845,-0.0158143815932854,-0.4112537978893402,0.0783894083018642,0.088156560294787,0.2017780781144919,1.5094094337107518,-0.0001748567146838,-0.4160004609664718,0.0929160983627097,0.9007548503483084,0.100318478430241,0.8925585449123863,0.0680789777782291,10.622561093705372,-0.9593719863836536,0.2822820928757074,-0.8869027403047665
2.44,0.08798243628835,0.1990352585746362,1.5104573564825268,-0.0574062376309218,0.108692948570615,0.022752354029563,-0.0132411732358724,-0.3943140726158589,0.080679610696053,0.088156560294787,0.2017780781144919,1.5094094337107518,-0.0001748567146838,-0.4160004609664718,0.0929160983627097,0.8643215845361493,0.1286604178706531,0.8469862636740683,0.1145101197094405,10.352926174109598,-0.9572532423369732,0.2808566586482204,-0.8883146987891734
2.46,0.0877465536566749,0.1913211409367111,1.5121080146789228,-0.0539114200500106,0.1097140923204017,0.0236379940240783,-0.0105109715451457,-0.3779583832982942,0.0843261415608803,0.0881548117276402,0.1976180735048272,1.5103385946943788,0.0029662503229796,-0.409329521044139,0.0971319911395566,0.8489107162606749,0.1365100845363324,0.8177844658782352,0.1823265432413644,10.515770239427184,-0.956262371234307,0.2800037054989193,-0.8880868973241798
2.48,0.0875652671084884,0.1839285221034688,1.5138441585770517,-0.0508071489049842,0.1100977125143237,0.0245306329750555,-0.00780994690395,-0.3621222258549934,0.0891047877587553,0.0881513145933465,0.1892980642854977,1.5121969166616331,0.0092484643983065,-0.3959876411994735,0.1055637766932503,0.8380257695408635,0.1350512320597833,0.7918078721650401,0.2389323098937489,10.515770239427184,-0.9560767413743878,0.2795740448627692,-0.886857381697254
2.5,0.0874413148715249,0.1771946100149563,1.5155899014279788,-0.0481578809893662,0.1100534400089354,0.0253763377553551,-0.0054118052019819,-0.3475091360196983,0.0944237356492809,0.0881478174590528,0.1809780550661683,1.5140552386288872,0.0155306784736334,-0.382645761354808,0.1139955622469441,0.7867411976298939,0.1199070850984064,0.7306544917647512,0.2659473945262794,10.573854537753505,-0.9565615617612504,0.2795484552242337,-0.8845204921879629
2.52,0.0873574116136912,0.1704014634835954,1.517543483410803,-0.045651141136873,0.1097509898016368,0.0262556695001833,-0.003133994612635,-0.3325894891731475,0.1006897575308694,0.0884584310285255,0.1733251398390722,1.516335149873826,0.0218128925489603,-0.3693038815101425,0.1224273478006379,0.8170791169269964,0.1138905294673439,0.7459823423275391,0.3133010940794281,10.617077154042818,-0.957504212886022,0.2798314768477365,-0.8815357333056272
2.54,0.087316141197855,0.1639028526064556,1.5196263468175617,-0.0433934977685789,0.1093349575807322,0.0271185754198187,-0.0011283647517712,-0.31803977494049,0.1073015877691007,0.0887690445979982,0.165672224611976,1.518615061118765,0.0280951066242873,-0.3559620016654769,0.1308591333543317,0.8053462523815089,0.100281493043193,0.7274857116328776,0.3305915119115654,10.652423010764323,-0.9587517746830996,0.2805152100554914,-0.8778858616766863
2.56,0.0873128097975794,0.1576941764407624,1.521843832812469,-0.0412519118860758,0.1088999018075465,0.0279695453436203,0.0006828320360467,-0.3036343881926194,0.1141305565122324,0.089236713519354,0.1583528563809965,1.521105767002546,0.0343773206996142,-0.3426201218208114,0.1392909189080254,0.8022319104451621,0.0905598393908995,0.7202693373935309,0.3414484371565829,10.665027160684986,-0.9601664436843892,0.281418067916625,-0.8739230645708523
2.58,0.0873415503723568,0.1520599817082519,1.5240789896988574,-0.0392308507938148,0.1085119708372839,0.0287712602638909,0.0022449244326003,-0.2902374103457997,0.1208274367678083,0.089861437792593,0.1513670351461336,1.5238072675251697,0.0406595347749411,-0.3292782419761459,0.1477227044617192,0.7529398270132072,0.0781046198276816,0.6698488923409851,0.3348440127787969,10.670854371733183,-0.9625875542519656,0.2832461792875127,-0.86751885408996
2.6,0.0874024098326788,0.1463997800145191,1.5265722099515164,-0.0371156327711469,0.1081622974501805,0.0296067737620047,0.0037520584617053,-0.2765542628502749,0.1281687086810213,0.0874537965939869,0.137548111190962,1.5301203615372478,-0.001345781604757,-0.2593980863483021,0.1268746669816889,0.7800548885650651,0.0753567014552474,0.6841573747762397,0.3670635956606494,10.683958752163562,-0.9651490512542056,0.2852118877885361,-0.8608182505215959
2.62,0.0875258896222632,0.1410054081811083,1.5291359110677645,-0.0350909661932091,0.1065370830008977,0.0304758759689114,0.0085460555498779,-0.2636069135732168,0.1274320902602581,0.0874537965939869,0.137548111190962,1.5301203615372478,-0.001345781604757,-0.2593980863483021,0.1268746669816889,0.6913010705932519,0.2396998544086303,0.647367463852902,-0.0368309210381612,10.152643550030009,-0.9688835194383796,0.287513506984596,-0.8524212187085441
2.64,0.0877432370120925,0.135864373891848,1.5316748482794984,-0.0332476825823538,0.1020695380162125,0.0314207939150751,0.0126708794703057,-0.2511507670326497,0.1266044210721991,0.0874537965939869,0.137548111190962,1.5301203615372478,-0.001345781604757,-0.2593980863483021,0.1268746669816889,0.6573712712377177,0.2062411960213905,0.6228073270283546,-0.041383459402948,10.152643550030009,-0.9715626684310248,0.2887045569797098,-0.8466982766108782
