t,x,y,z,roll,pitch,yaw,v_x,v_y,v_z,ref_x,ref_y,ref_z,ref_v_x,ref_v_y,ref_v_z,a_com,a_x,a_y,a_z,thrust,wind_x,wind_y,wind_z
0.0,1.8369288108848647,-1.858965113638217,3.0053058562524644,0.0217081798657683,0.0996679686372953,0.04251392886189,0.0055139886092616,-0.0028959604407374,0.0148720611671599,1.8371019280961447,-1.859136511473104,3.0057542424158763,-0.0942962552560886,0.0950258507184326,-0.0850728480388603,0.8061774938205793,0.2756994304630847,-0.1447980220368716,0.7436030583579997,10.241284199807524,-0.9444249272585884,0.2642373272598681,-0.8688584311412189
0.02,1.8371790429143595,-1.859259565842011,3.005359779561704,0.0125325854247872,0.0945538977750075,0.0417980609801118,0.0193877629578913,-0.02227585235447,-0.0089832592199509,1.8371019280961447,-1.859136511473104,3.0057542424158763,-0.0942962552560886,0.0950258507184326,-0.0850728480388603,1.6860739426522524,0.693688717431481,-0.9689945956866324,-1.1927660193555474,10.240626310359405,-0.945647356924954,0.2668137309220368,-0.8713493494371366
0.04,1.8376647749550508,-1.8597041205975275,3.004871766945692,-0.0038719199904208,0.0798732276644957,0.0406557690935129,0.0271617808445872,-0.020468066950073,-0.0386555802783639,1.8371019280961447,-1.859136511473104,3.0057542424158763,-0.0942962552560886,0.0950258507184326,-0.0850728480388603,1.5363512612392365,0.3887008943347979,0.0903892702198537,-1.483616052920648,8.87645194098468,-0.9475053784245616,0.2784657248605372,-0.8661352755223245
0.06,1.838196926081898,-1.860031864375816,3.003784648173841,-0.0206778048794402,0.0593907847222077,0.0398667000678498,0.0246793773265555,-0.0120710914797615,-0.0685567857081685,1.836158965543584,-1.85818625296592,3.004903513935488,-0.1142962555541118,0.1150258510164558,-0.1050728483368835,1.5578459571077026,-0.1241201759015849,0.4198487735155729,-1.4950602714902308,8.613000830141118,-0.9549734973138684,0.2887514936965093,-0.8575783813180531
0.08,1.8385775131807465,-1.8601563108687709,3.0021057664858564,-0.0368058275815236,0.0370666422837288,0.0395868808422452,0.0128987810437561,-0.0004922138933403,-0.0978771110307353,1.8342730404384624,-1.856285735951551,3.0032020569747107,-0.1542962561501583,0.1550258516125023,-0.14507284893293,1.6826573715114963,-0.5890298141399729,0.5789438793210614,-1.466016266128343,8.647010045034222,-0.966083565240267,0.2972952725168512,-0.846593753644249
0.1,1.8386444577594856,-1.860035433134549,2.9999734529394178,-0.051393489271576,0.016741554183306,0.03972491247417,-0.0055230686710266,0.0128924030790694,-0.1251626214690372,1.8323871153333409,-1.8543852189371823,3.0015006000139333,-0.1942962567462048,0.1950258522085488,-0.1850728495289764,1.7769437232864451,-0.9210924857391374,0.6692308486204891,-1.3642755219150904,8.7125287885533,-0.9799372615074484,0.3054810173657209,-0.8329781628499452
0.12,1.8382770926147267,-1.859608860677831,2.9971707672406587,-0.0660071564264514,-0.0020445996766138,0.0401457245334728,-0.0304941873438637,0.0293442503467526,-0.1537014051380065,1.8285011901984165,-1.8504847018930115,2.9977991430233537,-0.2342962573422512,0.2350258528045952,-0.2250728501250229,2.066810477279132,-1.2485559336418537,0.8225923633841575,-1.4269391834484668,8.7125287885533,-0.992939594012582,0.312378562312939,-0.8214896404218615
0.14,1.83736175706472,-1.8588146146192697,2.993792052908581,-0.0794437554663714,-0.0172009372619724,0.0407071931111391,-0.0598473991271574,0.0492768037415208,-0.1827870844700569,1.8246152650634924,-1.84658418484884,2.994097686032774,-0.2742962579382977,0.2750258534006417,-0.2650728507210694,2.2939564452257164,-1.4676605891646863,0.99662766973841,-1.4542839666025196,8.78523555375341,-1.0036734709612871,0.318130821000799,-0.8134162176973684
0.16,1.835819204623922,-1.857580562990561,2.9898262804190594,-0.0908120103872596,-0.0280401400723536,0.0412791179875819,-0.0926952689087576,0.0726557948273814,-0.2123220670135886,1.8197293399136671,-1.841683667789768,2.9893962290272937,-0.3142962585343441,0.3150258539966881,-0.3050728513171158,2.498937257729993,-1.6423934890800107,1.1689495542930324,-1.476749127176587,8.78523555375341,-1.010934817415917,0.3222401093558482,-0.8098697521994584
0.18,1.83371995622734,-1.8559573173984385,2.985509782489311,-0.0993967714162811,-0.0338575277472583,0.0416811441338776,-0.1265244679365086,0.0965480664560321,-0.2405554206393077,1.8138434147489408,-1.835783150715795,2.983694772006912,-0.3542962591303905,0.3550258545927345,-0.3450728519131622,2.5061811623420773,-1.6914599513875486,1.1946135814325318,-1.4116676812859523,8.863875030356212,-1.0143208010012812,0.3250131795629661,-0.8122497049611618
0.2,1.830805796939684,-1.8537531128028,2.980385297577863,-0.1063375794502454,-0.0347840857777589,0.0417786056378905,-0.1625382589426865,0.1223440024086749,-0.2703148727817643,1.8079574895842143,-1.8298826336418217,2.97799331498653,-0.394296259726437,0.395025855188781,-0.3850728525092087,2.6683555076716616,-1.800689550308895,1.2897967976321425,-1.4879726071228296,8.863875030356212,-1.015617022923382,0.3261669328914817,-0.8176559240669034
0.22,1.8271936558274384,-1.8510235929162435,2.9746717535989764,-0.1113828678451272,-0.0313066042625907,0.041541735395322,-0.1964041609503675,0.149026737469634,-0.2994391066577037,1.8273937328305143,-1.851129914075637,2.973482011457346,-0.2265244694266247,0.1965480679461482,-0.3405554221294238,2.6014845127290323,-1.69329510038405,1.3341367530479535,-1.4562116937969716,8.875913913531804,-1.015600776781585,0.3273851494527523,-0.821602219343168
0.24,1.8228729824716,-1.8475971475067612,2.968549730268809,-0.110303847927421,-0.0231036192102771,0.041198589722021,-0.2332637371316909,0.1907069054106606,-0.310008407194677,1.8273937328305143,-1.851129914075637,2.973482011457346,-0.2265244694266247,0.1965480679461482,-0.3405554221294238,2.831772797074224,-1.842978809066172,2.084008397051329,-0.5284650268486651,10.129564082318211,-1.0177092466603457,0.3256935837057378,-0.8198422623159013
0.26,1.818137420124077,-1.8436631871750289,2.9625700801616057,-0.1031942660767487,-0.011116749463681,0.0408827439662968,-0.2626445608809205,0.2201997090052426,-0.3187996362634084,1.8273937328305143,-1.851129914075637,2.973482011457346,-0.2265244694266247,0.1965480679461482,-0.3405554221294238,2.127406858472769,-1.4690411874614784,1.4746401797291002,-0.439561453436571,10.129564082318211,-1.0120396752841496,0.3192261177524749,-0.8304350562061527
0.28,1.8126150406055972,-1.838998056009552,2.9560697193201118,-0.0944146441011471,0.0036256170899134,0.0405285760891271,-0.2874533992742131,0.2444878405290431,-0.3309012442786749,1.8251284881362484,-1.8491644333961756,2.970076457236052,-0.2465244697246479,0.2165480682441714,-0.360555422427447,1.8383693262624785,-1.240441919664631,1.214406576190025,-0.6050804007633248,9.914051155202287,-1.0028362425442516,0.3123616414502754,-0.8443600204800972
0.3,1.806655665203608,-1.8338886559031795,2.9492907963394392,-0.0860632438939777,0.0188429360302536,0.0402245853972187,-0.3068044690783617,0.2651958911791584,-0.3465492108434154,1.820597998747716,-1.8452334720372523,2.9632653487934637,-0.2865244703206944,0.2565480688402178,-0.4005554230234934,1.6187542447079537,-0.967553490207429,1.0354025325057663,-0.7823983282370217,9.659785999398991,-0.9914927799743932,0.3058260001642583,-0.8603970439959507
0.32,1.8003591221547492,-1.8283896816971228,2.942162916862107,-0.0787292495799968,0.0332980521613744,0.0400271126682426,-0.3215767593129473,0.283719408942059,-0.3656281027362402,1.8160675093591836,-1.8413025106783296,2.9564542403508747,-0.3265244709167408,0.2965480694362643,-0.4405554236195399,1.520974510754064,-0.7386145117292797,0.926175888145031,-0.9539445946412428,9.435180613273587,-0.979257426187078,0.3000907372429391,-0.8766933692038889
0.34,1.7938084802960776,-1.82253795636016,2.9346177432436744,-0.0725875356981217,0.0461285919041945,0.0399605094635863,-0.3326388276711455,0.3007194415810627,-0.3879771085683633,1.8095370199408485,-1.8353715492896043,2.947643131878484,-0.3665244715127873,0.3365480700323107,-0.4805554242155863,1.5090133595937036,-0.5531034179099087,0.8500016319501841,-1.1174502916061535,9.24625857754927,-0.9675301141975144,0.2952488829126766,-0.8920382704689501
0.36,1.7870674570642076,-1.8163569521988885,2.9266057552427225,-0.0675837526574579,0.0568610989180104,0.040025361445596,-0.3408970952855993,0.3167297756428178,-0.4121579867610127,1.8030065305225136,-1.829440587900879,2.938832023406093,-0.4065244721088338,0.3765480706283572,-0.5205554248116329,1.5076841934973286,-0.4129133807226903,0.800516703087753,-1.209043909632468,9.08952034916092,-0.9561139633777213,0.2907212834835836,-0.906981800538257
0.38,1.7805258890957405,-1.8101868615952192,2.9185327690128458,-0.0635233364695564,0.0650564279648651,0.0402075097458738,-0.3472846459180321,0.3319433149377858,-0.4364511780027393,1.7954760410892778,-1.822509626497253,2.929020914918801,-0.4465244727048802,0.4165480712244037,-0.5605554254076792,1.4683423661296884,-0.3193775316216396,0.7606769647484024,-1.2146595620863314,9.008522430363882,-0.945734913926272,0.2866578427517878,-0.9205417813875368
0.4,1.773519482288204,-1.8033848245404995,2.909522801662316,-0.0596638039119024,0.071793733926751,0.0405112102891319,-0.3530029975654024,0.3474135753286153,-0.4633455506726358,1.7869455516411406,-1.814578665078725,2.918209806416608,-0.4865244733009266,0.4565480718204501,-0.6005554260037257,1.5774471333695523,-0.2859175823685139,0.7735130195414747,-1.3447186334948262,8.953142674108676,-0.9365755643190422,0.2827718862736556,-0.9327237360245492
0.42,1.7664061467035588,-1.7962786303075813,2.899963696508417,-0.0560883128010913,0.0768532019071008,0.0409064653932148,-0.3580491467444489,0.3623608041508205,-0.491273032931165,1.763161656799839,-1.79358969584833,2.8967102101127087,-0.4472846474081482,0.4319433164279019,-0.5364511794928555,1.6037670780860105,-0.252307458952325,0.7473614411102586,-1.39637411292646,8.894429065037912,-0.9287091898257404,0.2789599062484483,-0.9435433168246083
0.44,1.7592272931588488,-1.7888783873223155,2.8900655772843096,-0.0530966431641962,0.080059226880566,0.0413672028499418,-0.3595863666753252,0.3771127352789499,-0.4959898822865296,1.763161656799839,-1.79358969584833,2.8967102101127087,-0.4472846474081482,0.4319433164279019,-0.5364511794928555,0.7781888989284023,-0.0768609965438149,0.7375965564064696,-0.2358424677682297,8.854151402712887,-0.9311490683529282,0.2754461654748867,-0.9434397829416648
0.46,1.7523879264404325,-1.7815887358586475,2.880574416466958,-0.0513092169957761,0.0810015183247087,0.0418379060505846,-0.3604637964464406,0.389788725081492,-0.5029987253920906,1.763161656799839,-1.79358969584833,2.8967102101127087,-0.4472846474081482,0.4319433164279019,-0.5364511794928555,0.7255592363063126,-0.0438714885557744,0.6337994901271043,-0.3504421552780468,10.229636175657106,-0.9282563255896012,0.274733060372795,-0.9459437755135156
0.48,1.7451654746977576,-1.7736545558620118,2.870391682176977,-0.0505300995806344,0.0797741322969088,0.0423609454079634,-0.3618482506097117,0.4030263951576115,-0.5151170639450628,1.7586888103257574,-1.7892702626840509,2.8913456983177803,-0.4672846477061714,0.4519433167259252,-0.5564511797908787,0.9000093772550999,-0.0692227081635549,0.6618835038059795,-0.6059169276486143,9.65869703529097,-0.9270785306868364,0.2746498353036268,-0.9471036163666174
0.5,1.7379089790005695,-1.7654582707657036,2.859925706549007,-0.0508109295725803,0.0762518085524175,0.0429177720943827,-0.363877812620675,0.416004375893152,-0.5310142191745089,1.7497431173775946,-1.780631396355493,2.880616674727923,-0.5072846483022179,0.4919433173219716,-0.5964511803869251,1.0310997167072484,-0.1014781005481607,0.6488990367770231,-0.7948577614723007,9.65869703529097,-0.9280684972675438,0.2751684573686917,-0.946408455717818
0.52,1.7305944898250407,-1.7570039428832238,2.849111723259438,-0.0521818632354374,0.0706196273995098,0.0435042040632899,-0.367877474037564,0.4288506419386426,-0.5496942236334476,1.7407974244294315,-1.7719925300269348,2.869887651138066,-0.5472846488982643,0.5319433179180181,-0.6364511809829716,1.1510499656262156,-0.1999830708444505,0.6423133022745303,-0.9340002229469346,9.46310895098668,-0.93095942817898,0.2765544576196928,-0.9437316096405736
0.54,1.723169743937568,-1.7482911888413246,2.8379006630894987,-0.0546498719474437,0.0637461664773829,0.0440883098700162,-0.3747013446250302,0.4420577901061495,-0.5704723490537074,1.7298517314514663,-1.7613536636685745,2.8571586275184067,-0.5872846494943108,0.5719433185140645,-0.6764511815790181,1.2774236459501345,-0.3411935293733098,0.660357408375345,-1.0389062710129904,9.3204946726255,-0.9359132603420206,0.2787410227065947,-0.9386225779406424
0.56,1.7159647190016676,-1.7397537336147877,2.826860256848205,-0.0575096791657564,0.05679800855275,0.044648048550417,-0.3835802871717459,0.4560956288881305,-0.5906334338344594,1.7189060384735009,-1.750714797310214,2.844429603898747,-0.6272846500903573,0.611943319110111,-0.7164511821750645,1.3061066935298968,-0.4439471273357864,0.7018919390990475,-1.0080542390376035,9.203908792123912,-0.942444486208054,0.281391532080901,-0.9317945012809864
0.58,1.7081711153741537,-1.7304604941243202,2.814821550553306,-0.0602984502407066,0.0497117179163344,0.0452601205532026,-0.3954787206428604,0.4724220446967165,-0.6121766476025786,1.7069603454806344,-1.7390759309369526,2.8307005802641863,-0.6672846506864036,0.6519433197061574,-0.7564511827711109,1.4766809334452276,-0.5949216735557261,0.8163207904293035,-1.0771606884059592,9.19253024495174,-0.9492567687588056,0.2838756867663831,-0.9244981586945752
0.6,1.700115390900091,-1.720831127793775,2.802350270611268,-0.0624206731531135,0.0434659026085034,0.0458828191464116,-0.4096031859216023,0.4895477174447471,-0.6338607167462627,1.6940146524728668,-1.72643706454879,2.8159715566147248,-0.7072846512824501,0.6919433203022038,-0.7964511833671574,1.5516024306431486,-0.7062232639370919,0.8562836374015281,-1.084203457184202,9.19253024495174,-0.9558051811460636,0.2856600862637427,-0.9176487744577247
0.62,1.6917539299709323,-1.7108528884591072,2.789441883927257,-0.0636518533539179,0.0386444445976408,0.0464839655103701,-0.425900086171543,0.5072296757763416,-0.6558762146568653,1.6883971793420107,-1.7068393918894844,2.784212718173177,-0.4954787221329765,0.5724220461868327,-0.7121766490926947,1.6301248084491191,-0.8148450124970369,0.8840979165797236,-1.1007748955301322,9.19077706207645,-0.9608642800194028,0.2866281436993267,-0.9125004686147302
0.64,1.6834404368761582,-1.7009846993103723,2.7769913955390524,-0.0623337518888082,0.0377608309140852,0.0469880800915505,-0.4478363765179786,0.5298979859790117,-0.6534888762042662,1.6883971793420107,-1.7068393918894844,2.784212718173177,-0.4954787221329765,0.5724220461868327,-0.7121766490926947,1.5817336268275854,-1.0968145173217785,1.1334155101335064,0.1193669226299543,9.180723625790506,-0.968177428698357,0.2842398967991151,-0.907004492659392
0.66,1.6742691553773,-1.6901738100598902,2.763919095532899,-0.0581091943935316,0.0417812467910603,0.0474011299353148,-0.4675388505475149,0.5493275784723465,-0.6540993909921389,1.6883971793420107,-1.7068393918894844,2.784212718173177,-0.4954787221329765,0.5724220461868327,-0.7121766490926947,1.3838978246675344,-0.9851237014768144,0.971479624666738,-0.0305257393936331,10.69393396576288,-0.9690985239468156,0.2825916109551156,-0.90380790306393
0.68,1.6647446830731578,-1.679017456565939,2.750776681506788,-0.0531646904657614,0.0488575696550298,0.0476966043983219,-0.4834813626230347,0.5651734919888197,-0.6603272921815339,1.683442392120681,-1.701115171427616,2.77709095168225,-0.5154787224309998,0.5924220464848559,-0.7321766493907179,1.166236918120107,-0.7971256037759944,0.7922956758236621,-0.311395059469749,10.322671187936976,-0.9650959639449864,0.2797390551462663,-0.9073994266118022
0.7000000000000001,1.6549386121887877,-1.6675675516601245,2.7374499638092544,-0.0484130147254574,0.0575111062170176,0.0479172052789227,-0.4959625255693348,0.5790207739427177,-0.6719982635627648,1.6735328176780215,-1.6896667305038795,2.762847418700396,-0.5554787230270463,0.6324220470809023,-0.7721766499867644,1.0997024813379688,-0.6240581473150042,0.6923640976948975,-0.5835485690615483,9.964127344381268,-0.9585616617831156,0.2766159096525256,-0.9146395708489916
0.72,1.6454221998343297,-1.6564467211068388,2.724531454406045,-0.0443775181625852,0.0661679891390291,0.0480952607952895,-0.5049196716471596,0.5909628042326812,-0.6872634311098456,1.663623243235362,-1.6782182895801427,2.748603885718542,-0.5954787236230927,0.6724220476769488,-0.8121766505828109,1.0675531527122484,-0.4478573038912359,0.5971015144981773,-0.7632583773540369,9.667147370622844,-0.9501370685449636,0.2732349630762138,-0.924457508078724
0.74,1.6352489096818068,-1.6445055667794417,2.7105826580156944,-0.0407610673067881,0.0749620335646743,0.0482726741516622,-0.5117442804837079,0.6025843348168586,-0.7069956729564079,1.6517136687629002,-1.6647698486266038,2.732360352706886,-0.6354787242191392,0.7124220482729953,-0.8521766511788573,1.1947767858287257,-0.341230441827417,0.5810765292088682,-0.9866120923281152,9.230874855077673,-0.9409398565261065,0.2700027968600824,-0.9353388761601894
0.76,1.6249636511191006,-1.6323382722451545,2.69621438725202,-0.0378130538281017,0.0828749283208113,0.0484521530877977,-0.5163178783233112,0.6136360581445567,-0.7289408032127856,1.6398040942904382,-1.651321407673065,2.71611681969523,-0.6754787248151857,0.7524220488690417,-0.8921766517749038,1.249647077858183,-0.2286798919801658,0.5525861663849052,-1.0972565128188894,9.230874855077673,-0.9320238675828936,0.266988048533638,-0.9460826911443247
0.78,1.6146020468212454,-1.619945641713155,2.681389426962785,-0.0351973503905841,0.089671522479492,0.0486560788113432,-0.5195525933178818,0.6249881357956955,-0.7524642312047352,1.626894519803075,-1.636872966704625,2.698873286668672,-0.715478725411232,0.7924220494650881,-0.9321766523709502,1.3159452045830191,-0.161735749728531,0.5676038825569385,-1.1761713995974754,9.132743956282866,-0.9255498100557482,0.2646335507700778,-0.9536038547862796
0.8,1.604708725960776,-1.6079639822618852,2.6668580018859025,-0.0327302714371228,0.0951267060453107,0.0488848659671609,-0.5216530400241403,0.6355587136802867,-0.7759915203786605,1.612984945300811,-1.6214245257212834,2.6806297536272137,-0.7554787260072785,0.8324220500611346,-0.9721766529669964,1.2939110566935672,-0.1050223353129209,0.528528894229563,-1.1763644586962665,9.009978626879274,-0.9195056987809936,0.2620700184826791,-0.9607929295458808
0.8200000000000001,1.5942598087072253,-1.595140452698241,2.651065606582792,-0.030114062337027,0.0998718913114042,0.0491576620110716,-0.5230888175539056,0.6461426989795097,-0.8020764316812176,1.5886244171553514,-1.5886962349233702,2.643766215402548,-0.619552594807998,0.7249881372858116,-0.8481680118558277,1.4093480758771213,-0.0717888764882657,0.5291992649611499,-1.304245565127854,9.009978626879274,-0.9142418593082108,0.2593997539728435,-0.9672545630498308
0.84,1.5838115328971103,-1.5820961221653422,2.6350190275338536,-0.0273060991145413,0.1038180261983506,0.0494630809984259,-0.5214588833075041,0.6576086484998004,-0.799843418985451,1.5886244171553514,-1.5886962349233702,2.643766215402548,-0.619552594807998,0.7249881372858116,-0.8481680118558277,0.5897266946410451,0.0814967123200727,0.5732974760145337,0.1116506347883294,10.672414101440154,-0.9121568585116342,0.2544653918397412,-0.9736883797110008
0.86,1.5734139519720824,-1.568846185748032,2.619017760866612,-0.0247716810113625,0.1068750838120539,0.0497661611078715,-0.5184627208264402,0.6669838391679169,-0.8005710198865601,1.5886244171553514,-1.5886962349233702,2.643766215402548,-0.619552594807998,0.7249881372858116,-0.8481680118558277,0.4934586931744374,0.1498081240531967,0.468759533405827,-0.0363800450554563,10.672414101440154,-0.9079566099040906,0.2534323151197007,-0.9767423381274029
0.88,1.5635955160206785,-1.5560894123409807,2.6037452947663,-0.0229141669630131,0.1086159260661636,0.0500344070041155,-0.5153214124103935,0.6754652698219636,-0.8070149256138923,1.5824288912072717,-1.581446353550512,2.63528453528399,-0.6395525951060211,0.7449881375838348,-0.8673087679860462,0.5552621127154136,0.1570654208023325,0.4240715327023359,-0.3221952863666111,10.302388876257282,-0.9041182206162486,0.2523851746479285,-0.9799744805724546
0.9,1.553324160788381,-1.5424928680733276,2.587489703160139,-0.0215369600326366,0.1090870183435302,0.0502941201687185,-0.5120812144510887,0.6837751658888093,-0.8184054619050732,1.5700378393111114,-1.5669465908047957,2.6183211750468733,-0.6795525957020676,0.7849881381798812,-0.9055902802464832,0.723356019636889,0.1620098979652429,0.4154948033422811,-0.569526814559046,9.96978255896829,-0.9031654051277416,0.2519503025250139,-0.9801970126244682
0.92,1.5431165157118372,-1.5287360444243416,2.570966395454943,-0.0209213466443625,0.1080093877645428,0.0505192339347768,-0.5089197278903191,0.6915361968592024,-0.8334918587669888,1.5576467874149516,-1.5524468280590795,2.6013578148097567,-0.7195525962981141,0.8249881387759277,-0.9438717925069202,0.8628846523037492,0.1580743280384766,0.3880515485196578,-0.7543198430957798,9.71089486236815,-0.9040548105718916,0.2520160374362843,-0.9787999566350142
0.94,1.5329722336929923,-1.514829404872296,2.5541093853504906,-0.0212860940853923,0.1050424695285118,0.0507027106813399,-0.5058147604946178,0.6988590721507224,-0.8514295741232684,1.5432557354889893,-1.535947065283561,2.5824803789596182,-0.7595525968941605,0.8649881393719742,-0.9821533047673572,0.9811051896540304,0.1552483697850659,0.366143764575999,-0.8968857678139763,9.373469402707997,-0.906671186492816,0.2528227306456051,-0.9757207796187944
0.96,1.5233890110606076,-1.501484242134953,2.5377559838032457,-0.0227117834311194,0.1001931586089618,0.0508394233768511,-0.5034612640066624,0.7056529433585161,-0.869066926070187,1.528864683563027,-1.5194473025080424,2.56360294310948,-0.799552597490207,0.9049881399680206,-1.0204348170277944,0.9523284824659786,0.1176748243977732,0.3396935603896867,-0.8818675973459311,9.373469402707997,-0.9105734479655868,0.2540241558389238,-0.9721484189367914
0.98,1.5133220253482176,-1.4872864303737994,2.520177570579968,-0.0251599068779784,0.0934545016295786,0.0509596390371409,-0.5037037414385461,0.7139471488821354,-0.8878459137089045,1.5134736316221635,-1.5019475397176227,2.543768469452831,-0.8395525980862534,0.944988140564067,-1.0587163292882311,1.026526932559633,-0.0121238715941884,0.4147102761809629,-0.9389493819358774,9.339479567788658,-0.916148454023612,0.2560001718110181,-0.96688556920557
1.0,1.503220843076084,-1.4729028256102503,2.5022243480764828,-0.0277704121207962,0.0859230790403397,0.0511021054974507,-0.506670193469592,0.7240009910008901,-0.9065181295309168,1.497082579666399,-1.483447776912302,2.5229769579896706,-0.8795525986822998,0.9849881411601136,-1.0969978415486683,1.070667108284774,-0.148322601552292,0.5026921059377354,-0.9336107911006196,9.323126706307448,-0.9231830913070318,0.2582173668818213,-0.959914797103676
1.02,1.493033714429096,-1.458307343824174,2.483898361822754,-0.0299481192841899,0.0782676409298023,0.051291470147452,-0.5120912702851498,0.7349088686183483,-0.9251288292314572,1.4881368382762905,-1.4515890729296923,2.4757852748945224,-0.6037037429286622,0.8139471503722515,-0.924218228847483,1.1121241064976897,-0.2710538407778906,0.5453938808729075,-0.930534985027015,9.326997448690236,-0.9304372193976476,0.260018620611287,-0.9525970438441266
1.04,1.483210546563421,-1.444173952450106,2.4665309797209227,-0.0298166054090244,0.0729319709726449,0.0515679389848945,-0.5216439813524888,0.7514594238322457,-0.9020410357737716,1.4881368382762905,-1.4515890729296923,2.4757852748945224,-0.6037037429286622,0.8139471503722515,-0.924218228847483,1.498517078121807,-0.4776355533669507,0.8275277606948739,1.1543896728842873,12.052525585756484,-0.9381110086172456,0.2563663346904963,-0.9507248326626624
1.06,1.4726644259081545,-1.4289850828792392,2.4487219181397,-0.0266890440458129,0.0712644603636412,0.0519304958103566,-0.5320755831628514,0.7661454780629807,-0.8804168708265058,1.4881368382762905,-1.4515890729296923,2.4757852748945224,-0.6037037429286622,0.8139471503722515,-0.924218228847483,1.4072162368170402,-0.5215800905181311,0.7343027115367495,1.0812082473632856,12.052525585756484,-0.9430651832105832,0.25649438660868,-0.9420153529497068
1.08,1.461932072793769,-1.4135444048341923,2.431281036093657,-0.0221679803302366,0.0723951713441337,0.0522954934426033,-0.5403828658164661,0.7768969718696352,-0.8649944636135924,1.4820998008470037,-1.44344960142597,2.4665430926060474,-0.6237037432266854,0.8339471506702747,-0.9314926918751988,1.0276869761781782,-0.4153641326807344,0.5375746903327261,0.7711203606456662,11.636322523638228,-0.9445628315251918,0.2548221565476075,-0.9380825072926072
1.1,1.45105436471589,-1.3979180459881162,2.414082867940773,-0.0177032340772556,0.0749609565204799,0.0526133945250983,-0.5467957841708935,0.785203727610588,-0.855555090407386,1.4700257259884304,-1.427170658418525,2.448058728029098,-0.6637037438227319,0.8739471512663212,-0.94604161793063,0.7057433656904812,-0.3206459177213683,0.4153377870476371,0.4719686603103235,11.205284348188798,-0.9436048883166928,0.2526672632660083,-0.9377349393746958
1.12,1.4406175638178893,-1.3829335492153678,2.3978747100906723,-0.0139823101680567,0.077858601000419,0.0528645671546042,-0.5514157275404107,0.791790909450667,-0.8510280549765071,1.4579516511298571,-1.41089171541108,2.429574363452148,-0.7037037444187784,0.9139471518623676,-0.9605905439860614,0.4615974737914113,-0.2309971684758605,0.3293590920039502,0.2263517715439422,10.849185026244411,-0.941738562792667,0.2506918345243288,-0.9383836011104784
1.14,1.429549953743481,-1.3670347777260996,2.3808701620537187,-0.0107861084302662,0.0807693340804318,0.0530739868635035,-0.5550538069689311,0.797835345001863,-0.8498262626734462,1.4438775762414815,-1.3926127723738326,2.410362552572427,-0.7437037450148248,0.953947152458414,-0.9751394700414928,0.3578237268561258,-0.1819039714260228,0.3022217775598024,0.0600896151530472,10.570104726524733,-0.939711813339676,0.2490929525434358,-0.9394153781223288
1.16,1.4184208533747544,-1.3510208858061428,2.3638716902713703,-0.0083643505365221,0.0831081695817121,0.0532266446419679,-0.5576737246682492,0.803366148479162,-0.8501258268683626,1.429803501353106,-1.3743338293365854,2.3911507416927056,-0.7837037456108713,0.9939471530544606,-0.989688396096924,0.306363732198256,-0.1309958849659009,0.2765401738649475,-0.0149782097458195,10.355848084714124,-0.9380925215242026,0.2476204689655337,-0.9406569578005056
1.18,1.4072425360094885,-1.3348917262651874,2.3468570321308437,-0.0064019451025908,0.0847406920014547,0.0533420007351675,-0.5600598672593545,0.8092525461048835,-0.851321972720576,1.4147294264498291,-1.355054886284437,2.3715752076615986,-0.8237037462069177,1.033947153650507,-1.0042373221523555,0.3231645028965676,-0.1193071295552683,0.2943198812860759,-0.0598072926106696,10.284300328097745,-0.9368527095595676,0.2464567832910886,-0.941626603875124
1.2,1.3965797576645225,-1.3194605308631953,2.3306636901814146,-0.0046695806558488,0.0857276653838031,0.0534342645343269,-0.5622501862547589,0.8147361127729162,-0.8531796279663286,1.398655351531651,-1.3347759432173871,2.351635950479106,-0.8637037468029641,1.0739471542465533,-1.0187862482077867,0.3095072039406396,-0.1095159497702169,0.2741783334016368,-0.0928827622876327,10.198850144674909,-0.936107279330851,0.2452940758292212,-0.9421291799523148
1.22,1.3853107471971011,-1.3031084759200393,2.3135718029447445,-0.0029273674913042,0.0862537295546942,0.0535147657599933,-0.5645674201617051,0.8201358820476476,-0.8559481637387065,1.3792395426465207,-1.2944290989599432,2.3042909334948143,-0.6600598687494706,0.9092525475949996,-0.8538865244949884,0.3247763519822944,-0.1158616953473135,0.2699884637365701,-0.138426788618895,10.198850144674909,-0.9358281658935742,0.2441381113437911,-0.9422278643196084
1.24,1.3739915233959938,-1.2866303321477122,2.296653094451534,-0.0005612653367133,0.087020276064206,0.0536239429231821,-0.567050198251255,0.8269874546879961,-0.8345503443600085,1.3792395426465207,-1.2944290989599432,2.3042909334948143,-0.6600598687494706,0.9092525475949996,-0.8538865244949884,1.1302377060283642,-0.1241389044774943,0.3425786320174206,1.0698909689349,10.150839381476544,-0.939772183833666,0.2403359031432472,-0.9415231575205107
1.26,1.3626388420679227,-1.270045972361624,2.280177934579073,0.0020925747767603,0.0883465035060439,0.0537387557792362,-0.5680558853545644,0.8311654923581824,-0.8141680955723216,1.3792395426465207,-1.2944290989599432,2.3042909334948143,-0.6600598687494706,0.9092525475949996,-0.8538865244949884,1.041517487810962,-0.0502843551654696,0.2089018835093159,1.0191124393843454,11.769415704659878,-0.940120001089826,0.2399003726520467,-0.939012003782818
1.28,1.351845714079635,-1.254226880926307,2.2648654031921853,0.0040766946570042,0.0894119638111844,0.0537980065718956,-0.5680646066763153,0.8339835344222492,-0.7986875596578014,1.372638943959026,-1.2853365734839932,2.295752068249864,-0.6800598690474938,0.9292525478930228,-0.8543994348498708,0.7867471470190633,-0.0004360660875446,0.1409021032033386,0.7740267957260127,11.50850783014812,-0.939859033645612,0.2395789749729424,-0.937505087319602
1.3,1.3404903369151642,-1.2375254272582898,2.249033857570069,0.0052821941486232,0.089849930318801,0.0537834939033436,-0.5675475539400011,0.8361142687441339,-0.7854114056030329,1.3594377465840366,-1.267151522532093,2.2786743377599645,-0.7200598696435403,0.9692525484890692,-0.8554252555596358,0.6727994477712737,0.0258526368157097,0.1065367160942354,0.6638077027384226,11.248700383172036,-0.9404226937172578,0.2401820914847558,-0.9347786926434372
1.32,1.3291485035178816,-1.220790240800345,2.233438110977746,0.005154150903087,0.08925516934624,0.0536590653581842,-0.5668038417063692,0.8375154113794773,-0.7748080062094229,1.3462365492090471,-1.2489664715801931,2.261596607270065,-0.7600598702395868,1.0092525490851156,-0.8564510762694008,0.5360699284408694,0.0371856116815949,0.0700571317671705,0.5301699696804996,11.056047702763864,-0.9417905713744338,0.241588076323007,-0.9313968352576476
1.34,1.3183884900063052,-1.2048694775877724,2.218802050395057,0.0034732313612256,0.0874814697281324,0.0534198350718328,-0.565986285776973,0.8385211900207331,-0.766345020123797,1.3310353518042553,-1.2287814205984908,2.244467585744677,-0.8000598708356332,1.049252549681162,-0.8574768969791657,0.4280832917155113,0.0408777964698126,0.0502889320627919,0.423149304281295,10.79997756058492,-0.944518507478998,0.2441690905469591,-0.9265655516941008
1.36,1.3070788122271677,-1.188082019293513,2.203568933692424,-2.599832494703461e-05,0.0839789769163716,0.0530462647123514,-0.5651659886875191,0.8407724445403448,-0.7573892542201838,1.3158341543994636,-1.2085963696167883,2.227338564219289,-0.8400598714316797,1.0892525502772086,-0.8585027176889307,0.4635374233742088,0.0410148544726929,0.1125627259805861,0.4477882951806622,10.79997756058492,-0.9488632680966408,0.2479460123349852,-0.920073162242263
1.38,1.2957739014755274,-1.1712126662101636,2.1885201926427182,-0.0040957564993431,0.0786103641941,0.0526511652468403,-0.5656852493318019,0.8461482178044293,-0.7478967666242217,1.2996329569797709,-1.187411318620185,2.2101838971761567,-0.8800598720277261,1.129252550873255,-0.8595285383986956,0.5460675108515443,-0.0259630322141379,0.2687886632042224,0.4746243797981053,10.79794934298934,-0.9545157626869332,0.2522613489168087,-0.9118657531175416
1.4,1.2844301247499352,-1.1542165212844555,2.173667873941441,-0.0078137832375999,0.0719467386953875,0.0523114127409642,-0.5689898256557723,0.8531220208928217,-0.7377937461812971,1.2824317595451766,-1.1652262676086804,2.1930035846152807,-0.9200598726237724,1.1692525514693013,-0.8605543591084606,0.6356594533765099,-0.1652288161985204,0.348690154419623,0.5051510221462274,10.823720071787648,-0.96136659219067,0.2561847939555242,-0.9022915300219786
1.42,1.2735648548523912,-1.1379315863975508,2.159749600717058,-0.0107519953623976,0.0652060839679005,0.0520567716530834,-0.5747568662941637,0.8606057817342203,-0.7277750290321011,1.2674896390089374,-1.128905255319942,2.151125354311507,-0.665685250821918,0.9461482192945454,-0.7406906363170539,0.68854943063607,-0.2883520319195698,0.3741880420699284,0.5009358574598,10.853449788991384,-0.9698221579366404,0.2600024232084419,-0.8905320798172128
1.44,1.261926987610797,-1.1205628192963637,2.145403818636512,-0.0109159056914452,0.060205174888751,0.0519815736924401,-0.5890281890725454,0.8751219019591041,-0.7067867900818255,1.2674896390089374,-1.128905255319942,2.151125354311507,-0.665685250821918,0.9461482192945454,-0.7406906363170539,1.4619290120093915,-0.7135661389190862,0.72580601124419,1.0494119475137786,10.87476814400634,-0.9754255327374376,0.2594092365064537,-0.8853715454940714
1.46,1.249993952280069,-1.102944326090331,2.131485561868104,-0.0074413620848751,0.0596753442978115,0.0520993880804979,-0.6030021028002599,0.8854471106756213,-0.6861830879497851,1.2674896390089374,-1.128905255319942,2.151125354311507,-0.665685250821918,0.9461482192945454,-0.7406906363170539,1.347583709324859,-0.6986956863857252,0.5162604358258605,1.0301851066020218,11.51213177340469,-0.9813190503681108,0.2593411219648319,-0.8759235614284568
1.48,1.2378109125958234,-1.0851689945602474,2.117947026904329,-0.002881843341174,0.0620778604789344,0.0522621387322728,-0.6142699428308426,0.89143890239401,-0.6686670128951859,1.2608327865007185,-1.1194437731269966,2.143718447948337,-0.6856852511199412,0.9661482195925686,-0.7392494102556203,1.0836035625053386,-0.5633920015291338,0.2995895859194353,0.8758037527299589,11.51213177340469,-0.9835116494330756,0.2580426802924607,-0.8712113668518757
1.5,1.2260530792503506,-1.068196611948303,2.1053817370043517,0.0010669292532398,0.0658094466540821,0.0523870830446545,-0.6226393853735324,0.8949732282035416,-0.6548570111915938,1.2475190814842798,-1.1005208087411058,2.128904635221996,-0.7256852517159876,1.0061482201886152,-0.7363669581327532,0.8265215884302796,-0.4184721271344893,0.1767162904765806,0.6905000851796073,11.282146162358003,-0.9832393816812888,0.2565379473898304,-0.8699403000992281
1.52,1.2135282083491132,-1.0502706996958546,2.092414881256741,0.0043415471617617,0.0702626522785154,0.0524624249547879,-0.6292523858092922,0.8975963688516794,-0.6426599091729902,1.2342053764678416,-1.0815978443552148,2.1140908224956547,-0.7656852523120341,1.0461482207846615,-0.7334845060098861,0.7060133484494042,-0.3306500217879926,0.1311570324068867,0.6098551009301789,11.079901758162125,-0.9818506847050188,0.255327479420115,-0.8703274786769389
1.54,1.2008907426084652,-1.032297976484262,2.0796688729350308,0.006605995954795,0.0745225716511913,0.0524694317220553,-0.6340807377866903,0.899735426627623,-0.6326405949810607,1.218891671421601,-1.0606748799395216,2.099421132375457,-0.8056852529080806,1.086148221380708,-0.730602053887019,0.5662932276282929,-0.241417598869903,0.1069528887971793,0.5009657095964737,10.924583404516852,-0.9799956160882866,0.2545204950675309,-0.87160269386473
1.56,1.18817312636312,-1.014288317444617,2.06710811296074,0.0077937695251767,0.0780739747607703,0.0523959491424167,-0.6374606173583174,0.9013255101976114,-0.6239328276475526,1.2035779663753603,-1.0397519155238284,2.0847514422552598,-0.845685253504127,1.1261482219767545,-0.727719601764152,0.4737540596468806,-0.1689939785813554,0.0795041784994232,0.4353883666754043,10.794368697271238,-0.9783010045762166,0.2541567061094507,-0.8728643176855531
1.58,1.176034001568081,-0.9971450149022746,2.0553295980871567,0.0080376927063079,0.0806588095630061,0.0522548629892028,-0.6401927132358675,0.9032060256427832,-0.6163468568146684,1.1872642613142184,-1.017828951093234,2.070153813438133,-0.8856852541001734,1.1661482225728008,-0.7248371496412848,0.4139675098997093,-0.1366047938775039,0.0940257722585879,0.3792985416442129,10.72695360770831,-0.977039939653617,0.2544583309994149,-0.873521587424673
1.6,1.163203417571156,-0.979058701426107,2.043082896767788,0.0075301525046041,0.082621141180927,0.0520422802272564,-0.642736099314121,0.9053711355798,-0.6087382966329608,1.1699505562381751,-0.9949059866477384,2.055628245924079,-0.92568525469622,1.2061482231688472,-0.7219546975184177,0.4154717253348589,-0.1271693039126775,0.1082554968508398,0.3804280090853817,10.687984471936945,-0.9764564054704856,0.2553382000756002,-0.8733058542963457
1.62,1.1503239586095666,-0.9609246556629716,2.030984732453022,0.0063421586105165,0.0838749619218603,0.0517726292252986,-0.6451304708221408,0.9079687926863036,-0.6014560932016777,1.1440243659062876,-0.9519847136201354,2.024512255246423,-0.7401927147259836,1.0032060271328993,-0.6031037003294089,0.4046953303905821,-0.1197185754009899,0.1298828553251862,0.3641101715641526,10.667003604921774,-0.9764821914621734,0.2567755991205718,-0.8722239101644795
1.64,1.137380983479492,-0.9426883590342786,2.0191190055671235,0.0060980879294596,0.085191516792612,0.0515650735578278,-0.6489272322049461,0.9152060314498964,-0.585012173578169,1.1440243659062876,-0.9519847136201354,2.024512255246423,-0.7401927147259836,1.0032060271328993,-0.6031037003294089,0.918144207768616,-0.1898380691402634,0.3618619381796362,0.8221959811754331,10.649180127715226,-0.9771880487840602,0.2563437726001499,-0.8723372438909615
1.66,1.1250294586460658,-0.9252513324632876,2.008154912112586,0.0072889113212279,0.0867723026332834,0.0514651532860583,-0.6510198088660873,0.9198924495110498,-0.5699721047160345,1.1440243659062876,-0.9519847136201354,2.024512255246423,-0.7401927147259836,1.0032060271328993,-0.6031037003294089,0.7945833227302294,-0.1046288330570632,0.2343209030576665,0.7520034431067246,11.268969539523823,-0.978284242846698,0.2569944522882159,-0.8692174233347565
1.68,1.1119959391702283,-0.9068155349465654,1.9969032254682937,0.0089443311787622,0.0880983411237822,0.0513816816921033,-0.6522320944954144,0.9234500544805142,-0.5560749945777491,1.1366224387590278,-0.9419526533488064,2.0184812182431293,-0.7601927150240068,1.0232060274309225,-0.6004550690323569,0.7198191782688669,-0.0606142814663535,0.1778802484732222,0.6948555069142714,11.15121906118202,-0.9790252928968152,0.2571342850305768,-0.866767359931231
1.7,1.0989445171982706,-0.8883210031156891,1.985909462069942,0.0104136565904888,0.0887001580519535,0.0512743583609472,-0.6529156625541576,0.925867510801476,-0.5440668731028369,1.121818584464508,-0.9218885328061484,2.006419144236541,-0.8001927156200532,1.063206028026969,-0.5951578064382531,0.6134051306252286,-0.0341784029371572,0.1208728160480954,0.600406073745613,11.021546768649388,-0.9802090668486272,0.2574562264901937,-0.8637124423620834
1.72,1.0858822441142275,-0.8697901382796669,1.9751388785473616,0.011148129784103,0.0883558940079758,0.0511014459933167,-0.6534191604316083,0.9272556927620784,-0.5335758817709529,1.1070147301699884,-0.9018244122634904,1.994357070229953,-0.8401927162160997,1.1032060286230154,-0.5898605438441493,0.5297203469614946,-0.0251748938725371,0.0694090980301154,0.5245495665941957,10.906239103704138,-0.981983711512338,0.2581623597160937,-0.8600900059831149
1.74,1.0734637817544646,-0.8521672402959197,1.96509231506816,0.0107563502998409,0.0870315689067595,0.0508477747312639,-0.6538677065976503,0.9279021506306544,-0.5244683652831545,1.0902108758456663,-0.8797602916910301,1.9825598593530696,-0.8801927168121462,1.1432060292190618,-0.5845632812500455,0.4570720895395891,-0.0224273083020976,0.0323228934288044,0.4553758243899197,10.81964565168164,-0.9847042673239952,0.2594722413784866,-0.8554672476942151
1.76,1.0603820106481243,-0.8336063731475722,1.9547035902460053,0.0088361990845143,0.0843643035454068,0.050465408530888,-0.6543865308591152,0.928327321343906,-0.5148660104313115,1.0734070215213445,-0.8576961711185698,1.9707626484761869,-0.9201927174081926,1.1832060298151084,-0.5792660186559417,0.4812877711162122,-0.0259412130732494,0.0212585356625716,0.480117742592151,10.762799918081328,-0.9885937414613196,0.2617200883977947,-0.8494727384208409
1.78,1.0472799947589555,-0.8150172673185934,1.9445112849707191,0.0056708072349859,0.0803071860642302,0.0499980343761271,-0.655975309465983,0.9309260941950116,-0.5048223544688426,1.055603167182121,-0.8346320505312083,1.9590978691641563,-0.9601927180042392,1.2232060304111547,-0.5739687560618378,0.5247686701912632,-0.0794389303433895,0.1299386425552884,0.5021827981234461,10.776064037913784,-0.9933117770316182,0.2648620474117872,-0.8420666215476356
1.8,1.0347883753181562,-0.7972851708237506,1.935021363172982,0.0026217556764271,0.0754028313419514,0.0495655521124954,-0.6590281982354712,0.9354475964725244,-0.4946003183899634,1.0367993128279969,-0.8105679299289457,1.9475655214169787,-1.0001927186002857,1.263206031007201,-0.568671493467734,0.5793404316166986,-0.1526444384744085,0.22607511387564,0.5111018039439613,10.776064037913784,-0.9997311990447104,0.2686274629609603,-0.8319038600925444
1.82,1.0215536560848473,-0.7785162354282393,1.925248354029501,-0.0001486316087476,0.0696240513304717,0.049162521164237,-0.6645304161033144,0.9411561989872652,-0.4831949868340474,1.0144812292856566,-0.7684709626088427,1.919270167247277,-0.7559753109560992,1.0104489497748648,-0.4867140852691136,0.6945216555962955,-0.2751108933921609,0.2854301257370295,0.5702665777957971,10.81023161286612,-1.0072660563862763,0.2725589804469096,-0.8196831518216322
1.84,1.0081228247074594,-0.7594806746004321,1.9157589784790496,0.0024385040457794,0.0657263835776347,0.0491410784946566,-0.678218020495274,0.959646326389321,-0.4662621832415373,1.0144812292856566,-0.7684709626088427,1.919270167247277,-0.7559753109560992,1.0104489497748648,-0.4867140852691136,1.4282464448035337,-0.6843802195979798,0.9245063701027956,0.8466401796255046,10.842400776205068,-1.013715988687467,0.2734500359637683,-0.8089957475481092
1.86,0.9951087487122536,-0.7411638416474484,1.9070553450072376,0.0098147045456718,0.0656644623182263,0.0494548977919613,-0.6904997634072507,0.9667239487631882,-0.4507387766295068,1.0144812292856566,-0.7684709626088427,1.919270167247277,-0.7559753109560992,1.0104489497748648,-0.4867140852691136,1.051082894287351,-0.614087145598835,0.353881118693361,0.7761703306015277,11.140036042261272,-1.0190895052624385,0.2702568827509282,-0.8016673698336497
1.88,0.981186868578209,-0.7218108006836216,1.8981889614947145,0.0181803070972961,0.0681023687700586,0.0498481231210157,-0.7007648532208597,0.9680947453111888,-0.4368347024369755,1.0069214761760956,-0.7583664731110941,1.9144030263945857,-0.7759753112541223,1.0263535208908354,-0.4830924314291678,0.8668541273029771,-0.5132544906804481,0.068539827400027,0.6952037096265629,11.140036042261272,-1.0204722380249631,0.2657111431624359,-0.8004382751606968
1.9,0.9670852418834032,-0.7024668481292315,1.8895708179671544,0.0255649786463631,0.0718658649928838,0.050209402242019,-0.7086862280832744,0.9663552594126894,-0.4257941966994628,0.9918019699569736,-0.7381574941155968,1.9046687446892037,-0.8159753118501688,1.0581626631227763,-0.4758491237492762,0.6849575859898666,-0.3960687431207366,-0.0869742949249685,0.5520252868756376,10.953710286637032,-1.0197485311499026,0.2614691069383013,-0.8022071755093019
1.92,0.9528480230145496,-0.6831788199008908,1.881145250842648,0.0313976525172875,0.0760034830639407,0.0504883817720898,-0.7145407976797862,0.962891198187805,-0.4173041339879298,0.9766824637378516,-0.7179485151200995,1.8949344629838207,-0.8559753124462153,1.0899718053547178,-0.4686058160693847,0.5439597185819691,-0.292728479825588,-0.1732030612442203,0.4245031355766482,10.774896903277297,-1.0178888259607015,0.257404534229943,-0.805802673603395
1.94,0.9392311196028672,-0.6649285253486701,1.873281356569784,0.0354693406456031,0.0796562294347794,0.0506537433405464,-0.7185116496373782,0.958718855639045,-0.4108950718335788,0.9595629574889274,-0.6961490790130052,1.8855623466624336,-0.8959753130422617,1.1217809475866591,-0.4613625083894931,0.4308485386758316,-0.1985425978796029,-0.2086171274379988,0.3204531077175498,10.635536705525736,-1.0157251773143097,0.2540494444432163,-0.8097985381769208
1.96,0.9248296278519502,-0.6458066573438916,1.8651265724512271,0.0383346830152135,0.0827647604401345,0.0507085503769468,-0.721423740822062,0.9539503192070572,-0.40495125413032,0.9424434512400032,-0.6743496429059108,1.8761902303410456,-0.9359753136383082,1.1535900898186002,-0.4541192007096015,0.4078853504990061,-0.1456045592341859,-0.2384268215993856,0.2971908851629373,10.49854748073176,-1.0139388263277311,0.2515280374877482,-0.8131847097801573
1.98,0.9103745305839352,-0.6267755122555243,1.85708541879181,0.0401115678500348,0.0849908296914374,0.0506547466661688,-0.723961981839304,0.9495158464047352,-0.3994775570468486,0.9243239449761776,-0.651754978243018,1.8669991967116557,-0.9759753142343546,1.1853992320505415,-0.4468758930297099,0.374394765781216,-0.1269120508621046,-0.221723640116106,0.2736848541735726,10.49854748073176,-1.012762201011799,0.2499234501115171,-0.8153412930914916
2.0,0.8958710642103249,-0.6078348518386424,1.84915158993006,0.0410397289776101,0.0864532154747258,0.0505096586906249,-0.7263054615172457,0.944870257192501,-0.3941778170728865,0.9052044386974508,-0.6283650850243265,1.8579892457742624,-1.015975314830401,1.2172083742824826,-0.4396325853498183,0.3713510465898946,-0.1171739838970842,-0.2322794606117117,0.2649869986981024,10.477012907227618,-1.0123185048197354,0.2489575328935234,-0.8164188338322598
2.02,0.8820495753956559,-0.5899292976205269,1.8417125709002535,0.0411157518101794,0.0872662037063862,0.0502900820869258,-0.7284977137001251,0.9402063770106796,-0.3891385852484053,0.87417643149197,-0.5792997199352875,1.837111540939468,-0.784062101400261,0.9710226513776222,-0.3835695392922938,0.3603873102808653,-0.1096126091439664,-0.23319400909107,0.2519615912240647,10.475279525529004,-1.0124379660405771,0.2486411711198551,-0.8165528945605192
2.04,0.8673605153672839,-0.570976609868942,1.8340102274094687,0.0468719844325124,0.0903947968790572,0.0505509763748709,-0.7397565323218525,0.9521544346762826,-0.3813276160462913,0.87417643149197,-0.5792997199352875,1.837111540939468,-0.784062101400261,0.9710226513776222,-0.3835695392922938,0.9090218900195752,-0.5629409310863698,0.5974028832801515,0.3905484601056996,10.475279525529004,-1.010575615492246,0.2460689808365046,-0.8178647919451637
2.06,0.852489069988175,-0.5519417945862783,1.826457097520401,0.058505287941503,0.0975811727501232,0.0514500686125913,-0.7461963093434525,0.9498801159828004,-0.3744705386746199,0.87417643149197,-0.5792997199352875,1.837111540939468,-0.784062101400261,0.9710226513776222,-0.3835695392922938,0.4838976226655218,-0.3219888510800017,-0.1137159346741079,0.3428538685835675,10.64810707860488,-1.006872901559772,0.2374731824838297,-0.8253495124233026
2.08,0.8375406741988024,-0.5330387771465797,1.819008092595722,0.0705395731427321,0.1066455917244064,0.0525700735451588,-0.7479270058074274,0.9404839960576928,-0.3708085387981626,0.8663358104779674,-0.5695894934215113,1.8332758455465448,-0.7960821253124524,0.9753240123721996,-0.3803879357413829,0.5115970655520625,-0.0865348231987472,-0.4698059962553791,0.1830999938228661,10.556224105179354,-1.0003668832406034,0.2283199774359561,-0.8362673274551642
2.1,0.8233484447904075,-0.5152958575981844,1.8119717947331977,0.0806445448222433,0.1155608367264771,0.0536473274139147,-0.7457179857612997,0.9279423292809188,-0.3700591034900232,0.8506545684499622,-0.5501690403939589,1.8256044547606989,-0.8201221731368352,0.9839267343613544,-0.374024728639561,0.6378378092918985,0.1104510023063887,-0.6270833388386965,0.0374717654069683,10.249202588972366,-0.991573926274848,0.2185747967300743,-0.8501701193120605
2.12,0.8084897940476017,-0.4968977240288779,1.80456056907088,0.089382175598328,0.124178365513779,0.0546578025213835,-0.7401042714157451,0.9127634274112784,-0.3711948264838921,0.834973326421957,-0.5307485873664064,1.817933063974853,-0.844162220961218,0.9925294563505092,-0.3676615215377391,0.8111761791381468,0.2806857172777288,-0.7589450934820274,-0.056786149693444,10.249202588972366,-0.9822057648047944,0.2095575656053956,-0.8643339829018442
2.14,0.7937727279495416,-0.4788186704091565,1.7971116825935234,0.0960955556069461,0.1312613522999266,0.0554347030708761,-0.7318379640440221,0.8961922566277902,-0.3736850482810316,0.8180900820027326,-0.5108979982393962,1.810579833544098,-0.8682022687856007,1.001132178339664,-0.3612983144359172,0.9342600592156884,0.4133153685861479,-0.8285585391744066,-0.124511089856974,10.171695635397557,-0.9733263504801364,0.2016353587777591,-0.8773852888381232
2.16,0.7792437368586819,-0.4610822610371862,1.7896075668339575,0.1008279177309237,0.1363146742696727,0.0558956570834102,-0.7216219370388256,0.8787325164651206,-0.3765891689430319,0.8012068375835083,-0.491047409112386,1.8032266031133437,-0.8922423166099835,1.0097349003288187,-0.3549351073340953,1.0218165822914356,0.5108013502598263,-0.8729870081334801,-0.1452060331000176,10.131829859141362,-0.9661144666080502,0.1952737399557292,-0.8879718718485149
2.18,0.7656391171067675,-0.4445582985037258,1.782428428386579,0.1037988093505342,0.1391747014503541,0.0560294854300704,-0.7111150617806475,0.8618418909319844,-0.3789489504694596,0.7837225919686743,-0.4709817519356469,1.796032452860134,-0.9162823644343664,1.0183376223179736,-0.3485719002322734,1.0015690533408292,0.5253437629089031,-0.8445312766568125,-0.1179890763213842,10.14075215741832,-0.9601385003468296,0.1898288994219852,-0.8968283673874671
2.2,0.7515368557978244,-0.4275124674392661,1.7748305970356948,0.1056207251710981,0.1403205616549077,0.0558731142762122,-0.6997759316902348,0.8438073296379872,-0.3806594430255886,0.7656373451582309,-0.450701026709179,1.7889973827844703,-0.940322412258749,1.0269403443071283,-0.3422086931304515,1.06858207108628,0.5669565045206382,-0.9017280646998582,-0.0855246278064492,10.184451079569952,-0.9561140421436602,0.1855575215615921,-0.9032160754861032
2.22,0.7376638129794623,-0.4108346524532454,1.767209042827189,0.1060717046883108,0.1396761596496567,0.0554157582473456,-0.6881695901039777,0.8250021883682379,-0.3813531982989215,0.7300833640177351,-0.4014662039571266,1.763480980863106,-0.71790369275047,0.8362144082495179,-0.3380306859314099,1.105465738468843,0.5803170793128531,-0.9402570634874652,-0.0346877636666465,10.31359781903666,-0.9542248896024196,0.1825368976667943,-0.9070611218743656
2.24,0.7239043290435154,-0.3943917414425477,1.7596125655623365,0.1098836412248028,0.1408216687621219,0.0553713430671291,-0.6874624819458113,0.8175490218333032,-0.3785582088949052,0.7300833640177351,-0.4014662039571266,1.763480980863106,-0.71790369275047,0.8362144082495179,-0.3380306859314099,0.3995674508558572,0.0353554079083218,-0.3726583267467331,0.1397494702008173,10.469657882769752,-0.94912497864103,0.1787113064583471,-0.9123897262602312
2.26,0.7108877237464468,-0.3790130254007153,1.7524519312178706,0.1165186622340227,0.1454995520879728,0.0559337658412731,-0.6823047226961195,0.801347484871679,-0.3754019535730143,0.7300833640177351,-0.4014662039571266,1.763480980863106,-0.71790369275047,0.8362144082495179,-0.3380306859314099,0.8646592219678567,0.2578879624845875,-0.8100768480812148,0.1578127660945449,10.469657882769752,-0.9452619726190225,0.1707963439115739,-0.9195493184895184
2.28,0.6973360135380189,-0.3632071378834843,1.7449797502978657,0.1234248604501627,0.1522126394220584,0.0567483157061952,-0.6727828969158902,0.7801030120699793,-0.3719951193477164,0.7229043270902304,-0.3931040598746314,1.760100674003792,-0.7192614189444344,0.8310889117130246,-0.3298470330238,1.1764345607064757,0.4760912890114654,-1.0622236400849805,0.1703417112648958,10.536807503368436,-0.9377998302323168,0.162607252730811,-0.9299898312932544
2.3000000000000003,0.6840188468655328,-0.3478553184754179,1.7375772636922535,0.1291142517133413,0.1592901072795365,0.0575446053443953,-0.6592549032003153,0.756470835386959,-0.3684361409969475,0.708546253235221,-0.3763797717096411,1.7533400602851636,-0.7219768713323634,0.820837918640038,-0.3134797272085801,1.3730920541312626,0.6763996857787447,-1.1816088341510156,0.1779489175384424,10.577350734065476,-0.9297904501982024,0.1559611177223582,-0.9400536698914992
2.32,0.6716510033987538,-0.3337219734390253,1.7306149306648475,0.1330791953690242,0.165285065431783,0.0581161604580731,-0.6432987701565092,0.7328025444692937,-0.3646049044529081,0.6941881793802116,-0.3596554835446507,1.7465794465665354,-0.7246923237202924,0.8105869255670514,-0.2971124213933602,1.440021310720144,0.7978066521903082,-1.1834145458832657,0.191561827201972,10.6830339996377,-0.9220098048796084,0.1505247093329023,-0.9492412415704884
2.34,0.6589845452561232,-0.3193349173343134,1.7233739713389016,0.1357862307236124,0.1701165902247811,0.0584141143166771,-0.6241804523860235,0.7074074540659816,-0.3596251383565104,0.6796943329058057,-0.3434437450333096,1.740637198138668,-0.7274077761082213,0.8003359324940648,-0.2807451155781403,1.6087407819009367,0.9559158885242836,-1.2697545201656055,0.2489883048198832,10.6830339996377,-0.9152884675583944,0.1463373405731111,-0.9569590716588212
2.36,0.6467199190270255,-0.3054640703378475,1.7162454441454795,0.1369776037312752,0.1730029263504697,0.0583259916341199,-0.60332732983698,0.6811213832013854,-0.3534001359678754,0.6652004864313998,-0.3272320065219686,1.734694949710801,-0.7301232284961503,0.7900849394210782,-0.2643778097629204,1.706283165452405,1.042656127452174,-1.3143035432298111,0.3112501194317524,10.769325427741023,-0.910360082812234,0.1434224028686452,-0.9626546131282934
2.38,0.63488636537377,-0.2921335256155234,1.7092582977294402,0.1361531756889868,0.1736666259145571,0.0577710293005844,-0.5812810953858456,0.6536022046969459,-0.3455834983210445,0.6506387536472958,-0.3112765428374522,1.7291618839283145,-0.7328386808840792,0.7798339463480916,-0.2480105039477006,1.8058526124350824,1.1023117225567205,-1.3759589252219762,0.3908318823415413,10.869470433776767,-0.9079727844363816,0.1423493501228402,-0.9655953901216972
2.4,0.6240611513812395,-0.2799848875273591,1.7027830764082332,0.1330581814794195,0.1719976809161864,0.0567542985114463,-0.5594983959059674,0.6271583316156977,-0.3363203678021483,0.6360091345534935,-0.2955773539797606,1.7240380007912082,-0.7355541332720082,0.769582953275105,-0.2316431981324807,1.7745210672023282,1.0891349739939105,-1.322193654062409,0.4631565259448134,10.982030002887768,-0.9083239107137098,0.1436888365565671,-0.965422327459052
2.42,0.6131146440814149,-0.2677107183587215,1.6961827973492511,0.128038307728222,0.1674436206780511,0.0551929904628422,-0.536609820128796,0.6021002285514584,-0.3240039747641586,0.6058223106044777,-0.2594534153806762,1.691979122813388,-0.6008783109638056,0.617415822522454,-0.3046969099264027,1.805193180626104,1.1444287888585702,-1.252905153211964,0.6158196518994824,11.104375951143991,-0.9110434274700678,0.1468156896368203,-0.962452143823114
2.44,0.6025730680267478,-0.2558502381141772,1.689689131473245,0.1237772800835296,0.1603003858742042,0.0533779626140695,-0.5192605474423364,0.5847760026476787,-0.3268428200021543,0.6058223106044777,-0.2594534153806762,1.691979122813388,-0.6008783109638056,0.617415822522454,-0.3046969099264027,1.2340837777472955,0.8674636343229791,-0.8662112951889844,-0.1419422618997856,11.236681460231011,-0.9082672982232178,0.1478416188430723,-0.9644422914380344
2.46,0.592350122960001,-0.2443545322528685,1.6831502663726292,0.1208035312249404,0.1514547628766667,0.0514665353842656,-0.5043253841091541,0.5655597039404908,-0.3267796230505541,0.6058223106044777,-0.2594534153806762,1.691979122813388,-0.6008783109638056,0.617415822522454,-0.3046969099264027,1.2168907445282389,0.7467581666591172,-0.9608149353593942,0.0031598475800143,10.163899391330231,-0.9141958985258214,0.1478329182821418,-0.959923134142615
2.48,0.5828896559202835,-0.2338001673832733,1.6769844643911358,0.1183428746447933,0.1422426559791854,0.0495996316406942,-0.4925822381842289,0.546424409354081,-0.3222286484799797,0.5998135274948396,-0.2532792571554516,1.688932153714124,-0.6047977540793976,0.6101785460875556,-0.2965195922474743,1.1453955044708195,0.5871572962462546,-0.9567647293204916,0.2275487285287203,10.442690848085476,-0.9224645849861062,0.1482278861061647,-0.952663373443524
2.5,0.5731444390680462,-0.223086878504154,1.670625668373875,0.115875874262711,0.132405607332345,0.0476497435562948,-0.4828551868213991,0.525965472052175,-0.3136987566122206,0.5877959612755634,-0.2409309407050025,1.682838215515596,-0.6126366403105816,0.5957039932177588,-0.2801649568896175,1.210312665196591,0.4863525681414904,-1.0229468650952978,0.4264945933879521,10.703855969923096,-0.9321440559462012,0.1491867528154102,-0.943446137218382
2.52,0.563566214511472,-0.2127852580630045,1.6644720048588206,0.113390741864095,0.1229642098490129,0.0457693606994467,-0.4757011231067411,0.505321980341726,-0.3019387412617497,0.5757783950562874,-0.2285826242545534,1.676744277317068,-0.6204755265417656,0.5812294403479621,-0.2638103215317608,1.240596971901104,0.3577031857329021,-1.0321745855224496,0.5880007675235471,11.090767204416808,-0.942336053444658,0.1506249978945556,-0.9332119817905876
2.54,0.5541053707006303,-0.2028965273740515,1.658583183320036,0.1107877529980669,0.1143298146065674,0.0439985617647119,-0.4709181230195178,0.484751623475425,-0.2874987258070649,0.5633688845254521,-0.2169580354475942,1.671468070886433,-0.6283144127729496,0.5667548874781654,-0.247455686173904,1.2791898977212972,0.239150004361166,-1.0285178433150493,0.7220007727342381,11.227706686356214,-0.9519801996324356,0.1523600407465479,-0.9231593979010936
2.56,0.5451850879425547,-0.1938799688771209,1.6532685442065749,0.1081907752447799,0.1071128568775391,0.0424418552319365,-0.4683994549647122,0.4655456912938888,-0.2726251198554563,0.5509593739946167,-0.2053334466406349,1.6661918644557976,-0.6361532990041336,0.5522803346083686,-0.2311010508160473,1.22110162735928,0.1259334027402803,-0.9602966090768106,0.7436802975804291,11.283081157838753,-0.9615153380943612,0.1545954906741088,-0.912734991937085
2.58,0.5358262849068572,-0.1847790073844994,1.6479887777015827,0.1052983622360079,0.1007691097834494,0.0409535439088667,-0.467790298899802,0.445724373451536,-0.2560664465935777,0.5383538913080018,-0.1940707216554206,1.6613245239091088,-0.6439921852353176,0.5378057817385719,-0.2147464154581905,1.2917482071911766,0.0304578032455066,-0.991065892117643,0.8279336630939327,11.283081157838753,-0.9699279766065526,0.1570547188215411,-0.9032044243265636
2.6,0.5264565758764719,-0.1760694217388238,1.6430479315306157,0.1022059755201197,0.0961427152860483,0.0396570436870811,-0.4693678094789894,0.4264063248063113,-0.2387918908281658,0.5255524364656072,-0.1831698604919512,1.6568660492463665,-0.6518310714665017,0.523331228868775,-0.1983917801003338,1.2981581374961972,-0.0788755289593656,-0.9659024322612314,0.8637277882705948,11.329794442597631,-0.9769255619772236,0.1597917498131705,-0.8949315706538354
2.62,0.517035080346061,-0.1677388688621038,1.6384583372727044,0.0989309405207355,0.0938229984770274,0.0386044733655374,-0.472716216827041,0.4077955398241387,-0.22098579229307,0.5124367699618672,-0.1624927887119226,1.635185455371904,-0.4738679023368085,0.4191013739920309,-0.2139694778533528,1.298682307632135,-0.1674203674025848,-0.9305392491086334,0.8903049267547897,11.367646549049825,-0.9824323296133152,0.1627758548766389,-0.8881081355389481
2.64,0.5079571086685907,-0.1601605916522579,1.6343222825890502,0.0954660058918011,0.0956439076831366,0.0379878905764539,-0.4818903043786135,0.391208440043995,-0.2152261285337256,0.5124367699618672,-0.1624927887119226,1.635185455371904,-0.4738679023368085,0.4191013739920309,-0.2139694778533528,0.990542134567056,-0.4587043775786226,-0.8293549890071833,0.2879831879672195,11.390791787017406,-0.9785630434530808,0.1648924331145325,-0.8916283401579813
