t,x,y,z,roll,pitch,yaw,v_x,v_y,v_z,ref_x,ref_y,ref_z,ref_v_x,ref_v_y,ref_v_z,a_com,a_x,a_y,a_z,thrust,wind_x,wind_y,wind_z
0.0,-0.1640367185182555,-1.2179576782999568,2.302361666021508,0.0263769987710231,0.099816513142477,0.0426442491663528,0.0034690401305105,0.0079060644426123,0.0116832603444234,-0.1639277099764657,-1.2177697389122537,2.30271449162726,0.1035873685148986,0.1067504065523263,-0.0882576963082745,0.7263584973575541,0.1734520065255281,0.3953032221306151,0.584163017221174,10.241244455912238,-0.9438641840962798,0.2610719329106649,-0.8697059800656571
0.02,-0.1640677433725645,-1.218089573607112,2.302356600388414,0.0196156557428183,0.1027023613617802,0.0422432111250152,-0.0060758157629763,-0.0160125604484473,-0.0120307426763485,-0.1639277099764657,-1.2177697389122537,2.30271449162726,0.1035873685148986,0.1067504065523263,-0.0882576963082745,1.7503991187553745,-0.4772427946743435,-1.1959312445529844,-1.185700151038602,10.240422101655897,-0.926729914600102,0.262547674016905,-0.8896240639999523
0.04,-0.1642662376458194,-1.2184631964271382,2.301783842413651,0.0038160068342461,0.1100378150526904,0.0412461356927429,-0.0127642617004796,-0.0188634034665693,-0.0442788187239909,-0.1639277099764657,-1.2177697389122537,2.30271449162726,0.1035873685148986,0.1067504065523263,-0.0882576963082745,1.6528770551279726,-0.334422296875168,-0.1425421509061003,-1.61240380238212,8.917770175624355,-0.9142966238147464,0.269112926897258,-0.906899980230986
0.06,-0.1645547534111944,-1.2187826011436111,2.3005605729483936,-0.013330162636811,0.1194893464646849,0.0400403070863506,-0.0153427388541899,-0.0125119263239963,-0.0764192212457973,-0.1628918362913167,-1.2167022348467302,2.301831914664177,0.1235873688129218,0.1267504068503495,-0.1082576966062977,1.6431640823336633,-0.1289238576855159,0.3175738571286529,-1.607020126090319,8.579518718147938,-0.8983564209726558,0.2764717407111207,-0.9281002154998456
0.08,-0.164856007147767,-1.2189281144247086,2.2987133246449294,-0.029996430300652,0.129738423422023,0.038706044572094,-0.0143297695776558,-0.0020050849944261,-0.1067916977086418,-0.1608200889210188,-1.2145672267156835,2.300066760738012,0.1635873694089683,0.1667504074463959,-0.1482576972023441,1.607721328438182,0.0506484638267076,0.52534206647851,-1.5186238231422275,8.579518718147938,-0.8814042350356973,0.2842746349046782,-0.948690962147958
0.1,-0.1650940589531487,-1.2188411036059577,2.296411057955007,-0.0451348620835294,0.1395605057294495,0.0373428339772187,-0.0105389212700956,0.0109281678797996,-0.1341193879607176,-0.1587483415507208,-1.2124322185846372,2.2983016068118465,0.2035873700050147,0.2067504080424424,-0.1882576977983906,1.5235174886697196,0.1895424153780071,0.6466626437112908,-1.3663845126037857,8.701451873563201,-0.8627170556408059,0.2935184824943404,-0.9691268897321282
0.12,-0.1652408884359991,-1.2184372714400578,2.293435992786665,-0.0597769870277889,0.1496313478172897,0.035872871743274,-0.0040700368648848,0.028804793758362,-0.161962045880176,-0.1546765941506205,-1.2082972104237883,2.294536452855879,0.2435873706010611,0.2467504086384888,-0.228257698394437,1.6857000165139466,0.3234442202605433,0.8938312939281184,-1.3921328959729222,8.821367646454291,-0.8437605754071436,0.3032745922981108,-0.9877700942391736
0.14,-0.1652345265439409,-1.2176398933781567,2.289907568413159,-0.0724938240560778,0.1592528723476011,0.0344463624536357,0.0046314267581714,0.0499089022481623,-0.1895253033580411,-0.1506048467505202,-1.2041622022629397,2.290771298899911,0.2835873711971076,0.2867504092345354,-0.2682576989904836,1.789435684177922,0.435073181152814,1.0552054244900169,-1.3781628738932572,8.916882852519848,-0.8246163515542682,0.3125674156996506,-1.0051981300490802
0.16,-0.1650324612163103,-1.2163857687294066,2.2858309739531206,-0.0828146416816799,0.1683530077302817,0.0331357864011364,0.0153787392609644,0.07392238684209,-0.2168021686931589,-0.1455330993355187,-1.1990271940871895,2.286006144929042,0.323587371793154,0.3267504098305818,-0.30825769958653,1.8948479826134077,0.5373656251396495,1.2006742296963826,-1.3638432667558875,8.974703903268164,-0.8078909250671771,0.3203636670875577,-1.0193665544727697
0.18,-0.1646229788459815,-1.214733251149311,2.281456040956904,-0.0903558508105999,0.1764969219398577,0.032034287655742,0.0273861760154215,0.0983224438295301,-0.2423795419731983,-0.1394613519056161,-1.1928921858965384,2.280240990943272,0.3635873723892004,0.3667504104266282,-0.3482577001825764,1.866643607058592,0.6003718377228526,1.2200028493720074,-1.2788686640019684,9.033457406431808,-0.7905230389133561,0.3271068015452453,-1.03348878047
0.2,-0.1639268674481715,-1.212487611715512,2.276327872755147,-0.0962129044274553,0.1845471603851016,0.0310325438416026,0.0418053603896827,0.1246498520002686,-0.2690940837787035,-0.1632536700452105,-1.2098171289578346,2.269337063858244,0.12488027157931,0.1983224453196463,-0.3423795434633144,2.009173986297413,0.720959218713064,1.3163704085369246,-1.3357270902752614,9.13621731911462,-0.7737097100179205,0.3323584446584622,-1.0467449458289952
0.22,-0.1629086505973598,-1.2095789037531206,2.27076558582115,-0.0963820717181907,0.1920534414494793,0.0304739334035017,0.0596627195430622,0.1635025884776999,-0.2851138961739327,-0.1632536700452105,-1.2098171289578346,2.269337063858244,0.12488027157931,0.1983224453196463,-0.3423795434633144,2.283120012666791,0.8928679576689746,1.942636823871563,-0.8009906197614602,9.13621731911462,-0.7607185322883625,0.3329116882599499,-1.0566580808211428
0.24,-0.1615109246246081,-1.205974588815373,2.2649010756999317,-0.0903028232330244,0.1990224801474033,0.030445560099788,0.0794376855861283,0.1936106684854117,-0.3005148776611982,-0.1632536700452105,-1.2098171289578346,2.269337063858244,0.12488027157931,0.1983224453196463,-0.3423795434633144,1.9587853344140904,0.988748302153306,1.5054040003855906,-0.7700490743632743,9.796245564770288,-0.7470377148911925,0.3289950875242425,-1.0668100320634517
0.26,-0.1598037114691778,-1.2020620142884355,2.259032451429984,-0.0830266693782093,0.2051899008601315,0.0306189989116417,0.0994263824891605,0.2164481168298355,-0.3164692346305027,-0.1620048673294173,-1.207833904504638,2.265913268423611,0.1443790906920877,0.2183224456176695,-0.3623795437613377,1.714379302451406,0.9994348451516074,1.1418724172211916,-0.7977178484652236,9.796245564770288,-0.735325451939428,0.3239075378426231,-1.0743339298406935
0.28,-0.157585005733257,-1.197513582336667,2.252512283357347,-0.0755165528955809,0.2112508465101352,0.0308820882207148,0.1215196364357368,0.2371173808402237,-0.3348032119468143,-0.1595072618978311,-1.2038674555982452,2.2590656775543447,0.1833767289176431,0.258322446213716,-0.4023795443573841,1.7688026097575598,1.1046626973288134,1.0334632005194064,-0.9166988658155796,9.615766599382368,-0.7253596423959482,0.3185399634724402,-1.0807724928108693
0.3,-0.1549141660856506,-1.1925743976065122,2.245610570957457,-0.0688001416889164,0.2169092897346071,0.0311690973802133,0.1445848186012309,0.2558442730458839,-0.3544778512077607,-0.1570096564662449,-1.1999010066918523,2.2522180866850783,0.2223743671431985,0.2983224468097624,-0.4423795449534305,1.7817060293846323,1.1532591082747077,0.9363446102830104,-0.9837319630473212,9.615766599382368,-0.7169773053874288,0.313713548809195,-1.085928264264596
0.32,-0.1517720506703228,-1.1872750872662263,2.23830476312464,-0.063002386579873,0.2221961921010644,0.0314583225393124,0.1685873027703135,0.2732642193234181,-0.3751508688357039,-0.152562169123381,-1.193934557755657,2.2433704957860097,0.261372005368754,0.3383224474058088,-0.482379545549477,1.8075863965828105,1.2001242084541313,0.8709973138767119,-1.0336508813971603,9.555746288043338,-0.7094750634584509,0.3099050460074128,-1.0902938152632111
0.34,-0.1483326851267727,-1.1819272933153868,2.2309784395016994,-0.0583402746412564,0.226895545783937,0.0317256102579569,0.192340915025849,0.2889149671603212,-0.3950339565689195,-0.148114681780517,-1.1879681088194618,2.234522904886941,0.3003696435943094,0.3783224480018554,-0.5223795461455235,1.7353077398889505,1.1876806127767716,0.7825373918451534,-0.994154386660781,9.511084972983554,-0.7021702278750748,0.306497485193709,-1.0945601000491374
0.36,-0.1442153381970081,-1.1759763865892885,2.222855950856963,-0.0540288362179333,0.2315212792426768,0.0320114244232575,0.2182501502554595,0.3053061312194704,-0.4161914374261833,-0.1426922534820141,-1.1810016598683657,2.224675313972971,0.3393672818198648,0.4183224485979018,-0.5623795467415699,1.8625236412074853,1.2954617614805235,0.81955820295746,-1.0578740428631883,9.508740468641008,-0.6950549835153568,0.3036032940183833,-1.098660853956032
0.38,-0.1395631075372204,-1.169700685534805,2.2143092739969643,-0.0499988978763309,0.2356167331962924,0.0323301512591382,0.2457098543982237,0.3213433360844038,-0.4374278260846754,-0.1362948842278724,-1.1730352109023678,2.2138277230441004,0.3783649200454202,0.4583224491939482,-0.6023795473376163,1.911943706508196,1.3729852071382125,0.8018602432466715,-1.0618194329246045,9.507305232776162,-0.6887854284063544,0.3007481958780911,-1.1026442669892909
0.4,-0.1346169701642333,-1.163446718736691,2.205795098748419,-0.0462952603547141,0.2385389224872683,0.032690623728072,0.2734841204788792,0.3360623818474648,-0.4577305916798151,-0.1272776148173092,-1.1536335187305848,2.1924378826927304,0.261993625421378,0.4213433375745199,-0.5328773407717367,1.871004045496244,1.3887133040327737,0.7359522881530495,-1.0151382797569886,9.518058799037137,-0.6834016392628359,0.2979783046394002,-1.1058417176343989
0.42,-0.1286152094060739,-1.1565631033730388,2.1965743176152563,-0.0427418581790235,0.2346636959054473,0.0333684511695127,0.3248727340065969,0.3516200857878077,-0.4621726028378415,-0.1272776148173092,-1.1536335187305848,2.1924378826927304,0.261993625421378,0.4213433375745199,-0.5328773407717367,2.693772083586752,2.5694306763858865,0.7778851970171419,-0.2221005579013196,10.847360112200477,-0.6876820468643176,0.2914533302250262,-1.1083236311218534
0.44,-0.1216315494395629,-1.1493829594906864,2.1872853096209925,-0.0399653333675096,0.2194046017992819,0.0344533756660319,0.3693231035837713,0.3657631564200446,-0.4664553931925007,-0.1272776148173092,-1.1536335187305848,2.1924378826927304,0.261993625421378,0.4213433375745199,-0.5328773407717367,2.342116615199698,2.22251847885872,0.7071535316118482,-0.2141395177329558,10.847360112200477,-0.7030921888017209,0.2972810751692859,-1.0879973402316248
0.46,-0.114278313510661,-1.1423016929841046,2.178354923471903,-0.0380385114643168,0.1980694813479365,0.0356666736131444,0.4012990475594247,0.3789928755436859,-0.473096344773363,-0.1246576785630954,-1.1494200853548395,2.187109109285013,0.2652503796260088,0.4413433378725431,-0.551967243709149,1.7618092257136675,1.598797198782667,0.6614859561820619,-0.3320475790431154,10.532001625647354,-0.7285276268168707,0.3034150360563927,-1.060502948974733
0.48,-0.1059969851317989,-1.1345832603085402,2.1687940261354,-0.0366116257553304,0.1718541315291693,0.0370019017305628,0.4240481582621559,0.3921425307716661,-0.4826569855166326,-0.1194178060546678,-1.1409932186033491,2.1764515624695786,0.2717638880352706,0.4813433384685896,-0.5901470495839735,1.3980712801943758,1.1374555351365612,0.6574827613990114,-0.4780320371634838,9.93762320420501,-0.7570812424629773,0.3085336925816878,-1.0317379527669024
0.5,-0.0973707626787106,-1.1266104699383268,2.159008804310814,-0.0359303428287781,0.1445718508485733,0.0382958676050282,0.4365734798879786,0.4044852833183531,-0.4954642120459278,-0.1141779335462403,-1.132566351851859,2.165794015654144,0.2782773964445322,0.521343339064636,-0.628326855458798,1.0877181087392696,0.6262660812911353,0.6171376273343521,-0.6403613264647584,9.67877398784276,-0.7864376524635662,0.3129833554872366,-1.0025120556315497
0.52,-0.0885926950796297,-1.11839908135505,2.148928656031401,-0.0361567400809,0.1183898161675231,0.039484525521831,0.4401000465513541,0.416116911982706,-0.511845764600318,-0.1086123856173496,-1.1221394850705662,2.153227478544968,0.2847909048537939,0.5613433396606825,-0.6665066613336225,1.019910194464293,0.1763283331687765,0.5815814332176455,-0.8190776277195111,9.67877398784276,-0.8130077915783206,0.3163950414401456,-0.9763143884261016
0.54,-0.080259628563865,-1.1103869911810638,2.1390265997064155,-0.0373317849287326,0.0959070436968284,0.0404847132776026,0.4366517709815847,0.426780575600418,-0.529645366327791,-0.103046837688459,-1.1117126182892736,2.140660941435792,0.2913044132630557,0.601343340256729,-0.7046864672084471,1.0517011788210568,-0.1724137784884699,0.5331831808855964,-0.8899800863736484,9.454414162314606,-0.8369258321417763,0.3189971055806132,-0.9534561762693072
0.56,-0.071614768627968,-1.1017263029640547,2.128218281851884,-0.0393822570896661,0.0755774028874515,0.0414042352359968,0.4277561041742773,0.4387814464798708,-0.5503439035739182,-0.0973184520493368,-1.1002857514930795,2.1271399091797454,0.2978179216723173,0.6413433408527753,-0.7428662730832716,1.276306422789255,-0.4447833403653733,0.6000435439726393,-1.0349268623063568,9.315548047989978,-0.8568140540678898,0.3209139231645168,-0.9351131775405088
0.58,-0.0631936909318468,-1.0928107547718806,2.1169772376761484,-0.0416287668625779,0.0590493799609174,0.0422147143970073,0.4146891936163442,0.4521870459304946,-0.5727975296588801,-0.0914272286999831,-1.0878588846819846,2.112664381776828,0.3043314300815791,0.6813433414488218,-0.7810460789580961,1.4616938569027296,-0.6533455278966538,0.6702799725311903,-1.1226813042480963,9.20716055417006,-0.8725477472641017,0.3220614050597472,-0.921372961008688
0.6,-0.0550679773448285,-1.0836173594450424,2.1052710670646406,-0.0434521602515147,0.0464782761195539,0.0429314922646173,0.3986828832859236,0.4663323180622093,-0.5966845937629801,-0.0424592312510296,-1.070201402475356,2.0883373611932043,0.3368535145620839,0.5521870474206108,-0.5986729099216126,1.602250390534652,-0.8003155165210274,0.7072636065857396,-1.194353205205001,9.12517484976297,-0.8840384955797587,0.322250612098119,-0.9122406025868118
0.62,-0.0475335772401977,-1.0745464931611337,2.0941172560054597,-0.0430149455462677,0.0344219430591916,0.0437841598852742,0.394210208464068,0.4869975857586501,-0.5761082931577571,-0.0424592312510296,-1.070201402475356,2.0883373611932043,0.3368535145620839,0.5521870474206108,-0.5986729099216126,1.47516291949747,-0.2236337410927824,1.033263384822039,1.0288150302611487,9.06409834969918,-0.8930618632896349,0.3115196810168485,-0.9217074554873872
0.64,-0.0397561504870162,-1.0646028196747193,2.0827960638782512,-0.0395639591770431,0.0191101133863989,0.0449651122562158,0.3830295997705482,0.505721037153425,-0.5574628434188651,-0.0424592312510296,-1.070201402475356,2.0883373611932043,0.3368535145620839,0.5521870474206108,-0.5986729099216126,1.4345961442646975,-0.5590304346759889,0.9361725697387412,0.932272486944602,11.793938377666564,-0.9121949358275268,0.3173831803563767,-0.8883296590214689
0.66,-0.0322723025164524,-1.0543342004538243,2.0717836755948595,-0.0348729021339809,0.0031365913705041,0.0461773039181615,0.3653889845191999,0.5199269369403193,-0.5449457247421916,-0.0390906961054088,-1.0646795320011495,2.082350632093988,0.3212863787512319,0.5721870477186339,-0.6038479859741591,1.2939060583822513,-0.8820307625674179,0.7102949893447175,0.6258559338336744,10.973224548386495,-0.9303095598771328,0.3197845818182302,-0.8598032006304195
0.68,-0.0252015418041248,-1.0438142123368286,2.0609638126089007,-0.0303705694952719,-0.0119927806044341,0.047257701202508,0.3422039016799867,0.5313322243676728,-0.5378812114655644,-0.0323536258141671,-1.0536357910527376,2.070377173895556,0.2901521071295278,0.6121870483146804,-0.614198138079252,1.3393431182835165,-1.1592541419606583,0.5702643713676736,0.353225663831358,10.973224548386495,-0.9463833383363424,0.3200414064458356,-0.8367580959784979
0.7000000000000001,-0.0186448768042932,-1.0330865767588042,2.050233288403096,-0.0265932310757083,-0.0251495659313106,0.0481533471674331,0.3145153121247516,0.5410072026556646,-0.5354999737906585,-0.0256165555229254,-1.042592050104325,2.0584037156971235,0.2590178355078237,0.6521870489107269,-0.6245482901843451,1.4713373927279365,-1.3844294777617532,0.4837489143995899,0.1190618837452972,10.661480858378129,-0.9592044687504794,0.3189729264726235,-0.8201641325938879
0.72,-0.0129617035804886,-1.0227272575824946,2.0400515221026656,-0.0238083834099969,-0.0352130268748416,0.0488340180393651,0.2851307776372968,0.5491504258079135,-0.536370533072993,-0.020436198812769,-1.0295483091261108,2.0459127498934366,0.2278835638861196,0.6921870495067733,-0.6348984422894381,1.5252219705798586,-1.4692267243727408,0.4071611576124456,-0.0435279641167241,10.42476878306752,-0.9699586832884816,0.3167953911283019,-0.8082812216854874
0.74,-0.0076063658753028,-1.0116630256835537,2.029308489202149,-0.0217589450982666,-0.0429103624014547,0.0493874083602531,0.2518303796705123,0.5570005366870091,-0.5379086990352091,-0.0152558421026125,-1.016504568147896,2.0334217840897497,0.1967492922644154,0.7321870501028198,-0.6452485943945311,1.712386273659978,-1.665019898339226,0.3925055439547797,-0.076908298110806,10.256403792910533,-0.9775905605518084,0.3139107480128354,-0.8021640361180842
0.76,-0.0029485236282338,-1.0004390823387643,2.0185305116528163,-0.0203517194906221,-0.046917187248305,0.0497970648092061,0.2155442538036041,0.5649960104407044,-0.5398252706501602,-0.0108538421829986,-1.0024608271547804,2.020672064483436,0.1656150206427113,0.7721870506988662,-0.6555987464996241,1.860298213815708,-1.8143062933454064,0.3997736876847624,-0.0958285807475534,10.249708952974288,-0.9820496232142272,0.3109798353681656,-0.8005855610895718
0.78,0.0009726698125489,-0.9890577979904832,2.007713759204345,-0.0193706786271917,-0.0465289158250641,0.0500773929296522,0.1789842587672037,0.5727559949359442,-0.541680065777746,-0.0072301990539273,-0.9874170861467636,2.007663591074494,0.1344807490210073,0.8121870512949126,-0.6659488986047171,1.8710230232370877,-1.82799975182002,0.3879992247619923,-0.0927397563792897,10.266680048277522,-0.9834731880002748,0.3071277899935293,-0.8047336463047468
0.8,0.0040376172778803,-0.9781035221846204,1.9974062785386304,-0.018820412381768,-0.0427792715372098,0.050246142792943,0.1459281133535789,0.5799608903792386,-0.5431678142448643,0.0099218827509091,-0.9604199982436858,1.9806297559154584,0.156927442621426,0.6727559964260603,-0.5344042785955937,1.6932458943231854,-1.6528072706812431,0.3602447721647195,-0.0743874233559149,10.265972772107489,-0.9824446553593162,0.3037604748855432,-0.8113153532130524
0.8200000000000001,0.0065319752045489,-0.9663760114403784,1.9866917979841625,-0.0170391296294856,-0.0338828061605234,0.0504148578252145,0.1060204432964629,0.5919303981254813,-0.5271507626377193,0.0099218827509091,-0.9604199982436858,1.9806297559154584,0.156927442621426,0.6727559964260603,-0.5344042785955937,2.2318362323773537,-1.9953835028557965,0.5984753873121362,0.8008525803572475,10.263566543549132,-0.976481563917564,0.2953965334727554,-0.8311432394563317
0.84,0.0083014067742257,-0.9544494259789632,1.9763288420307743,-0.0139490378343156,-0.019759407102783,0.0506085782039906,0.0738263985795266,0.6000196322200949,-0.5100468326716433,0.0099218827509091,-0.9604199982436858,1.9806297559154584,0.156927442621426,0.6727559964260603,-0.5344042785955937,1.867107819434907,-1.6097022358468174,0.4044617047306797,0.8551964983038007,11.336422069902255,-0.9687494298568318,0.2922739283469046,-0.8420612847176747
0.86,0.0095029958169334,-0.9423842423707371,1.96628990945666,-0.0112408972616663,-0.0032968882891127,0.0507795494819058,0.0486158766343699,0.606308697924381,-0.4946493612179598,0.0114911571771233,-0.9536924382794252,1.9752857131295023,0.1525160793922705,0.6927559967240835,-0.5329491211591633,1.5101364932904675,-1.2605260972578345,0.3144532852143056,0.7698735726841738,11.336422069902255,-0.9588033372144452,0.2903991932274809,-0.8537701558184118
0.88,0.0102327224909925,-0.9308134061308428,1.9570248792728584,-0.0094473192374717,0.0130521210333211,0.0509082871559543,0.0299535875832284,0.6116077243703926,-0.4813731468227645,0.0146297060295519,-0.940237318350904,1.9645976275575905,0.1436933529339594,0.73275599732013,-0.5300388062863023,1.1753920437146452,-0.9331144525570756,0.2649513223005773,0.6638107197597637,11.062777426373032,-0.9468896783495484,0.2892493139558982,-0.8669058002611456
0.9,0.0106680087167598,-0.9185294261763778,1.9475341398069288,-0.0086056742845027,0.0301753179356885,0.0509872248343628,0.0150713798553063,0.6166454944035449,-0.468453038037114,0.0177682548819804,-0.9267821984223829,1.9539095419856785,0.1348706264756483,0.7727559979161764,-0.5271284914134414,1.0170895299787943,-0.7441103863961019,0.2518885016576155,0.6460054392825265,11.062777426373032,-0.9343895217203476,0.2892625174566333,-0.87957711702983
0.92,0.0108515418043899,-0.9061487615262008,1.9382898588442985,-0.0091906335276044,0.0467596665673643,0.0509664041159494,0.0044778054925736,0.6213397356760016,-0.4566818251499793,0.0204656674114933,-0.9113270784640594,1.9433669721574096,0.1260479000173373,0.8127559985122229,-0.5242181765405806,0.8258649582968034,-0.5296787181366386,0.2347120636228383,0.5885606443567365,10.990160979358734,-0.9215961933028466,0.2906642061900479,-0.891505932210202
0.94,0.0108645809842191,-0.8936741822211467,1.9292779247627567,-0.0115162389374005,0.0625737065095446,0.0508011164573891,-0.0022385811495711,0.6261883459300652,-0.4451192774280579,0.0231630799410063,-0.8958719585057358,1.9328244023291408,0.1172251735590262,0.8527559991082694,-0.5213078616677196,0.7111810260831997,-0.3358193321072398,0.2424305127031789,0.5781273860960695,10.9249271639992,-0.9097008406550317,0.2933040892988267,-0.901891110133904
0.96,0.0107624004888783,-0.879166493399583,1.9191995604656416,-0.0154920730686257,0.0796762985193968,0.0504677681153992,-0.005780288930071,0.6354890881583558,-0.4318786303365581,0.0256399243090615,-0.8794168385325111,1.9223545903726933,0.1084024471007151,0.8927559997043157,-0.5183975467948587,0.8281941731882735,-0.1770853890249935,0.4650371114145291,0.6620323545749901,10.927590239143685,-0.8963487826201818,0.2985117361385899,-0.9113657394191936
0.98,0.0106713980553872,-0.8689249326723926,1.912366245843707,-0.0180553690534828,0.0907236650218066,0.050220225119645,-0.0053068668208135,0.6441594708476063,-0.4228758031089701,0.0278962005156589,-0.8619617185443853,1.911957536288068,0.099579720642404,0.9327560003003622,-0.5154872319219977,0.6254009964842292,0.023671105462875,0.4335191344625233,0.450141361379397,10.93835923581355,-0.8874398533199837,0.3028859658214673,-0.916289886511414
1.0,0.010605752691849,-0.8559234325513491,1.9040279345606128,-0.0206995061592184,0.1029904203549768,0.0499404926744352,-0.0010531486723686,0.6554367122830886,-0.4115335917261661,0.0104060547143465,-0.8367169591300122,1.8912224556882584,0.0350473403372751,0.7441594723377224,-0.4206327715941616,0.8275204703401281,0.2126859074222461,0.5638620717741183,0.5671105691402001,10.935867558714564,-0.8782040550374025,0.3079555783934345,-0.920311233124034
1.02,0.0106233342599661,-0.8426066463103286,1.8959448454396424,-0.0201739768266993,0.1141694295549354,0.049882057679139,0.0029338360249076,0.6749194678521118,-0.3971756310506181,0.0104060547143465,-0.8367169591300122,1.8912224556882584,0.0350473403372751,0.7441594723377224,-0.4206327715941616,1.2264021019828693,0.1993492348638153,0.9741377784511562,0.7178980337774005,10.956252198265249,-0.8715627999309266,0.3115281642099903,-0.9210565887021818
1.04,0.0107385529437438,-0.8296343421821717,1.88852556795529,-0.0158258684815332,0.1245909063095126,0.0501230016125412,0.0093289105769886,0.688773664033498,-0.3845324570507041,0.0104060547143465,-0.8367169591300122,1.8912224556882584,0.0350473403372751,0.7441594723377224,-0.4206327715941616,0.9908147898965716,0.3197537276040503,0.692709809069314,0.6321586999957024,11.19371504756964,-0.8635752654873375,0.3124743912356432,-0.9230387793106076
1.06,0.0110195903881087,-0.8157534024819432,1.88096112233652,-0.0102980512571326,0.1351457715647979,0.0504991291805053,0.01872725321706,0.6984617074370186,-0.3726626482696477,0.0107565281177193,-0.829275364406635,1.8870161279723168,0.0431181817688928,0.7641594726357456,-0.4201841652911999,0.8987204652553621,0.4699171320035664,0.4844021701760292,0.5934904390528212,11.0902880261292,-0.8555947042881584,0.3118105709145799,-0.9264101831977358
1.08,0.0115234591281392,-0.8017069625436443,1.8736156107248547,-0.0052679555698381,0.1448524939045929,0.0508974881534175,0.031343224192903,0.7058313267455455,-0.3625048344106147,0.0114574749244648,-0.8143921749598806,1.8786034725404337,0.0592598646321283,0.804159473231792,-0.4192869526852765,0.88974040429033,0.6307985487921512,0.3684809654263432,0.5078906929516486,11.002016601668402,-0.847977610323155,0.3111145802656558,-0.9299501837698216
1.1,0.0123114954686187,-0.7875267131370121,1.8664589719235796,-0.0011734295163557,0.153067174328268,0.0512734931877787,0.0468462566959682,0.7120382305833304,-0.3536854327687995,0.0121584217312103,-0.7995089855131261,1.8701908171085504,0.0754015474953638,0.8441594738278385,-0.4183897400793531,0.9442609773815926,0.7751516251532593,0.3103451918892441,0.440970082090758,10.91574130915069,-0.8415994065814044,0.3110426172900904,-0.9324850791949056
1.12,0.013368246539689,-0.7739468549966889,1.8598144315751213,0.0017752481525083,0.1590639078445187,0.0515860372508151,0.0635343488650866,0.7173300813651539,-0.3461848384639182,0.0136664526811176,-0.7826257960365693,1.8618230223069636,0.0915432303585992,0.884159474423885,-0.4174925274734297,0.9523064368527824,0.8344046084559221,0.2645925390911741,0.3750297152440685,10.853345566599272,-0.8365148813752175,0.311857640541873,-0.9333484139488066
1.14,0.0148353264073936,-0.7595465218041608,1.8529701420371976,0.0039378856858657,0.1633267449340439,0.051853644241326,0.0822244966315811,0.7225979042639976,-0.338642985396683,0.0151744836310248,-0.7657426065600125,1.853455227505376,0.1076849132218347,0.9241594750199316,-0.4165953148675063,1.041574684449876,0.9345073883247214,0.2633911449421877,0.3770926533617574,10.8021013277139,-0.8336059832867057,0.313694785532499,-0.9317820610493688
1.16,0.0166848925820079,-0.745034023017185,1.8462742244981016,0.0054726879932082,0.1654462148924189,0.052069569457682,0.1016618195351848,0.7283900874645288,-0.3313131599474689,0.017086056652513,-0.7478594170685546,1.845109863018937,0.1238265960850702,0.964159475615978,-0.4156981022615828,1.0782917613097842,0.9718661451801884,0.2896091600265604,0.3664912724607061,10.8021013277139,-0.833358686401897,0.3165318539359035,-0.9271286332151084
1.18,0.0189283200842508,-0.7304047816773471,1.8397235710442472,0.0066685061204701,0.1653198328693456,0.0522461496730926,0.1215334915643622,0.7342225738846214,-0.3240859959225602,0.019401171745582,-0.7289762275621956,1.8367869288476464,0.1399682789483057,1.0041594762120245,-0.4148008896556594,1.0967373738943718,0.9935836014588696,0.2916243210046298,0.3613582012454319,10.780722321064786,-0.8352893068957516,0.3195429690585037,-0.9206595931232268
1.2,0.021429303535529,-0.7163992480996144,1.83363348772362,0.007570802866611,0.1629191333577435,0.0523772372432344,0.1405707916777213,0.739725503524312,-0.3172968480567457,0.025004994662469,-0.693693652983116,1.8235192712481192,0.0910217360680987,0.8342225753747375,-0.3285662400487311,1.047369990702163,0.9518650056679518,0.2751464819845284,0.3394573932907291,10.780722321064786,-0.8399368967486304,0.3234063564330403,-0.9107923671874134
1.22,0.0245652480579814,-0.7015082550252937,1.8273976944457408,0.0092989346362994,0.154080212536713,0.0525082056623373,0.1710571602735945,0.7486934656549481,-0.3062760193684655,0.025004994662469,-0.693693652983116,1.8235192712481192,0.0910217360680987,0.8342225753747375,-0.3285662400487311,1.681741418824836,1.5243184297936627,0.4483981065318054,0.5510414344140069,11.07085601630024,-0.8534425706589612,0.3257917075690179,-0.8942004359255056
1.24,0.0282388703955413,-0.6864761171796768,1.821382889192916,0.0116164031648498,0.1369820182789252,0.0525655349745133,0.193478940018463,0.7540301363078044,-0.2956957208879569,0.025004994662469,-0.693693652983116,1.8235192712481192,0.0910217360680987,0.8342225753747375,-0.3285662400487311,1.2680289591735543,1.1210889872434264,0.2668335326428128,0.529014924025431,11.07085601630024,-0.8710482012740873,0.3314578878929451,-0.8679464036781118
1.26,0.0322540176919227,-0.6713571783768657,1.8155659546032945,0.0133274473576666,0.1153093069987479,0.0524804509990895,0.2058645576460992,0.7577413944099167,-0.2863765071266622,0.0259152120231499,-0.6853514272293687,1.820233608847632,0.084919384968846,0.8542225756727607,-0.3294622888739653,0.7969076261512562,0.619280881381809,0.1855629051056184,0.4659606880647371,10.885083952603054,-0.8918324202883599,0.3361836066698873,-0.8393653773669906
1.28,0.0362042832696863,-0.6569379054423781,1.8101999290728388,0.0140625311102606,0.0932989068932922,0.0522883522816102,0.2086857742894089,0.7600298782124357,-0.278863415877694,0.0277356467445119,-0.668666975721874,1.8136622840466567,0.0727146827703406,0.8942225762688072,-0.3312543865244337,0.4172617930574345,0.1410608321654849,0.1144241901259501,0.3756545624484103,10.725530041652746,-0.913939733865681,0.3405129880592094,-0.8091520679448274
1.3,0.0403341751958975,-0.6417235666499029,1.8046927731170308,0.0134833890274406,0.0708607218877448,0.0520004637499272,0.2035471169305032,0.7614067681322488,-0.2722956201229868,0.0295560814658739,-0.6519825242143792,1.8070909592456823,0.0605099805718352,0.9342225768648535,-0.333046484174902,0.4226037339490374,-0.2569328679452851,0.0688444959906553,0.3283897877353559,10.491747493533694,-0.934551778136456,0.3442336338778304,-0.7809481980801278
1.32,0.0442848208434664,-0.6264873804419685,1.7993015956113252,0.0111473527984344,0.0508052627804833,0.051660543109776,0.1913971893046823,0.7623488303854948,-0.2672059002609909,0.0307662810773106,-0.6332980726770822,1.8004300295621845,0.0483052783733298,0.9742225774609,-0.3348385818253703,0.6603284615917921,-0.6074963812910463,0.0471031126623,0.2544859930997956,10.491747493533694,-0.9521825402005286,0.3476428192306394,-0.756547281170126
1.34,0.0479300067198846,-0.6112168455964261,1.794001018316859,0.0073087726442787,0.0342988312132705,0.0513279176214782,0.1736998174803408,0.765161796466874,-0.2630880343801812,0.0319764806887473,-0.614613621139785,1.7937690998786864,0.0361005761748244,1.0142225780569467,-0.3366306794758387,0.9193293303766652,-0.8848685912170751,0.1406483040689576,0.2058932940404878,10.369345810543564,-0.9658479659259764,0.3506313152672954,-0.7375761880191289
1.36,0.0510257068061783,-0.5966288755119359,1.7890371647160437,0.0034901945861425,0.022410483971231,0.0510984551588761,0.1531938596669559,0.7702797066329713,-0.2596132628108678,0.0328815627452214,-0.5949291695875868,1.7870633677539267,0.023895873976319,1.054222578652993,-0.3384227771263071,1.070935744771217,-1.0252978906692454,0.2558955083048653,0.1737385784656681,10.369345810543564,-0.9776299822978696,0.3536355304816507,-0.7207843979574005
1.38,0.0538364502770697,-0.581154566377818,1.783880604815292,-8.081967898873825e-05,0.0141209652225992,0.0509569767823714,0.128855817344035,0.776843786940563,-0.2562364025447817,0.0334815272467328,-0.5742447180204874,1.7803128331879052,0.0116911717778136,1.0942225792490394,-0.3402148747767754,1.2716432672466302,-1.2169021161460458,0.3282040153795851,0.1688430133043039,10.354210385645274,-0.9858553370877952,0.356183473350364,-0.708666515337052
1.4,0.0561289087982584,-0.5655394711893261,1.7787877630870093,-0.0029636402526709,0.010886738386678,0.05089474132621,0.1020367669052816,0.7842038397724176,-0.2531797303515948,0.0602792411442714,-0.5423123770307898,1.7710687846880528,0.072273269619788,0.829535324827421,-0.2337200681153984,1.3989059019647172,-1.340952521937666,0.3680026415927295,0.1528336096593446,10.357462182791096,-0.9902138507894274,0.3575540877763001,-0.702954923365018
1.42,0.0578226700396257,-0.5503421235888224,1.7741472913463556,0.0020117935821014,0.0118285379346628,0.0513726702956891,0.0782149560698537,0.8106982218418615,-0.2353612751438878,0.0602792411442714,-0.5423123770307898,1.7710687846880528,0.072273269619788,0.829535324827421,-0.2337200681153984,1.9918134317184693,-1.1910905417713953,1.324719103472194,0.8909227603853528,10.350523835093554,-0.9956818699269724,0.352495661390022,-0.7017614237412467
1.44,0.0591513145880389,-0.5340050351363369,1.7696323248397172,0.0146476042736739,0.015462346054144,0.0524102774795345,0.0562921281282249,0.8204654321356363,-0.2171624590873077,0.0602792411442714,-0.5423123770307898,1.7710687846880528,0.072273269619788,0.829535324827421,-0.2337200681153984,1.5059927686930643,-1.096141397081443,0.4883605146887404,0.909940802829004,11.311321796730226,-0.9976169236978012,0.3478198643728253,-0.699565748062925
1.46,0.060071485597444,-0.5175826294081706,1.7654483009174948,0.028150991212098,0.0208355542930217,0.0535773710955347,0.0371321972473962,0.8210866811075397,-0.2022983724988161,0.0610019738404693,-0.5340170237825156,1.768731584006899,0.0609567600749386,0.8400736324047926,-0.2292168012295218,1.21287877769524,-0.957996544041435,0.0310624485951704,0.7432043294245794,11.140771890922224,-0.9976506566837422,0.3415622836586537,-0.7018994793838937
1.48,0.0606372024763251,-0.50120714835402,1.7615244008263318,0.0400802367893957,0.0271286063501303,0.0547196452162706,0.0206432596201079,0.8167654362442861,-0.1908162501931276,0.0624474392328651,-0.5174263172859672,1.7640571826445908,0.0383237409852398,0.8611502475595357,-0.2202102674577685,1.0276153875448564,-0.8244468813644115,-0.216062243162679,0.5741061152844242,10.908539829574693,-0.9957350650257828,0.3352506098593983,-0.7078181844163592
1.5,0.0608936881673071,-0.4857590216480393,1.7579856575854171,0.0492755145044758,0.0333101861441413,0.0557154278363491,0.0073172726107853,0.8100364547642963,-0.182248999212265,0.0638929046252608,-0.5008356107894187,1.7593827812822829,0.015690721895541,0.882226862714279,-0.2112037336860152,0.8606086667292137,-0.6662993504661332,-0.3364490739994896,0.428362549043132,10.71872995430931,-0.9925907563167012,0.3290137035679246,-0.7158539973958203
1.52,0.0609130288510584,-0.4696496556888577,1.7544205364061654,0.0566763722765357,0.0394883930118341,0.0566292033541905,-0.0045513989527127,0.8015941059745446,-0.1747760079953016,0.0642067190631717,-0.4831910735351331,1.7551587066085623,-0.0069422971941577,0.9033034778690222,-0.2021971999142618,0.8185111720355766,-0.593433578174904,-0.4221174394875848,0.3736495608481674,10.582910639790498,-0.9890172720243864,0.3236602048542278,-0.7241846130227497
1.54,0.0607151182452358,-0.4537193015090994,1.7509969678478126,0.0619042998139296,0.0449208679518648,0.0573744046899559,-0.0145771965008584,0.7922279931178233,-0.1679647722275793,0.0645205335010825,-0.4655465362808475,1.7509346319348422,-0.0295753162838565,0.9243800930237652,-0.1931906661425085,0.7658877515745107,-0.5012898774072843,-0.4683056428360643,0.3405617883861164,10.500386270941815,-0.9857371951828332,0.3194953962895973,-0.7315072335825671
1.56,0.0603299604560295,-0.437977322475617,1.7477066898392364,0.0653228374826695,0.0494123589904431,0.0579458477755249,-0.0234421042164593,0.7828345049793507,-0.1613888543170199,0.0642685224617508,-0.4473750836476934,1.7469357206054157,-0.0522083353735553,0.9454567081785086,-0.1841841323707552,0.7246842494841497,-0.4432453857800449,-0.4696744069236314,0.3287958955279696,10.477140424700336,-0.9836571226719892,0.3170728766147357,-0.736067609857139
1.58,0.0598077795934176,-0.4231957406271099,1.7447021882801792,0.0673322501017437,0.0528187819889869,0.0583473487338396,-0.0311022713905326,0.7738718526456788,-0.1551912967008421,0.0634506859451767,-0.4286767156356706,1.7431619726202832,-0.0748413544632541,0.9665333233332516,-0.1751775985990019,0.6659898993131719,-0.3830083587036648,-0.4481326166835941,0.3098778808088898,10.472046543405668,-0.9821287774241376,0.3154123296920408,-0.7395185833139639
1.6,0.0591065564168057,-0.4078211303997152,1.7416670948851103,0.0683211092703223,0.0555580293855214,0.0586304759630119,-0.0386186174137295,0.7641615336920391,-0.1486392366718691,0.0582526660238909,-0.384502147994826,1.736942623445137,-0.0329716983143366,0.7715437713563725,-0.1578138866354594,0.695908115962713,-0.3758173011598458,-0.4855159476819859,0.3276030014486522,10.473650356986582,-0.9810229232336266,0.3143638509426159,-0.7421686472408395
1.62,0.0581562434244357,-0.392462669007856,1.7387121957253633,0.0738678700509778,0.0603374847063358,0.0593731720526036,-0.0554773231883332,0.7694427220825595,-0.1476527898004669,0.0582526660238909,-0.384502147994826,1.736942623445137,-0.0329716983143366,0.7715437713563725,-0.1578138866354594,0.8847033240597114,-0.842935288730183,0.2640594195260193,0.0493223435701059,10.12869370298813,-0.976098713897634,0.3127943580955542,-0.7471425525485701
1.64,0.0569757069019596,-0.3778937868849711,1.735898343841903,0.0837201192448654,0.0687158380251896,0.0607229070815096,-0.0672917812589628,0.7632002563174043,-0.1485986636024042,0.0582526660238909,-0.384502147994826,1.736942623445137,-0.0329716983143366,0.7715437713563725,-0.1578138866354594,0.6697844346896072,-0.5907229035314799,-0.3121232882577596,-0.047293690096864,10.12869370298813,-0.9694156899462488,0.3034048229424315,-0.7616902123177621
1.66,0.0555469413924989,-0.3627605305682671,1.7329039935207218,0.0943040947730115,0.0796306312082299,0.0624204938642201,-0.0744681532459257,0.750396059485303,-0.1508558737071071,0.0579229490407476,-0.3767867102812623,1.7353644845787826,-0.0333455836990974,0.7710781550985113,-0.1583384046223828,0.7425341218880652,-0.3588185993481443,-0.6402098416050661,-0.1128605052351447,10.064539371252977,-0.9601552681686848,0.2927373719427057,-0.7799556642418107
1.68,0.0540273308613483,-0.3479225313735972,1.7298530010419797,0.1034909402525846,0.0910943696723952,0.0641665492877936,-0.0767821103979754,0.7342404807513153,-0.1541797270801836,0.0572635150744608,-0.3613558348541348,1.7322082068460734,-0.034093354468619,0.7701469225827887,-0.1593874405962297,0.8327741638303087,-0.1156978576024869,-0.8077789366993826,-0.1661926686538223,9.985211209969748,-0.9491416306147218,0.2820198312615715,-0.7999703709371228
1.7,0.0525083028251133,-0.3334301985559447,1.7267284174221404,0.1107119383688839,0.1018360155848848,0.0657732434552497,-0.0748665170257123,0.7162487555581221,-0.1581226505464881,0.0566040811081741,-0.3459249594270074,1.729051929113364,-0.0348411252381406,0.7692156900670662,-0.1604364765700767,0.925902693127602,0.0957796686131558,-0.8995862596596627,-0.1971461733152282,9.988003868888882,-0.9381229365394697,0.272841001437441,-0.8184446913211718
1.72,0.0511339297063054,-0.3200052767097661,1.7236853815154816,0.115789908955562,0.1105993535768443,0.0670545466669631,-0.0698950668834618,0.6982107360146075,-0.162002373943026,0.0559072586034113,-0.3305406456256661,1.7258431995819623,-0.0355888960076622,0.7682844575513438,-0.1614855125439236,0.955428855544384,0.2485725071125259,-0.9019009771757291,-0.1939861698268957,9.988003868888882,-0.927164393930944,0.2643633631282492,-0.8360905698012857
1.74,0.0498132786464931,-0.3062460635272833,1.720401857979561,0.1195028649814927,0.1178670382512014,0.0680760089193514,-0.0624085905046542,0.6789226135569404,-0.1661432854181197,0.0552104360986485,-0.3151563318243247,1.722634470050561,-0.0363366667771838,0.7673532250356212,-0.1625345485177705,1.0550191282116252,0.374323818940377,-0.9644061228833544,-0.2070455737546828,10.014827966131634,-0.917188095401632,0.2572811904828807,-0.8514025038085203
1.76,0.048660603209991,-0.2928764984530926,1.717037175630909,0.1217453341784362,0.122944264378025,0.068726349407669,-0.053290473975919,0.6592431272211859,-0.1700972890377011,0.0544949193246476,-0.2997952988358764,1.719399514619813,-0.0370844375467053,0.7664219925198987,-0.1635835844916174,1.1023343141878554,0.4559058264367619,-0.9839743167877224,-0.1977001809790712,10.040931296549388,-0.9090205110988252,0.2513521297825944,-0.8640630656257108
1.78,0.0477019872531819,-0.2799079827091617,1.7135975422385512,0.1224731080083842,0.1258038451849071,0.068981411443207,-0.0432287150927259,0.6388451203233712,-0.1736638757238487,0.0537607082814087,-0.2844575466603213,1.716138333289719,-0.0378322083162269,0.7654907600041762,-0.1646326204654643,1.1511279444707916,0.5030879441596539,-1.0199003448907396,-0.1783293343073796,10.122524350742424,-0.901892779174544,0.2462266882169167,-0.8752274551714885
1.8,0.046981272486204,-0.2679723835819152,1.7102686194943075,0.1214979794073711,0.1266182589990598,0.0688518896975304,-0.0332997574858246,0.6187997096533543,-0.1765535575781989,0.0455405514985456,-0.2479657266929931,1.7049143484523588,-0.0474057136036827,0.6135212692893259,-0.166455961002628,1.127777625807311,0.4964478803450654,-1.002270533500843,-0.1444840927175089,10.122524350742424,-0.8968438050253089,0.2425968287208895,-0.8837505168636364
1.82,0.0464416166674916,-0.2557420699827795,1.7067258512010992,0.1209536339650788,0.1249411087222808,0.0684195796257593,-0.0211805633658932,0.6048598412424929,-0.1775670624628129,0.0455405514985456,-0.2479657266929931,1.7049143484523588,-0.0474057136036827,0.6135212692893259,-0.166455961002628,0.9249621473063724,0.6059597059965683,-0.6969934205430683,-0.0506752442307009,10.170554697320767,-0.8987161123089714,0.2417395469502081,-0.8830613759147182
1.84,0.0461442374430277,-0.2438119566757076,1.703171360811693,0.1222634612212612,0.1198980939894238,0.0676807893929529,-0.0096257189824052,0.5886717145201839,-0.1777884931994272,0.0455405514985456,-0.2479657266929931,1.7049143484523588,-0.0474057136036827,0.6135212692893259,-0.166455961002628,0.9945085558647528,0.5777422191743995,-0.8094063361154535,-0.0110715368307118,10.299630872835223,-0.8996983023927875,0.2384881676576454,-0.8836316940943899
1.86,0.0460452879445248,-0.2322289292260992,1.6996201240675255,0.1243015966324606,0.112394206507506,0.066652584171836,-0.0012999476847436,0.5703946314652545,-0.1773053158330964,0.0450664943625088,-0.2418305140000998,1.7032497888423326,-0.048241113305874,0.6084564990825169,-0.1650143780583838,1.0044945159943466,0.4162885648830812,-0.9138541527464684,0.0241588683165372,10.339229470199824,-0.9031560623882706,0.2349007897110399,-0.8817738576476711
1.88,0.0460720816612602,-0.2215854949469614,1.696259604220525,0.1261308093743483,0.1041983707283582,0.0654944604677498,0.0034091045526297,0.5509852500666043,-0.1764288466118981,0.0441183800904352,-0.2295600886143133,1.69992066962228,-0.0499119127102567,0.5983269586688988,-0.1621312121698956,0.9995842355053036,0.2354526118686702,-0.9704690699325114,0.0438234610599178,10.339229470199824,-0.9084360826383686,0.2307974294190793,-0.8786611595484952
1.9,0.046164179784382,-0.2107948965637537,1.6927443469687835,0.1273286278668699,0.0954345912868396,0.0641689256404024,0.0052824177951378,0.5291760778683424,-0.1751004947630676,0.0431702658183615,-0.2172896632285268,1.6965915504022273,-0.0515827121146394,0.5881974182552807,-0.1592480462814073,1.096487360976273,0.093665662125406,-1.090458609913092,0.0664175924415214,10.400421964865927,-0.9146222276027116,0.2268907472054649,-0.875024392021952
1.92,0.0462632768372858,-0.2004564292339161,1.689260066705767,0.12722478869208,0.0872943039202464,0.0628056042190648,0.0043847175409794,0.5059988535114955,-0.1733565566729819,0.0421386115760687,-0.2055257148634212,1.6934065894765993,-0.0532535115190221,0.5780678778416626,-0.156364880392919,1.1630035626514483,-0.0448850127079228,-1.158861217842344,0.0871969045042886,10.400421964865927,-0.920781600873257,0.2237777818836756,-0.8715669418364972
1.94,0.046318868605357,-0.1910727095578943,1.6859869947674624,0.1254659139459964,0.0806013737945895,0.0615189288329408,0.0014394109945829,0.4831865378715315,-0.17122553972904,0.0411069573337759,-0.1937617664983155,1.690221628550971,-0.0549243109234048,0.5679383374280446,-0.1534817145044307,1.1550084509701233,-0.147265327319822,-1.1406157819982026,0.1065508471970927,10.431381845294707,-0.9267984135670196,0.2215482492598188,-0.8685154863865328
1.96,0.0462964857608028,-0.1816573293878658,1.6825925300568891,0.121744130006839,0.0750160583704529,0.0602253243390583,-0.0037138123521924,0.4601832035163408,-0.1682215336005686,0.0400335331063736,-0.1822510566435504,1.6871087467725552,-0.0565951103277876,0.5578087970144264,-0.1505985486159424,1.1882057430621376,-0.2576611673387689,-1.150166717759532,0.1502003064235701,10.466996679381737,-0.9322110195707616,0.2213309462645152,-0.8653170695711079
1.98,0.0461466820573991,-0.1726765656857767,1.6792686723533283,0.1170395090227427,0.0715205874837641,0.0591328217836702,-0.0110825927922429,0.4394065457008343,-0.1642745980182659,0.0389183388938616,-0.1709935852991257,1.6840679441413513,-0.0582659097321703,0.5476792566008084,-0.1477153827274541,1.1197619564523156,-0.3684390220025262,-1.0388328907753264,0.1973467791151359,10.55285113616901,-0.9359543531710696,0.2220042092152265,-0.8636230847971239
2.0,0.0458359117165277,-0.1640930686250616,1.6760311060512545,0.1120368655790271,0.0706337736468286,0.0583334640193591,-0.0193218448158723,0.4202382163902015,-0.1596462821082162,0.0455925524177869,-0.150706238400735,1.671054942452415,-0.017813907842517,0.415510455014513,-0.156665328902192,1.0685637915362909,-0.4119626011814691,-0.9584164655316418,0.231415795502482,10.55285113616901,-0.9384305221190392,0.2227274735216249,-0.8635415656893817
2.02,0.0453838308877313,-0.1562525356297797,1.673015961362471,0.1080638155504544,0.0721627921789658,0.0578911036343888,-0.0274913918272345,0.4056538384027275,-0.1580211963863925,0.0455925524177869,-0.150706238400735,1.671054942452415,-0.017813907842517,0.415510455014513,-0.156665328902192,0.8397715213908614,-0.4084773505681132,-0.7292188993736987,0.0812542860911855,10.577567850163176,-0.9372855939462796,0.2237421149643213,-0.8663526359708063
2.04,0.0447641179715218,-0.1483058203898264,1.669878443782126,0.1047990045206948,0.0756854745135803,0.0576828477717606,-0.0337643154645905,0.3897565534172309,-0.1558202257443619,0.0455925524177869,-0.150706238400735,1.671054942452415,-0.017813907842517,0.415510455014513,-0.156665328902192,0.8615647286148539,-0.3136461818677976,-0.7948642492748292,0.1100485321015296,10.376131921630076,-0.935349515615958,0.2226237961577689,-0.8719236973102572
2.06,0.0440819582447776,-0.1410521622840855,1.6669446982992138,0.1020276864780479,0.0799397817177735,0.0575861973498549,-0.037559049672151,0.3746513071252896,-0.1531140699432767,0.0454144133393618,-0.1465511338505898,1.669488289163393,-0.0191601708525718,0.4107312368772488,-0.1551434750789773,0.7903982421317474,-0.1897367103780245,-0.7552623145970633,0.1353077900542634,10.416525404116328,-0.9320387999989944,0.2213895125028305,-0.8788764639744241
2.08,0.0433076286060471,-0.1337224861092138,1.6639173027266203,0.0992516970147977,0.0846394499308723,0.0574975649615744,-0.0395230322774808,0.3591928892371476,-0.1497520738315696,0.0450581351825114,-0.1382409247502996,1.6663549825853494,-0.0218526968726815,0.4011728006027203,-0.1520997674325477,0.7970616806960455,-0.0981991302664919,-0.7729208944071031,0.1680998055853519,10.454064036521231,-0.9282101526326556,0.220557607153431,-0.8857168775179912
2.1,0.0425132912300344,-0.1266968827487791,1.660961694726491,0.0965461447814717,0.0890112777666771,0.057361998409692,-0.0397225826393354,0.3442315100146322,-0.145966792156156,0.0447018570256611,-0.1299307156500093,1.6632216760073055,-0.0245452228927912,0.3916143643281918,-0.1490560597861182,0.771704357168359,-0.009977518092729,-0.7480689611257668,0.1892640837706807,10.486725634302276,-0.9243513033275708,0.2200195768703781,-0.8921027273485667
2.12,0.0417306414732388,-0.1199646445394478,1.6580858260728533,0.0938783478947317,0.0926559182901475,0.057141418584814,-0.0385388479448241,0.3298370529708076,-0.1418195593649812,0.0442109525678052,-0.1220984283634455,1.660240554811583,-0.0272377489129008,0.3820559280536633,-0.1460123521396887,0.7513340822125976,0.0591867347255671,-0.7197228521912319,0.2073616395587424,10.514610823817748,-0.9211548330980608,0.2199301869121973,-0.8971122906150506
2.14,0.0410181495066728,-0.1138299286684751,1.6554319181668449,0.0913885664769035,0.0952593785252395,0.0568407284040316,-0.0365631082263546,0.3167170197640777,-0.1377522530036795,0.0437200481099494,-0.1142661410768816,1.6572594336158608,-0.0299302749330105,0.3724974917791347,-0.1429686444932591,0.6938692236609107,0.098786985923473,-0.6560016603364943,0.2033653180650851,10.538274777277366,-0.9184452050553812,0.2202194302046101,-0.9011785449002792
2.16,0.0403131962838557,-0.1076366701792502,1.652722893226671,0.0888012059782139,0.097058258754502,0.0564293553749876,-0.0340726620215145,0.3033880535501011,-0.1333579330540483,0.0431618305015909,-0.106672814697181,1.654354405111299,-0.0326228009531201,0.3629390555046063,-0.1399249368468296,0.7126950793506621,0.1245223102420027,-0.6664483106988306,0.2197159974815579,10.549245083298048,-0.9166810919554784,0.2208491195092843,-0.9038517613933036
2.18,0.0396598656355156,-0.10170484536589,1.6501030337429226,0.0862191981983187,0.097952650912204,0.055929806889535,-0.0314457311693191,0.2905555988804827,-0.1288361246104541,0.0425362997427296,-0.0993184492243436,1.6515254692978982,-0.0353153269732298,0.3533806192300778,-0.1368812292004,0.6928553423164665,0.1313465426097743,-0.6416227334809205,0.2260904221797074,10.559569353476943,-0.9163432965094156,0.2220535064168666,-0.9044818800955422
2.2,0.039058219488987,-0.0960239999557885,1.647575203750825,0.0836372054413524,0.098046284309182,0.0553562144652624,-0.0289485127953386,0.2782706976336238,-0.1241640890812045,0.0380875790770497,-0.0871770654218659,1.6436612275123998,-0.0300545699361323,0.2843786806011031,-0.1193030331622067,0.6689222941399684,0.1248609186990233,-0.6142450623429441,0.233601776462481,10.574572928329872,-0.9168269727955404,0.2233888584112583,-0.9040483094422116
2.22,0.0385198351207523,-0.0908824799651348,1.6452531377312496,0.0801486714677312,0.0978997265952972,0.0547174960597451,-0.02785806462433,0.2643911384733722,-0.1204202372396334,0.0380875790770497,-0.0871770654218659,1.6436612275123998,-0.0300545699361323,0.2843786806011031,-0.1193030331622067,0.7208461456999975,0.054522408550431,-0.6939779580125816,0.1871925920785583,10.54654370127264,-0.91662699473541,0.2251896084647612,-0.9044995692302608
2.24,0.0379743844581642,-0.0857189566148314,1.6428915072174053,0.0755752598291094,0.0978595939698901,0.0539933225771499,-0.0267468633556231,0.2529212556432778,-0.1159025294240571,0.0380875790770497,-0.0871770654218659,1.6436612275123998,-0.0300545699361323,0.2843786806011031,-0.1193030331622067,0.618875319233586,0.0555600634353441,-0.5734941415047212,0.2258853907788113,10.566294989868766,-0.9179032266459828,0.2281728399393333,-0.9030309524502316
2.26,0.0374514076124397,-0.0807635536506305,1.6406250935102826,0.0709795106322238,0.0978327738714806,0.0532720548499605,-0.0256147388071049,0.2432984531285518,-0.1109450572211729,0.0377870333776884,-0.0843332786158548,1.6424681971807775,-0.029776337689495,0.2831432969452271,-0.1173964148725572,0.5441887652119036,0.0566062274259093,-0.4811401257362957,0.2478736101442107,10.566294989868766,-0.9192059074750616,0.2315206483454185,-0.9010911481279652
2.28,0.0369509854065541,-0.0759862018975695,1.638461130470134,0.0667026172578523,0.0977606438449912,0.0525741261389086,-0.0245000542950198,0.2349489460875732,-0.1056963861806642,0.0371859419789657,-0.0786457050038328,1.6400821365175338,-0.0292198731962203,0.2806725296334753,-0.1135831782932582,0.4962492747609527,0.0557342256042522,-0.4174753520489321,0.2624335520254338,10.58168703181218,-0.9205587299813752,0.2347256454331183,-0.898847813464826
2.3000000000000003,0.0364956036334199,-0.0715927589611377,1.636504241364128,0.0630370477016347,0.0976280905272784,0.0519390648900284,-0.023505721889241,0.2279310863250775,-0.1005526950321069,0.0365848505802431,-0.0729581313918107,1.6376960758542896,-0.0286634087029456,0.2782017623217235,-0.1097699417139593,0.4378830072376202,0.0497166202889413,-0.3508929881247846,0.2571845574278648,10.590842970369522,-0.922103343613423,0.2379647971520538,-0.896173360414621
2.32,0.0360355266562931,-0.0671042196086066,1.634551193737176,0.0596161093429551,0.0974205091611074,0.0513019471981907,-0.0225703000224501,0.2213030444565284,-0.095016420966273,0.0360115824061842,-0.0673940961453763,1.6355006770200105,-0.0281069442096709,0.2757309950099716,-0.1059567051346603,0.434327881939832,0.0467710933395478,-0.3314020934274547,0.2768137032916985,10.594873221984017,-0.9237809291172584,0.2409887966513222,-0.8932461183478195
2.34,0.0355926621242671,-0.0627411746669032,1.632709154120052,0.0566302207041301,0.0971558694244798,0.0506972815392968,-0.0217793562103762,0.2153337806777627,-0.0894631880831735,0.0354383142321252,-0.0618300608989418,1.6333052781857311,-0.0275504797163962,0.2732602276982198,-0.1021434685553613,0.4095610382723165,0.0395471906036939,-0.2984631889382846,0.2776616441549729,10.592855035755749,-0.9255423493812952,0.2437790083291693,-0.890149914411464
2.36,0.0351638958610837,-0.0584915775264597,1.6309777854827543,0.054047029515663,0.0968540711265802,0.0501242777811116,-0.0211515008193648,0.209901224580248,-0.0839471376104291,0.0348789576703982,-0.0563277948353011,1.6312052102659345,-0.0269940152231215,0.2707894603864679,-0.0983302319760624,0.3883737921208439,0.0313927695505688,-0.2716278048757334,0.2758025236372211,10.592855035755749,-0.9272628453049516,0.2461831278183296,-0.8871464453934528
2.38,0.0347665691743116,-0.0545507228030502,1.629434713573076,0.0519170539179607,0.0965556677357358,0.0496072279796268,-0.0207138280423704,0.2051754977818439,-0.0787533700641097,0.034333512721003,-0.0508872979544542,1.6292004732606202,-0.0264375507298469,0.2683186930747161,-0.0945169953967634,0.3517785971249436,0.0218836388497224,-0.2362863399202053,0.2596883773159697,10.57921237768187,-0.9291042458064488,0.2484724853632343,-0.8839669269412006
2.4,0.0343556782549987,-0.0504955975145923,1.6279168445486658,0.0499755154166575,0.0962524068986893,0.0490901243359809,-0.0204097063143432,0.2005832811489992,-0.0733048063373398,0.0337308777721931,-0.044291947913958,1.6254970450698705,-0.0189926036440182,0.2007803332324932,-0.0668013023387493,0.3566082946073567,0.0152060864013594,-0.2296108316422351,0.2724281863384969,10.57921237768187,-0.9309647408238906,0.2505337625459865,-0.8807942228645146
2.42,0.0339495282195106,-0.0465140223562842,1.6265155339569848,0.0487881414343091,0.0959689951137819,0.04863198908726,-0.0202218933447733,0.1976773561594253,-0.0670649628328821,0.0337308777721931,-0.044291947913958,1.6254970450698705,-0.0189926036440182,0.2007803332324932,-0.0668013023387493,0.344293917738505,0.0093906484784939,-0.1452962494786977,0.3119921752228825,10.57384996190649,-0.9335217139483964,0.2523893774769439,-0.8766376280894025
2.44,0.0335456973603972,-0.0425923706637891,1.625239098996598,0.0486306547820303,0.0957190539640521,0.0482510670995969,-0.0201720588884988,0.1945550617820337,-0.0608899146397542,0.0337308777721931,-0.044291947913958,1.6254970450698705,-0.0189926036440182,0.2007803332324932,-0.0668013023387493,0.345985642186114,0.0024917228137268,-0.1561147188695807,0.3087524096563928,10.615591343854248,-0.93550241474186,0.2534144882634778,-0.8732704364866688
2.46,0.0331618472212503,-0.0389278222470719,1.6241391948954735,0.0492248777696953,0.0955342119029338,0.0479457896413909,-0.020234410935912,0.1913040034630815,-0.0551925603952884,0.0335409517357529,-0.042284144581633,1.6248290320464829,-0.0186483587643477,0.199901300322623,-0.0644108887936772,0.3279981454138796,-0.0031176023706632,-0.1625529159476099,0.2848677122232919,10.603649905306156,-0.9374539289445668,0.2537609710475434,-0.8701738173547413
2.48,0.0327557720726901,-0.0351419855081422,1.6230970392753796,0.0504693384742865,0.095406340632639,0.0476721027431575,-0.0203698559330486,0.1874126580828845,-0.0493243488326462,0.0331610996628725,-0.0382685379169832,1.623493005999708,-0.0179598690050068,0.1981432345028828,-0.0596300617035331,0.35212505292565,-0.006772249856831,-0.1945672690098487,0.2934105781321076,10.59002744627287,-0.939245434796048,0.253449682015039,-0.8675801399048065
2.5,0.0323465165892332,-0.0314415195694278,1.6221701783691849,0.052125207860062,0.0953516660898072,0.0474313093792692,-0.0205468158119376,0.1828000783669827,-0.0436595560653247,0.0327812475899922,-0.0342529312523333,1.622156979952933,-0.0172713792456659,0.1963851686831424,-0.0548492346133889,0.3653665403775489,-0.0088479939444456,-0.2306289857950907,0.2832396383660767,10.579691787080264,-0.940813857591312,0.2526342501997434,-0.8655314972155599
2.52,0.0319336012030363,-0.02784316264341,1.6213541790660178,0.0538740583576997,0.0953705403531193,0.0472011333823174,-0.0207304646646015,0.1772918593185599,-0.0382154412752265,0.0324358200050788,-0.0303252278786704,1.6210599952606652,-0.0165828894863251,0.1946271028634021,-0.0500684075232447,0.3873389660047709,-0.0091824426331965,-0.2754109524211373,0.2722057395049104,10.566150481467956,-0.9420923124964437,0.2515735111354845,-0.8640903556031941
2.54,0.031538201787306,-0.0245357083806239,1.620678300012884,0.0553090728355538,0.09544915197206,0.0469705378387119,-0.0208777903970554,0.171192875880215,-0.0331943132314718,0.0320903924201655,-0.0263975245050076,1.6199630105683973,-0.0158943997269842,0.1928690370436619,-0.0452875804331006,0.3950665471930905,-0.0073662866226949,-0.3049491719172459,0.2510564021877329,10.545872682800107,-0.9432807131853124,0.2504275529263433,-0.8629447334266844
2.56,0.0311194680137546,-0.0211869045556079,1.620068947727338,0.0562677788602849,0.0955828134703457,0.0466936146215177,-0.020984723656013,0.1640470008986424,-0.0280026899503709,0.0317621770792357,-0.0225137727768383,1.6189855465533831,-0.0152059099676433,0.1911109712239216,-0.0405067533429564,0.4416670586171378,-0.0053466629478816,-0.3572937490786299,0.2595811640550468,10.545872682800107,-0.9443635919924552,0.2495619506376653,-0.861985456823378
2.58,0.0306991239927077,-0.0179874774429171,1.6195622580759492,0.0563624311698327,0.0957533942278786,0.0463613998040683,-0.0210431169166836,0.1563273754114221,-0.022922516849192,0.0314511739822895,-0.0186739726941624,1.6181276032156229,-0.0145174202083024,0.1893529054041813,-0.0357259262528123,0.4620719266893819,-0.0029196630335275,-0.3859812743610163,0.2540086550589447,10.54130024767892,-0.9453673801003596,0.2492637871981573,-0.8610526615680552
2.6,0.030278066092806,-0.0149456276347812,1.6191563035177046,0.0553409177351253,0.0959454887649316,0.0459573662159225,-0.0210620782530296,0.1483955739289811,-0.0179134712070248,0.0296469681468735,-0.010171108672346,1.6184161322334896,-0.0133021811403009,0.1388662450158904,-0.0335172126556953,0.4690532286810389,-0.0009480668172995,-0.3965900741220468,0.2504522821083616,10.535494686679158,-0.9463375799861712,0.2497392636102986,-0.8599907925881556
2.62,0.0298584937335717,-0.0121440589089822,1.6188128994763682,0.0549797331148323,0.0965082521789655,0.0456424519718722,-0.022951887543781,0.1463204869152376,-0.0185280457592825,0.0296469681468735,-0.010171108672346,1.6184161322334896,-0.0133021811403009,0.1388662450158904,-0.0335172126556953,0.1436581632757096,-0.0944904645375725,-0.1037543506871754,-0.0307287276128836,10.531229399331096,-0.946119113135278,0.25177948267348,-0.8576824873617545
