t,x,y,z,roll,pitch,yaw,v_x,v_y,v_z,ref_x,ref_y,ref_z,ref_v_x,ref_v_y,ref_v_z,a_com,a_x,a_y,a_z,thrust,wind_x,wind_y,wind_z
0.0,1.309367673524163,-1.0057750874619276,2.653362987928583,0.0248757595224066,0.0997223975851389,0.0425928814100936,0.0036164655217166,0.0069959241232975,0.0132625370004869,1.3094837594281434,-1.0056440023365871,2.6537626864785238,-0.0961982161322125,0.1050765332552489,-0.0866922765971772,0.7712273738949919,0.1808232760858301,0.3497962061648777,0.663126850024346,10.240136652309957,-0.9445425554752908,0.2627159031326958,-0.8681510056021665
0.02,1.3095837936341543,-1.005929789928797,2.6533857236145666,0.017351461083982,0.0947031820511703,0.0419680758849259,0.0176913851669754,-0.0171519422981071,-0.0106359917714283,1.3094837594281434,-1.0056440023365871,2.6537626864785238,-0.0961982161322125,0.1050765332552489,-0.0866922765971772,1.8387240774437588,0.703745982262942,-1.207393321070234,-1.1949264385957656,10.23946408703432,-0.9450102579004996,0.2625933087220268,-0.8734626151679039
0.04,1.3100370879062944,-1.0062957672811697,2.652864257898917,0.0010454895333296,0.0801330174117743,0.0407558104347988,0.0255994668467487,-0.0173242653277231,-0.0403450627549521,1.3094837594281434,-1.0056440023365871,2.6537626864785238,-0.0961982161322125,0.1050765332552489,-0.0866922765971772,1.5372022880744691,0.3954040839886676,-0.0086161514807997,-1.485453549176185,8.89302568455605,-0.9469385075236104,0.2741780279436109,-0.8682346404761198
0.06,1.3105394172587932,-1.006572200522318,2.651742943378756,-0.0159582606595322,0.0597444388002254,0.0398476171693441,0.023253296467753,-0.0099743383786882,-0.0702851433802991,1.3085217772668214,-1.0045932370040347,2.6528957637125514,-0.1161982164302357,0.1250765335532721,-0.1066922768952004,1.545909416375768,-0.1173085189497853,0.3674963474517428,-1.4970040312673525,8.613296130735307,-0.9543562441542354,0.2844680346503888,-0.8599429077837231
0.08,1.310893254089893,-1.0066638680628484,2.65003023522841,-0.0323197639650522,0.0374826690600268,0.0394416590513763,0.011639773561533,0.0007472667448702,-0.0995278735800026,1.306597812944177,-1.0024917063389296,2.651161918180608,-0.1561982170262821,0.1650765341493185,-0.1466922774912469,1.6620499392703767,-0.580676145311002,0.5360802561779267,-1.4621365099851749,8.600461685220125,-0.9654772868838326,0.2930692937036482,-0.8491244017539559
0.1,1.310937951223316,-1.0065270619027795,2.6478669968262296,-0.0471228481951267,0.0171834057572686,0.0394696033917415,-0.0066175815557618,0.0133765149103149,-0.1267705544794324,1.3046738486215328,-1.0003901756738247,2.6494280726486643,-0.1961982176223286,0.205076534745365,-0.1866922780872933,1.7571230660454336,-0.912867755864746,0.631462408272235,-1.3621340449714914,8.650242847565096,-0.9793581806857125,0.3013830153353243,-0.8355758537999715
0.12,1.3105505336605916,-1.00609877436376,2.645032885318392,-0.0619509721607563,-0.0016093216232258,0.0397926266912553,-0.0314168123523835,0.0290759345168439,-0.1552364054837093,1.300749884269086,-0.9962886449789174,2.6456942270869184,-0.236198218218375,0.2450765353414114,-0.2266922786833398,2.044369277725811,-1.239961539831082,0.7849709803264469,-1.423292550213842,8.712816904082501,-0.99239904114141,0.3083742556662561,-0.8241803995724081
0.14,1.3096191312271732,-1.0053317874127763,2.6416256392284887,-0.0760479932947432,-0.0168070062618464,0.0402491638721821,-0.0605548298740657,0.0471115602502228,-0.1841170241582078,1.2968259199166396,-0.99218711428401,2.6419603815251724,-0.2761982188144216,0.2850765359374579,-0.2666922792793863,2.2407576819628323,-1.4569008760841118,0.9017812866689487,-1.4440309337249282,8.767193845620113,-1.00314068274806,0.3144212441328581,-0.8163640277267966
0.16,1.3080642545464574,-1.004151843820763,2.637635331702996,-0.088536130802856,-0.0277221218426735,0.0407168799139974,-0.0932344413499199,0.0696058306536777,-0.213466213137088,1.291901955549292,-0.9870855835742016,2.6372265359485256,-0.316198219410468,0.3250765365335044,-0.3066922798754327,2.467450151935469,-1.633980573792711,1.124713520172742,-1.4674594489440071,8.78826623753639,-1.0105951330991438,0.3192923095880439,-0.8123623122359797
0.18,1.305956218769682,-1.0025890962021464,2.633298356916434,-0.0982309935963618,-0.0336523315521944,0.0410439554303523,-0.1269216011408605,0.0932815443672465,-0.241579826475549,1.2859779911670428,-0.980984052849492,2.631492690356977,-0.3561982200065144,0.3650765371295508,-0.3466922804714791,2.492859507459118,-1.6843579895470284,1.1837856856784408,-1.4056806669230508,8.822089624162345,-1.0141812191893478,0.3229934132563563,-0.8140425455193093
0.2,1.3030344818639743,-1.0004490972060294,2.628154436210968,-0.1062342213096418,-0.0347187671144217,0.0410859954712885,-0.1629180953108402,0.1191963986271116,-0.2712409422344679,1.299610138712639,-0.997925018983784,2.621219365592657,-0.2269216026309766,0.1932815458573626,-0.3415798279656651,2.66791540903353,-1.7998247084989871,1.2957427129932535,-1.4830557879459445,8.867027746839995,-1.0156633186855435,0.3251138327912758,-0.8185449567524719
0.22,1.2993628115846698,-0.9976415989561636,2.622553698115345,-0.1082364890718578,-0.0300286177972448,0.0409408957561813,-0.2017588654449202,0.158591477231655,-0.2862651675537781,1.299610138712639,-0.997925018983784,2.621219365592657,-0.2269216026309766,0.1932815458573626,-0.3415798279656651,2.866315138514951,-1.942038506703997,1.9697539302271707,-0.7512112659655096,8.881306501853032,-1.019285401182365,0.3251826114496988,-0.8152757011092975
0.24,1.2952003871737137,-0.9943132810190533,2.616981831035296,-0.1040305334746305,-0.0206618482341124,0.0407130411059466,-0.2337112360584942,0.188582151381259,-0.2993566130880989,1.299610138712639,-0.997925018983784,2.621219365592657,-0.2269216026309766,0.1932815458573626,-0.3415798279656651,2.286799329823781,-1.5976185306786987,1.4995337074801982,-0.6545722767160422,9.867687289862715,-1.0159762118684537,0.3205107994792227,-0.8232300535812278
0.26,1.2902237798186,-0.9902717561829232,2.6108319590406937,-0.09767098284451,-0.0079555916321737,0.0403695570273096,-0.2616711637371417,0.2136713832409033,-0.3150026567909326,1.2973409226863293,-0.9959922035252105,2.617803567313,-0.2469216029289998,0.2132815461553859,-0.3615798282636884,2.0347148416013794,-1.397996383932376,1.2544615929822158,-0.7823021851416812,9.70407899032034,-1.009042462150645,0.3147623481645297,-0.8353259869009139
0.28,1.2847439458147578,-0.9857667762564306,2.604343221234973,-0.0912915513817264,0.0059121342813339,0.039994646244911,-0.2844536502776291,0.2355013834957952,-0.3331950904705438,1.29280249063371,-0.9921265726080633,2.6109719707536865,-0.2869216035250463,0.2532815467514323,-0.4015798288597348,1.8210953072829053,-1.1391243270243712,1.0915000127445975,-0.9096216839805632,9.50570399354001,-0.9995737835956924,0.3092139263127929,-0.849920636086856
0.3,1.2788579416067205,-0.980847521107868,2.597460918994537,-0.0855906772151404,0.0196097767683809,0.0396668370369085,-0.3027165085394133,0.2554260800960626,-0.3541317588182974,1.2882640585810905,-0.988260941690916,2.6041403741943734,-0.3269216041210928,0.2932815473474788,-0.4415798294557813,1.7094367551963912,-0.9131429130892073,0.9962348300133664,-1.046833417387677,9.176810875937008,-0.9892942493829604,0.304607316839294,-0.8644937076635297
0.32,1.2729646218867154,-0.975817506016488,2.590511974901057,-0.0809683443884533,0.0316308101749589,0.0394451529264536,-0.3165760855531297,0.2731806187226246,-0.3763206275123889,1.2817256264986685,-0.9823953107439664,2.5953087776052577,-0.3669216047171392,0.3332815479435252,-0.4815798300518277,1.5808679663122234,-0.6929788506858242,0.8877269313281033,-1.1094434347045767,9.047972889057746,-0.9781564826340992,0.3005211952268333,-0.8793855048712251
0.34,1.2665075475963854,-0.9701676733452856,2.5827249280381883,-0.0769800867773283,0.0426797283541859,0.0393262746839686,-0.328259174351205,0.2909725556197519,-0.4013248662588022,1.2751871944162465,-0.9765296797970168,2.586477181016142,-0.4069216053131857,0.3732815485395717,-0.5215798306478743,1.6418431241311566,-0.5841544399037613,0.8895968448563607,-1.2502119373206635,9.047972889057746,-0.967439811981326,0.2969315515359897,-0.8936062253814556
0.36,1.2598368576684509,-0.9641588942423142,2.57442366134252,-0.0735576240201398,0.0519012915686109,0.0393395162529663,-0.3381389468127971,0.3089631919347821,-0.4276167548740815,1.2676487623189234,-0.969664048835166,2.576645584412125,-0.4469216059092321,0.4132815491356181,-0.5615798312439206,1.667735220194421,-0.4939886230796053,0.8995318157515142,-1.3145944307639656,8.96572830893001,-0.9573890331877,0.2936923442079664,-0.9068415707758168
0.38,1.2529834646867872,-0.9577925640319122,2.565584879071772,-0.0703064723428849,0.0594114886398495,0.0394873602139043,-0.3466851199089203,0.3266589664173612,-0.4549660294892921,1.2591103302066993,-0.961798417858414,2.565813987793207,-0.4869216065052785,0.4532815497316645,-0.6015798318399671,1.683864848425641,-0.4273086548061633,0.8847887241289543,-1.367463730760532,8.915639848717547,-0.948731549279849,0.2906113234313436,-0.9183994207356344
0.4,1.246323639078267,-0.9514216395461402,2.5566728670231496,-0.0672613962666119,0.0651470476892484,0.0397360003526035,-0.3539157257341517,0.3429702731036756,-0.48178797912796,1.235649208691341,-0.941459615711044,2.542836577597307,-0.4466851213990365,0.4266589679074773,-0.5549660309794082,1.610712085409827,-0.3615302912615664,0.815565334315721,-1.3410974819333925,8.875370056682186,-0.9405853820380188,0.2872804148574286,-0.9295264373552043
0.42,1.23919668239745,-0.944383885001013,2.546938813474864,-0.0644356712260544,0.0695282378726269,0.0400893537816799,-0.3583700046395359,0.3600994542335769,-0.4891780895844346,1.235649208691341,-0.941459615711044,2.542836577597307,-0.4466851213990365,0.4266589679074773,-0.5549660309794082,0.9589879812943574,-0.2227139452692095,0.8564590564950625,-0.3695055228237293,8.839401353044195,-0.9413582902218204,0.2839396095779239,-0.9309471716484776
0.44,1.231991097525452,-0.937017698552512,2.53705933925653,-0.0625232637261264,0.0718953237943231,0.0405083561347218,-0.362114020170556,0.3758329314055135,-0.4987686926943647,1.235649208691341,-0.941459615711044,2.542836577597307,-0.4466851213990365,0.4266589679074773,-0.5549660309794082,0.9401324696931984,-0.187200776551008,0.7866738585968314,-0.4795301554965075,10.063457161515544,-0.9374440483381236,0.2831678424594183,-0.9347022333867572
0.46,1.224706275154788,-0.9293365299064708,2.52693941055226,-0.0615186357365988,0.0724029631243167,0.0409747492593537,-0.3662835181092501,0.3915264801523438,-0.5129290670301295,1.231182357477351,-0.9371930260319692,2.537286917287513,-0.4666851216970597,0.4466589682055006,-0.5749660312774314,1.0772515800161302,-0.2084748969347044,0.7846774373415161,-0.708018716788239,9.552966992411712,-0.9348709029085396,0.2828671294582788,-0.9374264262028142
0.48,1.2177049156656523,-0.921752171453052,2.5170261059647334,-0.0612741547961647,0.0713126457114327,0.0414586526895723,-0.3705960379046583,0.4060985436886128,-0.5298540089687109,1.2222486550493703,-0.9286598466738196,2.526187596667925,-0.5066851222931061,0.486658968801547,-0.6149660318734779,1.1373175923144754,-0.2156259897704099,0.7286031768134471,-0.8462470969290703,9.375301890299852,-0.933838441559856,0.2828869198074563,-0.9389216833740072
0.5,1.2102412465666863,-0.913473183676922,2.5062171511009,-0.0618275360870475,0.0685469179563916,0.0420056451149119,-0.3756557780844817,0.4210862908790076,-0.5502638425890819,1.2133149526213896,-0.9201266673156702,2.5150882760483366,-0.5466851228891526,0.5266589693975935,-0.6549660324695243,1.291118550852062,-0.2529870089911679,0.7493873595197403,-1.0204916810185485,9.375301890299852,-0.9348160350355595,0.2835332207059666,-0.938309402283875
0.52,1.2026676553533344,-0.9048942255631228,2.4949779415452245,-0.0632684357808495,0.0641316483701607,0.042592805048614,-0.3816547111102614,0.4361442522462452,-0.5726236242347964,1.2023812501636064,-0.9095934879277184,2.501988955398946,-0.5866851234851991,0.56665896999364,-0.6949660330655708,1.3808414402358455,-0.2999466512889875,0.7528980683618791,-1.1179890822857252,9.140581606215164,-0.93756318609024,0.2848676505741221,-0.935639365958331
0.54,1.1953434216934846,-0.8964618485172063,2.4838820577786,-0.0653970919167523,0.0587520067664249,0.0431797049193944,-0.3892760949239705,0.45088489165718,-0.5942504809064348,1.1914475477058235,-0.8990603085397665,2.4888896347495555,-0.6266851240812455,0.6066589705896864,-0.7349660336616173,1.3629864920228134,-0.3810691906854513,0.7370319705467393,-1.081342833581922,9.124323612026274,-0.9418765498433054,0.2868217897588541,-0.9313720477728472
0.56,1.1874497014398913,-0.8872619888149206,2.471754668754679,-0.0677743229133015,0.0526629556326616,0.0438291617307936,-0.3998902069483065,0.4683017062357584,-0.617353594959996,1.1795138452331393,-0.8875271291369135,2.474790314085264,-0.6666851246772919,0.6466589711857328,-0.7749660342576636,1.5409077544596823,-0.5307056012168021,0.8708407289289233,-1.1551557026780568,9.124323612026274,-0.94720880130581,0.2889419853068543,-0.925823837262062
0.58,1.1793191276165644,-0.8777014226494424,2.459164340248976,-0.0695824809277575,0.0468928350352567,0.0445080381619705,-0.4127536289999546,0.4867391264868386,-0.6405051495460803,1.1665801427455538,-0.8749939497191592,2.459690993406072,-0.7066851252733384,0.6866589717817793,-0.8149660348537101,1.6135369318257096,-0.6431711025824044,0.9218710125540096,-1.1575777293042155,9.119266190556118,-0.952908696683225,0.290474964852828,-0.9200239555017676
0.6,1.170908142937125,-0.8677633681244274,2.446109468179876,-0.0704367377137352,0.0420895696182908,0.045189803715809,-0.4277861154141334,0.5059499066290689,-0.6638061772223679,1.1586814461665669,-0.8533644663251004,2.427139082771672,-0.5127536304900707,0.5867391279769547,-0.726272321823054,1.6866887770397228,-0.7516243207089435,0.9605390071115132,-1.1650513838143806,9.11834598616997,-0.9578697571163578,0.2912341276083651,-0.9149812171322034
0.62,1.1625823306735172,-0.8579136733315507,2.43352194902414,-0.0690050860936588,0.040511613435925,0.0457776697766849,-0.4475940921193365,0.5292874231807796,-0.6599456249263952,1.1586814461665669,-0.8533644663251004,2.427139082771672,-0.5127536304900707,0.5867391279769547,-0.726272321823054,1.5426434163353948,-0.9903988352601506,1.166875827585534,0.1930276147986354,10.783569357096894,-0.9659181009771858,0.2885998214292971,-0.9089818342687118
0.64,1.1534302187707113,-0.8471012400567213,2.420340749800587,-0.0650107832540728,0.043168831189054,0.0462622681753008,-0.4660525174036787,0.5501063750153784,-0.6586049460790329,1.1586814461665669,-0.8533644663251004,2.427139082771672,-0.5127536304900707,0.5867391279769547,-0.726272321823054,1.392784656040513,-0.9229212642171136,1.0409475917299404,0.0670339423681165,10.783569357096894,-0.9679046643306444,0.2872352615091281,-0.9043983301319782
0.66,1.1439422442993128,-0.8359110212077335,2.40713285052195,-0.0603053848660553,0.0485405882201368,0.0466223360778333,-0.4814535510052478,0.5676884786987683,-0.6624466523289291,1.1535539098616658,-0.8474970750453309,2.4198763595534416,-0.5327536307880939,0.6067391282749779,-0.7434257562784488,1.184357328723706,-0.7700516800784513,0.879105184169493,-0.1920853124948107,10.437996129682688,-0.9655761444367672,0.2848342256731839,-0.9056934972317372
0.68,1.1341766513170717,-0.8243912188853255,2.393793224281934,-0.0556801425320902,0.0553599918231716,0.0469026690294585,-0.4940240273913401,0.5833582505716272,-0.6712848919814781,1.1432988372518644,-0.8357622924857918,2.405350913116981,-0.5727536313841404,0.6467391288710244,-0.7777326251892382,1.0973526179818365,-0.6285238193046189,0.7834885936429448,-0.441911982627452,9.828058220298772,-0.960915668579942,0.2820920713272382,-0.9105014807796136
0.7000000000000001,1.1246917431386478,-0.813170401047771,2.380918488388489,-0.051639109738831,0.0622993626517629,0.0471339664177896,-0.5035683954446573,0.5970108327470594,-0.6835035899009744,1.133043764642063,-0.8240275099262527,2.3908254666805195,-0.6127536319801868,0.6867391294670708,-0.8120394941000277,1.0329382126269837,-0.4772184026658549,0.6826291087716096,-0.6109348959748129,9.604483730505308,-0.9546385937461288,0.2790584212563973,-0.917632383035673
0.72,1.114535149892294,-0.8010899813927267,2.367081641625359,-0.0478993884490185,0.0694128451271255,0.0473654176597086,-0.5114239152604422,0.6103364893048409,-0.6997000717614129,1.1207886920024592,-0.8102927273369113,2.374584676798519,-0.6527536325762333,0.7267391300631173,-0.8463463630108172,1.119830722617987,-0.3927759907892458,0.6662828278890753,-0.8098240930219269,9.604483730505308,-0.9476574961548864,0.2761132198451643,-0.9258354982000364
0.74,1.1042421492823926,-0.788750142967789,2.352899753384775,-0.0447232974170113,0.0758420503831126,0.0475994322121912,-0.5173782734851657,0.6230168618595131,-0.7177540628346328,1.1085336193628557,-0.7965579447475699,2.3583438869165185,-0.6927536331722798,0.7667391306591638,-0.8806532319216067,1.1425769379625197,-0.2977179112361783,0.6340186277336124,-0.902699553660996,9.419074628727683,-0.940869882133886,0.2733037718787677,-0.9340960742619108
0.76,1.093842250235319,-0.7761535651019806,2.338341806719652,-0.0417923067868233,0.081397159216375,0.0478591109720166,-0.5222506386240395,0.6358810890852538,-0.737139310348168,1.0952785467083508,-0.7818231621433274,2.3412454253117483,-0.7327536337683261,0.8067391312552101,-0.9149601008323962,1.1885033711805604,-0.2436182569436895,0.6432113612870327,-0.9692623756767604,9.277878918655006,-0.9351347146848036,0.2707771159704228,-0.941102171910282
0.78,1.0838804933833095,-0.7639512179164557,2.3241423097594582,-0.0389659564062727,0.0859108153075182,0.0481409016318411,-0.5260701172054958,0.6477880045161473,-0.7565763428804161,1.0810234740389446,-0.7660883795241836,2.3232892919842083,-0.7727536343643726,0.8467391318512566,-0.9492669697431856,1.1555964751723693,-0.1909739290728129,0.5953457715446753,-0.9718516266124022,9.277878918655006,-0.9302240940906914,0.2681373208120404,-0.9471273855637602
0.8,1.0733232413677272,-0.7508692906613634,2.3087850164890287,-0.0359264047463302,0.0899080848742559,0.0484690453062802,-0.5294097600597836,0.6596571868434428,-0.7781850199680875,1.057576987523035,-0.7315618176906483,2.2863134926154376,-0.6260701186956119,0.7477880060062634,-0.7939249373969318,1.2439509927967785,-0.1669821427143891,0.5934591163647751,-1.0804338543835723,9.226720461311745,-0.926249641370484,0.2654493110918492,-0.952117474947568
0.8200000000000001,1.0627389893407473,-0.7375403949918083,2.293330018104251,-0.0327508587493156,0.0930565386797762,0.048831724773103,-0.5286643758962805,0.672526233417948,-0.764447836860441,1.057576987523035,-0.7315618176906483,2.2863134926154376,-0.6260701186956119,0.7477880060062634,-0.7939249373969318,0.9419105013495114,0.0372692081751557,0.6434523287252636,0.6868591553823244,11.385795403050906,-0.9298556725451544,0.2610434570622204,-0.9518383685279151
0.84,1.0521836803080498,-0.7239698945453801,2.278175641356589,-0.0297029701011309,0.0951228229302533,0.0492119935681662,-0.5270127573790107,0.6838888064007813,-0.7518788001520685,1.057576987523035,-0.7315618176906483,2.2863134926154376,-0.6260701186956119,0.7477880060062634,-0.7939249373969318,0.8512000239268334,0.0825809258634902,0.5681286491416637,0.6284518354186253,11.05426984984024,-0.9277215840863255,0.2604268177741595,-0.9519338994826302
0.86,1.0421892046971242,-0.7108771465643409,2.263962475398875,-0.0271972746946985,0.0959105302276364,0.0495692034548543,-0.5252595950750012,0.6937824697413981,-0.7448626962891729,1.0513162863360788,-0.7240839376305857,2.278374243241468,-0.6460701189936351,0.7677880063042866,-0.801394656300235,0.612747635198627,0.0876581152004729,0.4946831670308405,0.350805193144782,11.05426984984024,-0.9263365422709076,0.2597518714202393,-0.9516844993673064
0.88,1.031703923512698,-0.696899933613807,2.24910557988305,-0.0250616339758181,0.0953612677176488,0.0499319571413774,-0.5234439038083823,0.7034809736187272,-0.7413632658681427,1.0387948839621666,-0.7091281775104604,2.26249574449353,-0.6860701195896816,0.807788006900333,-0.8163340941068412,0.5234589895729044,0.0907845633309423,0.4849251938664534,0.174971521051509,10.745211517346434,-0.9265662496700224,0.2593154020303343,-0.95005105247702
0.9,1.021254526154015,-0.6827334790772376,2.2342842138647665,-0.0234628899259253,0.0931282140647695,0.0502811818340655,-0.5216821522506386,0.712715668336004,-0.7410629232666085,1.0262734815882544,-0.6941724173903352,2.246617245745591,-0.726070120185728,0.8477880074963795,-0.8312735319134475,0.4703019262952482,0.0880875778871859,0.461734735863839,0.015017130076711,10.50952078022692,-0.928536682988969,0.2591413910401771,-0.9468920362805068
0.92,1.0108385902934731,-0.6683887330661273,2.219441432028567,-0.0224997369452752,0.0888235560494997,0.05061584237855,-0.5201997605888018,0.7213656792178841,-0.7431999729942148,1.0117520791845398,-0.6772166572404076,2.229991775107322,-0.7660701207817745,0.887788008092426,-0.8462129697200539,0.4516280406318619,0.0741195830918417,0.4325005440940055,-0.1068524863803155,10.327647910210544,-0.9323781432095816,0.2594005008113209,-0.9419223702928884
0.94,1.0009568469996428,-0.6546062506907291,2.2052995772126724,-0.0223451465400726,0.0827936683719411,0.0509096088226876,-0.5204671006529632,0.7290632400850703,-0.7452926408365692,0.9972306767808252,-0.66026089709048,2.213366304469053,-0.806070121377821,0.9277880086884724,-0.8611524075266601,0.3990713367067549,-0.0133670032080701,0.3848780433593102,-0.10463339211772,10.194275786077924,-0.9379602953832537,0.2599928178949177,-0.9354770081851846
0.96,0.9905172537697976,-0.6399350373968395,2.1903729088062525,-0.0228794964310156,0.0752404669547774,0.0511880464237635,-0.5238031340435142,0.7376541974175193,-0.747238916402107,0.9817092743622094,-0.6423051369256513,2.196367347885619,-0.8460701219738673,0.9677880092845188,-0.8760918453332665,0.4709608668664507,-0.1668016695275498,0.4295478666224483,-0.0973137782768918,10.18875715302238,-0.9452480516903476,0.2611330887551321,-0.9271353202686974
0.98,0.979979069410923,-0.6250854570962073,2.17541086839648,-0.02376601932816,0.0673433431571613,0.0514459933942553,-0.5300837258323902,0.7468259883653923,-0.7488493476102901,0.9651878719286926,-0.6233493767459213,2.17899490535702,-0.8860701225699138,1.0077880098805652,-0.8910312831398727,0.5616072272644635,-0.3140295894437983,0.4585895473936507,-0.0805215604091524,10.199279283352553,-0.9530835901356424,0.2625118003764405,-0.918010351962924
1.0,0.9692868241335222,-0.6100463063119731,2.1604186175717546,-0.0246851042490048,0.0597798013240976,0.0516920942933632,-0.5389816605691699,0.7565646002755758,-0.7502759584002251,0.9534748831193036,-0.5877441576779378,2.137968401015965,-0.6300837273225063,0.8468259898555084,-0.724454867098744,0.6634173325726395,-0.4448967368389844,0.4869305955091774,-0.07133053949675,10.213601101028871,-0.9615586023337518,0.2640347146679841,-0.907898297347282
1.02,0.958906447434734,-0.595527157575219,2.146430655603728,-0.0239806736508227,0.054916895703861,0.0519716723822207,-0.5532544809216711,0.7706418800968441,-0.7220328609581761,0.9534748831193036,-0.5877441576779378,2.137968401015965,-0.6300837273225063,0.8468259898555084,-0.724454867098744,1.7317301760826762,-0.7136410176250607,0.7038639910634137,1.4121548721024502,10.220304107349875,-0.973457646244792,0.2625384876234682,-0.8969253196373078
1.04,0.947680051066766,-0.579980078550222,2.1322951388418176,-0.0209883590054574,0.0541085107254332,0.0523006030430563,-0.5681203023471469,0.7829395281434935,-0.6931766705730308,0.9534748831193036,-0.5877441576779378,2.137968401015965,-0.6300837273225063,0.8468259898555084,-0.724454867098744,1.7355867290898712,-0.7432910712737939,0.6148824023324728,1.4428095192572654,12.32454475274062,-0.9791774613985156,0.2630997721754088,-0.8868819393238345
1.06,0.9361846811891096,-0.564223756773218,2.118698615744442,-0.017242137084018,0.056293256203735,0.0526042715605359,-0.5803716521407267,0.7919601029895063,-0.6680620965643326,0.9471740458460784,-0.5792758977793827,2.130723852344978,-0.6500837276205295,0.8668259901535316,-0.7195759709964348,1.4681690723104273,-0.612567489678989,0.4510287423006354,1.2557287004349105,12.06710296662186,-0.9813519280184848,0.2626819740770358,-0.8815622342784658
1.08,0.9244706200098496,-0.5483089770345293,2.105562523602236,-0.0138642627274136,0.0600798970599497,0.0528483993899586,-0.5901937605617971,0.7991869488968049,-0.6467677180771464,0.9345723712996284,-0.5623393779822725,2.1162347550030027,-0.6900837282165759,0.906825990749578,-0.7098181787918163,1.2269389458716329,-0.491105421053517,0.3613422953649303,1.0647189243593091,11.772253526060922,-0.9816815680155484,0.262419802497019,-0.8786535757702548
1.1,0.9131816782376564,-0.5330654450260605,2.093448543192744,-0.0113135511441122,0.0642121852042151,0.0530241990213664,-0.5975091566779805,0.8052053367839149,-0.6294414055268979,0.9219706967531782,-0.5454028581851623,2.101745657661028,-0.7300837288126224,0.9468259913456244,-0.7000603865871978,0.9873412779850808,-0.365769805809174,0.3009193943555033,0.8663156275124262,11.517330495375973,-0.9810105586052226,0.2623683385682387,-0.8771122373459714
1.12,0.9011676379249765,-0.5169012453963433,2.0810300472129475,-0.0094140914896989,0.068405182413151,0.0531523035781227,-0.6034191004654724,0.8110354479727561,-0.6134194099594487,0.9073690221769256,-0.5264663383582499,2.087744449929284,-0.7700837294086689,0.986825991941671,-0.6903025943825793,0.9022499293556728,-0.2954971893745939,0.2915055594420568,0.8010997783724605,11.313784275398575,-0.9799057720283948,0.2626537040408245,-0.8763437358687683
1.14,0.8890516086273964,-0.5006247602484637,2.0689213017147323,-0.0084060298420997,0.0719247910770508,0.0532179226252555,-0.6078576501793411,0.8163996661231688,-0.5982812373075308,0.8927673476006733,-0.5075298185313373,2.07374324219754,-0.8100837300047153,1.0268259925377174,-0.6805448021779609,0.833126387721238,-0.221927485693435,0.2682109075206385,0.7569086325958929,11.166109300460448,-0.9793030101051046,0.2634407501902084,-0.8751449109402681
1.16,0.8768537068664478,-0.4842359580159432,2.057109469608107,-0.0081919625840567,0.0745854950263867,0.0532264586715684,-0.611734141573297,0.822233678611903,-0.5836552532680587,0.8771656730095196,-0.4875932986895236,2.059985979270912,-0.8500837306007617,1.0668259931337638,-0.6707870099733425,0.8108364452357414,-0.1938245696977925,0.2917006244367082,0.7312992019736064,11.118007492549625,-0.9790086770883246,0.2646459918270508,-0.8736924117594519
1.18,0.8651969638003258,-0.4685543712622518,2.0461559940117424,-0.00845882834325,0.0763936615623732,0.0531987804673287,-0.6151274587454021,0.8281594644941933,-0.5700702092359541,0.8605639984034649,-0.4666567788328088,2.0464726611493984,-0.8900837311968082,1.1068259937298102,-0.661029217768724,0.7602350970382042,-0.1696658586052557,0.2962892941145156,0.6792522016052294,11.089732188314883,-0.9792676438162788,0.2662478605826245,-0.871499693058855
1.2,0.8528586713283813,-0.4519223323562296,2.034903016795618,-0.0090727497389103,0.0776218076453903,0.0531432825957361,-0.6185508471413017,0.8347408402251664,-0.5559460625060106,0.8344405908630558,-0.4271463980375422,2.0176524835499445,-0.6789597864689052,0.8526693768509276,-0.557889594950783,0.7976929476158001,-0.1711694197949809,0.329068786548653,0.7062073364971722,11.05654579538168,-0.9802193454415492,0.268172428490723,-0.8683802886747091
1.22,0.8403579779475546,-0.4348839528384136,2.0239395519163588,-0.0010699404042129,0.080832855052737,0.0536678704204588,-0.6307400311932174,0.8642415774869356,-0.5409099270975105,0.8344405908630558,-0.4271463980375422,2.0176524835499445,-0.6789597864689052,0.8526693768509276,-0.557889594950783,1.7641960455559988,-0.6094592025957857,1.4750368630884636,0.7518067704250064,11.05654579538168,-0.9782452833208464,0.2647139798972879,-0.8683841570279824
1.24,0.8276587672989522,-0.4175022408674535,2.01326669778408,0.0147152419131902,0.0877060143420138,0.0547744640009243,-0.6379640648526725,0.8715542069678622,-0.5271275717744247,0.8344405908630558,-0.4271463980375422,2.0176524835499445,-0.6789597864689052,0.8526693768509276,-0.557889594950783,0.8596722202241515,-0.361201682972756,0.3656314740463295,0.6891177661542902,11.02249968367596,-0.9760555344995624,0.2542878460373288,-0.8727668075843459
1.26,0.8155042683963467,-0.4009374049545946,2.0033467023458384,0.0302973482093988,0.0957942551328119,0.0559791981714399,-0.6407594364219669,0.8713911733830156,-0.5177939231108539,0.8276509929983668,-0.4186197042690329,2.0120735876004368,-0.6917262520136058,0.8575713593222745,-0.5554534720937488,0.4872311554467334,-0.1397685784647162,-0.0081516792423297,0.4666824331785391,11.02249968367596,-0.97025365321297,0.2424590347285873,-0.8813489136889681
1.28,0.8026925348846062,-0.3835459053922238,1.9930641403362608,0.0461491826653023,0.1045886323984179,0.0573274019130117,-0.6399793189882046,0.8673858052903862,-0.511124999180765,0.8140717972689886,-0.4015663167320144,2.000915795701421,-0.7172591831030071,0.8673753242649681,-0.5505812263796804,0.3909159217569228,0.0390058716881136,-0.2002684046314706,0.3334461965044444,10.589014544676502,-0.9627463076408408,0.2302024913270045,-0.8921600289792062
1.3,0.7899322969397442,-0.366283180046585,1.982879606757877,0.0607623773314911,0.1126183024298097,0.0586547301463098,-0.6359883915754765,0.859075482431376,-0.5076977077228024,0.8004926015396105,-0.3845129291949958,1.9897580038024052,-0.7427921141924083,0.8771792892076619,-0.545708980665612,0.4917705114493857,0.1995463706364053,-0.4155161429505116,0.1713645728981305,10.589014544676502,-0.9546975951809472,0.2180941008628025,-0.9036243697993992
1.32,0.7772795161141608,-0.3492294677714972,1.9727381793553531,0.0733889964348753,0.1192089170886781,0.0598263712668052,-0.6295187900324585,0.8470181218122722,-0.506641723722286,0.7856367592557624,-0.3669693434108426,1.978843824189093,-0.7683250452818096,0.8869832541503556,-0.5408367349515436,0.6862047643267324,0.3234800771509005,-0.6028680309551893,0.0527992000258215,10.438904527960403,-0.947446989257723,0.2073190638549202,-0.9140560243033992
1.34,0.7653971535949122,-0.3332770840660366,1.9631093438689875,0.0832222842838309,0.1237718215125271,0.0606957577255509,-0.6216961506596285,0.8331750395112434,-0.5069744026382617,0.7707809169719142,-0.3494257576266893,1.967929644575781,-0.7938579763712108,0.8967872190930493,-0.5359644892374752,0.7951969718433641,0.3911319686415004,-0.692154115051441,-0.0166339457987829,10.341063797859531,-0.940819326560279,0.1971638453861314,-0.9238333062968712
1.36,0.753057530869921,-0.3167820688184121,1.952961422226964,0.091448138347598,0.126732638715605,0.061311609392243,-0.612765666982257,0.8172759642964492,-0.50780846092256,0.755286751410831,-0.3316370727189687,1.9571372711053203,-0.819390907460612,0.906591184035743,-0.5310922435234068,0.9127291282454608,0.446524183868574,-0.7949537607397084,-0.0417029142149194,10.295861898909608,-0.935612897006702,0.1884835716273341,-0.9317975107958028
1.38,0.7409016037222053,-0.3006208134854648,1.94279575837143,0.097640677211513,0.1279243652086263,0.0616048925689734,-0.6034716707501256,0.8000540606039077,-0.5086941069047576,0.7391542625725128,-0.3136032886876808,1.946466703777712,-0.8449238385500133,0.9163951489784368,-0.5262199978093384,0.9794854536487884,0.464699811606567,-0.8610951846270753,-0.0442822991098768,10.3113657892045,-0.9320756117391248,0.1813376885752042,-0.9377329668195524
1.4,0.7289329254993916,-0.2848134686898791,1.932616417166342,0.102028476989926,0.1274929323641861,0.0615825107365645,-0.594003416162812,0.7819486541058885,-0.5091651123837775,0.7107280201846989,-0.2606181104552694,1.917361053026192,-0.6323663038048589,0.7570375076787978,-0.4949458215441232,1.0218554637887476,0.4734127293656798,-0.9052703249009586,-0.0235502739509951,10.3113657892045,-0.9304612293014258,0.1759027353623824,-0.941390875024236
1.42,0.717645467698607,-0.2699917710729835,1.9229565243654607,0.1095887946582476,0.1282493820327153,0.061890757821785,-0.5938954755050254,0.7761251008708462,-0.5079393279735319,0.7107280201846989,-0.2606181104552694,1.917361053026192,-0.6323663038048589,0.7570375076787978,-0.4949458215441232,0.2976070012927148,0.0053970328893315,-0.2911776617521178,0.0612892205122783,10.399996662133162,-0.9254765369558916,0.1676739636402929,-0.9479987799234382
1.44,0.7058037370541189,-0.2546439405981365,1.9128013847389125,0.1207275128640648,0.132001592495789,0.0627478216928726,-0.5898735456524566,0.7585125682608924,-0.5077096329294752,0.7107280201846989,-0.2606181104552694,1.917361053026192,-0.6323663038048589,0.7570375076787978,-0.4949458215441232,0.9033686740319992,0.2010964926284386,-0.8806266304976884,0.0114847522028338,10.399996662133162,-0.922206139331569,0.1565694475486622,-0.9540903197835112
1.46,0.694081199743674,-0.2396971487763898,1.902642251715458,0.1319582680134865,0.1370431279939796,0.0637767582939127,-0.5823252907210178,0.7367767166368795,-0.5082913420642794,0.7044043571466504,-0.2530477353784814,1.9124115948107507,-0.6381452304158056,0.7484341970937759,-0.4921961644719964,1.1508277280381836,0.3774127465719423,-1.0867925812006465,-0.0290854567402076,10.388456054725792,-0.9163987116871768,0.1452761320520109,-0.962602777169499
1.48,0.682544166046355,-0.225233687097776,1.8924631130952172,0.1420303267458209,0.1421077246436877,0.0647416375321102,-0.5716849622802762,0.7108905428309589,-0.5096049997202783,0.6917570310705532,-0.2379069852249055,1.9025126783798685,-0.6497030836376989,0.7312275759237319,-0.4866968503277427,1.40092494452268,0.5320164220370793,-1.294308690296031,-0.0656828827999445,10.373366963875924,-0.909201454095944,0.1336271285239942,-0.9726084515287836
1.5,0.6718053735046765,-0.2119993186197797,1.8827663098672525,0.1498292043999397,0.1461462117955826,0.0654260882411454,-0.5592936350033236,0.6838727106899608,-0.5110248697484792,0.679109704994456,-0.2227662350713295,1.8926137619489856,-0.6612609368595922,0.714020954753688,-0.4811975361834889,1.4878879966085152,0.619566363847629,-1.3508916070499033,-0.0709935014100437,10.412689310727728,-0.9020296952446404,0.123101740861471,-0.982387386850965
1.52,0.6607730658265821,-0.1986367644747589,1.8725338081731189,0.1560918316958885,0.1490703602657261,0.0657952473830191,-0.5446319366630927,0.6540655363069762,-0.5120956539170408,0.6658844862572642,-0.2084858159762558,1.882989811225316,-0.6728187900814855,0.6968143335836441,-0.4756982220392352,1.661760829401472,0.733084917011545,-1.4903587191492318,-0.0535392084280827,10.471925352070684,-0.8957638553184561,0.1139741606717535,-0.99111566322623
1.54,0.6500486522637288,-0.1858864289621899,1.8622891708458085,0.1603252827553678,0.1502877321773372,0.0657241401739456,-0.5287594080967103,0.622958180130961,-0.5122557378545048,0.6526592675200723,-0.194205396881182,1.8733658605016463,-0.6843766433033788,0.6796077124136001,-0.4701989078949815,1.746160357913275,0.7936264283191219,-1.555367808800756,-0.0080041968732014,10.471925352070684,-0.891305960727313,0.1068130642676112,-0.997836722292678
1.56,0.6396488793092306,-0.1737698215550999,1.852054193304632,0.162561807405462,0.1496350678540359,0.0651729891364077,-0.5121733372784627,0.5908042996797198,-0.5111566428482539,0.6391451024523331,-0.1803551433153593,1.8638793926315829,-0.6959344965252722,0.6624010912435562,-0.4646995937507277,1.809818901916296,0.8293035409123795,-1.6076940225620615,0.0549547503125469,10.549329574140756,-0.8887568409346368,0.101098757180913,-1.002679296490249
1.58,0.6300825555351858,-0.1628657509254265,1.8423650186079497,0.1626530885800586,0.1469908936788713,0.0641407491204465,-0.4958065825782314,0.5589870678711578,-0.508743012606623,0.6253419910540466,-0.1669350552787878,1.8545304076151257,-0.7074923497471655,0.6451944700735122,-0.459200279606474,1.7930647717808648,0.8183377350115623,-1.5908615904280998,0.1206815120815441,10.642404557116606,-0.8893929083406702,0.097842340708662,-1.004150648205829
1.6,0.6203466845087219,-0.1520497662665283,1.8322318658624144,0.1600837403376536,0.1417754985012573,0.0624461839841741,-0.4790476154666423,0.5245754210277142,-0.5045399314724168,0.6052922264062742,-0.1349163975318686,1.8169278679776184,-0.5237635954550997,0.5200069228637859,-0.4638727589542888,1.9252858931506331,0.837948355579457,-1.7205823421721833,0.2101540567103099,10.744882101656913,-0.8918945659513512,0.0967863444123772,-1.0038885060618103
1.62,0.6108905443523376,-0.1419188580772396,1.822187532414017,0.1545179095812968,0.1354219620598684,0.0603633131660887,-0.467720652456063,0.4912251755626623,-0.4999416789823963,0.6052922264062742,-0.1349163975318686,1.8169278679776184,-0.5237635954550997,0.5200069228637859,-0.4638727589542888,1.7760087905076802,0.5663481505289641,-1.6675122732525915,0.2299126245010246,10.851668457663436,-0.8945360230180806,0.0984469818321937,-1.0029611117722643
1.64,0.6016470040755256,-0.1324174457785357,1.8122785940338089,0.1473375060437398,0.1291933226182024,0.0582205870883712,-0.4574288345395875,0.4611477453699463,-0.491071475005265,0.6052922264062742,-0.1349163975318686,1.8169278679776184,-0.5237635954550997,0.5200069228637859,-0.4638727589542888,1.6501922930521666,0.5145908958237744,-1.5038715096358013,0.4435101988565643,10.838876696732768,-0.901332756862985,0.1028826969937324,-0.997712881966856
1.66,0.5930460109214813,-0.1239269210006187,1.8030636328002272,0.1399880682420423,0.1232611844928448,0.0561882298577986,-0.4486672695473165,0.4344720407958577,-0.4793028815663584,0.6000545904517233,-0.1297163283032307,1.812289140388076,-0.5293549980304733,0.5122108938623116,-0.4548987082238219,1.5222171553100723,0.4380782496135521,-1.3337852287044287,0.5884296719453314,11.061093659207472,-0.9083917690072332,0.1083700125898415,-0.9915651404736284
1.68,0.5841584353696194,-0.1155166273814785,1.7936331362209093,0.1321241746330214,0.1170034826691575,0.0540886019980576,-0.4407612561312209,0.4082436760818608,-0.4642082865662725,0.5895793185426212,-0.119316189845955,1.80301168520899,-0.5405378031812206,0.4966188358593628,-0.4369506067628882,1.56387256667746,0.3953006708047768,-1.311418235699846,0.7547297500042932,11.242304633144158,-0.915821140601245,0.1143999367442747,-0.9845248633860116
1.7,0.5754136682026775,-0.1076141449849019,1.784530083370124,0.1243113710045933,0.1107826624911565,0.0520521352549841,-0.4343357729372064,0.3836193015243236,-0.4468029552143488,0.5791040466335192,-0.1089160513886793,1.7937342300299042,-0.5517206083319679,0.481026777856414,-0.4190025053019546,1.5415837765887916,0.3212741597007268,-1.2312187278768565,0.8702665675961868,11.385775660342006,-0.9235600236604922,0.1206938457406499,-0.976731134408099
1.72,0.5667802690784983,-0.1001860049032779,1.7757933131914296,0.1166686062471704,0.1047015564821154,0.0501005698601196,-0.4295273852619553,0.3606842868095438,-0.4276967790272056,0.5680696344668799,-0.099295515831551,1.785354179923865,-0.5629034134827152,0.4654347198534652,-0.4010544038410209,1.511771692829999,0.2404193837625551,-1.146750735738991,0.955308809357161,11.495700948884403,-0.931129921179506,0.1268428285016686,-0.9686509403617596
1.74,0.558651599497842,-0.0935376836928924,1.767859207863845,0.1096582018989153,0.0991715614078499,0.0483434669966213,-0.4265244740589032,0.3404731447587761,-0.4083923223460978,0.5570352223002405,-0.0896749802744227,1.776974129817826,-0.5740862186334625,0.4498426618505164,-0.3831063023800872,1.4054979424055494,0.1501455601526036,-1.0105571025383868,0.9652228340553876,11.576611756750026,-0.9390839134242052,0.1333575053107184,-0.959689301498909
1.76,0.5501370283126108,-0.0869388692082843,1.7599136463182408,0.1025743591267599,0.0938524766501621,0.0466194114605021,-0.4252922965300553,0.3206735500434699,-0.3871124367105018,0.5457212400048325,-0.0804442461673681,1.7690427822483104,-0.5852690237842098,0.4342506038475677,-0.3651582009191535,1.454626880867585,0.0616088764423955,-0.989979735765309,1.063994281779801,11.629897058322967,-0.9468692789978718,0.1398449476683707,-0.9504659525657358
1.78,0.5416244778921352,-0.080720264717,1.7524014014898677,0.095789424712598,0.0895184037207077,0.0450625428579404,-0.426171957720651,0.3023777619546975,-0.3651406179855787,0.5341276875806558,-0.0716033135103873,1.7615601372153178,-0.5964518289349571,0.418658545844619,-0.3472100994582198,1.4302713760685315,-0.0439830595297813,-0.914789404438618,1.0985909362461577,11.703244350052046,-0.9544443556754412,0.1464455132464754,-0.9409274496817314
1.8,0.5330738000916554,-0.0748508922024373,1.7453331178880995,0.0893395808693225,0.0867195874052811,0.0437119697223856,-0.4289429477137809,0.2856415327574909,-0.3427559949217134,0.5203158800061026,-0.0656013766192651,1.7341443705905888,-0.4272121080156627,0.2716277424788799,-0.3321937594305001,1.4043246624221106,-0.1385494996564984,-0.8368114598603343,1.1192311531932646,11.703244350052046,-0.9605394102461816,0.1525518230500824,-0.932739748292984
1.82,0.5248045878393979,-0.0695240772921606,1.7389282966179076,0.0848612430420205,0.0882235015859038,0.042929301148524,-0.44035487653899,0.2751450566717263,-0.3326084559398231,0.5203158800061026,-0.0656013766192651,1.7341443705905888,-0.4272121080156627,0.2716277424788799,-0.3321937594305001,0.9265266821841238,-0.5705964412604542,-0.5248238042882297,0.5073769490945124,11.718387481342688,-0.9561953407984378,0.1564680800444843,-0.9356337096969236
1.84,0.5159209329660226,-0.0641510149704828,1.7323913774452702,0.081789474700925,0.0948237051208056,0.0426386636854029,-0.4467623907102123,0.262618869593509,-0.3215222810414472,0.5203158800061026,-0.0656013766192651,1.7341443705905888,-0.4272121080156627,0.2716277424788799,-0.3321937594305001,0.8956350741935744,-0.3203757085611158,-0.6263093539108616,0.5543087449187967,10.98562461428446,-0.95692834245305,0.15989628567636,-0.9338541774791904
1.86,0.5069635843260173,-0.0590326784286277,1.7260847925735303,0.0793938158954849,0.1040039733990318,0.0425895838366318,-0.4481750907377966,0.2498599584169112,-0.3096742316721202,0.516043758925946,-0.0628850991944763,1.7308224329962838,-0.427420138074665,0.2654777385837163,-0.3256043877194844,0.8734440589388899,-0.0706350013792128,-0.6379455588298901,0.5924024684663465,11.011765673783884,-0.9526753548378571,0.1624300266721021,-0.9373191336881056
1.88,0.4980209452582437,-0.0541670555846701,1.720020008966517,0.0772953346856873,0.1142550682564358,0.0426281971909897,-0.4456275280098477,0.2373877315293288,-0.2974216090517414,0.5074995167656328,-0.0574525443448987,1.7241785578076738,-0.4278361981926697,0.2531777307933893,-0.312425644297453,0.8834213044544297,0.1273781363974435,-0.6236113443791186,0.6126311310189425,11.055813080883128,-0.945973111187049,0.1643122511516077,-0.9434121341333178
1.9,0.4896136132075361,-0.0497711966019979,1.7144870200025786,0.075450122742993,0.1239398609010443,0.04265521575471,-0.4392811235019307,0.2260030419122014,-0.2856421381393008,0.4989552746053195,-0.0520199894953211,1.7175346826190638,-0.4282522583106743,0.2408777230030622,-0.2992469008754216,0.8784132609903414,0.3173202253958507,-0.5692344808563732,0.5889735456220319,11.055813080883128,-0.9381097977039046,0.1661609765627356,-0.9504495665384336
1.92,0.4809309008402619,-0.0453716418209174,1.708905922773787,0.0736417967129384,0.1331122426048288,0.042601590346537,-0.4291403125575695,0.2145884786698193,-0.2731070352980615,0.490390229439106,-0.0472024350352599,1.7115497446015555,-0.428668318428679,0.2285777152127351,-0.2860681574533902,0.9877463032885272,0.50704054721806,-0.5707281621191037,0.6267551420619633,11.094629352891388,-0.9300404542797592,0.1677565924024918,-0.957584234561421
1.94,0.4724812962682155,-0.0411950912217918,1.703571771499024,0.0719622769478818,0.140558874770988,0.0424189307420627,-0.4162634322275039,0.2036707876621465,-0.2609773995696188,0.4818251842728925,-0.0423848805751986,1.705564806584047,-0.4290843785466837,0.216277707422408,-0.2728894140313588,1.0393965639718128,0.643844016503281,-0.5458845503836393,0.6064817864221361,11.094629352891388,-0.9224444897653548,0.1691141463658161,-0.9641441392819736
1.96,0.4643111922657353,-0.0372341398795814,1.6984768147292026,0.0703302314672197,0.1458573240930722,0.042078309867373,-0.4015125991172252,0.1930335158269173,-0.2491425077199922,0.4732497376037289,-0.0378748263098956,1.6999093371520897,-0.4295004386646884,0.2039776996320809,-0.2597106706093274,1.084900104429219,0.7375416555139319,-0.5318635917614625,0.5917445924813303,11.084386182573326,-0.9164402208943896,0.1702369388567173,-0.9691907151611966
1.98,0.45683301650085,-0.0336649542357901,1.6938557597049355,0.0687709732389151,0.148827398245575,0.0416065605039821,-0.3865653964677026,0.1832582970555458,-0.2378812045040113,0.4646638894316152,-0.0336722722393507,1.6945833363056826,-0.4299164987826931,0.1916776918417539,-0.246531927187296,1.0556878316959168,0.7473601324761325,-0.4887609385685734,0.5630651607990422,11.084590765001847,-0.911801020843518,0.1713690133770982,-0.9728687214663336
2.0,0.4492704259083855,-0.0301044095796295,1.6892256245449764,0.0671358788517095,0.1499010841320129,0.0409709224377719,-0.3706011565582777,0.173356355323457,-0.2257053203699992,0.4375047466774649,-0.0245020393830128,1.6819616994797348,-0.3925520287812819,0.1691622577081952,-0.2044758185925466,1.1193274324301192,0.798211995471243,-0.4950970866044374,0.6087942067006038,11.097839498287613,-0.9092712567145448,0.1724712209940073,-0.9745821885340202
2.02,0.442046789141764,-0.0267840984615122,1.6847951007895916,0.0639265373157069,0.1482037441043557,0.040048621901009,-0.3526250109150737,0.1600970333022881,-0.2180995129024689,0.4375047466774649,-0.0245020393830128,1.6819616994797348,-0.3925520287812819,0.1691622577081952,-0.2044758185925466,1.179830220709615,0.8988072821602022,-0.6629661010584459,0.3802903733765184,11.124592175307953,-0.9099347454334044,0.174955760360962,-0.973148763826124
2.04,0.4351792373847068,-0.0236830820536375,1.6805238712087107,0.0592692270539589,0.142728214245336,0.0388132334935116,-0.3356013238276388,0.1509028391038689,-0.2092586187842768,0.4375047466774649,-0.0245020393830128,1.6819616994797348,-0.3925520287812819,0.1691622577081952,-0.2044758185925466,1.0636030013804818,0.8511843543717451,-0.4597097099209621,0.4420447059096055,10.92517279666663,-0.9119535742081928,0.1780300083297312,-0.9706056974225358
2.06,0.4289360978270538,-0.0208846148602725,1.6766495283956084,0.0548403916553289,0.134971455644259,0.0375339260049567,-0.3228681558546911,0.1441482800694472,-0.1989766170037937,0.4335792263896521,-0.0228104168059309,1.6799169412938093,-0.3937493552439978,0.1663430498387251,-0.1977947414102537,0.8852643602205013,0.6366583986473856,-0.3377279517210854,0.5141000890241512,10.92517279666663,-0.9174680346978932,0.1817453278202644,-0.9642395042422884
2.08,0.4225848487440591,-0.0180644711087341,1.6727984750296376,0.0506520722369837,0.1255073019329626,0.0362063871507025,-0.3133204632060629,0.1382062424969904,-0.1865806967087479,0.4257281858140264,-0.0194271716517669,1.6758274249219585,-0.3961440081694295,0.1607046340997849,-0.1844325870456678,0.8368468877074903,0.4773846324314074,-0.2971018786228366,0.6197960147522926,11.013203463043284,-0.925808176053076,0.185547745166646,-0.9546746241065408
2.1,0.4163841021750289,-0.0153540498709629,1.6692095106560343,0.0471069657308511,0.115858941560906,0.0349709730601584,-0.3075000665573086,0.1330475903696649,-0.1729122796291345,0.4178771452384008,-0.016043926497603,1.6717379085501074,-0.3985386610948612,0.1550662183608446,-0.1710704326810819,0.7863115387393513,0.2910198324377167,-0.2579326063662762,0.6834208539806708,11.089194397097344,-0.9350594423446544,0.1889761632799321,-0.9439010922032288
2.12,0.410569046006589,-0.0128695394249103,1.6660612909596504,0.0443180989668043,0.1073149531715158,0.0339125940632782,-0.3050379125442765,0.1286568781362691,-0.1591434927115418,0.4099063720165036,-0.0129426021303862,1.6683164998964857,-0.400933314020293,0.1494278026219044,-0.1577082783164961,0.7330075877548144,0.1231077006516062,-0.2195356116697897,0.6884393458796336,11.143886789627686,-0.9451553132243788,0.1922578047427833,-0.9319146336976208
2.14,0.404471180889566,-0.0103406877436006,1.6630344915314588,0.0419264616734209,0.0995202021450454,0.0329288346559232,-0.305015796784297,0.1244149449951126,-0.144231174822792,0.4019355987946063,-0.0098412777631693,1.664895091242864,-0.4033279669457247,0.1437893868829641,-0.1443461239519102,0.7751962827181378,0.0011057879989728,-0.2120966570578281,0.7456158944374874,11.192881915698308,-0.954834123253168,0.1951900453538158,-0.9201126588567888
2.16,0.3983470817676562,-0.0078941741911994,1.6603071609723732,0.0399946948740211,0.0934100787207273,0.0320798406381452,-0.3075745645212548,0.1204179822289159,-0.1292367006865773,0.3939049592495733,-0.0068809137894259,1.661807736448357,-0.4057226198711564,0.1381509711440239,-0.1309839695873243,0.786379771973555,-0.1279383868478922,-0.1998481383098313,0.7497237068107384,11.192881915698308,-0.9627266611855804,0.1978169927878182,-0.9099157498602762
2.18,0.3924562408764594,-0.0056411910870494,1.657993091059095,0.0385217106105011,0.0898661827145294,0.0314122205053825,-0.3124283004970752,0.1169131415318234,-0.1150855056340775,0.3858144533814045,-0.004061510209156,1.6590544355129646,-0.4081172727965881,0.1325125554050837,-0.1176218152227384,0.7682756384411492,-0.2426867987910197,-0.1752420348546245,0.7075597526249873,11.192934110642454,-0.9683338602426128,0.2000330317847222,-0.9021753514129864
2.2,0.3861441488820938,-0.003337850224941,1.655847149569356,0.0373643567953849,0.0890436865518135,0.0308673438732536,-0.3182058142843865,0.1136215346513991,-0.1002384406698619,0.3768348258516056,0.0002044659895417,1.652238815777391,-0.3204890082077586,0.1059503460656388,-0.1048367952327213,0.81340285140493,-0.2888756893655642,-0.164580344021218,0.7423532482107815,11.19065028881505,-0.9738705325247696,0.2020434441279107,-0.8947268480388186
2.22,0.3797066380334296,-0.0010955911508188,1.653904748628363,0.0366082059616743,0.0911385446653315,0.0304741415588796,-0.3249761432628806,0.1108062149785104,-0.0952283391649122,0.3768348258516056,0.0002044659895417,1.652238815777391,-0.3204890082077586,0.1059503460656388,-0.1048367952327213,0.4440284237171359,-0.3385164489247028,-0.1407659836444356,0.2505050752474848,11.16822500031776,-0.9718186488166696,0.2032529267895715,-0.8955419401269269
2.24,0.3731574679206824,0.0010963991922215,1.6520429046495972,0.0363227609401351,0.0956167172829227,0.0302140371592378,-0.3292454545542876,0.10849946013661,-0.0911513264876419,0.3768348258516056,0.0002044659895417,1.652238815777391,-0.3204890082077586,0.1059503460656388,-0.1048367952327213,0.3168997048522993,-0.2134655645703531,-0.1153377420950202,0.2038506338635164,10.518173391538769,-0.970935279398196,0.2032928427827239,-0.8966697479415623
2.26,0.3668832261734782,0.0031382360546269,1.6503515921236132,0.0365979750763836,0.1009822249591445,0.0300582170039714,-0.3307671469613503,0.1065007933056798,-0.0870945753057936,0.3736299357695281,0.0012639694501981,1.651190447825064,-0.3221011497498953,0.1037577869724019,-0.1027870531524501,0.2385762301351507,-0.0760846203531312,-0.0999333415465097,0.2028375590924148,10.513799363651742,-0.9680329164969692,0.2029925325779533,-0.8998257265071414
2.28,0.360273588589789,0.0052460284445178,1.648655473206427,0.037495293409139,0.1069347503155706,0.029963620651088,-0.3299174160397045,0.1043372149215288,-0.0827403236430645,0.3672201556053729,0.0033829763715108,1.6490937119204094,-0.3253254328341686,0.0993726687859281,-0.0986875689919076,0.2467925323320451,0.0424865460822904,-0.1081789192075508,0.2177125831364534,10.51942110764685,-0.9639812241334188,0.2021790733774482,-0.904202040626036
2.3000000000000003,0.3537046824513976,0.0073071968008769,1.6470459626756349,0.0389677896180645,0.1125371349324138,0.0299146387012755,-0.3268870199710872,0.1018340236617136,-0.078446121672603,0.3608103754412177,0.0055019832928236,1.646996976015755,-0.3285497159184419,0.0949875505994542,-0.0945880848313651,0.2910731754173714,0.1515198034308634,-0.1251595629907557,0.2147100985230722,10.525466033378509,-0.9594566201150162,0.2008358339514884,-0.9091101755056892
2.32,0.3472162583698925,0.00931200005421,1.6455214925381576,0.0408707315260982,0.1173028794643192,0.0298824703929242,-0.3220882652768563,0.098721874611615,-0.0742354499639113,0.3542393811228489,0.0074017343048127,1.6451052143191278,-0.3317739990027153,0.0906024324129804,-0.0904886006708226,0.3551171446291,0.2399377347115455,-0.1556074525049307,0.2105335854345878,10.527218452766649,-0.9552591278157034,0.1991539107621046,-0.9137016260220662
2.34,0.3411532336374427,0.0111489445200127,1.6441471452172856,0.0427952414729635,0.1208226696427796,0.0298356110509827,-0.3163961311071863,0.0947592544380761,-0.0706565072789255,0.34766838680448,0.0093014853168018,1.6432134526225004,-0.3349982820869886,0.0862173142265065,-0.0863891165102801,0.3902293581590056,0.2846067084835008,-0.1981310086769466,0.1789471342492882,10.530875679703058,-0.951485701925038,0.1973216038099438,-0.9177344308850665
2.36,0.3348946189741279,0.0129919567840246,1.642770918305304,0.0445663080447825,0.1234138410302686,0.0297355361973481,-0.3097896778213354,0.0897868260932898,-0.0671674069744809,0.3410167854090044,0.011091608374129,1.6414241780298868,-0.338222565171262,0.0818321960400327,-0.0822896323497376,0.4487317951645497,0.3303226642925455,-0.2486214172393135,0.1744550152222308,10.514277829266575,-0.9486786051232946,0.1957510110170566,-0.9206216354202688
2.38,0.3287719103551146,0.0147288219674231,1.6414626111317876,0.0458811945707294,0.1249259312103185,0.0295677609522169,-0.3028627839912482,0.0841698193990674,-0.0638432007641577,0.3342845769364218,0.0127721034767944,1.6397373905412866,-0.3414468482555353,0.0774470778535588,-0.0781901481891951,0.4758754281978385,0.3463446915043577,-0.2808503347111225,0.1662103105161586,10.506382579984349,-0.94676968485851,0.1945627338109747,-0.9224787663511732
2.4,0.3227887373107382,0.0163463450565969,1.640220284163311,0.0464949887816546,0.1254668275818828,0.0293170892471731,-0.2959000186536678,0.0779500282482777,-0.0605512130444882,0.3136287711555522,0.0189373129373765,1.6382704510935795,-0.2903090148274608,0.0758392050930347,-0.0626975604924419,0.4949825407327716,0.3481382668790223,-0.3109895575394823,0.1645993859834767,10.506432090633098,-0.9458010539302432,0.1939737283840552,-0.9232722186105868
2.42,0.3172012140339974,0.0177475069516109,1.639079104217983,0.0457064050693396,0.1261530381710506,0.0290013781774643,-0.2924172155454109,0.0701854961617556,-0.0597255119472245,0.3136287711555522,0.0189373129373765,1.6382704510935795,-0.2903090148274608,0.0758392050930347,-0.0626975604924419,0.4274916909003564,0.1741401554128441,-0.3882266043261077,0.041285054863184,10.506432090633098,-0.9425443740637576,0.1942875334289533,-0.9261690818975636
2.44,0.3113986758277871,0.0190744725074541,1.637893777354011,0.0431409738651863,0.1277874481095602,0.0286010327583245,-0.2878899023276276,0.0631331270545018,-0.058833042229911,0.3136287711555522,0.0189373129373765,1.6382704510935795,-0.2903090148274608,0.0758392050930347,-0.0626975604924419,0.4213934538919161,0.2263656608891634,-0.3526184553626861,0.0446234858656746,10.37936756545878,-0.9412884003726174,0.1960122243160341,-0.9272718356220486
2.46,0.3056978826463529,0.0202868295259306,1.636728511851818,0.0396299546850415,0.1298934594200056,0.0281655966187919,-0.2823223145418789,0.0586902832512341,-0.0577309644189279,0.3107256810072776,0.0196957049883068,1.6376434754886553,-0.2877982609947034,0.0741730822318282,-0.0624684324380988,0.3603868418578634,0.2783793892874336,-0.2221421901633883,0.0551038905491539,10.37936756545878,-0.9395046559696564,0.198660516522939,-0.9284375345131416
2.48,0.3001190119821617,0.0214332833186972,1.6355866282838665,0.0362456419655731,0.1320828372934982,0.0277520765516213,-0.2757864982850827,0.0561461760491519,-0.0565253286588311,0.3049195007107284,0.0212124890901675,1.6363895242788065,-0.2827767533291884,0.0708408365094151,-0.0620101763294124,0.3558192419765715,0.3267908128398111,-0.1272053601041111,0.0602817880048438,10.38963746646641,-0.9371005152398812,0.2014363678896149,-0.9300712472229014
2.5,0.2949481961553852,0.0224863011744843,1.634524439822941,0.0335133118509003,0.1339858717003473,0.027396130171708,-0.2688151447786984,0.0547233526114186,-0.0553570674712496,0.2991133204141792,0.0227292731920282,1.6351355730689576,-0.2777552456636735,0.0675085907870021,-0.0615519202207261,0.360517095462714,0.348567675319214,-0.0711411718866624,0.058413059379072,10.38963746646641,-0.9345411206618846,0.2038707591054562,-0.931804947134516
2.52,0.289654490463953,0.0235712735058813,1.6334304002545084,0.0312238268779826,0.1356416326075968,0.0270621299821793,-0.2609014983089419,0.0537737175065719,-0.0541161862581188,0.2935582155009057,0.0240794450077683,1.633904534664543,-0.2727337379981585,0.064176345064589,-0.0610936641120398,0.4033218115405727,0.3956823234878254,-0.0474817552423328,0.0620440606565398,10.393001570014349,-0.9320571010989284,0.2058651040908497,-0.933456692441834
2.54,0.2845239199210474,0.0246417355312477,1.632360572060515,0.0295265718258898,0.1368487560926202,0.0267682787958264,-0.2525531606980415,0.0532532610740261,-0.0529382745083085,0.2880031105876323,0.0254296168235083,1.6326734962601286,-0.2677122303326436,0.0608440993421759,-0.0606354080033534,0.422353796757213,0.4174168805450184,-0.0260228216272903,0.0588955874905174,10.39606155292404,-0.9298446423596164,0.2074364973223704,-0.934834961069578
2.56,0.2795639477075813,0.0257062427898815,1.6313139311691784,0.0284561369447531,0.137539637337922,0.0265164635708779,-0.2439055245535193,0.0531525652415431,-0.0517902723432672,0.2825735433659966,0.026696482496188,1.6314539142584312,-0.2626907226671287,0.0575118536197629,-0.0601771518946671,0.4362042512105579,0.4323818072261093,-0.0050347916241505,0.0574001082520633,10.396785931819975,-0.9281292422763626,0.2085049566894296,-0.9357798680964864
2.58,0.2747780228776432,0.0267724335020356,1.6302903692867343,0.0281071631761557,0.1377093005391433,0.0263135888872446,-0.2351749324089442,0.0533958805462952,-0.050626622182844,0.2772695138359989,0.0278800420258074,1.630245788659451,-0.2576692150016137,0.0541796078973498,-0.0597188957859808,0.4405579508654245,0.4365296072287569,0.0121657652376021,0.0581825080211616,10.399212742240708,-0.926707539705634,0.2090788462575958,-0.9364670107501548
2.6,0.2703925119309389,0.0277909683784365,1.6293399078277166,0.0285295522112499,0.1374270981878263,0.0261723875314568,-0.2269490306180487,0.0537298052863043,-0.0494813960122553,0.263019276257196,0.0294422275293504,1.6277590381775922,-0.2220090589335714,0.054424964051568,-0.045739350976018,0.4155974885248005,0.4112950895447734,0.0166962370004575,0.0572613085294347,10.399212742240708,-0.9257112008889424,0.2089913651168634,-0.9368524215575044
2.62,0.2659495234265634,0.0288336731647295,1.6283716273489597,0.0286944398958015,0.1365925777443204,0.025999821715516,-0.2178344276273654,0.0507307948658022,-0.0473447088017426,0.263019276257196,0.0294422275293504,1.6277590381775922,-0.2220090589335714,0.054424964051568,-0.045739350976018,0.4915167428878262,0.4557301495341684,-0.1499505210251051,0.1068343605256358,10.402400008888437,-0.9256264298931786,0.2087327322724717,-0.936840375353309
2.64,0.2616847379797587,0.0298233084214372,1.6274495920514442,0.0278699103170934,0.1351682219990301,0.0257549319831086,-0.2091752298450896,0.04847955122372,-0.0449575291114327,0.263019276257196,0.0294422275293504,1.6277590381775922,-0.2220090589335714,0.054424964051568,-0.045739350976018,0.4630022436295901,0.4329598891137903,-0.1125621821041113,0.1193589845154923,10.467936125034612,-0.9260574475821484,0.2098808124869788,-0.9353997460132596
