t,x,y,z,roll,pitch,yaw,v_x,v_y,v_z,ref_x,ref_y,ref_z,ref_v_x,ref_v_y,ref_v_z,a_com,a_x,a_y,a_z,thrust,wind_x,wind_y,wind_z
0.0,0.423424785712318,1.1618659637526418,2.694148764359809,0.0334196256063075,0.1003132402812179,0.0433882217250732,0.0043540633661688,-0.0033644598220039,0.0191955564473827,0.4235480229260683,1.1618741862953326,2.694733738513839,-0.0958267082907328,-0.100690457837635,-0.0805800859663388,0.9984323274703568,0.2177031683084409,-0.1682229911001997,0.9597778223691368,10.235461621056857,-0.9447156134460836,0.255609707848611,-0.8705858176798619
0.02,0.4236562130010083,1.1620503007113452,2.694310534890212,0.0402704546342321,0.0944737525046077,0.0436252158579085,0.0187514915744433,0.0175081165056902,-0.0022900280183143,0.4235480229260683,1.1618741862953326,2.694733738513839,-0.0958267082907328,-0.100690457837635,-0.0805800859663388,1.661761656646677,0.719871410413728,1.0436288163847114,-1.074279223284852,8.932386310737911,-0.9531917332881495,0.2550781924210857,-0.8570889341056237
0.04,0.4241353059787082,1.1624305862741182,2.6939621669073968,0.0540408873681394,0.0781388973394604,0.0437428719128194,0.0270536242404267,0.0186566691142976,-0.0315874326999595,0.4235480229260683,1.1618741862953326,2.694733738513839,-0.0958267082907328,-0.100690457837635,-0.0805800859663388,1.5236325844658347,0.4151066332991688,0.0574276304303693,-1.464870234082262,8.60910558831847,-0.9532312145985204,0.2408791795242667,-0.8618872316121968
0.06,0.4246705710712463,1.1627499322262305,2.6930179220323462,0.0683028466750726,0.0557006171268304,0.0432331072890352,0.0250283560852839,0.0128385596642947,-0.0613582881981623,0.422589755843161,1.1608672817169563,2.693927937654176,-0.115826708588756,-0.1206904581356582,-0.100580086264362,1.5200789007213755,-0.1012634077571393,-0.2909054725001443,-1.4885427749101416,8.607376930567625,-0.9610092447835372,0.2231165115107805,-0.8625249947017166
0.08,0.4250633727957198,1.1629114042475357,2.691486474717365,0.0820351839572848,0.0311632902420847,0.0421479580839204,0.0136690721357303,0.0032640981577713,-0.0903628855776442,0.4206732216773464,1.1588534725602035,2.6923163359348488,-0.1558267091848025,-0.1606904587317046,-0.1405800868604085,1.6293943001406443,-0.5679641974776813,-0.4787230753261682,-1.4502298689740911,8.607376930567625,-0.9728970709825236,0.2045613363389003,-0.8607759127434346
0.1,0.4251436050863936,1.1628575744642329,2.6894997023181664,0.0944899951221337,0.0086196210100952,0.040775491292379,-0.004950781834002,-0.0087173585433201,-0.1173972552204081,0.4187566875115317,1.1568396634034508,2.690704734215522,-0.1958267097808489,-0.2006904593277511,-0.1805800874564549,1.7472202269003527,-0.9309926984866184,-0.5990728350545761,-1.3517184821381991,8.669550822963174,-0.9876782584838932,0.1848288912294579,-0.8570986845097858
0.12,0.4247807339696233,1.162526379963717,2.6868542273200178,0.1069975926270983,-0.0124071594882504,0.0392018681246209,-0.0306363371017439,-0.0240700230664951,-0.1457792865387361,0.4148401533159147,1.1528258542168957,2.687093132466393,-0.2358267103768954,-0.2406904599237975,-0.2205800880525014,2.062154067430416,-1.284277763387094,-0.7676332261587475,-1.4191015659163952,8.74615622792362,-1.0026682755240024,0.1647991198780924,-0.8538792958872352
0.14,0.4238518338100537,1.1618605019993904,2.6836369970113614,0.1189101741064731,-0.0295792226146396,0.0377076613096075,-0.0610501642905868,-0.0420261462047512,-0.1745897310861353,0.4109236191202978,1.1488120450303407,2.6834815307172635,-0.2758267109729419,-0.280690460519844,-0.2605800886485478,2.2789608144106968,-1.5206913594421487,-0.8978061569128075,-1.44052222736996,8.809222671176485,-1.0149663975756262,0.1451014122051805,-0.8540475006456001
0.16,0.4222728099422737,1.160808991912286,2.679841276041171,0.1302412307520782,-0.0421690399978197,0.0364963286423785,-0.0950526777532506,-0.0624769632742074,-0.2035786778672439,0.4060070849097796,1.1437982358288843,2.678869928953233,-0.3158267115689883,-0.3206904611158904,-0.3005800892445943,2.457013367925041,-1.70012567313319,-1.022540853472809,-1.449447339055432,8.89731929606205,-1.02572571639425,0.1253567033693746,-0.855753512371294
0.18,0.4201190055116358,1.159406287105445,2.675698469527572,0.1403901057087742,-0.0495637719667872,0.0357575050749282,-0.129863561818223,-0.0842993542814321,-0.231088831404902,0.4000905506843603,1.1377844266125272,2.673258327174302,-0.3558267121650347,-0.3606904617119368,-0.3405800898406407,2.472257544392712,-1.7405442032486187,-1.0911195503612354,-1.375507676882906,8.89731929606205,-1.032922555223446,0.1082117002905932,-0.8586581225012282
0.2,0.417121318079565,1.1574380075298687,2.6707684838894847,0.1496717481943451,-0.0520127792476226,0.035555619345279,-0.1676673593150592,-0.1111774927978687,-0.2603684643259099,0.4136258274207247,1.1551913193913732,2.6641440279573265,-0.2298635633083391,-0.1842993557715482,-0.3310888328950181,2.742653067414611,-1.8901898748418064,-1.3439069258218292,-1.4639816460503912,8.958438295442193,-1.0372161379940144,0.0910665661684407,-0.8660729795348416
0.22,0.4133403696260331,1.1547663205382328,2.6653725324804243,0.1530968274009163,-0.0481544492922196,0.0358705418193018,-0.2079762821347925,-0.152864575278295,-0.276576657495077,0.4136258274207247,1.1551913193913732,2.6641440279573265,-0.2298635633083391,-0.1842993557715482,-0.3310888328950181,3.010534682754097,-2.015446140986668,-2.084354124021316,-0.8104096584583581,8.991465712631452,-1.0419097323228677,0.0798575529665295,-0.8714282526855534
0.24,0.4088008562533471,1.1513241657674296,2.659689775756209,0.1498979359170888,-0.0385842312252114,0.0365817872739308,-0.2432125960451003,-0.18806089711174,-0.2906493332702576,0.4136258274207247,1.1551913193913732,2.6641440279573265,-0.2298635633083391,-0.1842993557715482,-0.3310888328950181,2.587672260962802,-1.7618156955153867,-1.7598160916722476,-0.703633788759031,9.955212008854687,-1.0412428155018325,0.0799460208250785,-0.8751584455344265
0.26,0.4038880050029127,1.1474665977672365,2.65402252223395,0.1441995980732434,-0.0265985905150396,0.037450757549845,-0.271669702269622,-0.2156439994312163,-0.3050475767682463,0.4113271917876412,1.1533483258336577,2.660833139628376,-0.2498635636063624,-0.2042993560695714,-0.3510888331930414,2.1082835696768747,-1.4228553112260858,-1.379155115973817,-0.7199121748994342,9.824694432592878,-1.0352754760588074,0.0816293785559501,-0.8855816919835439
0.28,0.3981858599704589,1.142888618567116,2.64774494131114,0.137608924138108,-0.0127775373591425,0.0384084118703981,-0.2965837783611573,-0.2404699172900701,-0.3220275401218083,0.4067299205214745,1.1496623387182268,2.654211362970476,-0.2898635642024088,-0.2442993566656179,-0.3910888337890878,1.9527906573143436,-1.245703804576767,-1.2412958929426885,-0.8489981676780972,9.653327788613751,-1.027198719899411,0.0848027052050128,-0.8970437652459393
0.3,0.3920344199510623,1.137844297870186,2.641101474163992,0.1313094132468778,0.0008735454500764,0.0392656149443514,-0.3170252459845985,-0.2626602562781334,-0.3414630052515461,0.4021326492553077,1.145976351602796,2.647589586312576,-0.3298635647984553,-0.2842993572616644,-0.4310888343851343,1.7944372709951506,-1.0220733811720588,-1.1095169494031636,-0.9717732564868908,9.32916351602671,-1.0174996763372477,0.0872974570061625,-0.9105195335128334
0.32,0.385514110424812,1.132377513829764,2.634045395695882,0.1256177767493683,0.0134270872149663,0.0399338130369397,-0.3338073161225283,-0.2829318960831203,-0.3632080191774385,0.3955353779593386,1.1402903644575626,2.638967809624873,-0.3698635653945017,-0.3242993578577108,-0.4710888349811807,1.7069145329620183,-0.839103506896488,-1.013581990249346,-1.0872506962946198,9.32916351602671,-1.0071950890388004,0.0888888899421787,-0.9245103324056
0.34,0.379037731606032,1.1268228644773937,2.6269243598601144,0.1208859806679694,0.0238056311968054,0.0403556122098735,-0.3470140773251937,-0.3008321796235515,-0.3853315963690827,0.3889381066633695,1.134604377312329,2.63034603293717,-0.4098635659905482,-0.3642993584537573,-0.5110888355772272,1.5686709024256027,-0.6603380601332726,-0.8950141770215608,-1.1061788595822102,9.197209346883938,-0.9968953129910594,0.0899643068986247,-0.9383943451754684
0.36,0.3719674465918132,1.120612017370503,2.6189593230320165,0.1164070956560906,0.0329612696211337,0.0405679046432851,-0.3592313882207139,-0.3192325643648229,-0.4100909854490749,0.3813408353524992,1.127918390152195,2.6207242562345665,-0.4498635665865946,-0.4042993590498037,-0.5510888361732735,1.6589636763346045,-0.6108655447760097,-0.9200192370635712,-1.237969453999613,9.118150886701187,-0.9871395665116868,0.0902538176181026,-0.9518462190422888
0.38,0.3646664298756067,1.1140393062219758,2.6104865228317964,0.1121660365774363,0.0404601920588446,0.0405615081930232,-0.3702046190485834,-0.3370059263761208,-0.4360066824937122,0.3727435640267278,1.120232402977159,2.610102479517061,-0.4898635671826411,-0.4442993596458501,-0.59108883676932,1.6642772795539311,-0.5486615413934748,-0.8886681005648961,-1.295784852231863,9.050188897361297,-0.9788747631907484,0.0902554949419151,-0.9635336775581552
0.4,0.3575363300259998,1.1074732952663535,2.6019471600092205,0.1082495080666354,0.0462340520969409,0.0403805273379437,-0.3797788783386188,-0.3531577445457045,-0.461588840310683,0.3461561989231776,1.0971890099031698,2.588686188707111,-0.4392551918611406,-0.437005927866237,-0.5360066839838283,1.586658808399367,-0.4787129645017679,-0.8075909084791832,-1.279107890848538,9.002291430319929,-0.9711615334350068,0.0901206881584659,-0.9747661759274524
0.42,0.3498161546055439,1.1002397329446654,2.592632492109477,0.1050169837942741,0.0522048492908104,0.0402129846863709,-0.3914731495761862,-0.3697563671219288,-0.4674985437982262,0.3461561989231776,1.0971890099031698,2.588686188707111,-0.4392551918611406,-0.437005927866237,-0.5360066839838283,1.0573490985909284,-0.5847135618783722,-0.8299311288112121,-0.2954851743771636,8.960586954894097,-0.968637844592754,0.0897240302388475,-0.9805488568543066
0.44,0.341884031031282,1.0926783307541277,2.5832037189118955,0.1031383578291405,0.0588645884294854,0.0401907669073644,-0.4009067246967145,-0.3857264994146181,-0.4754509355149252,0.3461561989231776,1.0971890099031698,2.588686188707111,-0.4392551918611406,-0.437005927866237,-0.5360066839838283,1.009056488776114,-0.4716787560264168,-0.7985066146344671,-0.3976195858349463,9.947159611487224,-0.9630609463473304,0.09029633302453,-0.9866670918881656
0.46,0.3337855576278052,1.0847967607668223,2.5735610762188736,0.1022277940397658,0.0654464510208582,0.040212104899739,-0.4083192423685228,-0.4016992803101318,-0.488415978125545,0.3417636470045662,1.0928189506245074,2.5833261218672727,-0.4530653064236521,-0.4570059281642602,-0.5560066842818515,1.0933520449358298,-0.3706258835904141,-0.7986390447756841,-0.6482521305309907,9.947159611487224,-0.9563942878269752,0.0893221179907538,-0.99454915547706
0.48,0.3259709378736117,1.077016210380502,2.5641239073768785,0.1019797374426354,0.0712011443968308,0.040213657342152,-0.4138271039826637,-0.4165432736479466,-0.5043342250062359,0.3329785431673434,1.0840788320671828,2.572605988187596,-0.480685535548675,-0.4970059287603067,-0.596006684877898,1.1225765692462175,-0.2753930807070454,-0.7421996668907388,-0.7959123440345467,9.693524953065207,-0.949166657618106,0.0872622534659478,-1.003463928878943
0.5,0.3176451872230956,1.0685260359264497,2.553832449382608,0.1023751780622129,0.0764557296081886,0.0401707487664302,-0.4183929548262065,-0.431728200991443,-0.5241275763502327,0.3241934393301205,1.075338713509858,2.5618858545079197,-0.5083057646736979,-0.5370059293563532,-0.6360066854739445,1.2680750862820014,-0.2282925421771359,-0.7592463671748206,-0.9896675671998368,9.339724448130257,-0.942144886490096,0.0842279114898144,-1.0124890124458923
0.52,0.3092383763867788,1.0597327490581774,2.5431186668923638,0.1034646687479506,0.080740072597972,0.0400702402934844,-0.4220355229127775,-0.4468884211211297,-0.5463667911263096,0.3140273240366466,1.064598594922731,2.5491657207984404,-0.5359259937987209,-0.5770059299523996,-0.6760066860699909,1.358016246683322,-0.1821284043285548,-0.7580110064843354,-1.1119607388038466,9.339724448130257,-0.9365587207464892,0.0808730371188745,-1.0197462406930509
0.54,0.3007670033297399,1.050633867256459,2.531947628267732,0.1051962435432108,0.0839936236029395,0.0399016322074777,-0.4249533637176993,-0.4623183352531105,-0.5696379148976578,0.3038612087431726,1.0538584763356038,2.536445587088961,-0.5635462229237437,-0.6170059305484461,-0.7160066866660374,1.403692671727484,-0.1458920402460872,-0.771495706599043,-1.1635561885674106,9.225215948305047,-0.9324975166739776,0.0771656755649266,-1.0254083412506243
0.56,0.2926670368246969,1.04168863317972,2.520898412795559,0.107020313706197,0.0862568302289959,0.0396601694983272,-0.4275510772653609,-0.478455833139344,-0.5922778328227787,0.2930045877215731,1.0421183577335755,2.5227254533645813,-0.5911664520487666,-0.6570059311444925,-0.7560066872620838,1.396184834970018,-0.1298856773830792,-0.806874894311671,-1.131995896256044,9.189105457054213,-0.9289163629423371,0.0728478574250495,-1.0309108594960428
0.58,0.2840881662802879,1.0319296348381046,2.5087960822690105,0.108518792645322,0.0879921260797856,0.0392984373296758,-0.4302113027632214,-0.4965262750913696,-0.6167898900369692,0.281457460971848,1.0293782391166462,2.5080053196253003,-0.6187866811737894,-0.6970059317405389,-0.7960066878581302,1.5284457963179,-0.1330112748930245,-0.9035220976012835,-1.2256028607095235,9.175791515198398,-0.9259641243040166,0.0688474618379055,-1.0358488393365544
0.6,0.2754563922238707,1.0217979135120832,2.496198212307687,0.1090850832074102,0.0892464696058503,0.0388093468215053,-0.432843092233945,-0.5156428984930528,-0.6417792312536169,0.2625776011421268,1.007103321083536,2.477956587767162,-0.4479903196305014,-0.5965262765814858,-0.7167898915270853,1.5786376884374396,-0.1315894735361811,-0.9558311700841564,-1.2494670608323877,9.150342845092382,-0.9235563363093674,0.0656484386031038,-1.0403039373216083
0.62,0.2671424489294115,1.011766822316971,2.483981789534134,0.1077534174111678,0.0928898211579694,0.0384712086585067,-0.4413300875914017,-0.5388286236700199,-0.6428287750926474,0.2625776011421268,1.007103321083536,2.477956587767162,-0.4479903196305014,-0.5965262765814858,-0.7167898915270853,1.2356258378341989,-0.4243497678728336,-1.1592862588483577,-0.0524771919515221,9.13808352961587,-0.92092658908376,0.0629931288716369,-1.0464062224236088
0.64,0.2582620156390927,1.0007599244876044,2.471083310470599,0.1043594847404431,0.1007212094036328,0.0383853652884468,-0.4457268528961895,-0.5601074735468115,-0.6472312928118289,0.2625776011421268,1.007103321083536,2.477956587767162,-0.4479903196305014,-0.5965262765814858,-0.7167898915270853,1.1084935266975218,-0.2198382652393915,-1.0639424938395758,-0.2201258859590771,10.594587915866214,-0.915578435079565,0.0660621858705955,-1.0503975834358974
0.66,0.2497806479168569,0.9899415106977396,2.458694910171478,0.1004244378652175,0.1100203653216114,0.038412888177904,-0.4464549891937378,-0.5773808947501725,-0.6565584150300489,0.2580976979458217,1.0011380583177212,2.470788688851891,-0.4515461230039574,-0.616526276879509,-0.7367898918251085,0.9822123897229958,-0.0364068148774154,-0.8636710601680531,-0.4663561109109981,9.93563746288055,-0.9064032055313525,0.06920714143467,-1.058292096095467
0.68,0.2413133951900567,0.9788179464209212,2.44609039759205,0.0964861430379145,0.1200646211168946,0.0384728594142216,-0.444502299310518,-0.5925184326609662,-0.6699495710366058,0.2491378915532117,0.9892075327860916,2.456452891021349,-0.4586577297508694,-0.6565262774755555,-0.7767898924211549,1.0152353310596138,0.0976344941609891,-0.7568768955396821,-0.6695578003278468,9.689398637692648,-0.894375419925997,0.0720214662764164,-1.0690493412082036
0.7000000000000001,0.2324663024106416,0.9668151246800684,2.432508932207492,0.0926733427418292,0.1308025707163578,0.0385296136286946,-0.4400348036762703,-0.6068894962653482,-0.6878183074665088,0.2401780851606017,0.9772770072544618,2.442117093190808,-0.4657693364977814,-0.696526278071602,-0.8167898930172014,1.1680943112229425,0.2233747817123849,-0.7185531802191003,-0.8934368214951527,9.689398637692648,-0.8809518151186151,0.0741105498863437,-1.0812168720490674
0.72,0.2237312107637461,0.9545376168651604,2.418532775872012,0.0893214153338795,0.1413450597231461,0.0385581462831087,-0.4334370696861666,-0.6201358633584547,-0.7090487726910878,0.2308626984306461,0.9633464816930296,2.425781295330464,-0.4728809432446934,-0.7365262786676484,-0.8567898936132479,1.2939561320052189,0.3298866995051885,-0.662318354655328,-1.0615232612289471,9.490831422725025,-0.86748115036167,0.0753854543445317,-1.0934787029627682
0.74,0.2155748274674142,0.9426370807279332,2.404844721390121,0.0865869911881399,0.1509946252735812,0.0385501772890767,-0.4252401745694712,-0.63194560744449,-0.7307705981605238,0.2215473117006904,0.9494159561315976,2.40944549747012,-0.4799925499916054,-0.7765262792636949,-0.8967898942092943,1.3023986012895488,0.4098447558347678,-0.590487204301765,-1.086091273471801,9.283965006680774,-0.8531545199228897,0.0760131190501895,-1.1065536527066338
0.76,0.2071816296465763,0.9298670802602316,2.38997867210264,0.0839440357399026,0.1605342452950714,0.0384744949551888,-0.4142925776547423,-0.6443516413236519,-0.7547964823950402,0.212054134802062,0.9344854305552645,2.3921096995948745,-0.4871041567385174,-0.8165262798597412,-0.9367898948053408,1.4585975010850958,0.5473798457364454,-0.6203016939580919,-1.2012942117258174,9.283965006680774,-0.8403219837765175,0.0769194654913755,-1.1176434717637476
0.78,0.199033817276648,0.9168522513337568,2.3746207367930903,0.0812713604294052,0.1690029263464519,0.0382790569556278,-0.4009126537936305,-0.6563866963165447,-0.7798479839703434,0.2023831677347608,0.91855490496403,2.373773901704728,-0.4942157634854294,-0.8565262804557877,-0.9767898954013872,1.5422731943372758,0.6689961930555877,-0.6017527496446406,-1.2525750787651613,9.240526354315987,-0.8287978122044333,0.0777794129142944,-1.1275316317676631
0.8,0.191175254837355,0.9036021904933892,2.358752266313932,0.0784722125998092,0.1759912685209693,0.0379298437615051,-0.3856189478563946,-0.6678674614059574,-0.8057648955978574,0.1789881845869664,0.8840329165179296,2.335628337594573,-0.3881213675709938,-0.7563866978066608,-0.8798479854604595,1.610428294461829,0.7646852968617973,-0.5740382544706379,-1.2958455813756986,9.185974249610808,-0.8174110576599563,0.0786122627028708,-1.1374678786264565
0.8200000000000001,0.1840145286777159,0.8907959469767258,2.34339390648113,0.0758437483532086,0.1820158594957851,0.0375316843149656,-0.3685540754578955,-0.6796158560822468,-0.8084763874580995,0.1789881845869664,0.8840329165179296,2.335628337594573,-0.3881213675709938,-0.7563866978066608,-0.8798479854604595,1.0447330227803202,0.8532436199249566,-0.5874197338144704,-0.1355745930121055,9.185974249610808,-0.8043412961636048,0.0758116903140763,-1.152606269108493
0.84,0.176842537221793,0.8770921545253721,2.327177796243389,0.0736049270791263,0.1885693439013268,0.0371473060597058,-0.3493770668841651,-0.6902601187683944,-0.8134131981143408,0.1789881845869664,0.8840329165179296,2.335628337594573,-0.3881213675709938,-0.7563866978066608,-0.8798479854604595,1.1240886146387865,0.9588504286865168,-0.5322131343073799,-0.2468405328120648,10.334203992448238,-0.7942602369822396,0.0777822304469984,-1.1594249386465274
0.86,0.1700624825924709,0.8631798950454953,2.310807618502735,0.0720167738963938,0.1950902635325742,0.0367913141998622,-0.3293883515642166,-0.7005005726071393,-0.8233808616665111,0.1751069709112565,0.8764690495398629,2.3268298577399684,-0.3855631103264665,-0.776386698104684,-0.8998479857584827,1.228586537097279,0.9994357659974252,-0.5120226919372417,-0.498383177608519,10.334203992448238,-0.7840820061744691,0.0786913452948393,-1.1666300400606466
0.88,0.1640080742263377,0.8497792887794708,2.295035388309735,0.0710134257994688,0.2008623881252097,0.0364478030197142,-0.3088436428608596,-0.7096218212450331,-0.8363805189354501,0.1673445435598366,0.8613413155837297,2.3092328980307597,-0.3804465958374118,-0.8163866987007304,-0.9398479863545292,1.2983386706960849,1.0272354351678503,-0.4560624318946937,-0.6499828634469462,9.898425053302162,-0.7735636985721935,0.0787991407410731,-1.1743225330252611
0.9,0.1580717066522096,0.8354937955067335,2.278136340235543,0.0706448740481877,0.205952206592951,0.0360570840023117,-0.2858412056515009,-0.71849051656542,-0.8529881642884377,0.1595821162084167,0.8462135816275965,2.29163593832155,-0.3753300813483571,-0.8563866992967769,-0.9798479869505756,1.4862534763852968,1.1501218604679342,-0.4434347660193405,-0.8303822676493822,9.898425053302162,-0.7634785055480531,0.0778342435969762,-1.182035455124828
0.92,0.152607418526932,0.8210354288978348,2.2608808647663574,0.0711801912991828,0.2096275732928805,0.0356255043273442,-0.2617731482912395,-0.7269784101698415,-0.8718241900513132,0.1520755145814496,0.829085847641661,2.2720389785825383,-0.3702135668593024,-0.8963866998928234,-1.019847987546622,1.5859631060309398,1.2034028680130704,-0.4243946802210796,-0.9418012881437732,9.751112708032451,-0.7544619969048033,0.0755700799495983,-1.1893739074013552
0.94,0.1476346534835972,0.806408556004737,2.2432403851227223,0.07277560609024,0.2116229094481548,0.0351452709301637,-0.2368621983078003,-0.7354388906804594,-0.8912859829706846,0.1445689129544825,0.8119581136557255,2.252442018843527,-0.3650970523702478,-0.9363867004888698,-1.0598479881426686,1.636227783030567,1.2455474991719588,-0.4230240255308937,-0.9730896459685724,9.642301659790974,-0.7473129446155183,0.071986011144554,-1.1958172586299314
0.96,0.1433780596836059,0.7923422035134539,2.226120367751648,0.0749941953382907,0.2118615624406437,0.0346120217282522,-0.2124713660048263,-0.7449720552132586,-0.9098553305040468,0.1371902241897417,0.7938303796548888,2.2318450590896144,-0.3599805378811931,-0.9763867010849164,-1.099847988738715,1.6051593334121057,1.219541615148699,-0.4766582266399588,-0.9284673766681018,9.642301659790974,-0.7420006501893714,0.0671524976749011,-1.201394412701798
0.98,0.1394056698257303,0.7773212491247098,2.207715753270389,0.0772607790060296,0.2099765396429913,0.0338739430679485,-0.1861234009010361,-0.7566131689739564,-0.9296266101395247,0.1299394482872273,0.7747026456391509,2.2102480993208005,-0.3548640233921384,-1.016386701680963,-1.1398479893347613,1.746878854646427,1.3173982551895114,-0.5820556880348882,-0.9885639817739044,9.656357406461211,-0.7394774701228564,0.0625707382217329,-1.205096879190399
1.0,0.1361247111154349,0.7628251896663362,2.189865530494524,0.0789074179893401,0.205692777292493,0.0329294245049706,-0.160811796769363,-0.7686192756885815,-0.9483069946062056,0.1300994997806785,0.739490590676012,2.1612344227634126,-0.1975121535105275,-0.827742662389312,-0.9666317738687156,1.6835829842812249,1.2655802065836566,-0.6003053357312549,-0.9340192233340427,9.67051368650209,-0.739224260862122,0.0581062280909918,-1.2077708073836195
1.02,0.133285258859285,0.747136298934643,2.1710546845922347,0.0750652437493577,0.1976288257089834,0.0312651471043856,-0.1247262132741634,-0.7979313060688615,-0.9295674961017344,0.1300994997806785,0.739490590676012,2.1612344227634126,-0.1975121535105275,-0.827742662389312,-0.9666317738687156,2.506258798190325,1.804279174759979,-1.4656015190140037,0.936974925223566,9.67051368650209,-0.7438717498268858,0.0549350991036611,-1.212150784786502
1.04,0.1312309130424346,0.7317798751154686,2.153584142707341,0.0653048337493459,0.1864189090732397,0.0290833141265491,-0.0941263580635416,-0.8157408492669328,-0.9103836646192712,0.1300994997806785,0.739490590676012,2.1612344227634126,-0.1975121535105275,-0.827742662389312,-0.9666317738687156,2.013423923433991,1.529992760531091,-0.8904771599035632,0.9591915741231584,12.368820112438698,-0.7530427361410181,0.0651871744934207,-1.207118791630693
1.06,0.129637470543243,0.7153368133155371,2.13554490904778,0.0534460295841784,0.1718882167625825,0.0266851558642724,-0.0675919210106916,-0.8270891732511839,-0.8946800647340938,0.1281243782455733,0.7312131640521189,2.151568105024725,-0.1997899040324257,-0.8419685610723832,-0.9740328066145536,1.6427597635662756,1.3267218526425004,-0.5674161992125559,0.7851799942588666,12.022354720646945,-0.7663495654236769,0.0784031363425051,-1.1979138935206064
1.08,0.1285116382385742,0.6987184172441251,2.11776916410525,0.0416888637497444,0.1554047840114367,0.0244252802023494,-0.0470411366260085,-0.8338838859593164,-0.8838119233660578,0.1241741351753627,0.7146583108043326,2.132235469547351,-0.2043454050762223,-0.8704203584385255,-0.98883487210623,1.2110113092033918,1.0275392192341544,-0.3397356354066239,0.5434070684017966,11.25387106384369,-0.7824577925709404,0.0914396880740589,-1.1865080367978054
1.1,0.127732750445728,0.6820024114298734,2.1001611882047557,0.0307569539136344,0.1378032000132024,0.0224237336600601,-0.0325348513798891,-0.8372819113416134,-0.8774307939421502,0.1202238921051522,0.6981034575565463,2.1129028340699767,-0.2089009061200188,-0.8988721558046677,-1.0036369375979064,0.8103975889419572,0.7253142623059671,-0.1699012691148527,0.3190564711953836,10.954899923629457,-0.7994148341580629,0.1028316637243265,-1.174247810841894
1.12,0.1272054665427326,0.6660858567429714,2.08351864786832,0.0214302036079058,0.120825637104124,0.0208071151451265,-0.0241766311479067,-0.8380081325798743,-0.8746845772789966,0.1160458739827518,0.680126014440453,2.0928300953180186,-0.2134564071638154,-0.92732395317081,-1.018439003089583,0.4413868730892527,0.4179110115991199,-0.0363110619130413,0.1373108331576777,10.718164462419736,-0.8181056782155547,0.1133943411303976,-1.1604414633979785
1.14,0.1267679784795496,0.6493390600731126,2.066043643007256,0.0128840282733909,0.1034213820614655,0.019409083410495,-0.0205002870682129,-0.8366709465188743,-0.8729898886908218,0.1118678558603514,0.6621485713243596,2.0727573565660604,-0.2180119082076119,-0.9557757505369524,-1.033241068581259,0.2131639144234002,0.1838172039846937,0.0668593030499986,0.0847344294087393,10.631813354278163,-0.8369448808044654,0.1221741408052308,-1.1463385347546289
1.16,0.1263523309790339,0.6326313600760792,2.0485918111430284,0.0055145658411055,0.0871495961992657,0.0182848239823998,-0.021635044280977,-0.8341556808370458,-0.8723063601638645,0.1075759502118561,0.6434598332741127,2.0523145661768103,-0.2225674092514084,-0.9842275479030944,-1.0480431340729357,0.1421394265261105,-0.0567378606382054,0.1257632840914235,0.034176426347865,10.563810594739152,-0.8550165558140086,0.1296185995142244,-1.1322573595011236
1.18,0.125868382014083,0.6159873634118135,2.031142957556279,-0.0008784642385466,0.0725402491084291,0.0173834779132244,-0.0269915680216952,-0.8303742456870029,-0.872646951269502,0.1031701570372659,0.6240598002897122,2.0315017241502686,-0.227122910295205,-1.0126793452692369,-1.0628451995646118,0.3282818936527624,-0.2678261870359112,0.1890717575021461,-0.0170295552818722,10.563810594739152,-0.8708810552777305,0.1357204207002623,-1.1193172075625173
1.2,0.1252733048273906,0.6002577164419745,2.014548915220388,-0.0060828492583001,0.0605840281955423,0.0166943294730286,-0.0354730343992348,-0.8256576111745121,-0.8740608243009795,0.1245188036129983,0.5744686511274634,1.987510609992804,-0.0680568511413737,-0.8543758477704475,-0.8551972407513803,0.4903594344633666,-0.4240733188769779,0.2358317256245412,-0.0706936515738776,10.50000680701578,-0.8857829358584666,0.1411555689975929,-1.1066259108892027
1.22,0.1244624411708588,0.5837010312424712,1.9973426366957716,-0.0141473820037706,0.0502214615175168,0.0158785625665312,-0.0452752034032271,-0.8283740337327392,-0.8449278609377278,0.1245188036129983,0.5744686511274634,1.987510609992804,-0.0680568511413737,-0.8543758477704475,-0.8551972407513803,1.542879631583621,-0.4901084501996184,-0.1358211279113563,1.456648168162589,10.435935595523915,-0.9013668495178176,0.1447862667597262,-1.0982431966140975
1.24,0.1234287520419775,0.5671879874933144,1.9807414280432305,-0.0247530686462663,0.0422294482989737,0.0149852986416435,-0.0577014847395748,-0.8222319755177325,-0.8168133550511799,0.1245188036129983,0.5744686511274634,1.987510609992804,-0.0680568511413737,-0.8543758477704475,-0.8551972407513803,1.567292879626624,-0.6213140668173813,0.3071029107503342,1.4057252943273923,12.573063889723926,-0.912304796731851,0.1563727001893211,-1.0846543817045755
1.26,0.1221919536151953,0.5516702883684593,1.9654426018866564,-0.0345026317666812,0.0370089677523542,0.0142097910869814,-0.0719252822422183,-0.8115219039388318,-0.7949819484619348,0.1238382351015845,0.5659248926497589,1.9789586375852903,-0.0762699077653094,-0.8591761681871364,-0.851707298647756,1.4085740682391532,-0.7111898751321774,0.5355035789450346,1.0915703294622547,12.250237352668591,-0.9206188302268524,0.1680710878033715,-1.0729486432147404
1.28,0.1205782177490904,0.5355890675266837,1.9497477468741369,-0.0434724471407329,0.0344294263922023,0.0134619247728597,-0.088595371154837,-0.7972374557421633,-0.7757945367671241,0.122477098078757,0.54883737569435,1.9618546927702627,-0.0926960210131808,-0.8687768090205142,-0.8447274144405073,1.4578186548608163,-0.8335044456309351,0.714222409833426,0.9593705847405376,11.923616533590575,-0.9263945490324732,0.1780608610565326,-1.063582741091848
1.3,0.1186339229501903,0.519818107160805,1.9344023458231223,-0.0507589767684204,0.0346748650782052,0.0127565896097466,-0.1047340324337099,-0.7807702107405463,-0.7597963969429448,0.1211159610559296,0.531749858738941,1.944750747955235,-0.1091221342610522,-0.8783774498538921,-0.8377475302332585,1.4031812281842488,-0.8069330639436441,0.8233622500808502,0.7999069912089651,11.677502573099446,-0.9293246057040956,0.1862751918154626,-1.0568216632076028
1.32,0.1163789315954742,0.5043948263579058,1.919349173768086,-0.0561917319055807,0.0370347731003067,0.0120987482810524,-0.1196538362479594,-0.7628081107153971,-0.7462629442849388,0.1189335183707085,0.5141823097418632,1.92799579735057,-0.1255482475089236,-0.88797809068727,-0.8307676460260098,1.3494368492223427,-0.7459901907124776,0.8981050012574598,0.6766726329002992,11.320582686162195,-0.929620099301474,0.1922522591635768,-1.053115160216883
1.34,0.1139758539526409,0.4900852712464839,1.9052951837378689,-0.0596960328296292,0.0406266266329556,0.0115285330157939,-0.1323171642938862,-0.7447919227689737,-0.7337390125267468,0.1167510756854875,0.4966147607447853,1.9112408467459048,-0.141974360756795,-0.8975787315206478,-0.8237877618187611,1.2666804766825166,-0.6331664022963375,0.9008093973211728,0.6261965879095999,11.297017358189803,-0.928216899367774,0.1966045086808389,-1.0514788776900978
1.36,0.1112033173923237,0.475393223856428,1.8907589964904608,-0.0618577238460846,0.0453225002703696,0.0109948134939479,-0.1440397622919851,-0.725622874305963,-0.7205142757611689,0.1141579801690697,0.478807195726873,1.8946603932464208,-0.1584004740046664,-0.9071793723540256,-0.8168078776115125,1.3036155350803338,-0.5861298999049469,0.9584524231505354,0.6612368382788947,11.297017358189803,-0.9254515991391092,0.1993867568235691,-1.0515039283648322
1.38,0.1082137595166438,0.4610917720928401,1.876485966742067,-0.0624462412674889,0.0505842075042752,0.0105540972845946,-0.1541174294156976,-0.7056561293310082,-0.7074417933505637,0.111154231821455,0.4607596146881263,1.878254436852118,-0.1748265872525378,-0.9167800131874034,-0.8098279934042638,1.2952992665083416,-0.5038833561856234,0.9983372487477382,0.6536241205302606,11.293708124434488,-0.9220133185967548,0.2007454860928812,-1.0522625045856815
1.4,0.1050401926318784,0.4472009573786722,1.862472194624288,-0.0609163553975071,0.056100709093689,0.0102702789254381,-0.1625356408952945,-0.6848027751334612,-0.6945589016062376,0.1005078880458589,0.4258089656262897,1.8411138770745388,-0.1425625996394105,-0.7079874162326163,-0.6600486427229506,1.295856440254468,-0.4209105739798449,1.0426677098773485,0.6441445872163054,11.281933950217535,-0.91856262874827,0.2002756288918448,-1.0532421407387798
1.42,0.1018306030369907,0.4342956470820054,1.8495130835482616,-0.060369326508721,0.0633073341736035,0.0098467894232502,-0.1741302885250731,-0.6736771650709243,-0.6702111475404579,0.1005078880458589,0.4258089656262897,1.8411138770745388,-0.1425625996394105,-0.7079874162326163,-0.6600486427229506,1.4586193651618338,-0.5797323814889288,0.5562805031268436,1.2173877032889855,12.14742288898742,-0.9144674145881804,0.1995013584069919,-1.0557867853189642
1.44,0.0982646350991781,0.4209821856700518,1.8363776970472605,-0.0620626674240406,0.0737223979772152,0.0090869044395991,-0.1812677032091889,-0.658128811628365,-0.6446772527828413,0.1005078880458589,0.4258089656262897,1.8411138770745388,-0.1425625996394105,-0.7079874162326163,-0.6600486427229506,1.5367772810664675,-0.3568707342057886,0.7774176721279669,1.276694737880829,12.05698968356228,-0.9076677120491004,0.2027731937755644,-1.0573651198289484
1.46,0.0946047321125832,0.4080077688281833,1.8237385507295727,-0.0644031251289071,0.085376392322611,0.0082059137403907,-0.1838996158492592,-0.6400432521822342,-0.6205863253148591,0.0990822620494648,0.4187290914639636,1.8345133906473088,-0.1402516336841531,-0.7084536736129379,-0.650570012597428,1.5119418068266288,-0.1315956320035186,0.9042779723065386,1.2045463733991069,12.05698968356228,-0.897717817276875,0.2065976576019839,-1.0622003304588843
1.48,0.090933215639007,0.3954217192097571,1.811564973171598,-0.0661505241059552,0.0973315142170956,0.0073464494209093,-0.1827107924752926,-0.6197402006541376,-0.5979776377633484,0.0962310100566766,0.4045693431393112,1.8213124177928504,-0.1356297017736383,-0.7093861883735811,-0.6316127523463828,1.520509746079313,0.0594411686983334,1.015152576404832,1.1304343775755343,11.878012171442606,-0.8867457783339125,0.2096175053565997,-1.0685503204617617
1.5,0.0875081146384719,0.3838559557329323,1.800408500147754,-0.0664899809175029,0.1082188376891282,0.0066636161263986,-0.177659134105751,-0.5990098499034622,-0.5775288284209589,0.0933797580638884,0.3904095948146589,1.8081114449383917,-0.1310077698631234,-0.7103187031342244,-0.6126554920953375,1.477684420004816,0.2525829184770803,1.036517537533771,1.022440467119479,11.878012171442606,-0.8754242101414172,0.2115780183638331,-1.0750267335860972
1.52,0.084043234159821,0.3721150682952241,1.7890792676790137,-0.0647993399437716,0.1184457872824116,0.0061990757885905,-0.1688793357871427,-0.576416298225718,-0.5564917227126703,0.0907596026666259,0.3762032207519744,1.7958583350964843,-0.1263858379526086,-0.7112512178948677,-0.5936982318442923,1.6047688716074011,0.4389899159304114,1.1296775838872064,1.051855285414427,11.82696466066136,-0.8654203505635162,0.2118331866886852,-1.0801224689976443
1.54,0.080787051861614,0.3608199577097479,1.7781725013349998,-0.0607369491469171,0.1268764351433623,0.0060646794076876,-0.1570614898925072,-0.5550302056013292,-0.5351894525500918,0.0881394472693634,0.3619968466892899,1.7836052252545778,-0.1217639060420938,-0.7121837326555109,-0.5747409715932471,1.6208124146610694,0.5908922947317776,1.069304631219442,1.065113508128929,11.84629812955427,-0.8568518058292421,0.2096831611096922,-1.0846312201037025
1.56,0.0777943518373383,0.3499198046971203,1.7676984382204557,-0.0553664040651354,0.133102508099841,0.0062093652356062,-0.1428851442929047,-0.5365371609779674,-0.5132769825161159,0.0856348401698638,0.3477671597575894,1.7718260469189473,-0.117141974131579,-0.7131162474161541,-0.5557837113422018,1.5993106460213644,0.7088172799801242,0.9246522311680884,1.0956235016987947,11.84629812955427,-0.8503693106224027,0.2063403804968153,-1.088042718682807
1.58,0.0752286097523484,0.3398852986287594,1.758159262432272,-0.0498030574367559,0.1368443823410341,0.006540894271299,-0.1280529497871176,-0.5209487121242137,-0.4919362002705331,0.0832457813681271,0.3335141599568727,1.7605208000895929,-0.1125200422210641,-0.7140487621767974,-0.5368264510911567,1.5152744952458086,0.7416097252893535,0.7794224426876883,1.067039112279136,11.927043613520254,-0.8457043849102757,0.2023139843960133,-1.0901333253231549
1.6,0.0728378545743827,0.3296227791228462,1.7485620670531143,-0.0438491047869852,0.1385603246038318,0.0070361726081093,-0.1119445545418809,-0.5063482927583784,-0.4688680076494793,0.0688259622629925,0.3138378630225487,1.7335624524187452,-0.1165545814419166,-0.5170750963657201,-0.4579785437976117,1.5849244097409363,0.8054197622618359,0.7300209682917613,1.1534096310526902,11.927043613520254,-0.8438516242547819,0.1982296327198589,-1.0899454855003836
1.62,0.0707748269582627,0.3195561935062666,1.7393647360877085,-0.0404554115228684,0.1377149665824157,0.0074806823021733,-0.0952685573372762,-0.5000183053863978,-0.4524218577012612,0.0688259622629925,0.3138378630225487,1.7335624524187452,-0.1165545814419166,-0.5170750963657201,-0.4579785437976117,1.213088487102954,0.8337998602302346,0.3164993685990325,0.8223074974109068,11.967841883494655,-0.8431960852768919,0.196855543100705,-1.088617305282111
1.64,0.0690455917289334,0.309656953490767,1.7304854189318843,-0.0399386275151721,0.13364645550216,0.0078693527791419,-0.0787829695785788,-0.4900021546226637,-0.436274916910472,0.0688259622629925,0.3138378630225487,1.7335624524187452,-0.1165545814419166,-0.5170750963657201,-0.4579785437976117,1.2577972578806311,0.8242793879348682,0.5008075381867039,0.8073470395394577,11.475042265366936,-0.8456714425339006,0.1977192579925467,-1.0853725842467623
1.66,0.067686218650057,0.3004571403437983,1.7223547633093748,-0.0404751835030391,0.1271225886424517,0.0082922718163625,-0.0656130407021114,-0.4789003650686293,-0.4203586171914601,0.0676604164485734,0.3086671120588915,1.728982666980769,-0.1142549077728764,-0.5163003732140214,-0.4511870125030275,1.1726309678013564,0.6584964438233739,0.5550894777017201,0.7958149859505964,11.509832516457209,-0.8500718163486234,0.1997118916301666,-1.080691928867369
1.68,0.0664874622602555,0.2910125538048598,1.7141291050580427,-0.0414443238087759,0.1186458428155921,0.0088008374257683,-0.0553630636405277,-0.466150796741952,-0.4029854002643128,0.065329324819735,0.2983256101315771,1.7198230961048169,-0.109655560434796,-0.514750926910624,-0.4376039499138589,1.1931493920265408,0.5124988530791824,0.637478416333867,0.8686608463573636,11.536408591005966,-0.8591558799239964,0.2026705177698471,-1.070742881332232
1.7,0.065455174308959,0.281834556084469,1.7062551136860888,-0.0423159088985358,0.1095765973700134,0.0093698609114857,-0.048710307544102,-0.4523351176400157,-0.3852431030579017,0.0629982331908967,0.2879841082042627,1.710663525228865,-0.1050562130967156,-0.5132014806072266,-0.4240208873246904,1.1725200029070186,0.3326378048212841,0.6907839550968103,0.8871148603205564,11.561613193436642,-0.8696685168758306,0.2055989848415108,-1.0591758870222574
1.72,0.0645196491163695,0.272944340065693,1.6987379512788918,-0.0425536899667663,0.1007687418492884,0.0099963387299815,-0.0453893086489892,-0.4375461744488737,-0.3673203624401835,0.0608971089289624,0.2777200785921181,1.7021831074823708,-0.1004568657586352,-0.5116520343038292,-0.4104378247355219,1.1736337861766897,0.1660499447556387,0.7394471595571023,0.8961370308859101,11.56818199823192,-0.8799057147400395,0.2078175420097222,-1.0477245906746715
1.74,0.0636640965853904,0.2647789276713069,1.6919271803854734,-0.0417929972912477,0.0932090055229793,0.0106389109582616,-0.044937693750598,-0.4229035991495455,-0.3504649247620926,0.0587959846670281,0.2674560489799736,1.6937026897358771,-0.0958575184205548,-0.5101025880004317,-0.3968547621463533,1.116596107297701,0.022580744919563,0.732128764966411,0.8427718839045445,11.54528573321204,-0.890111141683786,0.2091790941477789,-1.0360083174828838
1.76,0.0627483993741366,0.2564845451909444,1.685103516334343,-0.0396598741279515,0.0865134510847677,0.0113569953160557,-0.0468285672980234,-0.407479432062682,-0.3327664763804568,0.0568098440885458,0.257230755525414,1.6855618485541124,-0.0912581710824744,-0.5085531416970344,-0.3832716995571847,1.1776198539992246,-0.0945436773712688,0.7712083543431725,0.8849224190817906,11.54528573321204,-0.8992064998988021,0.2091646407877763,-1.0253679958751465
1.78,0.0617693950187404,0.2484846432261185,1.6786330549031474,-0.0362969228689726,0.0816202112692534,0.0120813540198817,-0.0511320953976723,-0.3936947367428443,-0.3151424056169975,0.0549386871935155,0.2470441982284394,1.677760583937077,-0.086658823744394,-0.5070036953936369,-0.3696886369680162,1.1392388351884846,-0.2151764049824467,0.689234765991889,0.8812035381729644,11.53452517986898,-0.9065753713189116,0.2079318177913223,-1.016421514757888
1.8,0.0606808323822219,0.2407391901486397,1.672513993311976,-0.0324873133981243,0.0792467317413255,0.0127379527933718,-0.0574275671695188,-0.3817505983628058,-0.2976136829326547,0.0592127902488567,0.2287999063889762,1.6628759346222974,-0.048183457345924,-0.3879623275524577,-0.2984197506932008,1.1062905646983263,-0.3147735885923233,0.5972069190019219,0.8764361342171401,11.523362814305074,-0.912148249099872,0.2064045654799848,-1.0090026096305778
1.82,0.059527252764198,0.233557599558058,1.6669859442928117,-0.0298043501895214,0.0794516650551982,0.0132176055679199,-0.0634108675291901,-0.3742203381980404,-0.2851608654027694,0.0592127902488567,0.2287999063889762,1.6628759346222974,-0.048183457345924,-0.3879623275524577,-0.2984197506932008,0.7867295688095668,-0.299165017983569,0.3765130082382689,0.6226408764942654,11.509838141634646,-0.9151888948300908,0.2060296263496929,-1.003113868858752
1.84,0.0582052721540533,0.2261697148040759,1.6614155140229567,-0.0279958439120578,0.0815344806430834,0.0136060298211275,-0.0682529043328122,-0.3649161329956425,-0.2725252189383102,0.0592127902488567,0.2287999063889762,1.6628759346222974,-0.048183457345924,-0.3879623275524577,-0.2984197506932008,0.8210863481247873,-0.2421018401811039,0.4652102601198971,0.6317823232229597,11.19524294212988,-0.9167063730651432,0.2062665261435349,-0.9989868898915516
1.86,0.0568033169479828,0.2189727013565229,1.6560945291108955,-0.0265274199401853,0.0847911046165327,0.0139507445303304,-0.0715098848762116,-0.355284065972878,-0.2602126735511132,0.0587309556753975,0.2249202831134517,1.6598917371153654,-0.0475937297355744,-0.3868158457143804,-0.2950752197084415,0.7984100000984697,-0.1628490271699693,0.4816033511382239,0.6156272693598502,11.13526203969468,-0.916478598150746,0.2068510750725158,-0.9965156229736198
1.88,0.0553533038714068,0.211968594223615,1.6510158251441271,-0.0251517333495685,0.0886137377709354,0.0142874943825479,-0.073173427119544,-0.3456724595931572,-0.2482656666151771,0.057767286528479,0.2171610365624025,1.6539233421015014,-0.0464142745148751,-0.3845228820382258,-0.2883861577389229,0.7711700926536017,-0.08317711216662,0.480580318986043,0.5973503467968017,11.13526203969468,-0.9153437295492196,0.207475593642634,-0.9951317799070796
1.9,0.0539594758947771,0.2054916620136243,1.64640919183527,-0.0238329742715606,0.0923252603179147,0.0146187016523602,-0.0733707374465108,-0.3366567883792117,-0.2372380925262089,0.0568036173815605,0.2094017900113533,1.6479549470876371,-0.0452348192941757,-0.3822299183620712,-0.2816970957694042,0.7122651351336379,-0.0098655163483375,0.4507835606972737,0.5513787044484103,11.106809202418845,-0.9136739610643488,0.2081017282350434,-0.9942549172520886
1.92,0.0525013498175637,0.1988564096929359,1.641784252176405,-0.0223894417065455,0.0959801258172745,0.0149898750190355,-0.07234641123349,-0.3274018722351515,-0.2258459194655507,0.055898920995677,0.2017571916441119,1.6423210051722492,-0.0440553640734764,-0.3799369546859166,-0.2750080337998855,0.7356703135037033,0.0512163106510359,0.4627458072030105,0.5696086530329116,11.081775047644442,-0.9118496267530874,0.2086443348037517,-0.9936754570733732
1.94,0.0510748245025171,0.1924038163641151,1.6373825683785057,-0.0208606499028429,0.0991436676305217,0.0153900984452194,-0.0703100332098884,-0.3183839236651102,-0.2149134637785812,0.0549942246097935,0.1941125932768705,1.636687063256861,-0.0428759088527771,-0.377643991009762,-0.2683189718303669,0.7158715303992552,0.101818901180084,0.4508974285020617,0.5466227843484758,11.035684714183844,-0.9101388302293182,0.2091199850076597,-0.9930757933609468
1.96,0.0496976595396704,0.1861288658987059,1.6331943382470606,-0.0192132335478396,0.1016595289516171,0.0158229100733954,-0.0675163390922565,-0.3096584970802472,-0.2044534715246716,0.0541190146044275,0.1865253190015329,1.631220347890711,-0.0416964536320778,-0.3753510273336073,-0.2616299098608482,0.695250375516933,0.1396847058815938,0.4362713292431514,0.5229996126954808,11.035684714183844,-0.9088271594078512,0.2094331269227813,-0.992356295148582
1.98,0.0484459008298892,0.1803248995426719,1.6294057335236014,-0.0175795582205039,0.1034023572218756,0.0162598642570996,-0.0644153446422935,-0.3017946938721225,-0.194867632314119,0.0532732909795789,0.1789953688180992,1.625920859073799,-0.0405169984113785,-0.3730580636574527,-0.2549408478913296,0.6390302826263019,0.1550497224981482,0.3931901604062371,0.4792919605276266,11.00813356458002,-0.9078999552781072,0.209641717747042,-0.9913280832077456
2.0,0.0471941359151695,0.1743720565791447,1.6256121091645672,-0.0158594655298381,0.1045803865573953,0.0167386593318053,-0.0609487919054815,-0.2939594476122332,-0.1850066802512424,0.0452251335977745,0.1652351648490657,1.6196623519078954,-0.0598641593473077,-0.2951843240966782,-0.1742752408231828,0.6531585707478674,0.1733276368405985,0.3917623129944619,0.4930476031438341,10.985156043623649,-0.9075157309546706,0.2098005771516076,-0.98991054848092
2.02,0.0460313282723905,0.1685571129931601,1.6220508314524966,-0.0146744466804213,0.1046678678802116,0.0172030717678157,-0.0555587318734212,-0.2878328545699326,-0.1714230676221433,0.0452251335977745,0.1652351648490657,1.6196623519078954,-0.0598641593473077,-0.2951843240966782,-0.1742752408231828,0.7923105791174955,0.2695030016030171,0.3063296521150338,0.6791806314549522,10.969812480123435,-0.9101925703263786,0.21028019102361,-0.9856861521473754
2.04,0.0449720844279509,0.1628667868790738,1.6187619025010416,-0.0143329723016349,0.103323326348095,0.017635083791915,-0.0507777654815815,-0.2814639675254601,-0.1581545703960221,0.0452251335977745,0.1652351648490657,1.6196623519078954,-0.0598641593473077,-0.2951843240966782,-0.1742752408231828,0.7737463739248402,0.2390483195919865,0.3184443522236208,0.6634248613060597,11.212353557478307,-0.9129427769685045,0.2122245211379433,-0.9803122551222592
2.06,0.044044620815418,0.1575824353068232,1.6158762681897196,-0.014562397419167,0.1010227382836916,0.0180277365610628,-0.0472016798289132,-0.2750967111411965,-0.1462413317628597,0.0446264920043014,0.1622833216080989,1.6179195994996636,-0.0589539222883106,-0.2938622501415893,-0.1701567625249955,0.6986694447105136,0.1788042826334147,0.3183628192131832,0.5956619316581188,11.160829473592456,-0.9169515416660337,0.214642948648688,-0.973725851654353
2.08,0.0431286313299721,0.1521547939039435,1.6130782115413105,-0.0152067787694195,0.0978431780380385,0.0184326162217569,-0.0447296429614425,-0.267992747456583,-0.1341990932038786,0.0434292088173553,0.1563796351261654,1.6144340946832,-0.0571334481703163,-0.2912181022314116,-0.161919805928621,0.7099168539657554,0.1236018433735341,0.3551981842306734,0.6021119279490589,11.109244801143175,-0.9217283305622918,0.2173641189175062,-0.966388905769405
2.1,0.0422448915517046,0.146875806451924,1.6105143461790443,-0.0160298179175607,0.0943089401588374,0.018840936897855,-0.0438962496267592,-0.2602938620927622,-0.1227654393021353,0.0422319256304091,0.1504759486442318,1.6109485898667364,-0.055312974052322,-0.2885739543212339,-0.1536828493322465,0.6904632898286448,0.0416696667341624,0.3849442681910425,0.5716826950871625,11.070122326374076,-0.9268461528645504,0.2202637120888278,-0.9585955258103976
2.12,0.0413588015199111,0.1417576300518278,1.6081738462056343,-0.0167632945098619,0.0909471022027035,0.0192633934288584,-0.0448658625219182,-0.2519663298539062,-0.1118339016029583,0.0411256661493627,0.1447044695578071,1.6078749328800914,-0.0534924999343277,-0.2859298064110562,-0.145445892735872,0.6888150310935653,-0.0484806447579453,0.416376611942798,0.5465768849588499,10.9934472227651,-0.9316662556303816,0.2231587313212437,-0.9508654712300226
2.14,0.0404820084798764,0.1370553878696493,1.6061500985668051,-0.0171224388909235,0.0884648526825391,0.0196846729703911,-0.04744595964622,-0.2435018187692186,-0.1017211414986204,0.0400194066683162,0.1389329904713824,1.6048012758934465,-0.0516720258163334,-0.2832856585008785,-0.1372089361394974,0.6718868319916662,-0.1290048562150925,0.4232255542343799,0.505638005216897,10.9934472227651,-0.936284155230452,0.2258593921763951,-0.9432289192290202
2.16,0.0394928332613943,0.1322831645849895,1.60422557522706,-0.0169140143628305,0.0871297036242819,0.0201532674401914,-0.0512540182551364,-0.2342274390573382,-0.0912573754130386,0.0389586590402196,0.1332276150827122,1.601933542821711,-0.049851551698339,-0.2806415105907008,-0.1289719795431229,0.7245788951226295,-0.1904029304458199,0.4637189855940193,0.5231883042790888,10.974401153305736,-0.940201986852351,0.2278350504293133,-0.9366433965894408
2.18,0.038427805207018,0.127699682692252,1.602507254807015,-0.0158778209505783,0.0871135671712271,0.0206612638901169,-0.0549104544725316,-0.2247190594358045,-0.0810773496267748,0.0379434232650729,0.1275883433917964,1.5992717336648847,-0.0480310775803447,-0.2779973626805231,-0.1207350229467484,0.7200898101071722,-0.1828218108697619,0.4754189810766848,0.5090012893131913,10.955663882944464,-0.9432761884358086,0.2291707743076038,-0.9310047274357643
2.2,0.0373534346557471,0.1235202065767687,1.6010612407528784,-0.0140189827143757,0.0880175552629132,0.0211930420468103,-0.0578825822803321,-0.2158308712701517,-0.0716284494446207,0.0356822824833915,0.1164637297204617,1.598453387325676,-0.0417347816210287,-0.2095612983835536,-0.0867897521456134,0.6654230744914492,-0.1486063903900224,0.444409408282638,0.4724450091077019,10.905296072474812,-0.9452110155584128,0.2296588455844796,-0.9268167563486824
2.22,0.0361498607092893,0.1192566547022019,1.5996827321184135,-0.0124152545215132,0.0901415303901056,0.0217160565765896,-0.0621662021049477,-0.21079112867776,-0.0669852627944683,0.0356822824833915,0.1164637297204617,1.598453387325676,-0.0417347816210287,-0.2095612983835536,-0.0867897521456134,0.4040655468719163,-0.2141809912307779,0.2519871296195852,0.2321593325076219,10.905296072474812,-0.9432556449723194,0.2300229740377594,-0.9271783398499168
2.24,0.0348720310042199,0.1150966140007289,1.5983793994085491,-0.0120911089420478,0.0935611868528718,0.0221387811521174,-0.0651886303275022,-0.2053704501109917,-0.0635837335596878,0.0356822824833915,0.1164637297204617,1.598453387325676,-0.0417347816210287,-0.2095612983835536,-0.0867897521456134,0.3538687243165977,-0.1511214111277279,0.2710339283384183,0.1700764617390236,10.560559614462363,-0.9415889510859832,0.2308380577295067,-0.92789436649947
2.26,0.0335509037633313,0.1110502170959802,1.5971376946751186,-0.0127067520894691,0.0976950621176123,0.0224905918645124,-0.0665930002154232,-0.1994738696236675,-0.0607581298276601,0.0352649346671812,0.1143681167366262,1.59758548980422,-0.0390996470507282,-0.2065297461731035,-0.0879322326493811,0.3343873228609315,-0.0702184943960501,0.2948290243662096,0.1412801866013831,10.51408630032074,-0.9389440999559738,0.2323272368876923,-0.9295196273476858
2.28,0.0322850828845145,0.1073217712275713,1.5960057492768929,-0.013935807388056,0.101819240610464,0.0227780506590072,-0.066467857311164,-0.1932593934965583,-0.0585416827285446,0.0344302390347606,0.1101768907689551,1.5958496947613077,-0.033829377910127,-0.2004666417522031,-0.0902171936569166,0.3299545878756399,0.0062571452129601,0.3107238063554562,0.1108223549557769,10.481428945762673,-0.9354780449239396,0.2345083280975856,-0.931726463876564
2.3000000000000003,0.0309693200792395,0.103532728941126,1.5948554798050645,-0.0156631538682432,0.1060059625028215,0.0230515379021266,-0.0650087181751986,-0.1859343821004594,-0.0566273714514613,0.03359554340234,0.1059856648012841,1.5941138997183957,-0.0285591087695259,-0.1944035373313028,-0.0925021546644521,0.3855174011528309,0.0729569567982729,0.3662505698049448,0.0957155638541661,10.454034591475647,-0.9316792556237282,0.2371236119474188,-0.9340856965876289
2.32,0.0296956373644992,0.099901798048735,1.5937388011005051,-0.0174900425598745,0.1097629753873592,0.0233234572686145,-0.0623833268812857,-0.1775274380399814,-0.0551453940175125,0.0330243612269495,0.102097594054658,1.5922638566251064,-0.0232888396289247,-0.1883404329104024,-0.0947871156719875,0.446558072922477,0.1312695646956438,0.4203472030239033,0.0740988716974411,10.413583361271776,-0.9279078135766688,0.2399244401737851,-0.936235878152404
2.34,0.0284839343073134,0.0964513016054386,1.592646084076858,-0.0189777510982432,0.1129296402957513,0.0236291333776879,-0.0588968752764906,-0.1680393920737983,-0.0542083316666988,0.032453179051559,0.0982095233080319,1.590413813531817,-0.0180185704883235,-0.1822773284895021,-0.097072076679523,0.5075836061632942,0.1743225802397545,0.4744022983091539,0.0468531175406822,10.413583361271776,-0.9244762835072536,0.2423858480643713,-0.9380830519708336
2.36,0.0274041213463152,0.0933583568086233,1.5916210388294614,-0.0197112015984751,0.1153087265779472,0.0239802578558067,-0.0549499190458771,-0.1581286651874388,-0.0537422213286444,0.0320137536046835,0.0944730301719284,1.58850664641334,-0.0127483013477224,-0.1762142240686017,-0.0993570376870584,0.5338965952074158,0.1973478115306758,0.4955363443179733,0.0233055169027215,10.387583242536492,-0.9212255551680882,0.244419665214284,-0.9397439294562856
2.38,0.0263525385327834,0.0903111738971784,1.5905483111795231,-0.0194478154615783,0.1171356774944623,0.0244380212747266,-0.0504196289919235,-0.1472054611567905,-0.053569684239942,0.031706084886323,0.0908881146463474,1.586542355269674,-0.0074780322071212,-0.1701511196477014,-0.1016419986945939,0.5913325699534492,0.2265145026976802,0.5461602015324154,0.0086268544351203,10.367554130095414,-0.918361759545791,0.2455456251601352,-0.9412383097786186
2.4,0.0253942010189463,0.0874849695313851,1.5894764980614935,-0.0178777965570936,0.1183088379718565,0.0250019221269939,-0.0456587644112891,-0.1360952921271776,-0.0536262537766964,0.0238315570831872,0.0829509008393389,1.5878698269675262,-0.0422476747997023,-0.142594236289387,-0.0463566728559317,0.6043692735699686,0.2380432290317161,0.5555084514806449,-0.0028284768377226,10.353230856389928,-0.9160085517097364,0.2457198404503911,-0.942261296382437
2.42,0.0245753165960282,0.0849042241534193,1.588476661874235,-0.0140901110447196,0.1177531713176736,0.0257478614611925,-0.0363910962883693,-0.1234268458987554,-0.0459358501829746,0.0238315570831872,0.0829509008393389,1.5878698269675262,-0.0422476747997023,-0.142594236289387,-0.0463566728559317,0.8739586799633897,0.4633834061459937,0.6334223114211106,0.3845201796860927,10.343200062269716,-0.9199679111018032,0.2435024450807651,-0.9385212843380512
