t,x,y,z,roll,pitch,yaw,v_x,v_y,v_z,ref_x,ref_y,ref_z,ref_v_x,ref_v_y,ref_v_z,a_com,a_x,a_y,a_z,thrust,wind_x,wind_y,wind_z
0.0,0.6850266513361155,2.410064144562525,1.827436227542688,0.0302073421155771,0.0998260800004638,0.0425048601017741,0.0022124743226996,0.0064994262667214,0.0071734458967347,0.685092192793684,2.410296587860108,1.8276547457948464,-0.0978088471283305,-0.0925777426444256,-0.0927445745892621,0.496477367204524,0.110623716134983,0.3249713133360735,0.3586722948367353,10.24603087329615,-0.9424600076479132,0.2560412375809348,-0.8740783350121669
0.02,0.6852164835136079,2.410399484620644,1.8273518335264152,0.0386959531606863,0.0940873470582272,0.0428820800570502,0.016508190098706,0.0240524446388286,-0.0161560826994675,0.685092192793684,2.410296587860108,1.8276547457948464,-0.0978088471283305,-0.0925777426444256,-0.0927445745892621,1.6253790696641417,0.7147857888003215,0.8776509186053596,-1.1664764298101105,10.24643627028854,-0.9495971334839668,0.2529869200642882,-0.8636558019754519
0.04,0.6856503159044056,2.4109014601160426,1.8267094774302384,0.052826932347054,0.0778631337796121,0.0430617750183395,0.0247794301729606,0.0245532181402886,-0.0469985200438077,0.685092192793684,2.410296587860108,1.8276547457948464,-0.0978088471283305,-0.0925777426444256,-0.0927445745892621,1.5968094186574646,0.4135620037127294,0.0250386750729986,-1.5421218672170145,8.83690961967659,-0.9494289540160376,0.2379870187488209,-0.8694856630967445
0.06,0.6861400580890836,2.411338847926632,1.8254443301724876,0.0671985853876998,0.0555005418888003,0.0425994627886701,0.022754186114806,0.0187835992117823,-0.0779467586052823,0.6841141043224007,2.409370810433664,1.826727300048954,-0.1178088474263537,-0.1125777429424488,-0.1127445748872853,1.5773265246400363,-0.1012622029077328,-0.2884809464253144,-1.5474119280737253,8.5587184924957,-0.9570071487959638,0.2199052164318539,-0.8707680745892032
0.08,0.686487988630932,2.4116208082432844,1.8235712184985424,0.0809955931151236,0.0310051771402414,0.0415573303375486,0.0114544887332332,0.0093661244597659,-0.1078846013267756,0.6821579273798342,2.407519255580775,1.8248724085571688,-0.1578088480224002,-0.1525777435384953,-0.1527445754833318,1.6678177496633613,-0.5649848690786379,-0.4708737376008211,-1.4968921360746692,8.5587184924957,-0.968859465573402,0.2009783211706046,-0.8696317388738278
0.1,0.686527165278439,2.4116845472951614,1.8212443568151904,0.0935017483550648,0.0084586336367654,0.0402194097848187,-0.0070663755575637,-0.0024512016204222,-0.1356269155762008,0.6802017504372675,2.4056677007278866,1.8230175170653835,-0.1978088486184466,-0.1925777441345417,-0.1927445760793782,1.7693979270344158,-0.92604321453985,-0.5908663040094084,-1.3871157124712596,8.716542058430605,-0.9841033334250708,0.1814884331132005,-0.8652847580197255
0.12,0.6861232279048267,2.41148045993404,1.8182274137887136,0.1060589186026417,-0.0126235739425494,0.0386723614053749,-0.0326374512698762,-0.0176352330848915,-0.1646564195804718,0.6762455734648986,2.401816145845196,1.819162625543796,-0.2378088492144931,-0.2325777447305882,-0.2327445766754247,2.0779478021191964,-1.2785537856156266,-0.7592015732234663,-1.4514752002135491,8.716542058430605,-0.9991604953839636,0.1611814050447104,-0.8624195975798318
0.14,0.6851555823023334,2.4109449622956403,1.8146264715938831,0.1180181834348063,-0.0299071257754485,0.0371924317890796,-0.0629367344586214,-0.0354321857052671,-0.1940494111440097,0.6722893964925296,2.397964590962505,1.815307734022208,-0.2778088498105396,-0.2725777453266347,-0.2727445772714712,2.2905927384510543,-1.5149641594372585,-0.889847631018779,-1.469649578176896,8.784148545777043,-1.0122987518155444,0.1402425798231121,-0.8626909707949753
0.16,0.683539567275693,2.4100269348852885,1.8104361030937437,0.1293938362260655,-0.0426552102678704,0.0359826670181409,-0.0968808816202079,-0.0557283984547463,-0.2235494524729792,0.6673332195052596,2.393113036064913,1.8104528424857196,-0.317808850406586,-0.3125777459226811,-0.3127445778675176,2.4669788289071644,-1.6972073580793243,-1.01481063747396,-1.4750020664484709,8.82450377319492,-1.0228007745075962,0.1223300165873234,-0.8629396029103468
0.18,0.6813514664672322,2.4087496816604568,1.8059090682687773,0.1394487806152965,-0.0502296970167429,0.0352256504630601,-0.1316459525276832,-0.0777556234164384,-0.2515261864487431,0.6613770425030883,2.38726148115242,1.8045979509343293,-0.3578088510026324,-0.3525777465187275,-0.352744578463564,2.488225491522742,-1.7382535453737655,-1.1013612480846022,-1.3988366987881944,8.878486632641398,-1.030175233773717,0.1050509159818972,-0.8658677986716041
0.2,0.6783178058329221,2.406913466210478,1.8005660060975954,0.1485246725940878,-0.0528992437978793,0.0349862562997601,-0.1695213197473558,-0.1044958863320587,-0.2812143815022636,0.674769168840848,2.4048619004896348,1.7933327589463404,-0.2316459540177993,-0.1777556249065545,-0.3515261879388592,2.75271412807316,-1.893768360983628,-1.3370131457810186,-1.4844097526760274,8.94245344816909,-1.0352202241879445,0.0884333422422493,-0.8719423130314862
0.22,0.6744983030952014,2.404381770535273,1.7947404999804364,0.151809547925013,-0.0492437128538266,0.0352622493370357,-0.2099709706005409,-0.1455876251646619,-0.2987242060450125,0.674769168840848,2.4048619004896348,1.7933327589463404,-0.2316459540177993,-0.1777556249065545,-0.3515261879388592,3.013013113956402,-2.0224825426592568,-2.0545869416301605,-0.8754912271374427,9.87935456189416,-1.039957625460924,0.0780491676406118,-0.876277738493296
0.24,0.670162008637908,2.401271297382144,1.7889158870886557,0.1488167746301145,-0.0404125382596535,0.0358972630409139,-0.2438002158628477,-0.1787312129399667,-0.3133140748349572,0.674769168840848,2.4048619004896348,1.7933327589463404,-0.2316459540177993,-0.1777556249065545,-0.3515261879388592,2.477791111526779,-1.6914622631153424,-1.6571793887652368,-0.7294934394972391,9.87935456189416,-1.0395989938021564,0.0780168269465972,-0.8798125215001975
0.26,0.6649594294782316,2.397388629337004,1.7824801850046252,0.1429564207314275,-0.0280170206810185,0.0367817428882366,-0.274103568724993,-0.2072250101688466,-0.3294587220425199,0.67245270930067,2.403084344240569,1.7898174970669518,-0.2516459543158226,-0.1977556252045777,-0.3715261882368824,2.2309411179280767,-1.5151676431072596,-1.4246898614439965,-0.8072323603781351,9.762620965660062,-1.033962478175439,0.0798608627984973,-0.8895635169755653
0.28,0.6592043601990695,2.392981120500072,1.7757048593873208,0.1364763296812568,-0.0142985401539583,0.0377237408387985,-0.2994294334339983,-0.2318559500861966,-0.3473174557104977,0.6678197902203141,2.3995292317424384,1.7827869733081745,-0.291645954911869,-0.2377556258006241,-0.4115261888329288,1.9792782729411171,-1.2662932354502665,-1.2315469958674996,-0.8929366833988872,9.59796396791171,-1.0263876420001543,0.082804002228809,-0.9002971935860069
0.3,0.6533115113633308,2.3883647782453177,1.768916104912835,0.130538900903059,-0.0013013751621637,0.0385402782094536,-0.3193415442322487,-0.2527893701101033,-0.3663862175710022,0.6631868711399581,2.395974119244307,1.7757564495493974,-0.3316459555079155,-0.2777556263966706,-0.4515261894289753,1.7308364374138103,-0.9956055399125224,-1.0466710011953344,-0.9534380930252272,9.444347717318124,-1.0167229496862238,0.0852595846719514,-0.9137371366710616
0.32,0.6467384282890795,2.3830973595676257,1.7613571477396222,0.1248962282908902,0.0114286596968259,0.0392331072626315,-0.3366646459083454,-0.2728342459828687,-0.3886423426064112,0.6565539520297998,2.3904190067163738,1.766725925760818,-0.3716459561039619,-0.317755626992717,-0.4915261900250217,1.7300447985722138,-0.8661550838048315,-1.0022437936382689,-1.1128062517704456,9.30218524207794,-1.0057820248434033,0.0869392920859974,-0.9284985560310222
0.34,0.6398515035225761,2.377443887007737,1.7533358877125067,0.1200065373454237,0.0225805250118974,0.0397104666092322,-0.3510068180718677,-0.2915351307071548,-0.4124662172674654,0.6499210329196415,2.3848638941884404,1.7576954019722384,-0.4116459567000084,-0.3577556275887635,-0.5315261906210682,1.6755581127677857,-0.7171086081761174,-0.9350442362143052,-1.1911937330527145,9.168513571302356,-0.995355815240604,0.0879632871335338,-0.9424693084399552
0.36,0.6326985493539614,2.371418820646953,1.7448231064318398,0.1155862099595785,0.0319719376460294,0.0399545931469621,-0.3635144234482744,-0.3099372562957369,-0.4376405971311027,0.6422881137945821,2.3783087816456057,1.7476648781687576,-0.4516459572960548,-0.39775562818481,-0.5715261912171146,1.679901648868597,-0.625380268820333,-0.920106279429106,-1.2587189931818648,9.03799104886184,-0.9859020678242943,0.0882114879477646,-0.955438209928266
0.38,0.625684461206841,2.3653602423379123,1.736259559090883,0.1115509330928178,0.0394128928345476,0.0399863090069694,-0.3741541479358817,-0.3267749869835272,-0.4625418949666922,0.6336551946546214,2.3707536690878697,1.736634354350376,-0.4916459578921012,-0.4377556287808564,-0.611526191813161,1.594355313115207,-0.531986224380368,-0.8418865343895132,-1.2450648917794709,8.993570316216392,-0.9769309222305944,0.0882590735775181,-0.9679843787602572
0.4,0.6180929414302447,2.3586469871198634,1.726723159395895,0.1074459646500437,0.0458678250492393,0.0398417024694928,-0.3843883256182657,-0.3435647965958387,-0.4898498192632594,0.6069767538100469,2.349021492988736,1.7131324643425483,-0.4741541494259979,-0.4267749884736433,-0.5625418964568083,1.682526990154481,-0.5117088841191969,-0.8394904806155762,-1.3653962148283598,8.993570316216392,-0.9691419198059807,0.0882791075556959,-0.9791196100918524
0.42,0.6103366979247219,2.3516027884980724,1.7168369038059346,0.1040323212287496,0.0503609790649248,0.0395088832250043,-0.3907303233471554,-0.3603135689011058,-0.496420718444915,0.6069767538100469,2.349021492988736,1.7131324643425483,-0.4741541494259979,-0.4267749884736433,-0.5625418964568083,0.9538330894113586,-0.3170998864444885,-0.8374386152633528,-0.3285449590827827,8.941175772972201,-0.970765521545405,0.0891680259960043,-0.97947318622251
0.44,0.6024629594198601,2.344233855522914,1.706815555687197,0.1017649437238582,0.052233996378433,0.0389689029758397,-0.3965451709585211,-0.3760721408832973,-0.5055637772783962,0.6069767538100469,2.349021492988736,1.7131324643425483,-0.4741541494259979,-0.4267749884736433,-0.5625418964568083,0.956217245836185,-0.2907423805682846,-0.7879285991095775,-0.4571529416740577,9.881071762139982,-0.9678618664397042,0.0894825311764261,-0.9836072793841736
0.46,0.5948690899351324,2.33693824121405,1.6970828770503368,0.1003178481156038,0.0518400054864774,0.0382774992895397,-0.4026448229422461,-0.3911564263868017,-0.5184748681418454,0.6022352123157869,2.3447537431039995,1.70750704537798,-0.4941541497240211,-0.4467749887716665,-0.5825418967548315,1.0385539114052211,-0.3049825991862459,-0.754214275175219,-0.6455545431724607,9.651263647657288,-0.9670791170358424,0.0886703580543944,-0.9861910271764566
0.48,0.5867428222894542,2.32895356172337,1.6865397505644224,0.0993294425202766,0.0493789529662969,0.037377937643358,-0.4097882586794422,-0.4065300567562119,-0.5353033399776711,0.592752129327267,2.336218243334527,1.696256207448844,-0.5341541503200675,-0.486774989367713,-0.622541897350878,1.194335222200913,-0.3571717868598084,-0.7686815184705098,-0.8414235917912849,9.651263647657288,-0.9683915846611568,0.0871230508052611,-0.987043490026795
0.5,0.5784622118099065,2.3206649262256898,1.6756332554009248,0.0989210655876424,0.0449916892674542,0.0363236373921957,-0.4181585458461664,-0.4215895429533926,-0.5546040973785501,0.583269046338747,2.327682743565054,1.6850053695197078,-0.574154150916114,-0.5267749899637595,-0.6625418979469244,1.293608391307132,-0.4185143583362111,-0.7529743098590364,-0.96503787004395,9.474354232140286,-0.9711805147979764,0.0846234042631322,-0.9869848627366028
0.52,0.569989416692207,2.312077313177823,1.6643192966012814,0.0991387235757197,0.0392694654220176,0.0351745316616614,-0.4289816567676485,-0.4364831767000492,-0.5758231843909359,0.5717859633204248,2.3171472437657785,1.6717545315607694,-0.6141541515121605,-0.566774990559806,-0.7025418985429709,1.4046438248159707,-0.5411555460741041,-0.7446816873328321,-1.060954350619292,9.35023730195826,-0.976158712002404,0.0823295694339554,-0.9839627323695056
0.54,0.5617162473338145,2.303641880265761,1.6531735777472711,0.099954092259982,0.0333851291478168,0.0340708853411936,-0.4414995899710319,-0.4507757829703884,-0.5963494852929899,0.5603028803021025,2.3066117439665037,1.658503693601831,-0.6541541521082069,-0.6067749911558524,-0.7425418991390174,1.39848692736558,-0.6258966601691673,-0.714630313516959,-1.0263150451026992,9.261896566401449,-0.9827224838523626,0.0794141936807225,-0.9793875185376436
0.56,0.552726038521329,2.294456982203913,1.6410160058956882,0.1011689768676017,0.0274389547949034,0.0329444150431491,-0.4569995460003747,-0.4669598229291184,-0.6183332854839602,0.5478197972688791,2.295076244152327,1.6442528556279914,-0.6941541527042533,-0.6467749917518988,-0.7825418997350637,1.5696012687413905,-0.7749978014671421,-0.8092019979364984,-1.099190009548512,9.24942511588324,-0.9894645936426288,0.0761992884741891,-0.9745508916201272
0.58,0.5434008921587709,2.284934096159802,1.628416290857775,0.1021626751321635,0.0224993759248489,0.0318906713912796,-0.4748325804756836,-0.4843966853492047,-0.64052303319991,0.5343367142207545,2.2825407443232493,1.6290020176392506,-0.7341541533002998,-0.6867749923479453,-0.8225419003311102,1.66916610419101,-0.8916517237654464,-0.8718431210043176,-1.1094873857974918,9.23992968719267,-0.9950885534087004,0.0732570456001683,-0.9707618146093356
0.6,0.5336948972708614,2.2750512706630373,1.615369201670535,0.1024072763591679,0.0194185087220912,0.0309666063685918,-0.4949282208473357,-0.5028389472382621,-0.6630563933738616,0.5196592631349867,2.2607142618923417,1.5963901391977795,-0.5647904435681061,-0.5843966868393209,-0.6514868950304425,1.7689715276541145,-1.0047820185826006,-0.9221130944528644,-1.1266680086975789,9.245323945179734,-0.9995181489623304,0.0708488823346259,-0.968158358322602
0.62,0.5240690372998201,2.2652090067854846,1.6029762299884425,0.0995907151673478,0.019861559523061,0.0302189637675867,-0.5167489605114879,-0.5309567836400583,-0.640129296883796,0.5196592631349867,2.2607142618923417,1.5963901391977795,-0.5647904435681061,-0.5843966868393209,-0.6514868950304425,2.116842670626266,-1.0910369832076106,-1.4058918200898107,1.1463548245032762,9.244500839805823,-1.009641388514998,0.0707825877552395,-0.9602964447047116
0.64,0.5135146542624979,2.2543362102416578,1.590421491546854,0.0934594087845784,0.0240377050475693,0.0295735725995943,-0.5371094363686179,-0.5540893549925492,-0.6167856622182233,0.5196592631349867,2.2607142618923417,1.5963901391977795,-0.5647904435681061,-0.5843966868393209,-0.6514868950304425,1.9329964523419243,-1.0180237928564984,-1.1566285676245458,1.1671817332786385,12.222889946793655,-1.0097199447170129,0.0776305277631113,-0.9575138563550396
0.66,0.502584278233504,2.243053993949732,1.5782752343852515,0.086473314622418,0.030574852390796,0.0290629385005809,-0.5545002537563952,-0.5726228637622954,-0.5989203216177184,0.5140113586993056,2.2548702950239483,1.589875270247475,-0.5827820161865906,-0.6043966871373441,-0.653679667396549,1.5533044385320367,-0.8695408693888684,-0.9266754384873122,0.8932670300252465,11.865652766705352,-1.0070918543692489,0.0845457213424718,-0.9579660541039998
0.68,0.491907142569091,2.232025479513695,1.567021095315952,0.0799395751954062,0.0378992641616867,0.028644817619322,-0.5682567687844742,-0.5872235403343199,-0.5865869217548395,0.5027155498279435,2.243182361287162,1.5768455323468662,-0.6187651614235596,-0.6443966877333905,-0.6580652121287621,1.1774275075947205,-0.6878257514039476,-0.7300338286012231,0.6166699931439423,11.470063586982178,-1.00218578341149,0.0912052723141947,-0.961266085515088
0.7000000000000001,0.4804148017676037,2.220143334285525,1.5553882344759655,0.0736159406320152,0.0459082356284545,0.0282262605865842,-0.5799998894878261,-0.6001540103635401,-0.577528989811051,0.4914197409565813,2.231494427550376,1.5638157944462574,-0.6547483066605286,-0.684396688329437,-0.6624507568609751,0.9837988490138088,-0.5871560351675964,-0.6465235014610105,0.4528965971894227,11.13701877798212,-0.9963982912927638,0.0970090557935035,-0.965898975321852
0.72,0.4687136267050537,2.208023800039422,1.543893408585047,0.0680816691017424,0.0535527999837849,0.0277996226188978,-0.5893711520937871,-0.611215950732314,-0.5724044763209643,0.4783247748233707,2.217806493783787,1.550566779309038,-0.6907314518974976,-0.7243966889254835,-0.6668363015931881,0.7688428416495063,-0.4685631302980497,-0.5530970184386974,0.2562256745043401,10.651169686539106,-0.9902819805139156,0.1015390659131013,-0.9715784982201042
0.74,0.456848216834281,2.1956981918673515,1.5324874845411718,0.0634026956789387,0.0603664579412168,0.0273493929651628,-0.5966171420827756,-0.6209130895935714,-0.5684613845663458,0.4652298086901602,2.204118560017198,1.5373177641718183,-0.7267145971344666,-0.76439668952153,-0.6712218463254012,0.6365666610818722,-0.3622994994494255,-0.4848569430628668,0.1971545877309244,10.651169686539106,-0.985087647090667,0.1049521584161618,-0.9765969520904876
0.76,0.4454543083890287,2.183811547965712,1.521716521584014,0.0595249125418431,0.0659173778383702,0.0268869082258341,-0.6023253679496542,-0.6297977803306736,-0.565530778485411,0.4512352639260254,2.1894306262357084,1.5239591104162935,-0.7626977423714356,-0.8043966901175763,-0.6756073910576141,0.5479735943520976,-0.285411293343929,-0.4442345368551093,0.146530304046738,10.546049000426136,-0.9801326817255248,0.1078990491904839,-0.9815040607248636
0.78,0.4333540516672179,2.1711242200561043,1.510431697480504,0.0558228237081003,0.0708376728387204,0.0263620725972069,-0.6073381419054668,-0.6384168146401793,-0.5631444446370736,0.4363411405309664,2.1737426924393173,1.5104908180424632,-0.7986808876084046,-0.8443966907136228,-0.6799929357898272,0.5126164365201101,-0.2506386977906283,-0.4309517154752862,0.1193166924168709,10.546049000426136,-0.9759354575751228,0.110496429681249,-0.9856582956411676
0.8,0.4211618441737356,2.1582719269780446,1.4991860425212455,0.0524363096870747,0.0748738351700108,0.0258055241476744,-0.6115933915063878,-0.6463268114463948,-0.5615805728234504,0.4029871445719446,2.1392033793240954,1.4822744752486503,-0.6225373291171591,-0.7384168161302954,-0.5283233143017426,0.4558533034045147,-0.2127624800460525,-0.3954998403107757,0.0781935906811581,10.508052955517996,-0.9724050150346044,0.1127997473566354,-0.989176512596154
0.8200000000000001,0.4088287853460831,2.1452484794863547,1.4881607431944754,0.0490546432322642,0.0806129796789888,0.0253323452204446,-0.621008358724594,-0.6554540883438715,-0.5399696133554038,0.4029871445719446,2.1392033793240954,1.4822744752486503,-0.6225373291171591,-0.7384168161302954,-0.5283233143017426,1.2639050205737994,-0.4707483609103113,-0.4563638448738361,1.080547973402329,10.46392480135637,-0.9668628145993954,0.1139005974447474,-0.99603017219384
0.84,0.3969745503140474,2.132725642684616,1.4781091031634328,0.046021532021329,0.0891644041877417,0.0250355616997278,-0.6258174238512091,-0.6623161248514466,-0.5192886065879452,0.4029871445719446,2.1392033793240954,1.4822744752486503,-0.6225373291171591,-0.7384168161302954,-0.5283233143017426,1.1157045905379583,-0.2404532563307526,-0.3431018253787554,1.0340503383729327,11.894266666052316,-0.961890478884713,0.1179058809529812,-0.9986266353684696
0.86,0.3844416812817902,2.11941907727714,1.4679303785672326,0.0434844634041628,0.0996572912633961,0.0248206159546835,-0.6267690553713449,-0.668089637049078,-0.4997970360785636,0.396761771280773,2.1318192111627923,1.476991242105633,-0.6255771665594976,-0.7584168164283186,-0.5213590882346765,1.0175465180625751,-0.0475815760067888,-0.2886756098815668,0.9745785254690804,11.705176575046607,-0.9535097561096748,0.1207765795846233,-1.0051718217558063
0.88,0.3719267780613323,2.106008201702092,1.4581138122544877,0.0418619382209111,0.1106707855117971,0.0246799268085577,-0.6242844619015843,-0.6729115235564606,-0.4828590680955639,0.3843110246984298,2.1170508748401864,1.4664247758195983,-0.6316568414441744,-0.7984168170243651,-0.5074306361005441,0.8892673298749615,0.1242296734880299,-0.2410943253691289,0.846898399149984,11.540432784703626,-0.9440200758393305,0.1225751225873018,-1.01299113210065
0.9,0.3601123304469615,2.093186571437369,1.4490832757371477,0.0413335659779836,0.1211021170752137,0.0246131608584173,-0.6191677740600187,-0.6766550803776772,-0.4686021834007851,0.3718602781160867,2.1022825385175805,1.455858309533563,-0.6377365163288514,-0.8384168176204115,-0.4935021839664116,0.7801497826409998,0.2558343920782802,-0.1871778410608315,0.712844234738938,11.393512468319386,-0.933215958050272,0.1233188199461349,-1.0221366952694069
0.92,0.3478087385164123,2.079620027007359,1.439857034786285,0.0421791450830119,0.1317595692762054,0.0246371031880474,-0.6111545415669665,-0.6799441704944439,-0.4548565920153761,0.3591055477895096,2.0855142021651725,1.4459882658542351,-0.6438161912135284,-0.878416818216458,-0.4795737318322792,0.812359666832603,0.4006616246526095,-0.1644545058383351,0.687279569270452,11.288172617631972,-0.922110910866451,0.1226078734804368,-1.031637855032013
0.94,0.3357035090789845,2.0659898244600328,1.4309013160248198,0.0447848890710103,0.1415788760344326,0.0247731495300258,-0.5995958504688268,-0.6832663898068613,-0.4414516430170106,0.3463508174629326,2.068745865812764,1.436118222174907,-0.6498958660982053,-0.9184168188125044,-0.4656452796981469,0.9004625737791547,0.5779345549069836,-0.1661109656208692,0.6702474499182737,11.231425911426411,-0.9125833708886611,0.1205041416229728,-1.039594161775745
0.96,0.3244506169489696,2.052951332387062,1.4226407277177169,0.0481912384127546,0.1494514146316963,0.024933995858209,-0.5854824463265379,-0.6892218138397158,-0.4287960040425591,0.3334440952642387,2.050977529445454,1.426596389798932,-0.6559755409828822,-0.9584168194085508,-0.4517168275640145,0.9935044662032676,0.705670207114445,-0.2977712016427269,0.6327819487225772,11.231425911426411,-0.9037527174267442,0.117212275127585,-1.0469829706565572
0.98,0.3129197841313326,2.0390824602936406,1.4142073754639974,0.0516251951098409,0.1557168204334845,0.0250241511896819,-0.5683292900818969,-0.6973596486284618,-0.4152046613569783,0.3203853811934278,2.0322091930632444,1.4174227687263103,-0.6620552158675591,-0.9984168200045972,-0.4377883754298821,1.1674541963165832,0.8576578122320488,-0.4068917394372984,0.6795671342790383,11.255672631102245,-0.8962277830169983,0.1138187556882609,-1.0533482904074345
1.0,0.3017500405808677,2.0250370682067844,1.4060492613474012,0.0544607725588894,0.1596630094211451,0.0249716279475383,-0.5495878676896422,-0.7066913986551836,-0.4012733348500892,0.2845033196272377,2.004214477862217,1.3934471423961483,-0.5712294956344749,-0.7973596501185779,-0.3498614080424832,1.2573825293915923,0.9370711196127368,-0.4665875013360909,0.6965663253444526,11.302294541880656,-0.8907275538428068,0.1107242081944258,-1.0581465744107028
1.02,0.2909734132299386,2.0107159105783285,1.3981967245835252,0.0539566248970151,0.1611112943849342,0.0245593180626153,-0.5291227045542302,-0.724159682757292,-0.3844734238152641,0.2845033196272377,2.004214477862217,1.3934471423961483,-0.5712294956344749,-0.7973596501185779,-0.3498614080424832,1.586033466236636,1.0232581567706012,-0.8734142051054217,0.8399955517412544,11.344567438703052,-0.8895163171613152,0.1103877656777818,-1.0594668462170704
1.04,0.2811223975451891,1.9968289178959089,1.3910712263373124,0.0495541306378363,0.1599452419131539,0.0237686308599246,-0.5090445825551748,-0.7358863807818807,-0.3663772711454359,0.2845033196272377,2.004214477862217,1.3934471423961483,-0.5712294956344749,-0.7973596501185779,-0.3498614080424832,1.473191408998313,1.0039060999527671,-0.586334901229435,0.9048076334914112,11.593946988792595,-0.8891275446280243,0.1145400089492776,-1.0591699198983688
1.06,0.2711637925240602,1.9820338239547244,1.383956201750624,0.0440407313253176,0.1558213361591024,0.0227638651206246,-0.4880943742033813,-0.7429001306303522,-0.3460057608228491,0.278791024670893,1.996240881361032,1.3899485283157238,-0.5718095367449905,-0.8173596504166011,-0.3367927573795842,1.5025830673741083,1.0475104175896754,-0.3506874924235736,1.0185755161293413,11.754140600965002,-0.8921434107969375,0.1198260938289806,-1.0556624652783062
1.08,0.2616037332547373,1.967130385902276,1.3772604255124934,0.0392328971010556,0.1488962609200949,0.021734241532267,-0.4695157985900947,-0.7473123378537544,-0.324554263798243,0.2673664347582035,1.98029368835866,1.382951300154874,-0.5729696189660217,-0.8573596510126476,-0.3106554560537862,1.4359646313519832,0.9289287806643316,-0.2206103611701093,1.072574851230304,11.754140600965002,-0.8971251283332887,0.124162359093508,-1.0506079102997246
1.1,0.2528326966609463,1.952904047579056,1.3713071950306532,0.0357640091675488,0.1406905058451452,0.0208182610186417,-0.4550667084213705,-0.7502681590733987,-0.3031405456780455,0.2559418448455139,1.9643464953562888,1.3759540719940244,-0.5741297011870529,-0.897359651608694,-0.2845181547279881,1.3000580847770773,0.7224545084362072,-0.1477910609822164,1.0706859060098772,11.79523690269707,-0.9061497604476813,0.1284279553999604,-1.041067307187988
1.12,0.2438605786735989,1.9378739731291528,1.3654926538250256,0.0333367435780552,0.131281088270958,0.0199568685445606,-0.4432708379353401,-0.7528260173607755,-0.2793648805646367,0.2444592508217729,1.9463993023241144,1.3702637088994647,-0.575289783408084,-0.9373596522047404,-0.2583808534021901,1.3331986452949036,0.5897935243015212,-0.1278929143688378,1.1887832556704363,11.841703100914856,-0.9168938439311576,0.1317726876565312,-1.0295804571188003
1.14,0.2350885376072558,1.9227974514306396,1.3601656638767623,0.0321765893694469,0.121870257759285,0.0192170112372424,-0.4348216373725055,-0.7548296582112894,-0.2544535015460978,0.2329766567980318,1.9284521092919409,1.364573345804905,-0.5764498656291153,-0.977359652800787,-0.232243552076392,1.3190719952054857,0.4224600281417273,-0.1001820425256982,1.2455689509269452,11.902369660425393,-0.929012281730517,0.1345941295532373,-1.015880622259649
1.16,0.2264512974781535,1.9076783953018688,1.3553474914817083,0.0322695397469754,0.1131313857939723,0.0186040619683705,-0.4295055315362643,-0.7570928448474419,-0.2285746677204944,0.221465060718765,1.9095049162448656,1.35953641524349,-0.5776099478501464,-1.0173596533968334,-0.206106250750594,1.325798848982542,0.2658052918120601,-0.1131593318076218,1.2939416912801718,11.994774198967209,-0.9409200358780848,0.1366267412624544,-1.0018057347182956
1.18,0.2183185547827224,1.8932693827859812,1.351257498584424,0.03333841012961,0.105899624627385,0.0181299127205936,-0.4269306893889169,-0.7596118492240481,-0.2032160361276294,0.2099244625839724,1.8895577231828893,1.3551529172152204,-0.5787700300711777,-1.0573596539928798,-0.179968949424796,1.2806593920670033,0.1287421073673744,-0.1259502188303118,1.267931579643251,11.994774198967209,-0.952635562915845,0.1379513927637272,-0.9874590671370204
1.2,0.2097868583910698,1.878043809726408,1.3474808946670571,0.0353567119687366,0.0997996827556311,0.0177414253790782,-0.4265672823072271,-0.7628986555826978,-0.1757264226114809,0.1969720203132766,1.855288790324779,1.3410966967780424,-0.4295160275847027,-0.8596118507141642,-0.1538365532622958,1.384389768104972,0.0181703540844874,-0.164340317932482,1.374480675807424,12.031324995403338,-0.9626612166206276,0.1384708929540108,-0.9746349002197998
1.22,0.2011867033362144,1.8626810379827023,1.3441217340036995,0.0359803823025526,0.0970783272758723,0.0173757629062558,-0.4335516850834448,-0.7727087602758211,-0.1622476922273115,0.1969720203132766,1.855288790324779,1.3410966967780424,-0.4295160275847027,-0.8596118507141642,-0.1538365532622958,0.9037369763924824,-0.3492201388108851,-0.4905052346561689,0.6739365192084706,12.076923948809052,-0.9661029083182584,0.1401941166314475,-0.967985688316841
1.24,0.1924537168866363,1.8471549285998936,1.341020373102673,0.0342902545330111,0.0988652621919638,0.017023824356816,-0.4388383050667291,-0.7793259076220238,-0.1484628944487034,0.1969720203132766,1.855288790324779,1.3410966967780424,-0.4295160275847027,-0.8596118507141642,-0.1538365532622958,0.8089431989425103,-0.264330999164214,-0.3308573673101334,0.6892398889304054,11.13414137093332,-0.9685925299462504,0.1424741262393956,-0.9640456321361836
1.26,0.1840903937578855,1.8323023850424416,1.338340666567421,0.031860720618542,0.1031862688936407,0.0167313030499434,-0.4409075296753846,-0.7836994448289983,-0.1342975768083678,0.1926768600374296,1.8466926718176373,1.3395583312454196,-0.4300330952238599,-0.8796118510121874,-0.1439606566892291,0.7484412836580072,-0.1034612304327747,-0.2186768603487265,0.7082658820167786,11.209034348341447,-0.9677752368804212,0.1458082330220833,-0.963013781693308
1.28,0.1752776576536681,1.81660442824346,1.3358181064096508,0.0294721651108926,0.1091629225115098,0.016484758222755,-0.439954334802282,-0.7859551640909352,-0.1186853669941403,0.1840865394857355,1.829500434803354,1.3364816001801736,-0.4310672305021742,-0.919611851608234,-0.1242088635430957,0.7901549612864623,0.047659743655129,-0.1127859630968453,0.780610490711376,11.278164897786157,-0.965314304013239,0.1492189821969612,-0.9633953534381844
1.3,0.1665158272510443,1.8008767202012277,1.3336110901207658,0.0280144457197876,0.1155161743192496,0.0163191067905227,-0.4360612403869391,-0.7868506960233351,-0.1028033558562262,0.1754962189340415,1.8123081977890707,1.3334048691149276,-0.4321013657804886,-0.9596118522042804,-0.1044570703969622,0.8188352083196401,0.1946547207671456,-0.0447765966199942,0.7941005568957015,11.278164897786157,-0.962144889533156,0.1519540264688566,-0.9644258267068712
1.32,0.1578602456279391,1.7851434149367966,1.3317246112636,0.0280076604045282,0.1213868172428657,0.0162518339171232,-0.4296143640555742,-0.7867014239512439,-0.086657094068707,0.1668541916184317,1.7931159607449851,1.3313157277069885,-0.433135501058803,-0.9996118528003268,-0.0847052772508288,0.8693190816589188,0.3223438165682463,0.0074636036045627,0.8073130893759599,11.288201887729883,-0.959221682961046,0.1534416968415792,-0.9654030759156232
1.34,0.1497758329998377,1.7702044908782362,1.3302304762571562,0.0297200164160425,0.1260037575742938,0.0162972754903657,-0.4217073699446674,-0.7860960724196403,-0.0714398356511128,0.1582121643028219,1.7739237237008996,1.329226586299049,-0.4341696363371173,-1.0396118533963732,-0.0649534841046954,0.8579801281127806,0.3953497055453364,0.0302675765801785,0.760862920879709,11.30580922563604,-0.9567753136245892,0.1535069930022264,-0.9659483117991472
1.36,0.1414411059317494,1.7544737348352726,1.3289721776406305,0.0331141764982042,0.1295863143704661,0.0164390080308888,-0.4121839764381574,-0.7874983963847404,-0.0551881865061087,0.1495442836052543,1.753731486641913,1.3276312397197632,-0.4352037716154316,-1.0796118539924195,-0.045201690958562,0.9444279172007308,0.4761696753254996,-0.0701161982550047,0.8125824572502063,11.32132102047308,-0.9558092754134008,0.152117640962239,-0.9653109410241956
1.38,0.1333059583890523,1.7386815944492384,1.328043341518434,0.0368196342899772,0.1317746006818753,0.0165751421417418,-0.4018656741434172,-0.7917045635034166,-0.0384837715053733,0.1408505495257288,1.732539249568025,1.3265296879691306,-0.436237906893746,-1.119611854588466,-0.0254498978124286,1.003987904051472,0.5159151147370117,-0.2103083559338081,0.8352207500367685,11.32132102047308,-0.9559083446746346,0.1504066472568627,-0.9637440588084136
1.4,0.1253815461135021,1.7227867813442073,1.3274555462721518,0.0400426555615196,0.1325817310086622,0.016639711501234,-0.3912428081886344,-0.7974512969507263,-0.0211202105507581,0.1132126746818814,1.6990963662740677,1.3261191529431653,-0.3819668888652161,-0.8917045649935327,-0.0074931429797586,1.057548433208089,0.5311432977391423,-0.2873366723654846,0.8681780477307648,11.356421740420046,-0.957207310674715,0.1492033626536683,-0.9610035807943008
1.42,0.118005519695987,1.7074979769525604,1.3271117514106632,0.0399458358042953,0.1331586916080691,0.0164837329212881,-0.3855678705817023,-0.8103162335480247,-0.0158968710928375,0.1132126746818814,1.6990963662740677,1.3261191529431653,-0.3819668888652161,-0.8917045649935327,-0.0074931429797586,0.7499913092625671,0.2837468803466053,-0.6432468298649241,0.2611669728960271,11.397730388487616,-0.9564847283532676,0.1507957451419047,-0.9594864013953532
1.44,0.1103634257819638,1.6912024618902108,1.3268612621661249,0.0362612629134156,0.1343717156839378,0.016107928237443,-0.3788379747035455,-0.8179789082804547,-0.009295280516681,0.1132126746818814,1.6990963662740677,1.3261191529431653,-0.3819668888652161,-0.8917045649935327,-0.0074931429797586,0.6074312321593517,0.3364947939078377,-0.3831337366214993,0.3300795288078276,10.66823766880043,-0.95563258278471,0.1541905754700688,-0.9594908001229068
1.46,0.1028646913227248,1.674809268240618,1.326753952360315,0.0319315687392692,0.1358521293178974,0.0157115705899249,-0.3713074308316058,-0.8209400578499583,-0.001745464683156,0.1093930057932292,1.6901793206241325,1.3260442215133676,-0.3779871318095759,-0.911704565291556,-0.0012950172746357,0.5533471263599455,0.3765271935969871,-0.1480574784751775,0.3774907916762458,10.758702300226105,-0.9550383346640252,0.1585997830076623,-0.958653997179094
1.48,0.095524328218002,1.6583858657616612,1.326803515743162,0.0285121314798398,0.1373448467855475,0.0153935356429363,-0.3630717386343201,-0.8215903975568295,0.0063093672763756,0.1017536680159249,1.6723452293242618,1.3258943586537726,-0.3700276176982954,-0.9517045658876024,0.0111012341356101,0.5769096237693095,0.4117846098642824,-0.0325169853435614,0.4027415979765855,10.79807929706658,-0.9546103455722088,0.1622384140174666,-0.957618229465935
1.5,0.0887094931132274,1.6427819134018578,1.3270038776994548,0.0264985435858334,0.1386035977200701,0.0151866125038078,-0.3546831019027553,-0.8212586893857838,0.0143689448987964,0.0941143302386206,1.654511138024391,1.3257444957941773,-0.362068103587015,-0.9917045664836488,0.023497485545856,0.5818849714005401,0.4194318365782407,0.0165854085522831,0.4029788811210398,10.821905102476194,-0.954323526940314,0.1650383907574848,-0.9564356491177526
1.52,0.0817128817575594,1.6263695270185972,1.3273862591626475,0.0258521447602764,0.1396497136003545,0.0150785771106738,-0.3454101228378686,-0.8201638747122326,0.0234716005066763,0.0868729681668803,1.634677046694718,1.3262144455050944,-0.3541085894757346,-1.0317045670796952,0.0358937369561019,0.6520067082149497,0.4636489532443333,0.0547407336775607,0.4551327803939977,10.846781427886526,-0.9541628326360192,0.1665724868136653,-0.9552692381159412
1.54,0.0749054326347033,1.6099873965780551,1.3279539928486044,0.0271722961098851,0.1403335790715832,0.0151119448469193,-0.3358264869769446,-0.8184317144938201,0.0328429395195139,0.07963160609514,1.6148429553650452,1.3266843952160114,-0.3461490753644541,-1.0717045676757415,0.0482899883663478,0.6757744635427032,0.4791817930462017,0.0866080109206246,0.4685669506418783,10.88584691905271,-0.954344284269366,0.1665216533596246,-0.953901620606348
1.56,0.0682924702032194,1.593625422479498,1.3287135469046618,0.0303116348306168,0.1406039951627441,0.0152715044758458,-0.3259948095669212,-0.8183008452039295,0.0426419131104412,0.0725892318761817,1.594008864020471,1.3274642512121848,-0.3381895612531737,-1.111704568271788,0.0606862397765937,0.6940801302830473,0.4915838705011721,0.0065434644945294,0.4899486795463658,10.897177762323736,-0.9553649593387794,0.1650780052726993,-0.9519702772204252
1.58,0.0621937473724279,1.5780530454040087,1.3296229205364083,0.033860794363731,0.1404569821378366,0.0154567766859103,-0.316523802176601,-0.820985529126282,0.0525954138048058,0.0657458455100054,1.5721747726609956,1.3285540134936142,-0.3302300471418932,-1.1517045688678345,0.0730824911868396,0.6999637219584215,0.4735503695160098,-0.1342341961176218,0.4976750347182312,10.921056210589995,-0.9568358433833148,0.1630386409829405,-0.9496277027321568
1.6,0.0559678398810314,1.561587290609111,1.330792049435959,0.0372985116623414,0.1399075858072608,0.0156220814892465,-0.3066156369381849,-0.8254321485975779,0.0638363747526299,0.0463675572635979,1.5370037689476943,1.3322526912266488,-0.3154175816462549,-0.920985530616398,0.0629794155739313,0.7815103424535889,0.4954082619208044,-0.2223309735647938,0.5620480473912032,10.96346708481633,-0.9584915766646216,0.1612878114733392,-0.9470153089385897
1.62,0.0499641061291218,1.5449504980330917,1.3320860925886016,0.0376904909448278,0.1377301498400285,0.0155197713596771,-0.2942585130592892,-0.8371743885140271,0.0645182984186428,0.0463675572635979,1.5370037689476943,1.3322526912266488,-0.3154175816462549,-0.920985530616398,0.0629794155739313,0.8530001885991849,0.6178561939447852,-0.5871119958224646,0.034096183300647,11.011310059868263,-0.9648023703373516,0.1637425043029858,-0.9377333601978508
1.64,0.0442042496559057,1.5281294946103396,1.3333847606958145,0.0344942740024972,0.1323687115024036,0.0150728191382234,-0.2828025393808259,-0.8439214801008206,0.0654797355208525,0.0463675572635979,1.5370037689476943,1.3322526912266488,-0.3154175816462549,-0.920985530616398,0.0629794155739313,0.6664963223899434,0.5727986839231647,-0.3373545793396715,0.0480718551104812,10.40055220938484,-0.9673614339444832,0.165981293534918,-0.9346834965680426
1.66,0.0389091128164598,1.5120704381130126,1.3346477820900569,0.0307408589865139,0.1252967203215482,0.0145728828191225,-0.2754927767377714,-0.8462012559072504,0.067443724760228,0.0432133814471353,1.5277939136415306,1.3328824853823882,-0.3151963375401857,-0.9409855309144212,0.0650562159277564,0.3952444223444543,0.3654881321527248,-0.1139887903214897,0.0981994619687766,10.40055220938484,-0.972549133908702,0.1692778373416702,-0.9285013225177808
1.68,0.0334459259610724,1.4951450804794366,1.3360247505563063,0.0275660922227067,0.1172346460294367,0.0141312195056395,-0.2714897730151727,-0.8464337712748189,0.0701848593786932,0.0369050298142102,1.5093742030292026,1.3341420736938667,-0.3147538493280473,-0.9809855315104676,0.0692098166354066,0.2428575775832562,0.2001501861299354,-0.0116257683784259,0.1370567309232594,10.435565137237065,-0.9793690024357246,0.1721497693861606,-0.9204802333420092
1.7,0.0280276098978639,1.4782259926039114,1.3374621487365566,0.0256902792589666,0.1096634325301806,0.0138336265658767,-0.2707050611945343,-0.8457072505535778,0.0734426982945176,0.0305966781812851,1.4909544924168747,1.3354016620053453,-0.3143113611159089,-1.0209855321065142,0.0733634173430568,0.1714432807177213,0.0392355910319164,0.0363260360620565,0.16289194579122,10.46110516423596,-0.9862201894695468,0.1740334078700307,-0.912447476883212
1.72,0.0225944887698585,1.4613304628145607,1.3389701609046627,0.0254370705616177,0.1034661006462683,0.0137083299954841,-0.2727223069247107,-0.8441870132299146,0.0772020113139199,0.024310450958967,1.4705347817747445,1.3368689303522063,-0.3138688729037704,-1.0609855327025606,0.0775170180507069,0.2264554936075804,-0.1008622865088182,0.0760118661831565,0.187965650970117,10.482522747660369,-0.9913208899188868,0.1745166536672325,-0.9065360526668026
1.74,0.0173712232683707,1.4453117355531058,1.3404732309143137,0.0270108307788411,0.099612263864043,0.0137755657925532,-0.277037210588908,-0.8423572844198464,0.0808294437964916,0.0180242237366488,1.4501150711326145,1.3383361986990676,-0.3134263846916321,-1.1009855332986072,0.0816706187583571,0.2963299156569964,-0.2157451832098644,0.0914864405034132,0.1813716241285831,10.50971526239482,-0.9946875828675076,0.1734469112982733,-0.902780165752745
1.76,0.011768843414157,1.428469907417998,1.3421313160841597,0.030371339478605,0.0984159999183139,0.0140436434807453,-0.2827080800824634,-0.8424046179416006,0.0847945759633032,0.011749058719634,1.4286953604755828,1.33990730706362,-0.3129838964794936,-1.1409855338946535,0.0858242194660073,0.3459887078197157,-0.2835434746777693,-0.0023666760877116,0.1982566083405787,10.518076528902384,-0.9974132513111524,0.1712032023607923,-0.8999278632885895
1.78,0.0060659583182644,1.4115927933446533,1.343871448076125,0.0341442182234199,0.0998084705030053,0.0144244304218959,-0.2870271071044826,-0.845367767484799,0.089034385147628,0.0054849559079228,1.4062756498036502,1.3415822554458636,-0.3125414082673552,-1.1809855344907,0.0899778201736575,0.3369355708135232,-0.2159513511009597,-0.1481574771599214,0.2119904592162394,10.531655042172131,-0.9977026046991896,0.1686281612551483,-0.8998364631816442
1.8,0.0002960745194118,1.3946374675690707,1.345699115404212,0.0374611661740734,0.1029286045940631,0.0148454791332169,-0.2894894638396795,-0.8498936453157925,0.0935185455466836,-0.0082853970369597,1.3693244049704134,1.348323167333506,-0.2621916937826299,-0.9453677689749151,0.1036580513297883,0.3415203702449751,-0.1231178367598451,-0.2262938915496726,0.2242080199527797,10.531655042172131,-0.9961928422572052,0.1665158953788941,-0.9016414852211124
1.82,-0.0052412779140284,1.3783621192045667,1.3475178646056138,0.0375476487776534,0.1077367018209162,0.0151145926428611,-0.2928036180294115,-0.8618080174635575,0.0977436116291763,-0.0082853970369597,1.3693244049704134,1.348323167333506,-0.2621916937826299,-0.9453677689749151,0.1036580513297883,0.6534276261954887,-0.1657077094866038,-0.5957186073882514,0.2112533041246381,10.541866532423228,-0.992124755051893,0.1661954993497355,-0.9065008095583752
1.84,-0.0111055420491098,1.3610434271118752,1.3495212419760907,0.034090391912285,0.114676866270387,0.0152200355108768,-0.2930793390115566,-0.8688842790373632,0.1023798102242799,-0.0082853970369597,1.3693244049704134,1.348323167333506,-0.2621916937826299,-0.9453677689749151,0.1036580513297883,0.4232134134634508,-0.0137860491072533,-0.3538130786902849,0.2318099297551779,10.56159641103568,-0.9861059315409408,0.1695875777376892,-0.9120530591553416
1.86,-0.0169405186285814,1.343640331733212,1.3516104231388313,0.0299073477026856,0.1223229936299599,0.0152835628428624,-0.2901540497811676,-0.8711056031427235,0.1062805569939069,-0.010907313974786,1.3598707272806645,1.349359747846804,-0.2572246111182594,-0.9653677692729384,0.1065827845662204,0.2678965435725129,0.1462644615194491,-0.1110662052680122,0.1950373384813498,10.56159641103568,-0.9799091356537812,0.1736157207938614,-0.9174255092058724
1.88,-0.0224018760565028,1.3270933422810307,1.3536591175218942,0.0267388253371977,0.1293721308587047,0.0153794858741752,-0.2847473493548641,-0.870896781471199,0.1091461615022688,-0.0161511478504386,1.340963371901166,1.3514329088733996,-0.2472904457895183,-1.005367769868985,0.1124322510390846,0.306136020375883,0.2703350213151767,0.0104410835762236,0.1432802254180958,10.510174982628996,-0.9734217323734478,0.1771062420377861,-0.9231704634476284
1.9,-0.0280164501847245,1.3096903104778033,1.3558687891328858,0.0247156691468946,0.1359547612710532,0.0155433092755076,-0.276879597077382,-0.8696838087220123,0.1116265732991227,-0.0213949817260912,1.3220560165216677,1.3535060698999954,-0.2373562804607772,-1.0453677704650313,0.1182817175119487,0.4169090772340718,0.3933876138741049,0.0606486374593318,0.1240205898426945,10.465584757691431,-0.9673918099542136,0.1794407488477342,-0.928569336657932
1.92,-0.0334541960035083,1.2923192129959866,1.3581250198970878,0.0242690544614752,0.1412914162410189,0.0157895275371437,-0.2672456604584783,-0.8676646034171813,0.1138504457275274,-0.0261421073353067,1.301148661112367,1.3558717042502344,-0.2274221151320361,-1.0853677710610776,0.1241311839848129,0.5045679672203002,0.4816968309451858,0.1009602652415508,0.1111936214202358,10.446658594603832,-0.962173222132062,0.1804411398000484,-0.933277514456906
1.94,-0.0386847057692677,1.2749963050352262,1.360427400223893,0.0258387056178111,0.1451516265899431,0.0161509810908316,-0.2563595975675009,-0.8650631087983516,0.1162620545420158,-0.0308892329445223,1.2802413057030664,1.3582373386004734,-0.217487949803295,-1.1253677716571242,0.129980650457677,0.5724726993321017,0.5443031445488689,0.1300747309414873,0.1205804407244215,10.445646450549248,-0.9583939837884462,0.1797951427644913,-0.936794785219622
1.96,-0.0434440049864811,1.2585726470398593,1.3626644174946505,0.0290102927591078,0.1474204121269791,0.0165869711943926,-0.2452642154378237,-0.8643179258198311,0.119081983550391,-0.0353880044205193,1.2583339502788646,1.360749209612534,-0.207553784474554,-1.1653677722531706,0.1358301169305412,0.5736174724659989,0.55476910648386,0.0372591489260221,0.1409964504187573,10.506715491167595,-0.9562991526938758,0.1776134665965328,-0.9388794427421264
1.98,-0.0482235021705276,1.2412666045937593,1.365084720853182,0.0328560369877435,0.1484422641486117,0.017049600064188,-0.2333541125579172,-0.8664365980439217,0.1228390030349578,-0.0396384217632978,1.2354265948397618,1.3634073172864165,-0.1976196191458129,-1.205367772849217,0.1416795834034053,0.6333532150595461,0.5955051439953271,-0.1059336112045283,0.1878509742283395,10.506715491167595,-0.9552531074497744,0.1748854223182728,-0.9400213810315614
2.0,-0.0527647138804093,1.2238977098008224,1.367589185617356,0.0363249295427625,0.1482416029402942,0.0174480678463637,-0.2214456425735463,-0.8703009385466788,0.1274619632612389,-0.0598912077984234,1.1979447746915632,1.37122667100493,-0.1964299515409761,-0.9664365995340378,0.1371009817133631,0.6673015550403123,0.595423499218542,-0.193217025137854,0.2311480113140578,10.562364168830754,-0.9554305516610164,0.1726081924315742,-0.9398446229345612
2.02,-0.0570750339208655,1.2063670627612155,1.370155099221571,0.0366781550376978,0.146971886599651,0.0175916111995419,-0.2102883666905711,-0.8817372355306295,0.1287641558535543,-0.0598912077984234,1.1979447746915632,1.37122667100493,-0.1964299515409761,-0.9664365995340378,0.1371009817133631,0.8015132553199338,0.5578637941487607,-0.5718148491975383,0.0651096296157713,10.61579771862489,-0.9572300296897563,0.1730614629979684,-0.9371955147304964
2.04,-0.0609712032986789,1.1895444280050336,1.3726218377626709,0.0335468097431106,0.1449834642298451,0.0174699028534845,-0.2004824873633089,-0.8880638515037037,0.1308721760973542,-0.0598912077984234,1.1979447746915632,1.37122667100493,-0.1964299515409761,-0.9664365995340378,0.1371009817133631,0.5929272476448018,0.4902939663631117,-0.3163307986537078,0.1054010121899942,10.417187259432469,-0.9578594535211148,0.175843983361734,-0.9360143606687144
2.06,-0.0648828976834715,1.1717597694988726,1.3752672498066494,0.0294381279200302,0.1424471396597575,0.0172934757422353,-0.1913162446412527,-0.8900155125411384,0.1335767611543984,-0.0618555073138332,1.1882804086962229,1.3725976808220637,-0.1890451193375879,-0.986436599832061,0.1399533774490441,0.4877083318323451,0.4583121361028092,-0.0975830518717357,0.1352292528522106,10.474609620370757,-0.9595094252123632,0.1798264209300522,-0.9331828120955642
2.08,-0.0686259427000803,1.1539663240179592,1.3779684586636698,0.026195262804844,0.1399212804625257,0.0172019252878503,-0.1835262236738652,-0.8895824061048745,0.1364086958240754,-0.0657841063446527,1.168951676705542,1.3753397004563308,-0.1742754549308114,-1.0264366004281076,0.1456581689204062,0.4150056078861708,0.3895010483693742,0.0216553218131965,0.1415967334838466,10.486967103522147,-0.961478015090709,0.1832402346431568,-0.9299815380128368
2.1,-0.0722273835945177,1.1361928676972504,1.3807278425863716,0.0243002137185272,0.1379139845313065,0.0172363605073841,-0.1770614180437054,-0.8881724420914834,0.139387325397591,-0.0697127053754722,1.1496229447148614,1.3780817200905982,-0.159505790524035,-1.066436601024154,0.1513629603917684,0.3628151888049384,0.3232402815079888,0.0704982006695553,0.1489314786757803,10.486248455535131,-0.962913368857335,0.1854273531800658,-0.9275756382773942
2.12,-0.0755376640948597,1.119340872775047,1.383407098463723,0.0239696188186159,0.1368826096490809,0.0174034637578888,-0.1716051414117742,-0.8860644805700286,0.1424864062823577,-0.072902821185953,1.1282942126943782,1.3811089792984337,-0.1447361261172586,-1.1064366016202003,0.1570677518631305,0.3309786956528283,0.272813831596562,0.1053980760727379,0.154954044238334,10.49223127985988,-0.964046279996018,0.1864680278224615,-0.925717808051193
2.14,-0.0789081555324772,1.101649436544698,1.3862939700935917,0.0255358138362762,0.1366803828037846,0.017739541332723,-0.1656537807429802,-0.8834044200080295,0.1460482042050447,-0.0760929369964337,1.106965480673895,1.3841362385062688,-0.1299664617104821,-1.1464366022162469,0.1627725433344926,0.3714196428759113,0.2975680334396977,0.1330030280999539,0.1780898961343494,10.505081508784317,-0.9644549283143424,0.185906716259298,-0.924894256428634
2.16,-0.0821531086647738,1.083995210397793,1.3892567041709056,0.0289037833458033,0.1371150679497794,0.018219670467989,-0.1590648617791858,-0.8826310019935334,0.1500583893551821,-0.078913811196745,1.084636748638511,1.3873061175008885,-0.1151967973037057,-1.1864366028122932,0.1684773348058547,0.3876003530538228,0.3294459481897202,0.0386709007248076,0.2005092575068701,10.520704651191409,-0.964905086236422,0.1838931724429057,-0.9243429713802072
2.18,-0.0852580711389493,1.0663214816408562,1.3923068789172983,0.0327063599236748,0.1378594985298288,0.0187402571839783,-0.1517209729501453,-0.8848298949783872,0.154752230760373,-0.0813654437868868,1.0613080165882256,1.3906186162822918,-0.1004271328969293,-1.2264366034083396,0.1741821262772168,0.4494440472106337,0.3671944414520248,-0.1099446492426881,0.234692070259547,10.545599562734424,-0.9647905096398148,0.1815182559265835,-0.924554346724369
2.2,-0.0880650257656732,1.0494731144100196,1.395297574319448,0.0359049142503193,0.1386028173841346,0.0192082543827862,-0.1441085164748363,-0.8884584043356595,0.1598224307948762,-0.0928441197864566,1.0220799868919368,1.4000444904553169,-0.1170314124175754,-0.9848298964685032,0.1395681142105831,0.4919921293429483,0.3806228237654502,-0.1814254678636162,0.2535100017251615,10.58761243358731,-0.9644696005012224,0.1793775869418549,-0.9248849984416468
2.22,-0.0908646805507597,1.0315890616438417,1.3984479860115775,0.0363324392003463,0.1389991424970011,0.0194839104750405,-0.1363706854686122,-0.898968314726288,0.1544413344291184,-0.0928441197864566,1.0220799868919368,1.4000444904553169,-0.1170314124175754,-0.9848298964685032,0.1395681142105831,0.7058477937868352,0.3868915503112066,-0.525495519531427,-0.2690548182878893,10.628200092592124,-0.9643764314258672,0.1807337304041755,-0.9232441608419608
2.24,-0.0935163101752107,1.0135445163714567,1.4014753103623807,0.0333979644024719,0.1388616323735017,0.0195128387155561,-0.1292197919132252,-0.9046452128972852,0.1486611987188723,-0.0928441197864566,1.0220799868919368,1.4000444904553169,-0.1170314124175754,-0.9848298964685032,0.1395681142105831,0.5403064415524089,0.3575446777693516,-0.2838449085498629,-0.2890067855123079,9.968858994805489,-0.9623754688779786,0.1825321740447877,-0.925619131094306
2.26,-0.0960304017990372,0.9954328998599792,1.4043901239559426,0.0297411919002518,0.1385176271832324,0.0194957223179305,-0.1225606756812661,-0.9062442878758828,0.1431015232984718,-0.0940144339106324,1.0122316879272517,1.4014401715974227,-0.1100935003110615,-1.0048298967665266,0.1365312909006251,0.4410523227410835,0.3329558115979528,-0.0799537489298729,-0.2779837710200225,10.004540975139207,-0.961010192235743,0.1852004526797768,-0.9268189723715043
2.28,-0.0982994725820177,0.9782216770398646,1.4070558910091848,0.0269938332103977,0.1382022008576484,0.019540999986101,-0.1166088497392423,-0.9056964858978028,0.1377713336125054,-0.0963550621589839,0.9925350899978816,1.4042315338816342,-0.0962176760980335,-1.044829897362573,0.1304576442807092,0.4004224055285842,0.2975912971011907,0.0273900989039954,-0.2665094842983231,10.002927921666924,-0.9598637957964934,0.187554599283846,-0.9277556195465532
2.3000000000000003,-0.1005683700265503,0.9601255084460348,1.4097524522399811,0.0253476590453794,0.1380289197374312,0.0196884878001815,-0.1105770665487415,-0.9041738208698828,0.1321563623488457,-0.0986956904073354,0.9728384920685116,1.407022896165846,-0.0823418518850055,-1.0848298979586195,0.1243839976607932,0.4190131845663775,0.301589159525039,0.0761332513960044,-0.2807485631829851,10.002927921666924,-0.9586086089145174,0.1888598775221574,-0.9289975204093316
2.32,-0.102717176471906,0.94206725827258,1.4123385128794652,0.0252989599098795,0.1380935607674015,0.0199590066990718,-0.1045738693003744,-0.901907514206552,0.1267327074196597,-0.1003425274450355,0.9511418941093392,1.4095105761190618,-0.0684660276719776,-1.124829898554666,0.1183103510408772,0.4200909302934972,0.3001598624183532,0.1133153331665415,-0.2711827464592961,10.004308340057833,-0.9570316991248772,0.1887567280689614,-0.9309030919475196
2.34,-0.1047452821858384,0.9240602362356456,1.414816506221627,0.0272728458442619,0.1384057145836934,0.0203788559420488,-0.0984879591864185,-0.899234091397472,0.1213262995763279,-0.1019893644827356,0.9294452961501668,1.4119982560722777,-0.0545902034589496,-1.1648298991507124,0.1122367044209612,0.4284120014650009,0.3042955056977943,0.1336711404539947,-0.2703203921665918,10.018235211316096,-0.9552545262264688,0.1870786972783328,-0.9332847867809428
2.36,-0.1065550712987915,0.9069830449639984,1.4170730736059574,0.0306797477563665,0.1388429036673591,0.0208872523646631,-0.0922929927965778,-0.8989428985680996,0.1164626530970275,-0.10328930591511,0.9067486981760932,1.4143340948599956,-0.0407143792459217,-1.2048298997467588,0.1061630578010453,0.3940731496522763,0.3097483194920383,0.0145596414686199,-0.2431823239650216,10.019977660536824,-0.9539150064871303,0.1840078894278147,-0.9354808308861368
2.38,-0.1083285013680329,0.8889813612747925,1.419352712324289,0.0345113734993137,0.1393199255423583,0.0214371650173867,-0.0853542938881044,-0.9012971267334072,0.1117727234571411,-0.1042423517421587,0.8830521001871185,1.4165180924822158,-0.0268385550328937,-1.2448299003428052,0.1000894111811293,0.4349809559735393,0.3469349454236665,-0.1177114082653807,-0.2344964819943201,10.0399320025399,-0.9521024675551854,0.1804679444810769,-0.9383920267988256
2.4,-0.1099587553849269,0.8709148971724572,1.42154409124916,0.0378698258118131,0.1397057037330379,0.0219471921812222,-0.0780110747901993,-0.9051668242694392,0.107620619223793,-0.1125962160624381,0.8439165049381222,1.424941348497146,-0.051405410473836,-1.0012971282235237,0.1128851314618422,0.4640511698746123,0.367160954895257,-0.1934848768016028,-0.2076052116674047,10.10896175914786,-0.9503670298369628,0.177284926463101,-0.9411651693461204
2.42,-0.1114039610594312,0.8526854939608655,1.4237130716501465,0.038104014894736,0.1390902534731375,0.0221981500816119,-0.0668491984754278,-0.916784109348696,0.1098463348961975,-0.1125962160624381,0.8439165049381222,1.424941348497146,-0.051405410473836,-1.0012971282235237,0.1128851314618422,0.8131768038584267,0.5580938157385736,-0.5808642539628317,0.1112857836202275,10.5338843200052,-0.9534393231197844,0.1767295933642231,-0.939079112080137
2.44,-0.112571957669704,0.8351927750445762,1.4258287531235048,0.0347689987516246,0.1367860222023392,0.0221307680179403,-0.0568115290287302,-0.9234340827280711,0.1127431769756458,-0.1125962160624381,0.8439165049381222,1.424941348497146,-0.051405410473836,-1.0012971282235237,0.1128851314618422,0.6192104809772476,0.5018834723348811,-0.332498668968767,0.1448421039724132,10.5338843200052,-0.9543862069600072,0.1799850712529536,-0.9372984234419668
2.46,-0.1136112500484566,0.8166997364062402,1.428108581447313,0.03041067365648,0.1329503523300815,0.0219739910431127,-0.047820887164927,-0.9254642799930216,0.1150554783212069,-0.1131102701671765,0.833903533655887,1.4260701998117644,-0.0446156337909823,-1.0212971285215466,0.1131076130627824,0.4751317700661222,0.4495320931901615,-0.1015098632475119,0.1156150672780575,10.517777371123884,-0.957144979214304,0.1844240806077,-0.9330627182437607
2.48,-0.1144923210879428,0.7981958132590427,1.430424556311907,0.0268634552710658,0.1281943512321065,0.0218730506180143,-0.0409291543732223,-0.925046624728507,0.1163884351948788,-0.1141383783766532,0.8138775910914164,1.4283279024410014,-0.0310360804252749,-1.0612971291175932,0.1135525762646629,0.3515934826589645,0.3445866395852353,0.0208827632257269,0.0666478436835954,10.45225878990459,-0.9604565164498392,0.1880664000049793,-0.9284340000743828
2.5,-0.1152620465840018,0.7797133193494723,1.4327580370010438,0.024683691486999,0.1232666552813444,0.0218846346536113,-0.0365330993154272,-0.923644705833104,0.1169036145221647,-0.1151664865861299,0.793851648526946,1.430585605070238,-0.0174565270595675,-1.1012971297136396,0.1139975394665433,0.2321426630313602,0.2198027528897545,0.0700959447701543,0.0257589663642907,10.38550335077889,-0.9634716727683332,0.190251950964506,-0.9245617661570534
2.52,-0.1159361423585913,0.7621866143163981,1.4349801987313722,0.0239997751121671,0.1192363808398141,0.0220192942634525,-0.0347419305983815,-0.921608198548174,0.1169873222484135,-0.1155156171273213,0.7718257059326732,1.432865555859569,-0.0038769736938601,-1.141297130309686,0.1144425026684238,0.1356710569532938,0.0895584358522817,0.1018253642464994,0.0041853863124406,10.33820960531375,-0.965910057388992,0.1911668625432091,-0.9216832516103538
2.54,-0.1166311788274455,0.7437839486445508,1.4373218959026046,0.0250926596289004,0.1165693878634131,0.0223261176592736,-0.0349711806188785,-0.9189693386462108,0.1171844515984944,-0.1158647476685126,0.7497997633384005,1.4351455066488998,0.0097025796718473,-1.1812971309057323,0.1148874658703043,0.1328062228845973,-0.0114625010248479,0.1319429950981498,0.0098564675040449,10.31514309064096,-0.9670797151715604,0.1904414999676285,-0.920573581205816
2.56,-0.1173407008128676,0.7254223063385906,1.439670840387376,0.0280022112677403,0.1161301902066549,0.0228098653220425,-0.0356946488769777,-0.9176374342632242,0.1177124818127652,-0.1158743893755613,0.7267738207292265,1.4374365815182777,0.0232821330375546,-1.2212971315017789,0.1153324290721847,0.0802525936197571,-0.0361734129049613,0.0665952191493346,0.0264015107135397,10.327819483038184,-0.9685438839921204,0.1885996075810099,-0.9192291681679214
2.58,-0.1180506222947566,0.7070559422415229,1.4420360577845417,0.0316484953443691,0.1174623722282557,0.0233903678238367,-0.0350468083896275,-0.9191927066590936,0.1187742295438185,-0.1155445422484673,0.7027478781051514,1.4397387804677029,0.036861686403262,-1.2612971320978252,0.1157773922740652,0.0995725585540506,0.0323920243675095,-0.0777636197934639,0.0530873865526651,10.34115747343185,-0.968307632191432,0.1861542408663621,-0.9199103607084358
2.6,-0.1186975060814397,0.6895596178783926,1.4443075566549977,0.0348234841819449,0.1196994679949872,0.023952531387819,-0.0329453731978319,-0.9223505265070302,0.120271396398231,-0.119802962714238,0.6610963069085682,1.4479747692617326,0.0005789511225584,-0.972418153151527,0.1179614478601835,0.2038955899921084,0.1050717595897844,-0.1578909923968363,0.074858342720626,10.369114869698931,-0.9667909650042004,0.183727767067263,-0.9219798714321708
2.62,-0.1193054888970457,0.6708516261335749,1.446721049668921,0.0305417758048328,0.1221468235226639,0.0240163705260093,-0.0279543372899897,-0.9451308032450684,0.1211107666257655,-0.119802962714238,0.6610963069085682,1.4479747692617326,0.0005789511225584,-0.972418153151527,0.1179614478601835,1.1667861737202,0.2495517953921094,-1.1390138369019145,0.0419685113767269,10.3999043371914,-0.9666783933877136,0.1875601863646321,-0.9217438511022692
2.64,-0.1198109570424571,0.6518667678653228,1.449154941878616,0.0185113322325462,0.1240975401101047,0.0235205015217609,-0.0228577974424094,-0.951046486217632,0.1222530506860471,-0.119802962714238,0.6610963069085682,1.4479747692617326,0.0005789511225584,-0.972418153151527,0.1179614478601835,0.3945720350082573,0.2548269923790112,-0.2957841486281698,0.0571142030140796,10.404395839524112,-0.9635324588126116,0.1975847915934285,-0.9232840183043816
