t,x,y,z,roll,pitch,yaw,v_x,v_y,v_z,ref_x,ref_y,ref_z,ref_v_x,ref_v_y,ref_v_z,a_com,a_x,a_y,a_z,thrust,wind_x,wind_y,wind_z
0.0,1.2670690755470655,1.7543392946885907,2.0399548756066697,0.0212518141864465,0.0995662834796608,0.0419007759062791,0.0026452498877353,0.0001171343336558,0.0070013342631953,1.267156200694874,1.7542432288524477,2.040164763325837,-0.0971632424742629,-0.1023362303156605,-0.093002444167563,0.3742651095335959,0.1322624943867655,0.0058567166827922,0.3500667131597674,10.249416208932416,-0.9427325968391144,0.2623061632540312,-0.8728062998291831
0.02,1.2672761424799228,1.7546264667059346,2.0398503796937093,0.0295580623692485,0.0933507345206752,0.0423174423200655,0.0167171155387519,0.0228758687833912,-0.0175207774252596,1.267156200694874,1.7542432288524477,2.040164763325837,-0.0971632424742629,-0.1023362303156605,-0.093002444167563,1.8147392087534917,0.7035932825508333,1.1379367224867716,-1.2261055844227506,8.846238447867108,-0.949909291203636,0.2606770881972098,-0.8611827087969365
0.04,1.267687151209108,1.7551013691045017,2.0392250050603287,0.0432973137196463,0.0779037606970648,0.0426655987595424,0.0245126083840759,0.0254102833304487,-0.0469947661840557,1.267156200694874,1.7542432288524477,2.040164763325837,-0.0971632424742629,-0.1023362303156605,-0.093002444167563,1.529631474531913,0.3897746422661982,0.1267207273528728,-1.4736994379398027,8.846238447867108,-0.949804197948832,0.2457930720726697,-0.8670122161620502
0.06,1.2681713647152746,1.7555751843091714,2.0379593602175428,0.058124362262658,0.0556620932773603,0.042463114919268,0.0224627759016295,0.0214328507508479,-0.0780087437720794,1.2661845682701314,1.753219866549291,2.039234738884162,-0.1171632427722861,-0.1223362306136837,-0.1130024444655862,1.5667550773507986,-0.1024916241223205,-0.1988716289800403,-1.5506988794011882,8.548358828048094,-0.9571156385392372,0.227897244467605,-0.8683621783563209
0.08,1.26850881811627,1.755927292381733,2.036083430818871,0.0723817054042626,0.0314071018671887,0.0416995479282776,0.0107475096440089,0.0136342552127235,-0.1081002863363205,1.264241303420646,1.7511731419429777,2.0373746900008105,-0.1571632433683326,-0.1623362312097302,-0.1530024450616326,1.660998562423918,-0.585763312881031,-0.389929776906217,-1.5045771282120537,8.548358828048094,-0.9692228952565298,0.2080947751661063,-0.8674256426207614
0.1,1.268532693925834,1.756086894860615,2.033751426954704,0.0853024794190521,0.0092596783726479,0.0406250289923768,-0.0079240854061172,0.0032834379698993,-0.1359436219588186,1.2622980385711609,1.7491264173366643,2.035514641117459,-0.197163243964379,-0.2023362318057767,-0.1930024456576791,1.754294172806626,-0.933579752506309,-0.5175408621412115,-1.3921667811249032,8.618634939784442,-0.9832952707223878,0.1894368713670436,-0.8639301097834794
0.12,1.2681122867520624,1.756013065533045,2.0307283341491305,0.0982691764368829,-0.011332458021359,0.0393344752534802,-0.0333993614390671,-0.010429534434215,-0.1649405359484965,1.2583547736918732,1.745079692700549,2.0316545922043057,-0.2371632445604254,-0.2423362324018231,-0.2330024462537256,2.048082226154368,-1.2737638016474957,-0.6856486202057182,-1.4498456994838953,8.705420845613844,-0.997903511418043,0.1690671896624857,-0.8616562121403393
0.14,1.2671322619389345,1.755636613661723,2.027121832919617,0.1106129242945922,-0.0281304432094392,0.0380778593945178,-0.0634048898837429,-0.0268139099774428,-0.1943239737941623,1.2544115088125856,1.7410329680644334,2.027794543291152,-0.2771632451564719,-0.2823362329978696,-0.2730024468497721,2.2539775502519315,-1.5002764222337897,-0.8192187771613942,-1.4691718922832913,8.778895551941787,-1.0105086141681472,0.1481203877041244,-0.8625509660502382
0.16,1.2655118144969348,1.7549053015012348,2.022925853620743,0.1223519284183116,-0.0404537365218485,0.03704907896619,-0.0968689257803831,-0.0457540848068807,-0.2238375422693264,1.2494682439183968,1.7359862434134168,2.0229344943630974,-0.3171632457525183,-0.322336233593916,-0.3130024474458185,2.423645315015943,-1.673201794832007,-0.947008741471893,-1.475678423758206,8.814742039489374,-1.0204249059703538,0.1298023127331155,-0.8639375102974438
0.18,1.263329076577529,1.7538368187243056,2.018394412647518,0.1329554954241731,-0.0477076949198586,0.0364352844353026,-0.1311235973592231,-0.0659839856560624,-0.2517213975090427,1.243524979009307,1.729939518747499,2.017074445420141,-0.3571632463485648,-0.3623362341899624,-0.3530024480418649,2.429064015403549,-1.7127335789420022,-1.0114950424590832,-1.3941927619858143,8.8655565081217,-1.0273176829774764,0.1123489727867715,-0.8673539820511318
0.2,1.260311530895245,1.752273876193933,2.013051517932725,0.1435437141765969,-0.0501313306978086,0.0363627348923531,-0.168420045704991,-0.089478291017495,-0.2810612339967069,1.2567728967095677,1.7505376194415023,2.005808342772066,-0.2311235988493392,-0.1659839871461785,-0.3517213989991589,2.647561825882279,-1.8648224172883947,-1.174715268071632,-1.466991824383207,8.92961093146232,-1.0321727144004655,0.0952781970000361,-0.8730342812614711
0.22,1.256522093841625,1.7500497410800038,2.007228747121732,0.148796935438714,-0.0463433006831937,0.0367892588149923,-0.2081128587775341,-0.1297297291875709,-0.2986084359416826,1.2567728967095677,1.7505376194415023,2.005808342772066,-0.2311235988493392,-0.1659839871461785,-0.3517213989991589,2.9595616146944144,-1.9846406536271524,-2.012571908503793,-0.877360097248786,8.963923956490817,-1.0367037763880294,0.0827945925187566,-0.8784906360832477
0.24,1.2519856866784214,1.7470858931098083,2.001091541859217,0.1477192063382726,-0.0369070855617347,0.0376087430761788,-0.2427878328897907,-0.1638750904722575,-0.3140690834180532,1.2567728967095677,1.7505376194415023,2.005808342772066,-0.2311235988493392,-0.1659839871461785,-0.3517213989991589,2.553082033217914,-1.7337487056128296,-1.7072680642343323,-0.7730323738185302,9.746938356735429,-1.0357745532040636,0.0809089507753484,-0.8829801359765764
0.26,1.24708622105112,1.7436766745551624,1.994965336497946,0.1434668193248117,-0.0250690750003605,0.0385482565195235,-0.2707352882497108,-0.1923552818927751,-0.3298189299289737,1.254461660721074,1.7488777795700408,2.0022911287820744,-0.2511235991473625,-0.1859839874442017,-0.3717213992971821,2.144900481118884,-1.3973727679960066,-1.4240095710258804,-0.7874923255460242,9.592957307937468,-1.0300726265061662,0.0813675508016806,-0.893104114444739
0.28,1.24140747991874,1.7395586313473457,1.9881808072505864,0.137840058048647,-0.0114034370855428,0.0395545456946294,-0.2952129597606697,-0.2176621231431276,-0.3478591417615996,1.2498391887440872,1.7455580998271172,1.9952567008020912,-0.2911235997434089,-0.2259839880402482,-0.4117213998932285,1.97803049751196,-1.223883575547946,-1.2653420625176215,-0.9020105916312944,9.592957307937468,-1.0219857939388262,0.0837206254095052,-0.9045755156282184
0.3,1.2352865176923995,1.734965095421673,1.981014801299655,0.1321954775564069,0.0021296194058778,0.0404540018060941,-0.3153256871041904,-0.2402885479779768,-0.3679348623020865,1.2452167167671004,1.7422384200841936,1.988222272822108,-0.3311236003394554,-0.2659839886362947,-0.451721400489275,1.8162540139127128,-1.005636367176035,-1.1313212417424623,-1.0037860270243448,9.4389023603062,-1.0122165761614124,0.0856135682269907,-0.9181301764222216
0.32,1.2288037054765697,1.7299411965830551,1.9734230040624217,0.1269814155760093,0.0145778437165857,0.0411590544918587,-0.3317792587960091,-0.2609659617597243,-0.3902660773030342,1.238594244760311,1.7369187403114676,1.9791878448123223,-0.3711236009355018,-0.3059839892323411,-0.4917214010853214,1.7298544921018442,-0.8226785845909357,-1.0338706890873726,-1.1165607500473878,9.300401644025442,-1.0021114790643573,0.0867490346604342,-0.9319432768400936
0.34,1.2223685584066442,1.7247993328609774,1.9657833551611252,0.1225835237095695,0.0248790351589033,0.0416115907215567,-0.3447176440513874,-0.2793014283335508,-0.4128315840530399,1.2319717727535222,1.7315990605387417,1.970153416802537,-0.4111236015315483,-0.3459839898283876,-0.5317214016813679,1.5912206339639443,-0.6469192627689108,-0.9167733286913254,-1.1282753375002812,9.177301096023257,-0.99179666085378,0.0875176412269018,-0.9457767754793632
0.36,1.2153469758436724,1.719013914310988,1.9572643003568508,0.1183560525841964,0.0339852196920168,0.0418516127416189,-0.3566708238039682,-0.2981826058912181,-0.4379630999238786,1.224349300731832,1.7252793807511146,1.9601189887778503,-0.4511236021275948,-0.385983990424434,-0.5717214022774143,1.681495214182817,-0.5976589876290406,-0.9440588778833664,-1.2565757935419364,9.104549050651258,-0.9819988152074736,0.0875788012211814,-0.9592151332499916
0.38,1.2080999988496572,1.712856909641413,1.9482310190955276,0.114286429143721,0.0414646918244045,0.0418677541207366,-0.3673729286034435,-0.3164491464075223,-0.4641585378346876,1.2157268286952407,1.7179597009485863,1.9490845607382623,-0.4911236027236412,-0.4259839910204804,-0.6117214028734608,1.6840446230072,-0.5351052399737655,-0.9133270258152082,-1.3097718955404514,9.041532325399205,-0.9732679372735936,0.0874088043687288,-0.9715059817209244
0.4,1.2006492513217215,1.7063425917340929,1.938663581622259,0.1102740906248065,0.0475117750422946,0.0416897651560443,-0.3771589898363583,-0.3339327132575717,-0.4912853239332333,1.189731352419485,1.697034452321037,1.925023092203793,-0.4673729300935596,-0.4164491478976384,-0.5641585393248038,1.6861973700391348,-0.4893030616457433,-0.8741783425024713,-1.3563393049272845,8.99821123961192,-0.9662458508781332,0.087332959407556,-0.981672332160443
0.42,1.193425491700116,1.6998338973862563,1.929268162272255,0.1070539566545401,0.0514792107476088,0.0413421287687977,-0.3829269144010161,-0.3505823149722123,-0.4964085087688171,1.189731352419485,1.697034452321037,1.925023092203793,-0.4673729300935596,-0.4164491478976384,-0.5641585393248038,0.9175036974030408,-0.2883962282328872,-0.8324800857320291,-0.2561592417791886,8.960441339419049,-0.9675621497490596,0.08810228796706,-0.9825800235019996
0.44,1.185707957162213,1.6926518246514908,1.919250899500324,0.1047163299493858,0.0532923839562612,0.0407816892291253,-0.3886509502389887,-0.3669516210150926,-0.5053922197509713,1.189731352419485,1.697034452321037,1.925023092203793,-0.4673729300935596,-0.4164491478976384,-0.5641585393248038,0.9765063102852302,-0.2862017918986326,-0.8184653021440141,-0.4491855491077084,10.172367054606184,-0.9649098429959,0.0884371081595897,-0.9864276159680214
0.46,1.1778705120489434,1.68513983157318,1.9090051819897809,0.1031486983490176,0.0528605983210058,0.0400314418779311,-0.3949187018634783,-0.383448973532969,-0.5189087688199236,1.1850576231185497,1.6928699608420603,1.9193815068105449,-0.4873729303915828,-0.4364491481956616,-0.5841585396228269,1.1114680036541458,-0.3133875812244779,-0.8248676258938215,-0.6758274534476194,9.650201137453225,-0.9643159365567014,0.0876453467328446,-0.988807819639984
0.48,1.1699008600885743,1.6773016781016952,1.8984502744285785,0.1020443705064468,0.0503891761027231,0.0390980249113115,-0.4018815469328848,-0.3995676442308087,-0.5358927366325148,1.175710164516678,1.6845409778841078,1.9080983360240489,-0.5273729309876293,-0.4764491487917081,-0.6241585402188734,1.2214212205307056,-0.3481422534703238,-0.8059335348919866,-0.8491983906295575,9.48162545658488,-0.9656413409604048,0.0862487870045937,-0.9895576052491012
0.5,1.1621907755111252,1.669560421624116,1.888085660240252,0.1014042004703637,0.0463046118543808,0.0380587948681738,-0.4095543369669581,-0.4145236387219223,-0.5542699693710598,1.166362705914807,1.6762119949261551,1.896815165237553,-0.5673729315836757,-0.5164491493877545,-0.6641585408149199,1.245267201499183,-0.3836395017036642,-0.7477997245556783,-0.9188616369272484,9.48162545658488,-0.9683880985017584,0.08397895629852,-0.9895292249615268
0.52,1.1538952910487448,1.6611089164158015,1.8767790398672688,0.1012661329692492,0.04065660443727,0.0368602742416248,-0.4198846217918007,-0.429876401024966,-0.5755142392526373,1.1550152472831334,1.6658830119384,1.8835319944212543,-0.6073729321797222,-0.556449149983801,-0.7041585414109663,1.4086705591598032,-0.5165142412421331,-0.7676381151521833,-1.0622134940788786,9.35946331512605,-0.9732422772877404,0.0816060646828655,-0.9870122875940752
0.54,1.1453671423211091,1.6523497794536366,1.8650406957003427,0.1017609997257376,0.0344359664302105,0.0356388222937544,-0.4326255604653162,-0.4453201603177416,-0.597266039859205,1.14366778865146,1.655554028950645,1.870248823604956,-0.6473729327757687,-0.5964491505798475,-0.7441585420070128,1.4781593697935236,-0.637046933675775,-0.7721879646387819,-1.0875900303283836,9.24492241182088,-0.9797952142414464,0.078946425553223,-0.982499703266682
0.56,1.1365565305697969,1.643267683342214,1.8528650598301588,0.1025253779260697,0.0284590841476013,0.0344485429179824,-0.4478853630009226,-0.4620352748851093,-0.6191930644682332,1.1313203300048853,1.6442250459479888,1.8559656527737567,-0.687372933371815,-0.6364491511758938,-0.7841585426030592,1.575635615101769,-0.7629901267803163,-0.8357557283683842,-1.096351230451409,9.24492241182088,-0.9862081948603172,0.0761946044216166,-0.97798001384712
0.58,1.127882284919959,1.634319493878396,1.840890136088918,0.102974074813627,0.0236928047478445,0.0333818356252487,-0.4645125997443747,-0.4789166269942211,-0.6402136851039739,1.1179728713434096,1.631896062930431,1.840682481927656,-0.7273729339678615,-0.6764491517719403,-0.8241585431991056,1.5837546706058585,-0.8313618371726061,-0.8440676054555923,-1.0510310317870364,9.249494422046157,-0.9922525092040252,0.0735476546451404,-0.9738586927377452
0.6,1.118389179174358,1.6245480775407592,1.8278479000555508,0.1027633349229387,0.0203734425108007,0.0323806728818631,-0.4840444006601812,-0.4972443774902627,-0.6629184225862693,1.1046566549327403,1.610373662528685,1.8088794518337197,-0.5645126012344908,-0.5789166284843372,-0.6924163345185133,1.755635774726495,-0.9765900457903236,-0.9163875248020786,-1.13523687411477,9.252294608524608,-0.9968183761446746,0.0716040200578204,-0.9710702171267356
0.62,1.108473984347215,1.614318342319245,1.814712678338092,0.0999784967999655,0.0202847307982735,0.0315310306099213,-0.5060185267451681,-0.5236865341088617,-0.6492858730740405,1.1046566549327403,1.610373662528685,1.8088794518337197,-0.5645126012344908,-0.5789166284843372,-0.6924163345185133,1.849254086141754,-1.0987063042493472,-1.3221078309299472,0.6816274756114404,11.468111113809757,-1.0054058631264715,0.0715219008101094,-0.9645394273388436
0.64,1.0986659079462822,1.6041588910971771,1.8024843989697772,0.0951563421081797,0.0232580554808582,0.0308759041664017,-0.5249614247469819,-0.5439011143565647,-0.6385916769367552,1.1046566549327403,1.610373662528685,1.8088794518337197,-0.5645126012344908,-0.5789166284843372,-0.6924163345185133,1.484779840852404,-0.9471449000906906,-1.0107290123851531,0.5347098068642642,11.468111113809757,-1.0064997362591208,0.0768720353079393,-0.9614056587505254
0.66,1.0879786108546488,1.5930905264557944,1.78978524721929,0.0895968448110343,0.0283399415435328,0.0303240778601678,-0.5424701942862611,-0.5616343738258218,-0.6320808091476614,1.0990115289203954,1.6045844962438418,1.8019552884885344,-0.5845126015325139,-0.5989166287823604,-0.7028568644014211,1.2878440332107814,-0.8754384769639578,-0.8866629734628539,0.3255433894546911,11.114022996742278,-1.0047874620017336,0.0822561104926205,-0.9616389671675816
0.68,1.0769655625897303,1.5816938738249655,1.7771661222556243,0.0841806153202448,0.0344626933948733,0.02985281604071,-0.5577097680146792,-0.5770051752735752,-0.6303369322762428,1.0877212768957056,1.593006163674155,1.788106961798164,-0.6245126021285604,-0.6389166293784069,-0.7237379241672368,1.0857569377084562,-0.7619786864209055,-0.768540072387669,0.0871938435709318,10.770935412525432,-1.0009537842440737,0.0869844013430696,-0.964684155479146
0.7000000000000001,1.0662410145565582,1.5706014503690164,1.7651670718859422,0.0794249095348727,0.0406006344033956,0.029436560335488,-0.5702556007413652,-0.5898346361416759,-0.6327832421127126,1.0764310248710158,1.5814278311044685,1.7742586351077938,-0.6645126027246069,-0.6789166299744533,-0.7446189839330526,0.905507339545241,-0.6272916363342984,-0.6414730434050331,-0.1223154918234936,10.232901545817183,-0.9965829214653846,0.0906841692383618,-0.9688799958649328
0.72,1.054714175523553,1.5586782230091942,1.7524536300635123,0.0749905294857712,0.0468859430867152,0.0290029516561539,-0.5816143816950098,-0.6018124901632238,-0.6385848934075221,1.0631407728165236,1.5678494985049791,1.7593662554291327,-0.7045126033206534,-0.7189166305704998,-0.7655000436988684,0.8748572018634762,-0.567939047682231,-0.598892701077397,-0.2900825647404736,10.232901545817183,-0.9918068734735728,0.0937240664094558,-0.973915740784515
0.74,1.0429778625028436,1.5465269593408393,1.7396062177854743,0.0712164296688367,0.0526094496246276,0.0285567659878544,-0.5913426354778273,-0.6127514801689523,-0.6459239785477744,1.0498505207620314,1.5542711659054902,1.7444738757504716,-0.7445126039166998,-0.7589166311665463,-0.786381103464684,0.8187835408461185,-0.4864126891408749,-0.5469495002864255,-0.3669542570126138,9.964434140527374,-0.9873145913522756,0.0960292618567003,-0.9788623739416036
0.76,1.031057004442898,1.5341576500976866,1.7265993635792034,0.0678463451137381,0.0576746434946155,0.0280810012951069,-0.6001767248491395,-0.6235525946533317,-0.6543928348752787,1.0355602686926382,1.5396928332911,1.729059469577665,-0.7845126045127462,-0.7989166317625926,-0.8072621632304998,0.816129181902153,-0.4417044685656124,-0.5400557242189685,-0.4234428163752135,9.964434140527374,-0.9831526094725266,0.0977052780653637,-0.9836706501598916
0.78,1.0195758726636748,1.522211402719804,1.714076912179351,0.0647798029847689,0.0619768338896696,0.0275972175203811,-0.6078563571255348,-0.633314543902047,-0.6633364702084197,1.0202700166083438,1.5241145006618084,1.713123036910713,-0.8245126051087927,-0.8389166323586391,-0.8281432229963155,0.7652793901696189,-0.3839816138197616,-0.4880974624357659,-0.447181766657051,9.912133768842068,-0.979140657739212,0.0993154910969404,-0.988385511680642
0.8,1.0073402006331404,1.5094439211511903,1.7007019800635397,0.0616688082593677,0.0660312299379295,0.0270610725601601,-0.6152367169174374,-0.6428395046272171,-0.673733733069469,0.989183054807398,1.4905456755247015,1.68091008866893,-0.7078563586156509,-0.7333145453921631,-0.6526599437438978,0.7957663954888425,-0.3690179895951329,-0.4762480362585031,-0.5198631430524681,9.8634406074234,-0.9753992872720044,0.1007498789507988,-0.9929145572135618
0.8200000000000001,0.9950099272613344,1.4964527167365456,1.6874640043304483,0.0580502252479862,0.0689306549609097,0.0264175767090356,-0.6175849139305003,-0.6552630155703082,-0.6495212002346282,0.989183054807398,1.4905456755247015,1.68091008866893,-0.7078563586156509,-0.7333145453921631,-0.6526599437438978,1.3657455835948245,-0.117409850653144,-0.6211755471545566,1.2106266417420408,9.808895600780488,-0.9777891249811708,0.1029005928730671,-0.9909490637530296
0.84,0.9832532673723376,1.4839071135576578,1.675332823788764,0.0543552159629417,0.0702107079570501,0.0257064270501073,-0.6199732641467985,-0.6646341594186246,-0.6287504268291694,0.989183054807398,1.4905456755247015,1.68091008866893,-0.7078563586156509,-0.7333145453921631,-0.6526599437438978,1.1455867291943098,-0.119417510814912,-0.4685571924158194,1.0385386702729429,11.677794897225796,-0.976814879637364,0.1067679226910075,-0.9904913002245196
0.86,0.9708258403725676,1.4705299385244934,1.6629536378781156,0.0508786489968428,0.0702030901422212,0.0249236064596853,-0.6227556762400215,-0.6726290675136202,-0.6104224499143301,0.9821044912212414,1.48321253007078,1.674383489231491,-0.7278563589136741,-0.7533145456901863,-0.6505246384509934,1.0094244774806322,-0.139120604661147,-0.3997454047497795,0.9163988457419614,11.677794897225796,-0.9775232910278616,0.1101799550461438,-0.9885004614245576
0.88,0.9583384676702136,1.4570052066586356,1.650907257110236,0.0481037650999375,0.0688278676587976,0.0241356596536204,-0.6259351063917268,-0.6795383056244112,-0.5952564891831121,0.9679473640489284,1.4685462391629365,1.6613302903566132,-0.7678563595097205,-0.7933145462862328,-0.6462540278651847,0.8483111343458051,-0.1589715075852649,-0.3454619055395513,0.7582980365609004,11.245157938094962,-0.9797762913087222,0.1126810120583141,-0.9853820882852986
0.9,0.9457828467612908,1.44335058780445,1.6391365884830604,0.0461030524250441,0.0659928279076791,0.0233494699052886,-0.6296118976036306,-0.6857727233436863,-0.5825528599866509,0.9537902368766156,1.4538799482550933,1.6482770914817353,-0.807856360105767,-0.8333145468822792,-0.6419834172793759,0.7310419835336549,-0.1838395605951892,-0.3117208859637566,0.6351814598230643,11.245157938094962,-0.9834443846092008,0.1143635451161191,-0.9809944882433173
0.92,0.9337790034383082,1.430268940220197,1.62817463949328,0.044946638776224,0.0618828110711733,0.0226058316659103,-0.63392107079689,-0.6910550625279899,-0.5719605605176412,0.9376331096745,1.4372136573174477,1.6354374231361477,-0.8478563607018135,-0.8733145474783257,-0.6377128066935671,0.6298191980813143,-0.2154586596629704,-0.2641169592151771,0.5296149734504818,11.101810417761044,-0.9886710679610644,0.1153024583715655,-0.9752081056180402
0.94,0.9210409342673104,1.4163967636046406,1.6168561306283005,0.044777381137152,0.0561296770534675,0.02184582795093,-0.6400077971655691,-0.6959932805158595,-0.560424579947782,0.9214759824723848,1.420547366379802,1.62259775479056,-0.8878563612978599,-0.9133145480743722,-0.6334421961077584,0.6973397351561526,-0.3043363184339565,-0.2469108993934821,0.576799028492958,11.003101145142864,-0.9948714235985336,0.1150174291927035,-0.9688137776804836
0.96,0.9081485956041292,1.4024186668096288,1.6057732762133807,0.0456722175201257,0.0496741372380521,0.0211343611842906,-0.649172601948542,-0.7016350148138158,-0.5484114165583422,0.9043188552553684,1.4028810754272554,1.609864851709618,-0.9278563618939064,-0.9533145486704184,-0.6291715855219496,0.806441112574434,-0.458240239148644,-0.2820867148978168,0.6006581694719904,11.062096493844365,-1.0019705803601355,0.1137776143404458,-0.9615340289154832
0.98,0.8950423817608096,1.3883188018382349,1.5949362918562224,0.0473113864670038,0.0435039809624565,0.0204861077928557,-0.6611187864789426,-0.7081055909736054,-0.5358779766614656,0.8861617280234506,1.3842147844598076,1.5972387138933208,-0.9678563624899528,-0.9933145492664648,-0.6249009749361409,0.9242115508943805,-0.5973092265200319,-0.323528807989476,0.6266719948438304,11.062096493844365,-1.0089780216713684,0.112137811535507,-0.9541386645632104
1.0,0.8823450212097695,1.3747941023410306,1.5848762444349132,0.0492704639128877,0.038642091932076,0.0199407076851748,-0.6749602866505333,-0.7152551283504207,-0.5236973679408203,0.8619864424368625,1.3529135222895543,1.568142393023149,-0.731873664701885,-0.8081055924637215,-0.4901619405503492,0.988774798055762,-0.6920750085795346,-0.357476868840767,0.6090304360322651,11.097705957287872,-1.015386261716671,0.109970546741973,-0.9474316494565208
1.02,0.8685928522505196,1.3603269319745483,1.574656330224341,0.049324111444872,0.0381504836070843,0.0194554574424287,-0.6991558108726114,-0.7305490280913334,-0.4981895275686857,0.8619864424368625,1.3529135222895543,1.568142393023149,-0.731873664701885,-0.8081055924637215,-0.4901619405503492,1.9170137467664088,-1.2097762111039023,-0.7646949870456332,1.2753920186067302,11.12755147248663,-1.0170200936655394,0.1083520066489659,-0.947208552832833
1.04,0.8543901703271191,1.345578853681021,1.5649729282267266,0.0461770749801547,0.0442730370986452,0.0190766815327412,-0.7191040006171963,-0.7430032954287454,-0.4714486194144599,0.8619864424368625,1.3529135222895543,1.568142393023149,-0.731873664701885,-0.8081055924637215,-0.4901619405503492,1.7805302706710937,-0.9974094872292448,-0.6227133668706031,1.3370454077112903,12.064272851046551,-1.0171163939292218,0.1122845759124005,-0.9448187132023724
1.06,0.8398456156367448,1.330630914277523,1.5558023913029264,0.041804939891978,0.0542946341792798,0.0187754140841901,-0.7336954389197619,-0.7509420624246046,-0.4468931329844488,0.8546677057898436,1.3448324663649174,1.5632407736176457,-0.7460246403464734,-0.8281055927617447,-0.4810187333281259,1.482317448260139,-0.7295719151282798,-0.3969383497929579,1.2277743215005548,12.064272851046551,-1.0123578281299088,0.116884458009083,-0.9478286386224318
1.08,0.8258093968144072,1.3163143014905268,1.5475204177391413,0.0379746444505194,0.0655096749287324,0.0185538051814004,-0.7426444339661682,-0.7557938145306413,-0.4261197578728221,0.840030232495806,1.3286703545156429,1.5534375348066385,-0.7743265916356504,-0.8681055933577911,-0.4627323188836794,1.1566731651242177,-0.4474497523203169,-0.2425876053018361,1.0386687555813372,11.844846122463425,-1.004786238268184,0.1213893830942055,-0.953790782553038
1.1,0.8109009446042491,1.3011616128820045,1.5392063345587903,0.0348288506820036,0.0775458091403391,0.0183635290299995,-0.7473477118670052,-0.7593712726722381,-0.4065081004582839,0.8253927592017682,1.3125082426663686,1.5436342959956315,-0.8026285429248273,-0.9081055939538376,-0.4444459044392328,1.0241290645135843,-0.2351638950418511,-0.1788729070798411,0.9805828707269064,11.633803726352198,-0.9959910963408948,0.124952498186942,-0.9612198116376588
1.12,0.7959440177639235,1.285948180138078,1.531257807157128,0.032777514926733,0.0886078150024393,0.0181999682680855,-0.7479387497318166,-0.7620861162909393,-0.3893579941376772,0.8093401883432717,1.294346130787292,1.5347453779068467,-0.8309304942140042,-0.948105594549884,-0.4261594899947862,0.8686855709054903,-0.0295518932405702,-0.1357421809350556,0.8575053160303381,11.475734360773458,-0.98755127205766,0.1272917094578099,-0.9685333060927912
1.14,0.7810115119365988,1.2706881287982918,1.5236391683526105,0.0318798728524764,0.0978937650960728,0.0180571782019946,-0.7452468656868879,-0.7639923746216601,-0.3734004769733315,0.793287617484775,1.2761840189082152,1.5258564598180622,-0.8592324455031812,-0.9881055951459304,-0.4078730755503397,0.8147429266111639,0.1345942022464352,-0.0953129165360444,0.7978758582172812,11.33597468136668,-0.9794238978017202,0.128608563950418,-0.9756505990881976
1.16,0.7668958969643441,1.25615341563292,1.51669029010963,0.0321017541858976,0.1047473567227197,0.017943135401486,-0.74077952373721,-0.765977085340414,-0.3588835107235197,0.7765274978440492,1.2570219070142372,1.5174247020903886,-0.8875343967923581,-1.028105595741977,-0.3895866611058931,0.7658957661305213,0.2233670974838952,-0.0992355359376917,0.7258483124905901,11.253788233668274,-0.9727973745427904,0.1287264530856731,-0.9814839196929964
1.18,0.7521425698629349,1.240810214656498,1.5096725948894023,0.0333489691161198,0.1098955700659629,0.0178431343118263,-0.7348121161672818,-0.7683220581594361,-0.3436622773806461,0.7590598294210937,1.2368597951053582,1.5094501047238262,-0.915836348081535,-1.0681055963380233,-0.3713002466614465,0.8258250345954011,0.2983703784964098,-0.1172486409511064,0.7610616671436837,11.253788233668274,-0.9680044759911898,0.1278515084448153,-0.98562204565714
1.2,0.7375171997067882,1.22541323676968,1.5029601080519612,0.0355119134557921,0.1130386796145126,0.017756943074521,-0.7281015951040546,-0.7713590694918635,-0.3283503449642004,0.7154019640545708,1.2023941117485264,1.49248948102037,-0.7349317981976267,-0.8683220596495522,-0.2776114573280223,0.8495731356085667,0.3355260531613613,-0.1518505666213698,0.7655966208222842,11.26456132741896,-0.9651167238152744,0.1261428448457287,-0.987968461607715
1.22,0.7236683654586555,1.210652943088916,1.496886795616531,0.036099585068972,0.1170899976232285,0.0176256360738109,-0.7293020623288826,-0.7813393191654265,-0.3116827154059722,0.7154019640545708,1.2023941117485264,1.49248948102037,-0.7349317981976267,-0.8683220596495522,-0.2776114573280223,0.9732116678745456,-0.0600233612414013,-0.4990124836781517,0.8333814779114074,11.279379670383603,-0.9581216868064716,0.1244842443685834,-0.9957178600078076
1.24,0.709106258656635,1.194945367329934,1.4908500361777983,0.0343554005989881,0.1242684078440663,0.0174345949085036,-0.7263486053685831,-0.7887518780111895,-0.2928308386090957,0.7154019640545708,1.2023941117485264,1.49248948102037,-0.7349317981976267,-0.8683220596495522,-0.2776114573280223,1.0235504328352008,0.1476728480149736,-0.3706279422881486,0.9425938398438248,11.492947612326134,-0.9536627156092656,0.1268446861070736,-0.9986107229626516
1.26,0.6946440906259418,1.1791145308385569,1.485192550395658,0.0315390582486017,0.1328084677292783,0.0172110334204913,-0.7196469720156409,-0.7937630596739086,-0.2738877688603044,0.7080526460725945,1.1937108911520309,1.4897133664470896,-0.7349557346036957,-0.8883220599475754,-0.2644012933174976,1.035451257618643,0.3350816676471135,-0.2505590831359539,0.9471534874395644,11.544376719957654,-0.9466385803302312,0.1298549656605314,-1.004013038805423
1.28,0.6810585126967782,1.164010402237119,1.4801655206864064,0.0290294890045049,0.1413521814185808,0.0170144992482136,-0.7104713233456451,-0.7960598014897263,-0.2562557685637909,0.693354010108642,1.17634444995904,1.4841611373005292,-0.7350036074158336,-0.928322060543622,-0.237980965296448,1.0004436340193952,0.4587824334997881,-0.1148370907908868,0.8816000148256758,11.537049496549116,-0.938040270729068,0.132899013304069,-1.0107307566707926
1.3,0.6669838128277411,1.1480788052277573,1.4752334008246395,0.0272846374241374,0.1499932171364299,0.0168547623750337,-0.6972456544095911,-0.7971492646136711,-0.2379239288647478,0.6786553741446895,1.1589780087660488,1.4786089081539688,-0.7350514802279715,-0.9683220611396685,-0.2115606372753986,1.131549375254956,0.6612834468027018,-0.0544731561972378,0.9165919849521544,11.51875888190716,-0.9296862281175428,0.1352277893973704,-1.017065199671496
1.32,0.6532089412570151,1.1321355749144115,1.4706648502537916,0.026856762552452,0.157346611338209,0.0167560341291414,-0.6807978608830538,-0.797262633935231,-0.2198839420524055,0.66395434454013,1.1396115675432554,1.4743776954084609,-0.7350993530401094,-1.0083220617357147,-0.1851403092543491,1.2206390628315942,0.8223896763268623,-0.0056684660779959,0.901999340617117,11.51995224858365,-0.9219376962097572,0.136310013093069,-1.0229049914952557
1.34,0.6397912767039622,1.1161986580301642,1.4664592766716964,0.0282262981319403,0.1626915182831693,0.0167426403697386,-0.6619064980361286,-0.7967272031151671,-0.2015996905311541,0.6492533149355706,1.120245126320462,1.470146482662953,-0.7351472258522473,-1.0483220623317613,-0.1587199812332995,1.314804291586439,0.9445681423462636,0.0267715410031954,0.9142125760625702,11.521822469319886,-0.9159614210858188,0.135742204399709,-1.0273516629656432
1.36,0.6274088601268549,1.1010561394934006,1.4628092825745456,0.0310958020343787,0.1656482438933846,0.0167959258870612,-0.6426252818469204,-0.7976226710702817,-0.1835366606503569,0.6345510885107077,1.0998786850827675,1.4665757781179714,-0.7351950986643854,-1.0883220629278076,-0.1322996532122501,1.3217793018013566,0.9640608094604096,-0.0447733977557318,0.9031514940398584,11.558680842031208,-0.9119105063764325,0.1335775368616449,-1.0301828027740731
1.38,0.6147769287093862,1.0850675032926511,1.4593502713560471,0.0347013928633871,0.1665266774472368,0.0168354258331532,-0.6216998716578436,-0.8013370987433883,-0.163238768030797,0.6198476652655415,1.078512243830172,1.4636655817735158,-0.7352429714765233,-1.128322063523854,-0.1058793251912006,1.4694167289396196,1.0462705094538394,-0.1857213836553295,1.0148946309779971,11.62036248268396,-0.912841718622802,0.1320822446524137,-1.0272602586473345
1.4,0.6025679967352856,1.0689836460720856,1.4563124913970895,0.0380017198322718,0.1650633897537228,0.0167758189974948,-0.6003442866111051,-0.8068357417196943,-0.1414704398184018,0.583691935126494,1.0450006483554817,1.4511883329545074,-0.6099167654052925,-0.9013371002335044,-0.1229586792484865,1.5493193670382484,1.0677792523369256,-0.2749321488152989,1.088416410619758,11.71716777625079,-0.9172912748171952,0.1313888172242607,-1.0206435436976848
1.42,0.5907093688400706,1.0527030731835487,1.4535120075665258,0.0379938266884918,0.1624108228576653,0.0164436515670066,-0.5867066896895117,-0.8195815764673314,-0.1396191101293372,0.583691935126494,1.0450006483554817,1.4511883329545074,-0.6099167654052925,-0.9013371002335044,-0.1229586792484865,0.9379069447812236,0.6818798460796693,-0.6372917373818565,0.0925664844532311,11.808796547016756,-0.917611876010794,0.1325681696826975,-1.0184183245739027
1.44,0.5796884732501123,1.0370550418579054,1.450900052880244,0.0347834146907164,0.1600730050234488,0.0159301292633249,-0.5741410859159545,-0.826587922400694,-0.1353358372531511,0.583691935126494,1.0450006483554817,1.4511883329545074,-0.6099167654052925,-0.9013371002335044,-0.1229586792484865,0.7505493122771033,0.62828018867786,-0.3503172966681289,0.2141636438093064,10.52414071509429,-0.9195777388614372,0.1357006161674562,-1.0159260789903433
1.46,0.5683410880600794,1.0204877918615456,1.4482658166446187,0.0307291935900427,0.157877449086395,0.0153800338814409,-0.5613291574165872,-0.8297183727774442,-0.1281992458003601,0.577592767472441,1.0359872773531469,1.4499587461620225,-0.6075601441547823,-0.9213371005315276,-0.1149026614920244,0.7497935865927438,0.6405964249683649,-0.1565225188375096,0.356829572639547,10.729066620587218,-0.9219682449525216,0.1400364355343601,-1.0123626331271696
1.48,0.5572459910076107,1.0038837978771658,1.4457958443576338,0.0274364762573434,0.1560882730469418,0.0149233024135202,-0.5488735438593848,-0.830715017679151,-0.1190816464018278,0.5653944321643353,1.0179605353484766,1.4474995725770528,-0.6028469016537619,-0.961337101127574,-0.0987906259791002,0.7734116448221117,0.6227806778601186,-0.0498322450853405,0.4558799699266133,10.873525067238916,-0.9244237113856438,0.1438240766551421,-1.0085074354990549
1.5,0.5463990908499154,0.9872724539652774,1.4435264743131062,0.0254029778226176,0.1547329929002666,0.0145891043650642,-0.5364293980531596,-0.8307272888139252,-0.1083187418581287,0.5531960968562294,0.9999337933438064,1.445040398992083,-0.5981336591527414,-1.0013371017236206,-0.082678590466176,0.8226436495289468,0.6222072903112608,-0.0006135567387099,0.5381452271849593,10.979407425107638,-0.927214500916982,0.1469783604691907,-1.004061114685574
1.52,0.5363279015884602,0.9714982739162156,1.4415829128741935,0.0248046881590591,0.1536649993688158,0.0143867216630577,-0.5243434030253297,-0.8299576196771866,-0.0968029024971369,0.5412334236731745,0.979907051309334,1.4433868271827597,-0.593420416651721,-1.041337102319667,-0.0665665549532518,0.8355809694173056,0.604299751391496,0.0384834568369296,0.5757919680495903,11.064502798224568,-0.9298049479208916,0.1489728945613368,-0.999782419363352
1.54,0.5259753459181337,0.9549153118624972,1.4397796862150452,0.0259538987289362,0.1525845955914345,0.0143112336178806,-0.5115788789434449,-0.8285773359163074,-0.084098406504561,0.5292707504901197,0.9598803092748616,1.441733255373436,-0.5887071741507005,-1.0813371029157135,-0.0504545194403276,0.9031091804468314,0.6382262040942388,0.0690141880439587,0.6352247996287925,11.14040241703151,-0.9323413608705684,0.149433844462517,-0.9956216694750744
1.56,0.5158784134241534,0.9383486108396516,1.438236820176929,0.0289011596250348,0.1514118388198467,0.0143654010719271,-0.4987964532703114,-0.8285257795448226,-0.0707945198545489,0.5174259083695903,0.938853567225488,1.4404824844519355,-0.5839939316496802,-1.12133710351176,-0.0343424839274034,0.9224782709432668,0.6391212836566712,0.0025778185742397,0.6651943325006057,11.197696221298427,-0.9353310265642388,0.1483362613281378,-0.9912098428044052
1.58,0.5060372497517244,0.9217508727009972,1.4369692354613943,0.032544360551527,0.150037948004943,0.0144638955881062,-0.4860416516602624,-0.8313837668952451,-0.0566195712127125,0.5056988973115866,0.9168268251612134,1.4396345144182583,-0.5792806891486597,-1.1613371041078062,-0.0182304484144792,0.9640827568284585,0.6377400805024525,-0.1428993675211209,0.7087474320918205,11.197696221298427,-0.93837073523438,0.1466825865578637,-0.986952253057458
1.6,0.4969232518234646,0.9059105413713842,1.4360362013961363,0.035726327786899,0.1484942240444883,0.014530101411291,-0.4740322424298351,-0.8357983297552635,-0.042289695779068,0.4817351671687112,0.8801816843562349,1.434138256900759,-0.4692293252736915,-0.9313837683853612,-0.0115439050533211,0.960546205620393,0.600470461521363,-0.22072814300092,0.7164937716822254,11.246820086290429,-0.941719188792042,0.1451993260255833,-0.982300369854088
1.62,0.4875483189195878,0.8890641488763915,1.4352831852383177,0.0360825324649061,0.1470583009589245,0.014401668488912,-0.4641784833461893,-0.8477853501207205,-0.0340787855702037,0.4817351671687112,0.8801816843562349,1.434138256900759,-0.4692293252736915,-0.9313837683853612,-0.0115439050533211,0.8777873771284922,0.4926879541822943,-0.5993510182728534,0.4105455104432113,11.298686599830036,-0.94417026789401,0.1464707781283846,-0.9780154643472396
1.64,0.4783698299653296,0.8720245914271822,1.4346991339832236,0.0328082230830689,0.1461816149165954,0.0140572235643842,-0.4541222385802556,-0.8550856239345094,-0.0245824844573983,0.4817351671687112,0.8801816843562349,1.434138256900759,-0.4692293252736915,-0.9313837683853612,-0.0115439050533211,0.7819875180808965,0.5028122382966821,-0.3650136906894419,0.4748150556402708,10.849236936354828,-0.9451657583577464,0.1500611987458701,-0.9757266014618284
1.66,0.4693957225428461,0.8548923703940634,1.4343208313422162,0.0286984481275555,0.1456008936191352,0.0136870609747494,-0.4437931812199226,-0.8577589101956218,-0.0137252544394178,0.4770428739159743,0.8708678466723813,1.434022817850226,-0.4658668599963773,-0.9513837686833844,-0.0025287718214428,0.7611099280824009,0.516452868016648,-0.1336643130556203,0.542861500899028,10.962357699185304,-0.9464723798214594,0.1545807915144064,-0.9726573246315842
1.68,0.4610635082913482,0.8385942199165105,1.4341698193103245,0.0255194038118414,0.1451659718573857,0.0134099873923473,-0.4338105217039166,-0.8579976356480364,-0.0027162677622776,0.4676582874105005,0.8522401713046741,1.4337919397491594,-0.4591419294417489,-0.9913837692794308,0.0155014946423137,0.7431491581633994,0.4991329758003038,-0.0119362726207328,0.5504493338570101,11.02133312712158,-0.948175522252932,0.1588978140699428,-0.9689577493321084
1.7,0.4524989337615766,0.821444151052745,1.4342440402993346,0.0234175856588105,0.1447130544794017,0.0132245925652612,-0.4231851302690066,-0.8572516583244594,0.009591895104881,0.4582737009050266,0.8336124959369668,1.433561061648093,-0.4524169988871205,-1.0313837698754773,0.0335317611060702,0.8138585541678166,0.531269571745499,0.0372988661788531,0.6154081433579303,11.056978943734066,-0.9500143288638312,0.1621786676131494,-0.9651772284777844
1.72,0.4441481018600467,0.8043187918355471,1.4345724058206837,0.0228882330679665,0.1441709509765868,0.0131635231622691,-0.4124679466738483,-0.8556221060331441,0.022632034021617,0.4492253609272842,0.8129848205394573,1.4342316968702145,-0.4456920683324922,-1.0713837704715237,0.0515620275698268,0.8478777739896178,0.5358591797579165,0.0814776145657614,0.6520069458368029,11.097761600602098,-0.9518636068615148,0.1641778442850458,-0.9614659188780836
1.74,0.436011502577882,0.7872319098184473,1.4351671228440466,0.0242859767695007,0.1434755037200732,0.0132457599950878,-0.4017759314000083,-0.8534650801904796,0.0361951578526429,0.4401770209495418,0.7923571451419477,1.4349023320923358,-0.4389671377778638,-1.1113837710675702,0.0695922940335834,0.870244619572125,0.5346007636919975,0.1078512921332264,0.6781561915512966,11.135017301035989,-0.9537925737646352,0.1646063587302977,-0.9579186496306832
1.76,0.4284795237756134,0.7710260698039844,1.4359896856764132,0.0272816869022583,0.1426328084678672,0.0134420808728512,-0.3916503659498263,-0.8529260667715751,0.0497171959914666,0.4312968042356651,0.770729469729537,1.4360237239760512,-0.4322422072232354,-1.1513837716636166,0.0876225604973399,0.845078585960324,0.5062782725091003,0.0269506709452249,0.676101906941183,11.195494798582333,-0.9567227010052516,0.1635768282891935,-0.9535665444980224
1.78,0.4207578407360211,0.7539459436122171,1.4371421459900862,0.0310302788726291,0.1415408443605607,0.0136868059861756,-0.381100618287844,-0.8552485438392456,0.0648673148666374,0.4225847107856542,0.7481017943022252,1.4375958725213602,-0.425517276668607,-1.191383772259663,0.1056528269610965,0.9303456043228826,0.5274873830991178,-0.1161238533835262,0.7575059437585393,11.195494798582333,-0.9596116348580602,0.1619923822670727,-0.9493500268348816
1.8,0.41324563680591,0.7367974765741357,1.438607473554767,0.0344313783920722,0.1402409539165482,0.0139015478931114,-0.3707222099461803,-0.8593890255029845,0.0809194120942784,0.4017028098216289,0.7111835164202548,1.440385511733418,-0.3582112034856503,-0.935429509203225,0.087244507840728,0.9779120276381106,0.5189204170831824,-0.2070240831869407,0.8026048613820523,11.25211983227473,-0.9624308186176074,0.1608438075539067,-0.9451363552437738
1.82,0.4062630080738255,0.7202852239551994,1.4401624452129136,0.0325577862575039,0.1393930594965332,0.0137693563622929,-0.3647089419754202,-0.8762166421021053,0.0820298337234184,0.4017028098216289,0.7111835164202548,1.440385511733418,-0.3582112034856503,-0.935429509203225,0.087244507840728,0.8952110202204246,0.3006633985380064,-0.8413808299560399,0.0555210814570002,10.398012688934614,-0.9640157909249476,0.1644910138280075,-0.9407151267724913
1.84,0.3990374998257841,0.7026867591169791,1.441825970887189,0.0253062973536733,0.139319261375934,0.0133119190548228,-0.3580733515926957,-0.8819140292190635,0.0844103832522934,0.4017028098216289,0.7111835164202548,1.440385511733418,-0.3582112034856503,-0.935429509203225,0.087244507840728,0.4532060672233249,0.3317795191362216,-0.2848693558479109,0.1190274764437469,10.398012688934614,-0.9625920885939808,0.1706905478352519,-0.9409954122554148
1.86,0.3919489157728084,0.6850545055024984,1.4435455637916268,0.0177493390430805,0.1398404398905644,0.0128733861771832,-0.3510420112824899,-0.8811472952324129,0.0874121571059628,0.3981206977867724,0.7018292213282226,1.4412579568118251,-0.3536333205252116,-0.9514657022760208,0.0917199464355461,0.3841818379126744,0.3515670155102929,0.0383366993325307,0.1500886926834699,10.502853380792658,-0.9620998684326568,0.1777693935194204,-0.9396806783672907
1.88,0.3850060226189511,0.6674749812957769,1.4453268707899047,0.0116131709322127,0.1407418199947736,0.0125617084944843,-0.3435365876368345,-0.8772758439645191,0.0905561630802828,0.3909564737170594,0.683120631144158,1.44300284696864,-0.3444775546043341,-0.9835380884216126,0.1006708236251823,0.4505671220445377,0.3752711822827687,0.1935725633946894,0.1572002987159988,10.510153462328162,-0.9615937221341933,0.183527844037029,-0.9384774081927172
1.9,0.3785545111812858,0.6508611363205238,1.447079650461918,0.0075267651256214,0.1417684233330945,0.0124058782698044,-0.3359059150154699,-0.8722243993365886,0.0937830165436907,0.3837922496473464,0.6644120409600935,1.4447477371254545,-0.3353217886834567,-1.0156104745672043,0.1096217008148185,0.4851722394103938,0.3815336310682288,0.252572231396525,0.1613426731703962,10.510153462328162,-0.9610359452818747,0.188102330769187,-0.9374470845922516
1.92,0.3719255781984648,0.6334795972760104,1.448995881291442,0.0049702144994527,0.1428695737164221,0.012379788168997,-0.3273507646879029,-0.8665484028457854,0.0976936474733859,0.3770858138736773,0.6440998314687495,1.4469401711417509,-0.3261660227625792,-1.047682860712796,0.1185725780044548,0.5493190501866145,0.427757516378352,0.2837998245401596,0.1955315464847624,10.527064149778198,-0.96049733090192,0.1911780080285862,-0.9366453090385168
1.94,0.365472754731912,0.616217815711011,1.4509921427162744,0.004173917004007,0.1438537686306792,0.0124913670843104,-0.3183519319953091,-0.8602498655540503,0.1017343738928687,0.3703793781000081,0.6237876219774053,1.449132605158047,-0.3170102568417017,-1.0797552468583878,0.127523455194091,0.5851880719943359,0.4499416346296914,0.3149268645867564,0.202036320974136,10.560970848335272,-0.9598095567706276,0.1928174010890107,-0.9361715079109342
1.96,0.3592048800018999,0.5990787796131822,1.4530725433295566,0.0051070115176082,0.1445888714149167,0.0127364908052008,-0.3089036438356423,-0.854183868455392,0.106106286914505,0.363901836474361,0.6026736028324216,1.4515488111040844,-0.3078544909208243,-1.1118276330039796,0.1364743323837272,0.6024535115213967,0.4724144079833403,0.3032998549329146,0.2185956510818196,10.586793196046528,-0.9594121431707986,0.193089621856146,-0.935672286652426
1.98,0.3534288617596028,0.5829038254954365,1.455135589860878,0.0074865908746977,0.1449594507536084,0.0130824127815735,-0.2996050276008047,-0.8489418888189277,0.11084196174595,0.3576531889967357,0.5807577740337979,1.4541887889798626,-0.2986987249999469,-1.1439000191495712,0.1454252095733635,0.5838861843310532,0.464930811741876,0.2620989818232111,0.2367837415722475,10.586793196046528,-0.9594911690803514,0.1919892154089801,-0.934988262669409
2.0,0.3475415274008262,0.5659624222346388,1.4574121760492835,0.010988969637257,0.1449693314872465,0.0135208956856004,-0.2896456190406112,-0.8457600459446152,0.1166058034238313,0.3384486103795626,0.5404567310544901,1.4606776879481755,-0.267361954614202,-0.8700919637181244,0.1207088848397458,0.596941818424022,0.4979704280096753,0.1590921437156278,0.288192083894067,10.621776550628963,-0.9601394590913832,0.1899947192584342,-0.9339488076526152
2.02,0.3418321066403151,0.5488022241412166,1.4597219299357946,0.0060994095917778,0.144969445831939,0.0133857940406671,-0.2817741129161792,-0.8652511968760768,0.1141411785231099,0.3384486103795626,0.5404567310544901,1.4606776879481755,-0.267361954614202,-0.8700919637181244,0.1207088848397458,1.0582295937097514,0.3935753062215996,-0.9745575465730794,-0.1232312450360699,10.66802446872407,-0.9608546309888004,0.1944600164406093,-0.9318326190060592
2.04,0.3365522123067076,0.5323323450613945,1.4618721806548485,-0.0057840218181795,0.1452598535718041,0.0127809557606847,-0.2743570657912212,-0.8663919165885631,0.1123512643405685,0.3384486103795626,0.5404567310544901,1.4606776879481755,-0.267361954614202,-0.8700919637181244,0.1207088848397458,0.3857383254784468,0.3708523562479027,-0.0570359856243152,-0.0894957091270735,10.189896958323516,-0.9584179169260032,0.2052430056191955,-0.9318582849950524
2.06,0.3311464922921258,0.5150858492392332,1.4640944167555898,-0.0189553704999962,0.1458350727417916,0.0121272865263599,-0.2665706010100431,-0.8580786441095359,0.1099176635229558,0.3357749908334205,0.5317558114173089,1.461884776796573,-0.2609133400168814,-0.8743219786979637,0.1226822694585049,0.5823700413795381,0.3893232390589057,0.4156636239513567,-0.1216800408806312,10.21420419331207,-0.9569961976237163,0.2171068723093023,-0.9301898766483204
2.08,0.3258974548973635,0.4980652207386766,1.4662595495704094,-0.030270350641035,0.1466436830621883,0.0116271116775609,-0.2586809210446703,-0.8446874430952153,0.1066823491935686,0.3304277517411365,0.5143539721429463,1.4642989544933678,-0.2480161108222403,-0.8827820086576423,0.1266290386960233,0.7937861383456593,0.3944839982686382,0.6695600507160338,-0.16176571646936,10.179364847230318,-0.9557682498834912,0.2269645350289084,-0.928680446884016
2.1,0.3208087393551519,0.4813452293413797,1.468355366362955,-0.0388492226233863,0.1476165234864213,0.0113376824854103,-0.2505338157651654,-0.8286494505011693,0.1030737123398491,0.3250805126488525,0.4969521328685838,1.4667131321901627,-0.2351188816275992,-0.891242038617321,0.1305758079335416,0.9173532455167306,0.4073552639752453,0.8018996297022962,-0.1804318426859776,10.147753507480957,-0.954537842819128,0.2350282059589594,-0.9276033207079248
2.12,0.3161291812119416,0.4657700329663339,1.470281340473249,-0.0445555680668446,0.1486118709713856,0.011251173944234,-0.2424221744318992,-0.8122449714662425,0.0998593965746097,0.3203781350163005,0.4791272920962374,1.4693246483488336,-0.222221652432958,-0.8997020685769996,0.1345225771710599,0.9290283679274434,0.405582066663307,0.8202239517463406,-0.1607157882619711,10.142834767922976,-0.9532893250100358,0.2408558508939887,-0.9270802301978645
2.14,0.3113737792703539,0.4497123940656908,1.4722458730803574,-0.0483918351105923,0.149657532753333,0.0113319085026036,-0.2335083606802023,-0.7947689271681632,0.0967945902911116,0.3156757573837485,0.4613024513238909,1.4719361645075044,-0.2093244232383169,-0.9081620985366784,0.1384693464085782,0.9928006313753822,0.4456906875848473,0.8738022149039681,-0.153240314174903,10.190069143128312,-0.9520559889609472,0.2448436012735612,-0.92693647462779
2.16,0.3068029722311238,0.434006112641825,1.4741554425166774,-0.0503602437091419,0.1505741811293809,0.0115688306443987,-0.2240153318743459,-0.7771726299673227,0.0943344263137622,0.3112958104810626,0.4432661098025526,1.4746463498971132,-0.1964271940436758,-0.9166221284963568,0.1424161156460965,1.0072235078230805,0.4746514402928212,0.8798148600420219,-0.1230081988674677,10.226779025068026,-0.950966683025804,0.2473370748493992,-0.9269428679912374
2.18,0.302427243993808,0.4186540072273531,1.476023619654374,-0.0506729041592655,0.151216860417751,0.0119532701580991,-0.2140525344623593,-0.7592005637508747,0.0926193782046637,0.3072382943082426,0.4250182675322222,1.47745520451766,-0.1835299648490347,-0.9250821584560356,0.1463628848836148,1.0310115013631036,0.4981398705993303,0.898603310822399,-0.0857524054549287,10.226779025068026,-0.9495353637513848,0.248588309931916,-0.9274125389660712
2.2,0.2984582470308172,0.4044056524993948,1.4777746011553785,-0.0492552303054145,0.1514950291164762,0.0124694840278222,-0.2042687492202225,-0.7417837687024131,0.0917953594353781,0.2917246172706901,0.3806939790398093,1.4806545885646072,-0.1937149397893217,-0.7333437577855704,0.1090270616963705,0.9996827126099868,0.4891892621068372,0.8708397524230804,-0.0412009384642801,10.272708792316736,-0.948358378349984,0.2484666344722152,-0.927872330001526
2.22,0.2945181103453972,0.3895969904343501,1.4795702120534209,-0.0510444557211844,0.1501227392777807,0.0128813181813232,-0.1902524939664742,-0.7386463988278269,0.0875424858600152,0.2917246172706901,0.3806939790398093,1.4806545885646072,-0.1937149397893217,-0.7333437577855704,0.1090270616963705,0.7489750241433454,0.700812762687418,0.1568684937293119,-0.2126436787681457,10.32344375831508,-0.9526280746792748,0.2513724897379388,-0.9218454406460964
2.24,0.2908572987740913,0.3749405514640591,1.4812840677022132,-0.0577782072291107,0.1455683352929227,0.0131550432561455,-0.176921149296333,-0.7262444121578836,0.0840682803095989,0.2917246172706901,0.3806939790398093,1.4806545885646072,-0.1937149397893217,-0.7333437577855704,0.1090270616963705,0.9268280966313212,0.6665672335070566,0.620099333497165,-0.1737102775208145,10.070969088624224,-0.9538739550048636,0.2575159729706735,-0.9184268041024708
2.26,0.287595461981882,0.3613142524966211,1.4828569234633604,-0.064579851293325,0.139175647410723,0.0135742726280248,-0.1674356603011262,-0.7087982821917109,0.0816951334362208,0.2897874678727968,0.3733605414619536,1.481744859181571,-0.1896474208547142,-0.7281723965925095,0.1123085983947119,0.999967222409567,0.474274449760341,0.8723064983086337,-0.1186573436689021,10.151980279792951,-0.9572174170288296,0.2645552012647496,-0.9123297923618944
2.28,0.2843197400604847,0.3473601709653603,1.484473312052038,-0.0706642596965584,0.1316938057509238,0.0142177885462733,-0.1609009883838255,-0.6877010792270556,0.0801420740408992,0.2859131690770104,0.3586936663062422,1.4839254004154985,-0.1815123829854992,-0.7178296742063878,0.1188716717913946,1.1070297009159429,0.3267335958650336,1.0548601482327669,-0.0776529697660816,10.209157204767507,-0.9621769690755116,0.2707605256167542,-0.9046178756816748
2.3000000000000003,0.2811421175755703,0.3338463826437737,1.486069840622772,-0.075178358797643,0.1245512206209174,0.0150153070254983,-0.1573489448409182,-0.6650186430591458,0.0796228958817365,0.282038870281224,0.3440267911505308,1.4861059416494258,-0.1733773451162842,-0.707486951820266,0.1254347451880774,1.148237203067122,0.1776021771453695,1.1341218083954885,-0.0259589079581359,10.264998219418883,-0.967516136633572,0.2758194492032332,-0.8965269596009847
2.32,0.2780070852836758,0.3207959896398829,1.487666413032386,-0.0780351900910459,0.118613812817246,0.0158862656689376,-0.1564076124684381,-0.6416070448572886,0.0801069003726197,0.2785713233788983,0.3298770521141255,1.4886146365531874,-0.1652423072470692,-0.6971442294341442,0.1319978185847601,1.1717756796288683,0.0470666186240004,1.1705799100928616,0.0242002245441637,10.379325328274716,-0.9715007178871682,0.2793629096906369,-0.8902781954984856
2.34,0.2750234631418076,0.3088350894351888,1.489199603905678,-0.0793570742821943,0.1148302920179424,0.0166935836410586,-0.1577506067852767,-0.6189160985740186,0.0812879012495694,0.2751037764765726,0.3157273130777201,1.491123331456949,-0.1571072693778542,-0.6868015070480225,0.1385608919814429,1.138065727491891,-0.0671497158419257,1.1345473141634976,0.0590500438474819,10.428726875170469,-0.9740311123809008,0.2819312969024878,-0.8857846117509083
2.36,0.2718399982344292,0.2967143303695821,1.4908446132471798,-0.0791840817472208,0.113504997214286,0.0174575947722566,-0.160321290538244,-0.5945171701654892,0.0832022076388021,0.2718396055209773,0.3018361421009679,1.4937961031956275,-0.1489722315086392,-0.6764587846619008,0.1451239653781256,1.2304274576282137,-0.1285341876483686,1.219946420426471,0.095715319461636,10.428726875170469,-0.9759043602318112,0.2834053607670092,-0.8820744172885034
2.38,0.2686165812252342,0.2850874158498788,1.4925354141034712,-0.0770413801478512,0.1146269855403141,0.0181754082967443,-0.161634461188234,-0.5696117782796124,0.0858352732189583,0.2687788105121123,0.2882035391838686,1.4966329517692232,-0.1408371936394242,-0.666116062275779,0.1516870387748083,1.2539298191032235,-0.0656585324994976,1.2452695942938408,0.1316532790078116,10.465795255890953,-0.9760497785433664,0.2834860307337209,-0.8805887190991112
2.4,0.265386288088122,0.2739460096278552,1.4942889930158836,-0.0729741424975987,0.1173318904768061,0.0189170804050166,-0.1610897945622978,-0.5464678859174568,0.0894437234889164,0.2605348581658225,0.2566068269358981,1.496827177764419,-0.15344321837417,-0.5309446545148591,0.1039718769766974,1.1714919213925628,0.0272333312968067,1.157194618107782,0.1804225134979048,10.499702415940192,-0.9749485268049132,0.2821017482543558,-0.880825994067221
2.42,0.2623670933527117,0.263715428985636,1.4959567919997458,-0.0698215193251871,0.1197175395921471,0.0195972487150535,-0.156919185562727,-0.5308504557571944,0.0858605093493024,0.2605348581658225,0.2566068269358981,1.496827177764419,-0.15344321837417,-0.5309446545148591,0.1039718769766974,0.8278549507738443,0.2085304499785445,0.7808715080131201,-0.1791607069807035,10.535737795417845,-0.9739156022835536,0.2817671277808087,-0.879995291812708
2.44,0.2592774202719399,0.2532838286242736,1.497646309950882,-0.067820793471101,0.1209637060614647,0.0203188486506153,-0.1523376003431306,-0.513009188142036,0.0833837262587007,0.2605348581658225,0.2566068269358981,1.496827177764419,-0.15344321837417,-0.5309446545148591,0.1039718769766974,0.929295711436909,0.2290792609798156,0.8920633807579181,-0.1238391545300837,10.056264030473358,-0.9711011092603984,0.2810737806800339,-0.8829742844162884
2.46,0.2562786151125868,0.2432168748228255,1.4993057988836802,-0.0664114865146379,0.1212245398687179,0.0210721148845983,-0.1478370542241735,-0.4945833001436303,0.0827642232199561,0.2590004259820808,0.2512973803907495,1.497866896534186,-0.1518049698113572,-0.5232112297619084,0.1075991977282452,0.9488836176181804,0.2250273059478572,0.921294399920286,-0.0309751519372292,10.175471647188717,-0.9693859669576236,0.2810773877927784,-0.8842560230549958
2.48,0.2533670667090977,0.2335208170031354,1.5009695634099451,-0.065290029666033,0.1207927888182456,0.021855726577186,-0.1436045640415696,-0.4759748095237027,0.0837079833824675,0.2559315616145974,0.2406784873004523,1.49994633407372,-0.1485284726857315,-0.5077443802560071,0.1148538392313408,0.9553540960582564,0.2116245091301968,0.9304245309963792,0.0471880081255718,10.37141613521635,-0.968648746395684,0.2814996195856842,-0.8841264757562729
2.5,0.2505361896035367,0.2241982150962025,1.5026658921682303,-0.064294479075589,0.1199335973124815,0.0226618041750608,-0.1397477307386204,-0.457259460649946,0.0859336466223505,0.2528626972471141,0.2300595942101552,1.502025771613254,-0.1452519755601059,-0.4922775307501057,0.1221084807344365,0.961890096958234,0.1928416651474598,0.9357674436878322,0.1112831619941488,10.37141613521635,-0.9686170665931606,0.2821305869426396,-0.8830542428721028
2.52,0.2477781179279766,0.2152514651688495,1.5044189577967058,-0.0632754984731152,0.1188707549789096,0.0234849063378843,-0.1362969399042253,-0.4384318375845384,0.0892707247297604,0.2499576577359119,0.2202140435951531,1.5044679412279427,-0.1419754784344803,-0.4768106812442044,0.1293631222375321,0.9714981188488852,0.1725395417197545,0.941381153270382,0.1668539053704933,10.442240214482808,-0.9695297515621208,0.2831392010643623,-0.880379683747459
2.54,0.2452175829045352,0.2071012822506086,1.5061516618087571,-0.0621686095143223,0.1178340550663081,0.0242793464462322,-0.133427415618403,-0.4205063679966586,0.0929631937467499,0.2470526182247098,0.2103684929801509,1.5069101108426313,-0.1386989813088547,-0.461343831738303,0.1366177637406277,0.9262706907464392,0.1434762142911161,0.8962734793939886,0.1846234508494762,10.499585346061394,-0.9706597137665286,0.2841712022473866,-0.8773012330497195
2.56,0.2425776421531099,0.1988914558807196,1.508055809848851,-0.0606851047373754,0.1168275168610857,0.0251323890620572,-0.1307359446412435,-0.4015119387784875,0.0972880434312095,0.2442294911416483,0.2009096136027963,1.5095336464948974,-0.1354224841832291,-0.4458769822324017,0.1438724052437234,0.9832810917257756,0.1345735488579733,0.9497214609085536,0.2162424842229816,10.525893979467584,-0.9716807299351972,0.2849292241505384,-0.8744519621006452
2.58,0.2399887418856343,0.1910616259550817,1.51005109971212,-0.0586696384622422,0.1159726843017559,0.0260113627520584,-0.1282935748579383,-0.382619707878387,0.102059986935335,0.2414882764867275,0.1918374054630893,1.512338548184741,-0.1321459870576035,-0.4304101327265003,0.151127046746819,0.98190249432884,0.1221184891652571,0.9446115450050252,0.2385971752062711,10.548497041511837,-0.9727175853640556,0.2852918565286446,-0.8716951396073592
2.6,0.2374469789468609,0.1836013791667316,1.5121472117383743,-0.0562155728884335,0.1153030380007373,0.0269061574369342,-0.1259965658318174,-0.3645533661307213,0.1073310377939006,0.2335740631427374,0.1719306405611624,1.5151540990588868,-0.1379684927644611,-0.3440120397467971,0.1038091307546596,0.9479621983010642,0.1148504513060463,0.9033170873832846,0.2635525429282803,10.569466011445002,-0.9736615019371077,0.2853277380620337,-0.8692173697880359
2.62,0.2350942748326063,0.1768281353981337,1.5141378640182694,-0.0539525250965101,0.1138300616479677,0.0277924961384705,-0.1218848996844588,-0.3492752583846516,0.1019432847777222,0.2335740631427374,0.1719306405611624,1.5151540990588868,-0.1379684927644611,-0.3440120397467971,0.1038091307546596,0.8356947070718924,0.2055833073679285,0.7639053873034873,-0.2693876508089207,10.590051849082556,-0.9738864203145584,0.2858025731542133,-0.86673687878771
2.64,0.23269897648175,0.1700067514719807,1.5161235580291463,-0.0518886669525462,0.1103108412034715,0.0288001815478422,-0.1179972085341686,-0.3336456141442331,0.0970147153647068,0.2335740631427374,0.1719306405611624,1.5151540990588868,-0.1379684927644611,-0.3440120397467971,0.1038091307546596,0.8421560396105361,0.1943845575145118,0.781482212020923,-0.2464284706507655,9.924336988816322,-0.974886010372235,0.2851185232714236,-0.8654117317691511
