t,x,y,z,roll,pitch,yaw,v_x,v_y,v_z,ref_x,ref_y,ref_z,ref_v_x,ref_v_y,ref_v_z,a_com,a_x,a_y,a_z,thrust,wind_x,wind_y,wind_z
0.0,2.138847370404784,-2.204672860882778,2.176330293469292,0.033320511786324,0.099478795056426,0.0425116675831596,0.0035979635588684,-0.0004217120007917,-0.0008977240979763,2.13895396623229,-2.2045844721299006,2.1763060301796453,-0.0965217788999439,0.1020403793515378,0.0213598261273372,0.1866084894816191,0.1798981779434227,-0.0210856000395868,-0.0448862048988186,10.257421402054206,-0.9396093614221134,0.2501508271350999,-0.8815612796938163
0.02,2.1391315248633,-2.204968866785685,2.1763599917115477,0.0242134531692708,0.093212362371586,0.0416906839169132,0.02399367062506,-0.0243671736032375,0.004481395615786,2.13895396623229,-2.2045844721299006,2.1763060301796453,-0.0965217788999439,0.1020403793515378,0.0213598261273372,1.5955445206724028,1.019785353309578,-1.1972730801222906,0.2689559856881223,10.257421402054206,-0.953555580809194,0.2500037303368569,-0.8756117783199613
0.04,2.139745075014486,-2.205488399789887,2.17649757800178,0.0073281504450847,0.0760271098146149,0.0402931043197265,0.0346347845531189,-0.025502522622567,0.0091094954222451,2.13895396623229,-2.2045844721299006,2.1763060301796453,-0.0965217788999439,0.1020403793515378,0.0213598261273372,0.5829700482103876,0.5320556964029469,-0.0567674509664765,0.2314049903229519,10.444909704498968,-0.9651750720999498,0.2696122258392171,-0.8489209942569336
0.06,2.1404072605637494,-2.20591868319691,2.1767240219712978,-0.0091746454694412,0.054225280045027,0.0392782620340631,0.0335319798481084,-0.0193742236468023,0.014558860195276,2.1379887484432905,-2.203564068336385,2.1765196284409187,-0.1165217791979671,0.122040379649561,0.0257939758396613,0.4137263678547175,-0.0551402352505243,0.3064149487882353,0.2724682386515482,10.444909704498968,-0.9843273034834154,0.2878720769407604,-0.8148013195562219
0.08,2.140966713422914,-2.206202775369117,2.1770829795032247,-0.0258760274513871,0.0294143689081728,0.0387484351720531,0.0215669916729268,-0.0089604005279084,0.0210825366543751,2.136058312865292,-2.2015232607493544,2.176946824963465,-0.1565217797940136,0.1620403802456075,0.0346622752643096,0.8575648787801,-0.5982494087590825,0.5206911559446984,0.3261838229549553,10.483051253610029,-1.006751206523302,0.3040858692177183,-0.7764245903725183
0.1,2.1411800801630925,-2.206243177414028,2.177578133854265,-0.0417581611274033,0.0057529238549733,0.0387201650179501,-0.0002226212285369,0.0047745318654911,0.0281123453797109,2.134127877287293,-2.199482453162324,2.177374021486012,-0.19652178039006,0.2020403808416539,0.0435305746889579,1.3349661128299273,-1.089480645073189,0.6867466196699755,0.351490436266787,10.483051253610029,-1.0292780735117826,0.3180944323999186,-0.7374583868485909
0.12,2.140867492115127,-2.2059733051937025,2.1782186485643527,-0.0567652350764456,-0.0144264082446963,0.0390209402314963,-0.0300337638993736,0.021834148261614,0.0355778126118333,2.1301974416794915,-2.1954416455454906,2.178244632979791,-0.2365217809861065,0.2420403814377004,0.0523988741136062,1.7574611943921714,-1.4905571335418366,0.852980819806148,0.3732733616061195,10.615390126194145,-1.0492361688537986,0.3294932334107767,-0.7020243642735329
0.14,2.139960447760872,-2.2053467575422334,2.178970063662105,-0.069385594742834,-0.0291849659442442,0.0394684205801767,-0.0637822904739981,0.0429397307310003,0.0431785247302069,2.12626700607169,-2.1914008379286574,2.17911524447357,-0.276521781582153,0.2820403820337469,0.0612671735382545,2.0261906882353102,-1.6874263287312237,1.055279123469315,0.3800356059186792,10.615390126194145,-1.0675820054453222,0.3395559321707108,-0.6680000349993073
0.16,2.138269864414627,-2.204218085656039,2.179921748307098,-0.0801300339457818,-0.0393624452763272,0.039943636718041,-0.1035869310796,0.0684491474244235,0.0516537635072546,2.121336570448988,-2.1863600302969237,2.1802075634529654,-0.3165217821781994,0.3220403826297933,0.0701354729629028,2.4015460781066658,-1.990232030280096,1.2754708346711587,0.4237619388523856,10.701191525899048,-1.0814051757106904,0.3475877426971693,-0.6405674388520868
0.18,2.135744178038492,-2.202554998840721,2.1810477146983938,-0.0879852307993877,-0.0430363871962538,0.0401973589956972,-0.1465147836892571,0.0961134959404583,0.0606745975089296,2.1154061348113844,-2.180319222650288,2.181521589917977,-0.3565217827742458,0.3620403832258397,0.0790037723875511,2.5930156934440527,-2.146392630482854,1.3832174258017416,0.4510417000837503,10.79565463208928,-1.0914225680644394,0.3527467597996169,-0.6217826661123212
0.2,2.1323688988413174,-2.200323108830126,2.1823653514663786,-0.0929861461298206,-0.0404330551314252,0.0401213598257327,-0.1880499580738749,0.1249770957481063,0.0708340953642656,2.1284184388540286,-2.197749324043698,2.1840814445738403,-0.2465147851793732,0.1961134974305745,0.0507258744907602,2.5794832339488267,-2.0767587192308867,1.4431799903823996,0.5079748927667993,10.8593682128585,-1.0979526401068955,0.3557448686486824,-0.6107031641483546
0.22,2.128388098730969,-2.197556168746941,2.1836527776509937,-0.0915699487116141,-0.0322735497386994,0.0399542261895958,-0.2278092532304527,0.1624535096539434,0.0645369241452795,2.1284184388540286,-2.197749324043698,2.1840814445738403,-0.2465147851793732,0.1961134974305745,0.0507258744907602,2.7499715980127486,-1.987964757828892,1.8738206952918528,-0.3148585609493013,10.882726730105787,-1.0954080841428706,0.3588103008409206,-0.6097025475137104
0.24,2.1234608159474773,-2.193999069061643,2.184899616514506,-0.0842155621416604,-0.0189328357739881,0.0398138539105729,-0.2620136907583426,0.1903134437075838,0.0607848533821875,2.1284184388540286,-2.197749324043698,2.1840814445738403,-0.2465147851793732,0.1961134974305745,0.0507258744907602,2.21370589006521,-1.7102218763944923,1.39299670268202,-0.1876035381546025,9.929475263110817,-1.0910102373350044,0.3508802343752992,-0.6296724039314088
0.26,2.117923844595948,-2.1899616246852163,2.186093864952326,-0.0758896793063549,-0.0035600119799017,0.039686752045934,-0.2893849244942828,0.2118971611892371,0.058879552424602,2.1259532910022347,-2.1957881890693924,2.184588703318748,-0.2665147854773965,0.2161134977285977,0.0487361298871263,1.7454737668425993,-1.3685616867970125,1.0791858740826663,-0.0952650478792754,10.004801312819836,-1.0839062436939797,0.3438493539654694,-0.6504900108305011
0.28,2.1119065625181217,-2.185531260348317,2.187256776668839,-0.0684278136142782,0.0118062247023077,0.0396229691223004,-0.3106431168713219,0.2302697230547223,0.057469472874412,2.1210229952986475,-2.1918659191207808,2.1856032208085634,-0.3065147860734429,0.2561134983246441,0.0447566406798585,1.406636144297938,-1.0629096188519538,0.918628093274261,-0.0705039775094965,10.004801312819836,-1.0761029302318368,0.3382616572725556,-0.6694236143550418
0.3,2.1058458270788347,-2.1809995512760194,2.18833365305569,-0.0626366965500732,0.0250777051246202,0.0396552845370355,-0.3261472491797005,0.2461173892991415,0.055900997884787,2.11609269959506,-2.187943649172169,2.1866177382983785,-0.3465147866694894,0.2961134989206906,0.0407771514725908,1.111290643602396,-0.7752066154189302,0.792383312220958,-0.0784237494812503,9.995292713044364,-1.0679974279773845,0.3339177063059048,-0.6864681365154041
0.32,2.099186661004503,-2.1759128381439314,2.189430333019274,-0.057944073678687,0.0367955372889406,0.0397986501607175,-0.3388356883621234,0.2619302836006071,0.0537809861475591,2.10916240386167,-2.1820213791937557,2.1874332813278303,-0.3865147872655358,0.336113499516737,0.036797662265323,1.0192381527902976,-0.6344219591211453,0.7906447150732784,-0.1060005868613968,9.972937706961602,-1.0606973944557674,0.3310886917431997,-0.6999754038324716
0.34,2.0923017570552824,-2.1705141208647083,2.1904730814734816,-0.0545243507110763,0.0457821806274405,0.0400512519854232,-0.3490217688638631,0.2773333637502044,0.0505091768041641,2.10223210812828,-2.176099109215341,2.188248824357282,-0.4265147878615823,0.3761135001127835,0.0328181730580552,0.937704444991021,-0.5093040250869874,0.7701540074798646,-0.1635904671697489,9.89412740123953,-1.0544231579096932,0.3295036735830971,-0.7101971158871213
0.36,2.085225601498637,-2.164801642390927,2.191439025696208,-0.0518773365410288,0.0521006042122188,0.0404153474698827,-0.3582041286853153,0.2931778646186063,0.0462234860765642,2.094301812379989,-2.1691768392220263,2.1889648801565524,-0.4665147884576288,0.4161135007088299,0.0288386838507875,0.9403870010161316,-0.4591179910726106,0.7922250434200973,-0.2142845363799935,9.854913526289238,-1.0496735038220413,0.3286958903433985,-0.7171595649607785
0.38,2.078335873407092,-2.1590805668495787,2.1922719539415225,-0.0496432772675408,0.0560665146922792,0.0408560113389479,-0.3666694131408928,0.3082066878884505,0.041655460172214,2.085371516616797,-2.1612545692138103,2.1895814487256406,-0.5065147890536752,0.4561135013048764,0.0248591946435197,0.8921791166196223,-0.4232642227788741,0.7514411634922114,-0.2284012952175114,9.854913526289238,-1.0461850264732215,0.3279890826183677,-0.722169627555623
0.4,2.070908277113937,-2.1527535585406627,2.1930519833450752,-0.0474439398472908,0.0585938137817781,0.0413941051068161,-0.3757137530726119,0.3236547362091207,0.0365724597535314,2.060002402750047,-2.143670232455156,2.194354726950133,-0.4666694146310089,0.4082066893785667,0.0141694003575225,0.93042889972122,-0.4522169965859551,0.7724024160335075,-0.2541500209341303,9.835753175993888,-1.0439600134682243,0.3272824341426919,-0.7254334746811927
0.42,2.06330115062173,-2.146116274983386,2.1937187793769133,-0.0451798736018819,0.0597276679416554,0.0420016427955772,-0.3846333084935017,0.3391473625226427,0.0303053246654632,2.060002402750047,-2.143670232455156,2.194354726950133,-0.4666694146310089,0.4082066893785667,0.0141694003575225,0.9471759620166348,-0.4459777710444867,0.7746313156761025,-0.3133567544034102,9.8259169541534,-1.0426985943385358,0.3265387952951394,-0.727282559411324
0.44,2.055518284212384,-2.1391946978689464,2.194250888583489,-0.0433633177813712,0.059490111570158,0.0426352092127955,-0.3932793212495016,0.3523955253791043,0.0231727847813533,2.060002402750047,-2.143670232455156,2.194354726950133,-0.4666694146310089,0.4082066893785667,0.0141694003575225,0.8676699845659364,-0.4323006377999983,0.6624081428230788,-0.3566269942054957,9.75844321490422,-1.0422691121463834,0.3253448149874072,-0.7289414988524541
0.46,2.0475580660458004,-2.1320138223431035,2.1946333446041413,-0.042531567129074,0.057910843629119,0.043252429429055,-0.4024270280117109,0.3651658766378498,0.0154248622167024,2.055335708603737,-2.1395881655613707,2.1944964209537083,-0.4866694149290322,0.4282066896765899,0.0086721883945842,0.8757749630283701,-0.4573853381104636,0.6385175629372741,-0.3873961282325419,9.70981449089868,-1.042535078530486,0.3247755769561243,-0.7292511527435893
0.48,2.0398184251310845,-2.124958716715791,2.194850378752033,-0.042743159181274,0.055405474212949,0.0438080786533716,-0.4119196636584303,0.3769582454853959,0.0078058999688484,2.046002320311117,-2.131424031773799,2.194779808960859,-0.5266694155250786,0.4682066902726364,-0.0023222355312924,0.8473763630940027,-0.4746317823359686,0.5896184423773043,-0.3809481123927012,9.668385232454966,-1.0440035638773488,0.324890486228777,-0.7276423148094642
0.5,2.031465505635117,-2.1172912618827526,2.194921090279618,-0.0441567795322877,0.0519964281309345,0.0443442049663307,-0.4230078986162371,0.3892750639623125,-0.0003404852136558,2.0366689320184967,-2.123259897986228,2.195063196968009,-0.5666694161211251,0.5082066908686829,-0.013316659457169,0.9233316893383572,-0.5544117478903404,0.6158409238458312,-0.4073192591252166,9.668385232454966,-1.0465040068598204,0.3258602127439827,-0.7242194596683591
0.52,2.022874701333546,-2.1093715900243954,2.1948295987845587,-0.0467723500052612,0.0482025490990868,0.0448221298308134,-0.4356561955379056,0.4023948139769148,-0.0084098427260824,2.025335543696074,-2.1130957641688544,2.194796863778866,-0.6066694167171716,0.5482066914647293,-0.0243110833830456,0.996521181570794,-0.6324148460834234,0.6559875007301152,-0.4034678756213291,9.661602718420909,-1.0495453110992317,0.3277573704506486,-0.7194564813884567
0.54,2.0140118131491724,-2.101167019857715,2.194578026742714,-0.0498355270634153,0.0445784138261071,0.0452745757664235,-0.4501138360996122,0.417501648853551,-0.0163467197570644,2.014002155373652,-2.1029316303514807,2.1945305305897227,-0.646669417313218,0.5882066920607758,-0.0353055073089222,1.1182954077594909,-0.722882028085331,0.7553417438318111,-0.3968438515490987,9.669449559293753,-1.0525273827030708,0.3299107434111809,-0.7145477629949066
0.56,2.00530151259996,-2.0930721085155275,2.194193296100438,-0.0522988418816045,0.042041608173435,0.0457011545786633,-0.4660836192441992,0.4336152710328536,-0.0237453550783669,2.001668767036328,-2.0917674965192057,2.1939893368024324,-0.6866694179092644,0.6282066926568222,-0.0462999312347988,1.1931288677675094,-0.7984891572293512,0.8056811089651256,-0.369931766065128,9.684459961546054,-1.0550025969901322,0.3320364683850479,-0.7101939504940409
0.58,1.9957879072184777,-2.0842142457028103,2.193636765014804,-0.0540339143158596,0.0412044742626879,0.0461183654578182,-0.4842722894939775,0.4511754480543917,-0.0314960150383635,1.9883353786841031,-2.07960336267203,2.193173282416995,-0.7266694185053109,0.6682066932528686,-0.0572943551606754,1.3221764937957587,-0.9094335124889136,0.8780088510769057,-0.3875329979998286,9.7072841683148,-1.0569708015187578,0.3330433421526247,-0.7080277341758014
0.6,1.985913397552014,-2.0749971701248286,2.1929251833866723,-0.054653420133558,0.0423335758616161,0.0465051694633899,-0.5020558789706951,0.4695408044664618,-0.0392581576423368,1.971574292743779,-2.0616554733000907,2.192061964262886,-0.5842722909840936,0.5511754495445078,-0.0665569311343356,1.3358454519733984,-0.8891794738358827,0.918267820603505,-0.3881071301986671,9.713976965499567,-1.0577647628812858,0.3333338080418223,-0.7080309750945808
0.62,1.9756664915169868,-2.065357019006406,2.1920886213096527,-0.0522271740504093,0.0458701782704846,0.0469700669515781,-0.5211935041549555,0.4926618234667069,-0.0439217888919898,1.971574292743779,-2.0616554733000907,2.192061964262886,-0.5842722909840936,0.5511754495445078,-0.0665569311343356,1.5186998335218125,-0.956881259213016,1.1560509500122578,-0.2331815624826476,9.71108946745244,-1.0576021077718312,0.3326019042747711,-0.7091744786915954
0.64,1.9656106141224137,-2.055826427247227,2.191202334507327,-0.0475058709497618,0.0511465526955541,0.0474871549275152,-0.5360734059325323,0.5090161063751234,-0.0491220537386452,1.971574292743779,-2.0616554733000907,2.192061964262886,-0.5842722909840936,0.5511754495445078,-0.0665569311343356,1.135690099492612,-0.7439950888788405,0.8177141454208225,-0.260013242332769,9.814756834291074,-1.055296619171329,0.3290019526545394,-0.7160510953950734
0.66,1.954750779136146,-2.045499259583782,2.1901459222996107,-0.0425058636011839,0.0574499908023623,0.0480150816071567,-0.5488991649756463,0.5228496107586021,-0.0563431974238487,1.965731569833938,-2.0561437188046456,2.1913963949515423,-0.6042722912821168,0.571175449842531,-0.07356911435353,1.0099639284178683,-0.6412879521557002,0.6916752191739373,-0.3610571842601773,9.814756834291074,-1.0515233359468357,0.3255483528761213,-0.7243427465388056
0.68,1.943661009676334,-2.034915168699781,2.1889240434245094,-0.038306038378884,0.0636582927390362,0.0485077366834133,-0.5593263656964583,0.5350659879259075,-0.0655002208143006,1.954046124014256,-2.0451202098137555,2.190065256328856,-0.6442722918781633,0.6111754504385775,-0.0875934807919188,0.9244153062060994,-0.5213600360406023,0.6108188583652696,-0.4578511695225939,9.598453589353085,-1.0468302571607548,0.3223528927536964,-0.7336278003430375
0.7000000000000001,1.9323835094857489,-2.0240956713272404,2.1875028053006877,-0.0350638207344418,0.0691911004988565,0.0489693990795066,-0.5678675469030968,0.5464942594568613,-0.0761925278749632,1.942360678194574,-2.034096700822865,2.188734117706169,-0.6842722924742097,0.6511754510346239,-0.1016178472303076,0.8914631187959153,-0.4270590603319246,0.5714135765476858,-0.5346153530331278,9.598453589353085,-1.0421483870002668,0.3196737350242381,-0.7424601194231738
0.72,1.9215255099514217,-2.013609372857751,2.185943186525491,-0.0328268068185612,0.0734987622883643,0.0493848739185972,-0.5746770382256319,0.556952277972363,-0.0874667241127626,1.92867523234509,-2.0210731918021727,2.186701760761563,-0.7242722930702562,0.6911754516306704,-0.1156422136686965,0.8409025272745171,-0.3404745661267527,0.5229009257750883,-0.5637098118899696,9.52202195042264,-1.037513293696479,0.3174353470252029,-0.7507876580877908
0.74,1.9099659298350875,-2.002359792308716,2.1840623568107342,-0.0313104360851766,0.0768757749051857,0.0497984384799256,-0.5809386951989198,0.5675472233088357,-0.1000707551810866,1.9149897864956056,-2.0080496827814804,2.1846694038169567,-0.7642722936663027,0.7311754522267169,-0.1296665801070853,0.8807990887615162,-0.3130828486643977,0.5297472668236325,-0.6302015534162021,9.467055542453636,-1.0334031910220371,0.3156877688224442,-0.7580429052873494
0.76,1.898282440356044,-1.9908920903770209,2.1819246782372246,-0.0304164893857618,0.0791740084469258,0.0501951879082302,-0.5871369171859809,0.5786729801734554,-0.1130789780134772,1.9003043406312208,-1.9940261737458864,2.182286437711391,-0.804272294262349,0.7711754528227632,-0.1436909465454741,0.91023936806294,-0.3099110993530551,0.5562878432309848,-0.6504111416195301,9.43476128139264,-1.029969272165522,0.3144945103018244,-0.7638483370165287
0.78,1.8870673314206237,-1.979788640109836,2.1796515065491486,-0.0297976274163107,0.0806580392233642,0.0505690230757178,-0.5931071165836491,0.5894965431505728,-0.1255604092088992,1.884618894751934,-1.979002664695392,2.179552862444865,-0.8442722948583955,0.8111754534188097,-0.1577153129838629,0.8783207287967144,-0.2985099698834093,0.5411781488558698,-0.6240715597710985,9.425197054473756,-1.0270194720762456,0.3133880771698722,-0.7690020525927836
0.8,1.8751384130870672,-1.9678782632271157,2.177000786702225,-0.0292169951525003,0.0817373203462182,0.0509625074027899,-0.5994759107097034,0.6009271419560744,-0.1388675052697558,1.857411975591441,-1.9503138129523077,2.173373486088704,-0.6931071180737652,0.6894965446406889,-0.1658894073275382,0.93313843191306,-0.3184397063027144,0.571529940275084,-0.6653548030428308,9.425995343762224,-1.0245224033497695,0.3123186500389246,-0.7735322804350491
0.8200000000000001,1.8630676875098515,-1.9557126499708604,2.174137592002287,-0.027783923243379,0.0830490394233665,0.0513984170999423,-0.6071654449997906,0.614821768637773,-0.1464819021952654,1.857411975591441,-1.9503138129523077,2.173373486088704,-0.6931071180737652,0.6894965446406889,-0.1658894073275382,0.8805802472821656,-0.3844767145043615,0.6947313340849304,-0.380719846275479,9.422391088351104,-1.0237849897671474,0.3110613611506934,-0.7759251599996173
0.84,1.8508584457566892,-1.9432981672220904,2.1711216260676336,-0.0255707555005289,0.084820951573934,0.0518654053226798,-0.6133194265831231,0.6258971826696667,-0.1547728597336334,1.857411975591441,-1.9503138129523077,2.173373486088704,-0.6931071180737652,0.6894965446406889,-0.1658894073275382,0.7570935579716728,-0.3076990791666234,0.5537707015946802,-0.4145478769184016,9.775487269578662,-1.022306348519741,0.3095193136167314,-0.7789278520029987
0.86,1.839154281283408,-1.931312574318227,2.168087388792564,-0.0237335328282631,0.0863962467416257,0.0522838090047747,-0.6183887399226412,0.6352941931265488,-0.1642144708415039,1.8504809044107036,-1.9434188475059004,2.1717145920154284,-0.7131071183717884,0.7094965449387121,-0.173955206951266,0.712646061473069,-0.253465666975905,0.4698505228441063,-0.4720805553935225,9.691478518486292,-1.0199006848672658,0.3079188103753369,-0.7831013427455755
0.88,1.826736395370252,-1.918511561599197,2.164685985750429,-0.0223870224602335,0.0876836834081942,0.0526814369016503,-0.6231388059472334,0.6443647905227868,-0.1754980942864772,1.836618762049228,-1.9296289166130869,2.1683968038688777,-0.7531071189678349,0.7494965455347585,-0.1900868061987216,0.7618382741937039,-0.2375033012296079,0.4535298698119028,-0.564181172248665,9.6027423212754,-1.0173553543138405,0.30637395311144,-0.7876682902854304
0.9,1.8142277295611888,-1.9055363323446703,2.1610471058625533,-0.0219463112510215,0.088426153726425,0.0530167864962928,-0.6275490631315603,0.6528246686810255,-0.1878341222949273,1.8227566196877527,-1.915838985720273,2.165079015722327,-0.7931071195638814,0.789496546130805,-0.2062184054461772,0.7797395300826716,-0.2205128592163485,0.4229939079119338,-0.6168014004225078,9.484039066232071,-1.0150608663286536,0.3052674123088053,-0.7918519793239006
0.92,1.802264080579232,-1.893056351295192,2.157355643243445,-0.0225488881484282,0.0885901639480594,0.0532661633657393,-0.6316288007831401,0.6605568224565753,-0.2001341540557548,1.806894477296475,-1.9000490547976567,2.160954647613403,-0.8331071201599278,0.8294965467268515,-0.2223500046936328,0.7545217734297521,-0.2039868825789881,0.3866076887774905,-0.6150015880413736,9.45678582067012,-1.0129915080363991,0.3047120640856675,-0.7956995063326526
0.94,1.7895868676245947,-1.8797609626112968,2.1532153509920318,-0.0244123481348998,0.0881969408418385,0.0534476296292703,-0.6359383573938792,0.6686952382311173,-0.2132613933518618,1.7910323349051975,-1.8842591238750408,2.15683027950448,-0.8731071207559743,0.8694965473228979,-0.2384816039410884,0.8017644620425235,-0.2154778305369531,0.4069207887270998,-0.6563619648053506,9.45678582067012,-1.0114683889144536,0.3049827314561915,-0.7986487920072171
0.96,1.776816339407966,-1.8662831598190333,2.1488144263644986,-0.0271097819190273,0.0873986338818988,0.0535758976018024,-0.6409692050207269,0.678893872732676,-0.2261692786952693,1.7741701924990187,-1.867469192937524,2.15230262141437,-0.9131071213520208,0.9094965479189444,-0.2546132031885439,0.860138183054757,-0.2515423813423845,0.5099317250779334,-0.6453942671703738,9.47297486070147,-1.0102058600500046,0.3060968973588448,-0.8006720386915226
0.98,1.7639376690901825,-1.852577874820286,2.144159492846087,-0.0295051709101948,0.0865353231295413,0.0537232118972531,-0.6466460243178389,0.6909519035614857,-0.2386811368737088,1.7563080500779389,-1.849679261985105,2.147371673343073,-0.9531071219480672,0.9494965485149908,-0.2707448024359996,0.9140144690840156,-0.2838409648556028,0.602901541440487,-0.6255929089219764,9.47297486070147,-1.0094971790319456,0.3071307297850713,-0.8019104475110962
1.0,1.7515933137958748,-1.839325448633048,2.139508169410723,-0.0310636886768189,0.0858544099731026,0.0539041671117344,-0.6524517163132028,0.7032372694829465,-0.25030506479691,1.7316053678742904,-1.818030279642212,2.1322254360024018,-0.746646025807955,0.7909519050516018,-0.2543497656110393,0.8940804993581362,-0.2902845997681924,0.6142682960730395,-0.581196396160058,9.499816496833771,-1.0088282169639209,0.3078233952188933,-0.8031598296197788
1.02,1.7384618413365152,-1.8250754318108613,2.1344982804218664,-0.0304536239185899,0.0861595128624503,0.0542110847212929,-0.6601938036741837,0.7207302296508633,-0.2493736953254843,1.7316053678742904,-1.818030279642212,2.1322254360024018,-0.746646025807955,0.7909519050516018,-0.2543497656110393,0.9576155559953168,-0.387104368049046,0.8746480083958397,0.0465684735712831,9.5188625828996,-1.0121351654588029,0.3079828264549276,-0.7994413495394065
1.04,1.725192586515031,-1.810499375940932,2.1295258003992954,-0.0270272408366025,0.0878107665520728,0.0546613941508311,-0.6661661275491106,0.7355327547418647,-0.248033254646223,1.7316053678742904,-1.818030279642212,2.1322254360024018,-0.746646025807955,0.7909519050516018,-0.2543497656110393,0.8009060225010304,-0.2986161937463483,0.740126254550072,0.067022033963067,10.340757800366193,-1.0129970383140838,0.3072826586701405,-0.7976088458291161
1.06,1.71249140647921,-1.7964154391789011,2.1248067722174344,-0.0228785441654509,0.0897962126102713,0.0551308193620924,-0.6704388762291413,0.7461195655114445,-0.2487643252331699,1.7241389076162108,-1.810120760591696,2.1296819383462915,-0.7666460261059782,0.810951905349625,-0.2574834913585053,0.5719952092384464,-0.2136374340015345,0.5293405384789895,-0.0365535293473481,10.249986736695972,-1.0121824802678363,0.3053360357400388,-0.7985744218622455
1.08,1.6990464125083646,-1.781398061412581,2.1198060071164475,-0.0188557543226639,0.0917680621693043,0.0555945014781358,-0.6738067261609556,0.7551161146099147,-0.251363419416106,1.7092059871000518,-1.794301722490664,2.1245949430340705,-0.8066460267020247,0.8509519059456715,-0.2637509428534375,0.4975831574123498,-0.1683924965907135,0.449827454923507,-0.1299547091468025,10.120348631409795,-1.0106867421221215,0.3031435591309782,-0.8008176954246112
1.1,1.6855425289828003,-1.7662129095094667,2.1147358196508392,-0.0156142397724235,0.0932380927080712,0.0560022502387463,-0.6764337130937894,0.7630640982088733,-0.2555963059102532,1.6942730665838928,-1.7784826843896318,2.11950794772185,-0.8466460272980711,0.890951906541718,-0.2700183943483697,0.4690118114368996,-0.1313493466416904,0.3973991799479326,-0.2116443247073579,10.010552587614256,-1.0090222480806863,0.3011572302264273,-0.8033975152383851
1.12,1.671991326922934,-1.7508757511358797,2.109567291865248,-0.0132379557943029,0.0939803222843193,0.0563479907892185,-0.6786485640201911,0.7704548541748588,-0.2610472173778215,1.6773401460379314,-1.7606636462587977,2.1141075798348825,-0.8866460278941176,0.9309519071377644,-0.2762858458433019,0.4723379992182516,-0.1107425463200861,0.3695377982992742,-0.272545573378416,9.92317640638612,-1.007684674385486,0.2996040400094776,-0.8055737579720476
1.14,1.658397642127914,-1.7353948254898426,2.104287455221751,-0.0116797529767039,0.0939239139799883,0.0566329039952199,-0.6807238947554134,0.7774181568724315,-0.2666678662301801,1.66040722549197,-1.742844608127963,2.108707211947915,-0.926646028490164,0.9709519077338108,-0.2825532973382341,0.4593100141519385,-0.1037665367611129,0.3481651348786363,-0.2810324426179289,9.864026941486372,-1.0070099982554956,0.2984067875977769,-0.8069350796248433
1.16,1.6454396310100765,-1.720553479660209,2.099168721824117,-0.0107173509410488,0.0932821068191689,0.056860949571771,-0.6832350772419705,0.7844580511095777,-0.2718652043666898,1.6424743049311077,-1.7240255699822271,2.1031501577735745,-0.9666460290862104,1.0109519083298573,-0.2888207488331662,0.4551880711755666,-0.1255591243278564,0.3519947118573063,-0.2598669068254872,9.858985829479934,-1.006775494562826,0.2976458666681634,-0.8075229860274167
1.18,1.6317425284883758,-1.704786094975831,2.0936756039118163,-0.0099935446311987,0.0922587572950252,0.0570707518879209,-0.6863983591767749,0.791880861349203,-0.2771642413961225,1.6235413843553437,-1.7042065318215909,2.0974364173118607,-1.0066460296822568,1.0509519089259036,-0.2950882003280984,0.4826599680205654,-0.1581640967402209,0.3711405119812661,-0.2649518514716342,9.870179106065734,-1.0070909660334373,0.2971313848120021,-0.8073555224458056
1.2,1.6179759265321438,-1.6888687214859532,2.0880788831413417,-0.0094090615387841,0.0911104552132826,0.0572583783083663,-0.6901364666594622,0.7994237468801937,-0.2822396143105935,1.597422610529537,-1.6651920519083705,2.07981739184201,-0.7863983606668911,0.8918808628393191,-0.2865370168390208,0.4914976599809428,-0.1869053741343607,0.3771442765495347,-0.253768645723551,9.892782209420147,-1.0078512233884749,0.2968693269159365,-0.8064767041608204
1.22,1.604793715609066,-1.67358020489428,2.0827164809348053,-0.0079538876107784,0.0911307595016865,0.0574762512907529,-0.6969376899417978,0.8090990100178397,-0.2819526026645275,1.597422610529537,-1.6651920519083705,2.07981739184201,-0.7863983606668911,0.8918808628393191,-0.2865370168390208,0.5915017552887182,-0.3400611641167839,0.4837631568822997,0.0143505823033018,10.22175199362573,-1.0083680256394751,0.2961409615834297,-0.8060055079428311
1.24,1.5908006630937657,-1.6573221723391702,2.0770777131105254,-0.0056347159683433,0.0927282076451158,0.0577346977188486,-0.701829525983798,0.8161155423490879,-0.2819885870842299,1.597422610529537,-1.6651920519083705,2.07981739184201,-0.7863983606668911,0.8918808628393191,-0.2865370168390208,0.4276770998537467,-0.2445918021000082,0.3508266165624107,-0.0017992209851241,10.22175199362573,-1.009269054178971,0.2952904500337272,-0.8050330123267414
1.26,1.5767283972111878,-1.640940064953479,2.0714246396060263,-0.0037211035501508,0.0948480994949062,0.0579507018145762,-0.705094057319391,0.8219059969863813,-0.2833192206722705,1.589558626922868,-1.6562732432799774,2.07695202167362,-0.8063983609649142,0.9118808631373424,-0.2884115719276004,0.3389583879078796,-0.1632265667796506,0.289522731864672,-0.0665316794020265,10.089730057846282,-1.0083820145957103,0.2944083417471427,-0.806306186103451
1.28,1.5633118907597447,-1.625276663642352,2.06601972786842,-0.0025569849112739,0.0967441671650297,0.0581008040651854,-0.7070147554769022,0.826700987327651,-0.2855563207429956,1.5738306597095304,-1.638435626023191,2.07122128133684,-0.8463983615609607,0.9518808637333888,-0.2921606821047597,0.2814499534178954,-0.0960349078755584,0.2397495170634811,-0.1118550035362569,10.033039625979654,-1.0070956818053656,0.2937851211086146,-0.8080275823719965
1.3,1.5491592499339222,-1.60869712838654,2.060277092522216,-0.002347579696193,0.0981929676615259,0.0581785714892724,-0.7081693325691404,0.8310947644636336,-0.2886250749457419,1.5581026924961925,-1.6205980087664045,2.065490541000059,-0.8863983621570072,0.9918808643294352,-0.295909792281919,0.2741148397090097,-0.0577288546119103,0.2196888567991328,-0.1534377101373163,10.033039625979654,-1.005894536810428,0.2937463239808505,-0.8094884033980718
1.32,1.5349892246662666,-1.5920326247189038,2.054468627975704,-0.0034711956316309,0.0988261632875383,0.058154938236311,-0.7088425996591354,0.8352605610057998,-0.2920828767377094,1.5403747252530524,-1.6007603914798156,2.059572345154421,-0.9263983627530537,1.0318808649254816,-0.2996589024590783,0.2727798683816648,-0.0336633544997522,0.20828982710831,-0.1728900895983709,9.975733830020545,-1.0051138071890684,0.2945692062321451,-0.8101473826150305
1.34,1.520808945311166,-1.575282575755312,2.048592950563742,-0.0060704305576462,0.098498115182857,0.0580247159785382,-0.7092822398980911,0.839859530330304,-0.2953122331270907,1.522646758009912,-1.580922774193227,2.0536541493087825,-0.9663983633491,1.0718808655215282,-0.3034080126362377,0.2818357015934891,-0.0219820119477853,0.2299484662252104,-0.161467819469066,9.975733830020545,-1.0050589428232195,0.2962577141414377,-0.8096737923657195
1.36,1.507323891077306,-1.5592557415415824,2.042956835196627,-0.0090857746561868,0.0973617368331375,0.0578660202750677,-0.7102550860764375,0.846971105455685,-0.2977983038847989,1.5039187907518707,-1.560085156891737,2.047642225708715,-1.0063983639451466,1.1118808661175743,-0.3071571228133969,0.3798074455003232,-0.0486423089173182,0.3555787562690482,-0.1243035378854118,9.990204495868056,-1.0057711949380126,0.2987982634535026,-0.8075932888780308
1.38,1.493102565094036,-1.542222326236942,2.0369793931433744,-0.0118516170206645,0.0954917427192054,0.0577343972382797,-0.7119034199997709,0.8559122985418858,-0.2997780199128719,1.4841908234789285,-1.538247539575346,2.041536574354218,-1.046398364541193,1.1518808667136209,-0.3109062329905563,0.4652451345241172,-0.0824166961666705,0.4470596543100391,-0.0989858014036504,10.025830335177488,-1.0077241410279272,0.3014405594075744,-0.8036514106361423
1.4,1.4788398388589643,-1.5250004721249373,2.030969207881159,-0.0138668624745801,0.0931325587682881,0.0576616843102568,-0.7143716734446044,0.8656671292826194,-0.3011046770853134,1.4575073940940473,-1.4994267113098478,2.0219904921477307,-0.811903421489887,0.955912300032002,-0.3074840795214804,0.5074667898037356,-0.1234126722416739,0.4877415370366789,-0.0663328586220729,10.06166838698482,-1.0103896251696154,0.303757724769561,-0.7987383306010549
1.42,1.464468056530441,-1.507525370123805,2.024962560392023,-0.0132236241092248,0.0921176910676139,0.0577510839101543,-0.7223548686793094,0.8804894642872187,-0.2994654263039576,1.4575073940940473,-1.4994267113098478,2.0219904921477307,-0.811903421489887,0.955912300032002,-0.3074840795214804,0.8457543441628977,-0.3991597617352516,0.7411167502299698,0.0819625390677897,10.095042860554711,-1.0116724694240962,0.3043943856685016,-0.7959250869406189
1.44,1.4506851385257216,-1.4906838931850743,2.0192864488163997,-0.0098703491722625,0.0932372871914693,0.0579890448485112,-0.7278648636088694,0.8911605411814859,-0.298092343341385,1.4575073940940473,-1.4994267113098478,2.0219904921477307,-0.811903421489887,0.955912300032002,-0.3074840795214804,0.6043949102806165,-0.2754997464779973,0.5335538447133581,0.0686541481286273,10.293764005354204,-1.0135593794236804,0.3033404864073509,-0.793223172921426
1.46,1.436085018965862,-1.4727794444609912,2.0133276354199245,-0.0055285099966015,0.0953895164241541,0.0582783958916059,-0.7317199364930561,0.8986002711112043,-0.2979287553063001,1.4493883598791484,-1.4898675883095278,2.018915651352516,-0.8319034217879102,0.9759123003300252,-0.3090252914432021,0.4190403602720234,-0.1927536442093369,0.3719864964859209,0.0081794017542491,10.24594884565795,-1.0131527462693093,0.3011615084812507,-0.7939922491310686
1.48,1.4214252340457645,-1.4547506900482332,2.00735516172969,-0.0016642639312857,0.0977221652334817,0.0585276378627432,-0.734034034297029,0.9040526870279594,-0.2993283484824142,1.4331502914493508,-1.4707493423088878,2.0127659697620865,-0.8719034223839567,1.0159123009260715,-0.3121077152866455,0.3043137732434276,-0.1157048901986423,0.2726207958377524,-0.069979658805705,10.155080817768976,-1.0116897596238652,0.2988409009152409,-0.7963725696407421
1.5,1.4067317846250194,-1.4366238948897714,2.001342140681755,0.0013493480720908,0.0996799232630555,0.058711610457953,-0.7352309108707412,0.9085663398267344,-0.3019093648175984,1.416912223019553,-1.4516310963082475,2.006616288171657,-0.9119034229800032,1.055912301522118,-0.3151901391300889,0.2667734077971406,-0.0598438286856128,0.2256826399387568,-0.129050816759213,10.069681381875853,-1.0101404679074912,0.2968896680899937,-0.7988995849475817
1.52,1.3927583669999954,-1.419324665665547,1.9955743713752017,0.0033748388930546,0.1008725060595454,0.0588191502734025,-0.735676201063501,0.9123906144338124,-0.3050985457493809,1.398674154559953,-1.4305128502778053,2.0003124853890557,-0.9519034235760496,1.0959123021181645,-0.3182725629735323,0.2499711715466085,-0.0222645096379869,0.1912137303538952,-0.1594590465891221,10.006661893535238,-1.008811597186941,0.2952853603492539,-0.8010812355677216
1.54,1.3780442498767715,-1.4010406599894476,1.9894342801278864,0.0046029243052154,0.1012497019789611,0.058856544069358,-0.7357896100930952,0.915891718910559,-0.3087554468862205,1.3804360861003528,-1.4093946042473628,1.9940086826064531,-0.991903424172096,1.135912302714211,-0.3213549868169757,0.2531971568250075,-0.0056704514797112,0.1750552238373282,-0.1828450568419792,9.96716039572948,-1.0082227182871442,0.2942930312406354,-0.8021472914740192
1.56,1.3633241334006454,-1.382682190073874,1.98322160365267,0.0050104386973621,0.1007962252712755,0.0588230315286611,-0.7363099710851685,0.9197985798373768,-0.3123269385136823,1.3611980176258516,-1.387276358202019,1.9876278192277657,-1.0319034247681425,1.1759123033102574,-0.3244374106604191,0.265941207358865,-0.0260180496036654,0.1953430463408845,-0.1785745813730921,9.95325980648795,-1.008205700590439,0.2939237583096139,-0.8022050338338667
1.58,1.3485883929820557,-1.3642421151122244,1.9769409421362425,0.0049018060554232,0.0997654897856855,0.0587419132117061,-0.7373084639527202,0.9239997388212196,-0.3155571984670038,1.3409599491364492,-1.3641581121417747,1.981169895252992,-1.0719034253641888,1.2159123039063038,-0.3275198345038625,0.2696354213568243,-0.0499246433775857,0.2100579491921494,-0.1615129976660745,9.960882476342704,-1.008903834757806,0.2939714087523577,-0.8012058121960047
1.6,1.3345660503507326,-1.3466428976793532,1.970918195100496,0.0045055477751621,0.0984243517601807,0.0586358919384543,-0.7387338401670401,0.9283120041694648,-0.3182508830571889,1.3117229697844195,-1.3180421281711634,1.9611630822128925,-0.8373084654428363,1.0239997403113357,-0.3232293230092997,0.264023040933104,-0.0712688107159964,0.2156132674122568,-0.1346842295092548,9.979841916373516,-1.0101059918080004,0.2943201719175205,-0.7994370450073641
1.62,1.3197321994798132,-1.32799435185797,1.9645476676974944,0.0050281451168132,0.0980305111846266,0.0585871135715521,-0.7444431004520995,0.936037545257991,-0.3185294636836498,1.3117229697844195,-1.3180421281711634,1.9611630822128925,-0.8373084654428363,1.0239997403113357,-0.3232293230092997,0.4805133850333979,-0.2854630142529679,0.3862770544263094,-0.0139290313230455,10.000448902460448,-1.0108993059449598,0.2943047618556443,-0.7981136862629604
1.64,1.3048021645514016,-1.3092170187042882,1.9581741365658465,0.0067085569051756,0.0993705321147748,0.0586186035353758,-0.7480816239911878,0.941286046824044,-0.3188415202853076,1.3117229697844195,-1.3180421281711634,1.9611630822128925,-0.8373084654428363,1.0239997403113357,-0.3232293230092997,0.3196990833424391,-0.1819261769544167,0.2624250783026471,-0.0156028300828919,10.138140858914085,-1.0110107102435195,0.2932445008833952,-0.7984861883623005
1.66,1.2898183806559034,-1.2903482254073562,1.951783507401388,0.0084923104880354,0.101280811882336,0.0586534221706255,-0.7500549573009618,0.9453949298031328,-0.3202085055654945,1.3033498851299912,-1.30780213076805,1.9579307889827997,-0.8573084657408595,1.0439997406093589,-0.3247637479177589,0.2379370318149174,-0.0986666654887002,0.2054441489544423,-0.068349264009343,10.138140858914085,-1.0100516106095596,0.292214353637614,-0.7999241364661674
1.68,1.27556020185245,-1.2723567968267635,1.9456782208233123,0.0098483918100661,0.102992184677533,0.058655493448288,-0.7507203297864171,0.9483293303116902,-0.3223878823771491,1.2866037158211343,-1.2873221359618232,1.9514662025226133,-0.897308466336906,1.0839997412054054,-0.3278325977346773,0.1857626858131158,-0.0332686242727642,0.1467200254278711,-0.1089688405827321,10.075748324497908,-1.0087102040365905,0.2911942793902571,-0.8018665918756847
1.7,1.260547387011883,-1.2533672450085185,1.939199979850728,0.0104720898228862,0.1042417802923084,0.0585891278130268,-0.7505531522720483,0.9505517998262434,-0.3253531499344158,1.2698575465122777,-1.2668421411555966,1.9450016160624275,-0.9373084669329524,1.1239997418014518,-0.3309014475515957,0.1854732511078554,0.0083588757184394,0.1111234757276591,-0.1482633778633335,10.025162231650029,-1.007502643146411,0.2905882563464385,-0.8035480477497796
1.72,1.245544384461469,-1.2343399308772045,1.9326580994969624,0.0098516591532158,0.10463337171914,0.0584203701509793,-0.7498812874673461,0.9522516158671992,-0.3286844995350097,1.2511113771736186,-1.2443621463195675,1.9383835871113957,-0.9773084675289988,1.163999742397498,-0.333970297368514,0.1899912303914645,0.0335932402351135,0.0849908020477852,-0.1665674800296945,9.973970836001172,-1.0068019745084331,0.2907261480867084,-0.8044108360398088
1.74,1.230557415335226,-1.215279122849137,1.926051391914097,0.0077621071974926,0.104029666747322,0.0581358587546296,-0.7489640690063386,0.953948757606185,-0.3318151451650719,1.2323652078349596,-1.2218821514835383,1.9317655581603637,-1.0173084681250455,1.2039997429935447,-0.3370391471854324,0.1838649086180444,0.0458609230503725,0.084857086949297,-0.1565322815031106,9.98637438305741,-1.0070325198227783,0.2917558154123854,-0.8039170421958116
1.76,1.2163323126237449,-1.1971189514729454,1.9197231320901136,0.0048640874383028,0.1025286668718906,0.0577967431010063,-0.7485579908423933,0.9577773731573916,-0.3341553374909978,1.2126190384813993,-1.1984021566326082,1.9250708079639087,-1.057308468721092,1.243999743589591,-0.3401079970023508,0.2252759232391282,0.0203039081972666,0.1914307775603307,-0.117009616296293,9.98637438305741,-1.0079317164256223,0.2936860666297677,-0.8020760380798592
1.78,1.201360054957688,-1.1779024701802363,1.9130213871715145,0.0019469834221411,0.1001065032633582,0.0574514673591244,-0.7487817753828129,0.9636350176476304,-0.3358534449855349,1.191872869112938,-1.173922161766777,1.9182993365220309,-1.0973084693171382,1.2839997441856374,-0.3431768468192692,0.3051460615736319,-0.0111892270209801,0.2928822245119422,-0.0849053747268568,10.021873398472051,-1.0103448559622512,0.296109417025193,-0.7977810587357853
1.8,1.1863740110777456,-1.158556336767507,1.906295115265596,-0.0003365866520112,0.0969898362865403,0.0571566097727635,-0.7499183745809748,0.9704938312746256,-0.3366781084165345,1.1639209661885472,-1.129720719297855,1.8962287149222377,-0.848781776872929,1.0636350191377466,-0.3325953298392258,0.3500544667674698,-0.0568299599080945,0.3429406813497515,-0.0412331715499814,10.063181152523612,-1.0136808403530833,0.2983849379705333,-0.7921138011215013
1.82,1.1713039086951893,-1.1390138523115134,1.8996051224069173,-3.0017825533604967e-05,0.0950631978325614,0.0570434838448581,-0.7569228153062949,0.9825037657271112,-0.3322606122595929,1.1639209661885472,-1.129720719297855,1.8962287149222377,-0.848781776872929,1.0636350191377466,-0.3325953298392258,0.7294089863103591,-0.3502220362660069,0.6004967226242885,0.2208748078470823,10.105145080488,-1.016573698902212,0.2990329382003438,-0.787613443393482
1.84,1.156868156867782,-1.1202604730297498,1.893334464936833,0.0029506107738918,0.0955347294981903,0.0571158673397608,-0.7620337499979042,0.9906605663903324,-0.3280318316993538,1.1639209661885472,-1.129720719297855,1.8962287149222377,-0.848781776872929,1.0636350191377466,-0.3325953298392258,0.5256844003489067,-0.255546734580464,0.4078400331610554,0.211439028011956,10.43975537683582,-1.01892862735555,0.2980905721239012,-0.7843818219555632
1.86,1.14158915088293,-1.100392414542407,1.886808536545208,0.0069873060524452,0.0972288816153891,0.0572520140299149,-0.7654539401111263,0.9955727294635668,-0.3248489268000448,1.155433148419818,-1.1190843691064774,1.8929027616238452,-0.8687817771709522,1.0836350194357698,-0.331943706809964,0.3389613918526522,-0.1710095056611071,0.2456081536617194,0.1591452449654473,10.399256605579469,-1.019153627419831,0.2961920087959239,-0.7841982952180175
1.88,1.1262590177744205,-1.080450559451024,1.880330494949705,0.0105789214141679,0.0992756651070102,0.0573562939813756,-0.7673233248409829,0.99846728830869,-0.3231802187495936,1.1384575128823593,-1.0978116687237225,1.886250855027061,-0.9087817777669986,1.1236350200318164,-0.3306404607514403,0.1914265964654774,-0.0934692364928269,0.144727942256162,0.0834354025225608,10.308913343686982,-1.0183346288992063,0.2942500352034137,-0.7855800187034012
1.9,1.110905009264541,-1.0604627198346446,1.8738714851315983,0.013257741478911,0.1010357502276432,0.0573906986829728,-0.7680227374867571,1.0004220630977527,-0.3228009087571045,1.121481877344901,-1.0765389683409676,1.8795989484302764,-0.9487817783630452,1.1636350206278627,-0.3293372146929166,0.1055248619452558,-0.0349706322887111,0.0977387394531348,0.018965499624457,10.154586888831544,-1.0172082310361037,0.2925116226822405,-0.7873947217270136
1.92,1.0963135221501663,-1.04144295542484,1.8677350628683056,0.0148876495011274,0.1020815074917813,0.0573471057427956,-0.7679716807969035,1.001768470102759,-0.323155753885273,1.10250624177764,-1.0532662679284104,1.873012204136418,-0.9887817789590916,1.203635021223909,-0.328033968634393,0.0696658753209478,0.0025528344926806,0.0673203502503105,-0.0177422564084261,10.154586888831544,-1.0163974794764368,0.2913056730513195,-0.7886711102421802
1.94,1.0809592940413677,-1.021399638254924,1.861266564666048,0.0155045264802298,0.1023161541827765,0.0572066753705015,-0.767536318283859,1.0025962453730524,-0.3236771440846372,1.0835306062103789,-1.0299935675158531,1.86642545984256,-1.028781779555138,1.2436350218199557,-0.3267307225758693,0.0535397085317703,0.0217681256522217,0.0413887635146714,-0.0260695099682101,10.115571375741638,-1.0162652633057574,0.29078200929502,-0.788916697536653
1.96,1.0656099699962729,-1.0013343459308377,1.8547900333713576,0.0150422433324618,0.1017136674438879,0.0569742466492955,-0.7674952069302934,1.0039419645490837,-0.3239319709596542,1.0635549706282168,-1.0057208670883948,1.8598712967001645,-1.0687817801511843,1.283635022416002,-0.3254274765173457,0.0685125349910653,0.0020555676782829,0.067285958801555,-0.0127413437508522,10.12706942281784,-1.0167877585617864,0.2909825213935092,-0.788074214325323
1.98,1.0502569695808408,-0.9812361147337948,1.8483144539249527,0.0138129274019463,0.1004737693180724,0.0566776912512833,-0.7678880149919893,1.0058427170531266,-0.3236077672293778,1.0425793350311536,-0.9804481666460352,1.8533497147092324,-1.1087817807472309,1.3236350230120484,-0.324124230458822,0.0983903744489844,-0.0196404030847974,0.0950376252021545,0.0162101865138208,10.12706942281784,-1.0180813606526615,0.2918013803905877,-0.7860104937581384
2.0,1.0356593064432127,-0.9621005711133078,1.8421747293856123,0.0121829557776055,0.0988475034004415,0.0563593651478373,-0.7687566460539081,1.0083329135585877,-0.3226889527813177,1.0118625688312413,-0.9309439788811384,1.832134065563484,-0.8356269205410387,1.1049806938187592,-0.3132609382694956,0.1396407761678506,-0.0434315530959406,0.1245098252730447,0.0459407224030067,10.157213689917626,-1.020006756567924,0.2931233598246696,-0.7828686497609888
2.02,1.0201714909542727,-0.9418533975631254,1.835755845577188,0.0118831020847386,0.099905999158639,0.0561570291784923,-0.7795892913618782,1.0158777059578388,-0.3191237369211452,1.0118625688312413,-0.9309439788811384,1.832134065563484,-0.8356269205410387,1.1049806938187592,-0.3132609382694956,0.6837047258241505,-0.5416322653985006,0.377239619962566,0.1782607930086249,10.190251393833933,-1.0197909607826932,0.2942610480430383,-0.781767938837701
2.04,1.004503261874507,-0.9214804918121486,1.8294158862772167,0.0137001545178931,0.1057830152540878,0.0561609624578725,-0.7860685564642887,1.020963127812983,-0.3150563531556179,1.0118625688312413,-0.9309439788811384,1.832134065563484,-0.8356269205410387,1.1049806938187592,-0.3132609382694956,0.4593092705578903,-0.3239632551205296,0.2542710927572078,0.2033691882763644,10.398000743628472,-1.0176612212090157,0.2928278399218448,-0.7859189132843397
2.06,0.9887566828309212,-0.9010223226043302,1.823144216476213,0.0164016466048338,0.114035037814874,0.056270804556599,-0.7878506167442746,1.0244555415004064,-0.3123361650497999,1.0035062996258308,-0.9198941719429508,1.829001456180789,-0.8491747016508486,1.1248082891718858,-0.3111915724775191,0.2386006891054591,-0.0891030139992921,0.1746206843711739,0.1360094052909016,10.379859424318964,-1.0123238123651392,0.2910897760236292,-0.7934562960259053
2.08,0.9738061307122108,-0.8815425379657834,1.817220877159816,0.0188569641709821,0.1224605315049867,0.0563938706189611,-0.7856052301029534,1.0260076694044504,-0.3113327356939858,0.98679376121501,-0.8977945580665756,1.822736237415399,-0.8762702638704684,1.1644634798781388,-0.3070528408935662,0.1454109063279413,0.1122693320660617,0.077606395202201,0.0501714677907022,10.287370330707745,-1.0051871757198478,0.2891480910378522,-0.8030103275955331
2.1,0.958150523725006,-0.8610148594631231,1.8109927222862685,0.0207376104855354,0.130726959853272,0.0564773527444838,-0.7799121331937761,1.026831045851072,-0.3116126584710713,0.9700812228041892,-0.8756949441902004,1.816471018650009,-0.903365826090088,1.2041186705843918,-0.3029141093096133,0.2879568455136406,0.2846548454588649,0.0411688223310835,-0.0139961388542747,10.199317850699115,-0.9976190268267322,0.2875750217996801,-0.8126001533690442
2.12,0.9426395313283098,-0.840477244953379,1.804747108705257,0.0215945570499169,0.137485403513336,0.0564647287375485,-0.7715193626100326,1.0270660409071892,-0.3129537234547969,0.9520139062823876,-0.8516125707785126,1.8104127364638167,-0.9304613883097078,1.2437738612906448,-0.2987753777256604,0.4251243231053817,0.4196385291871718,0.0117497528058563,-0.0670532491862802,10.137816347182708,-0.9910198890636382,0.2867632061306725,-0.8204116398251463
2.14,0.9273168204391816,-0.8199395875477921,1.7984713541105737,0.0211405237260221,0.1422492509427809,0.0563162896304852,-0.7613148242071202,1.0268787425117485,-0.3145649371865853,0.9339465897605858,-0.8275301973668248,1.8043544542776244,-0.9575569505293277,1.283429051996898,-0.2946366461417075,0.5166325928427126,0.5102269201456233,-0.009364919772048,-0.0805606865894204,10.100995311243423,-0.9853479041611024,0.2868251094549785,-0.826582044481824
2.16,0.9129566493328104,-0.8004228016052167,1.7924834559259144,0.0195994974531752,0.144840296555691,0.0560524080362922,-0.7509516685351699,1.027583688564894,-0.3156591908123871,0.9152018841832936,-0.8024564441874806,1.7983996403810312,-0.9846525127489474,1.323084242703151,-0.2904979145577546,0.5222292011571649,0.5181577835975115,0.0352473026572819,-0.0547126812900894,10.10401719992842,-0.9814753163113904,0.2880356520406204,-0.829949235207012
2.18,0.8980548504552854,-0.7798542711455083,1.786166261544517,0.0171830626212345,0.1456978636066614,0.0556801346918766,-0.7398827051708033,1.0293851973222208,-0.3159537247846427,0.8957797895505109,-0.7763913112404802,1.7925482947740363,-1.011748074968567,1.362739433409404,-0.2863591829738017,0.5609236445926209,0.553448168218329,0.0900754378663437,-0.0147266986127769,10.139909301430636,-0.979683804194128,0.2902107001872688,-0.8303293218955581
2.2,0.8833750135585311,-0.7592290309699773,1.77985521209043,0.0146512611354257,0.1447283889669781,0.0552712549457633,-0.7287330847129354,1.0330558494438866,-0.3150773855535994,0.8610607151967453,-0.7283850112793973,1.770368575305285,-0.7724452143499186,1.0768202313886597,-0.2811146571765246,0.5885484130482865,0.5574810228933968,0.183532606083292,0.0438169615521621,10.258364750561668,-0.9800948599832958,0.2929516959811197,-0.8276621592927952
2.22,0.8688168117499525,-0.7382800870282137,1.773610576814826,0.0204528465486791,0.1447990776596183,0.0554591939707233,-0.7268953419640796,1.056730364895529,-0.309455493448037,0.8610607151967453,-0.7283850112793973,1.770368575305285,-0.7724452143499186,1.0768202313886597,-0.2811146571765246,1.220108244304183,0.091887137442792,1.1837257725821226,0.2810946052781204,10.258364750561668,-0.9816323416958022,0.2929066601442666,-0.8224048792048942
2.24,0.8550541989397785,-0.7181268809207166,1.7677905536472247,0.0329057447452575,0.1475455063289379,0.0561765541175224,-0.7215403503552626,1.0624516804007162,-0.3034953167519735,0.8610607151967453,-0.7283850112793973,1.770368575305285,-0.7724452143499186,1.0768202313886597,-0.2811146571765246,0.4922730250803243,0.2677495804408458,0.2860657752593587,0.2980088348031762,10.530733883842004,-0.9812782435081744,0.2854568444000374,-0.8238540539619227
2.26,0.8407111727193438,-0.6968987380219986,1.7617700386381705,0.0468398020694782,0.15168891161823,0.0570563553660901,-0.7128210277458495,1.0598149981931195,-0.2989880039483585,0.8533362630532462,-0.7176168089655106,1.7675574287335196,-0.7789577161857417,1.0863072382019472,-0.274146843654901,0.5081696285211054,0.4359661304706552,-0.1318341103798359,0.2253656401807496,10.530733883842004,-0.97750670086931,0.2760169751455804,-0.8302959673515823
2.28,0.8265707243579569,-0.6757794778723657,1.7558175247583656,0.059383048743961,0.1559807524279927,0.0578803895488987,-0.7015507031663089,1.0523444952683267,-0.2965886118366487,0.8378873587662478,-0.6960804043377374,1.7619351355899893,-0.7919827198573878,1.1052812518285229,-0.2602112166116538,0.6866325665581118,0.5635162289770346,-0.3735251462396394,0.1199696055854904,10.334510261975083,-0.9721901082123772,0.2665527848688487,-0.838707231758947
2.3000000000000003,0.8126789043297904,-0.6548446009438839,1.7498960112569757,0.069680897905348,0.159546852097841,0.05852859637056,-0.6882521647265972,1.0419488968619446,-0.2956799295706348,0.8224384544792493,-0.6745439997099643,1.756312842446459,-0.8050077235290339,1.124255265455098,-0.2462755895684065,0.8452001158303148,0.6649269219855813,-0.5197799203191078,0.0454341133006935,10.334510261975083,-0.9668506483124149,0.2583147735158319,-0.8469026914765159
2.32,0.7997424773532985,-0.6351669985500493,1.7442822763376171,0.0773069174293296,0.1617751958922236,0.0589194539743893,-0.6742710463764069,1.030340007010038,-0.2952703182979549,0.8063383000086687,-0.6520588944008623,1.751387330655091,-0.8180327272006801,1.1432292790816736,-0.2323399625251593,0.9088533645622268,0.6990559175095168,-0.5804444925953223,0.0204805636339955,10.285700482296306,-0.961829733353507,0.2508346658530324,-0.85451110962955
2.34,0.7864205094468788,-0.6147015789282192,1.738385557124705,0.0832477017832713,0.1626467687301162,0.0590627229906235,-0.6587666325727315,1.0171117337462428,-0.2943747854282495,0.7902381455380879,-0.6295737890917603,1.7464618188637224,-0.8310577308723262,1.162203292708249,-0.2184043354819121,1.0200196567443771,0.7752206901837699,-0.6614136631897694,0.0447766434852697,10.285633166859952,-0.9580711829001178,0.2448082075659653,-0.8602425152567248
2.36,0.7734135918599279,-0.5945050751542578,1.7325170210793492,0.0874065446258757,0.1618853889783235,0.0589273720265282,-0.6427693687021592,1.0034400504073042,-0.2924560244610671,0.7738123659757161,-0.606614333441994,1.7418846977484357,-0.8440827345439723,1.1811773063348243,-0.2044687084386648,1.0565380025277256,0.799863193528616,-0.6835841669469267,0.0959380483591176,10.403347667446724,-0.9562990738470166,0.2402819624619085,-0.863329605823006
2.38,0.7607326176657331,-0.5745875218418628,1.72670214035947,0.0901009739780566,0.1592216574506809,0.0585007900092885,-0.6263002403925724,0.9893276650153484,-0.2890930576736417,0.7570609613215532,-0.5831805274515632,1.7376559673092298,-0.8571077382156184,1.2001513199614,-0.1905330813954177,1.0973845660729549,0.82345641547934,-0.7056192695977959,0.168148339371274,10.403347667446724,-0.9566414014346556,0.2372585043312345,-0.8636042327213989
2.4,0.7489905464072314,-0.5559314234550488,1.721255423606287,0.0915050650467071,0.15467395014573,0.0578124421512497,-0.6107958573973976,0.9753984432888826,-0.2843693678089424,0.7294176056461045,-0.5251211385910953,1.7122474874757878,-0.656419350291378,0.9783467441492164,-0.2507538004333463,1.0685531759158864,0.775219149758738,-0.6964610863232856,0.2361844932349616,10.48753005551862,-0.9590842467414228,0.2356029759620616,-0.8607100801751667
2.42,0.736867376961705,-0.5364051910111315,1.7155368980044603,0.0972795366545686,0.14914105109633,0.057290895242187,-0.6025728597835244,0.9753430741251862,-0.2884679499362629,0.7294176056461045,-0.5251211385910953,1.7122474874757878,-0.656419350291378,0.9783467441492164,-0.2507538004333463,0.4593994203208251,0.411149880693662,-0.0027684581848208,-0.2049291063660224,10.578850954023435,-0.9605169024569562,0.2356427064772202,-0.8535887118970815
2.44,0.7248984179539553,-0.5170159338816273,1.7097297061156609,0.1073241896206711,0.1444695722733929,0.0570804872481601,-0.5947629314833417,0.9629849290522232,-0.2919010746573462,0.7294176056461045,-0.5251211385910953,1.7122474874757878,-0.656419350291378,0.9783467441492164,-0.2507538004333463,0.7508413198687588,0.3904964150091339,-0.6179072536481423,-0.1716562360541684,9.90261915341307,-0.96253813139068,0.2252175809845953,-0.8551750082955623
2.46,0.7130826415825398,-0.4979488896590255,1.7038734075858744,0.117218963522287,0.1406359200659949,0.0568739574362763,-0.5873153241961361,0.9444067283404504,-0.2935754854629808,0.7228534121431907,-0.5153376711496032,1.7097399494714542,-0.6624431722711391,0.9761505599759902,-0.2430859489852872,1.0042659602134656,0.3723803643602807,-0.9289100355886536,-0.0837205402817287,10.068696053249369,-0.963087566292699,0.2146209205178406,-0.8586121450548022
2.48,0.7019928166004862,-0.4802170989204888,1.6982928368365573,0.1251917367587337,0.1378302006676537,0.0566186566231886,-0.5804922482013868,0.9233566675674272,-0.2937499130878401,0.7097250251373631,-0.4957707362666188,1.7047248734627871,-0.6744908162306613,0.9717581916295376,-0.227750246089169,1.106446846412428,0.3411537997374647,-1.0525030386511536,-0.0087213812429626,10.30362816996876,-0.9625102211989512,0.2036641263564654,-0.8639043555350233
2.5,0.6904585226367633,-0.4620046215788017,1.692430082481606,0.1317431494868211,0.1357306980738274,0.0562838797286707,-0.573343174755357,0.8992489388915221,-0.2924171186915955,0.6965966381315356,-0.4762038013836345,1.6997097974541204,-0.6865384601901836,0.9673658232830848,-0.2124145431930508,1.2590355177182688,0.3574536723014887,-1.2053864337952525,0.0666397198122281,10.30362816996876,-0.9612442906389156,0.1938346692855207,-0.869826914350672
2.52,0.6790701836262499,-0.4442912497641735,1.6866109725786953,0.1363621881715269,0.1343610199030758,0.0558778093193545,-0.5658236270539078,0.8736213721806596,-0.2894561108476651,0.6828658689277319,-0.4568564849179728,1.6954615065902594,-0.6985861041497059,0.962973454936632,-0.1970788402969327,1.3435804224216512,0.3759773850724623,-1.2813783355431263,0.1480503921965192,10.416291004160485,-0.9599231085938196,0.1854363049141437,-0.8756326958684245
2.54,0.6678412660629867,-0.4271016947336649,1.6808655568231636,0.1390678870627732,0.1333064921258658,0.0553576681696516,-0.5575005555382575,0.8471420211743491,-0.2851844850482411,0.6691350997239283,-0.4375091684523111,1.6912132157263984,-0.7106337481092281,0.9585810865901792,-0.1817431374008145,1.404169092506606,0.416153575782513,-1.3239675503155246,0.2135812899712014,10.52707018522051,-0.9585124868755402,0.1790836856858914,-0.8807504077851193
2.56,0.657332511142358,-0.4112696807182055,1.6754987777100012,0.1399397415858686,0.1322550913658657,0.0547219179861634,-0.5491728798867747,0.8210519793681085,-0.2799175252514355,0.6551031394211366,-0.4182716611953107,1.6873483174349404,-0.7226813920687504,0.9541887182437266,-0.1664074345046963,1.3944365606839662,0.4163837825741423,-1.304502090312032,0.2633479898402818,10.608740161425883,-0.9570792289160652,0.1740265316588135,-0.8855262143960329
2.58,0.6464444769850155,-0.3951473293433766,1.669971550282106,0.138757623285121,0.1308952230652342,0.0538596967585378,-0.5401140790768149,0.7927801381312947,-0.2729816260592893,0.6407699880193568,-0.3991439631469717,1.6838668117158853,-0.7347290360282726,0.949796349897274,-0.1510717316085782,1.524356894429376,0.4529400404979899,-1.4135920618406903,0.3467949596073105,10.795426502997543,-0.956974082916906,0.1714405820450319,-0.8881121977978131
2.6,0.6357403829482828,-0.3795935461424992,1.6646009590320536,0.1350568465145379,0.1290591126344696,0.0527537254200239,-0.5308221202241266,0.7647201926483936,-0.2642447649046444,0.6194387730311748,-0.3555083224368118,1.6563224689791416,-0.5744268451221468,0.7622729666047434,-0.2271247590737298,1.541130901853386,0.4645979426344149,-1.4029972741450514,0.4368430577322418,10.795426502997543,-0.9587811143432372,0.1718988940896602,-0.8876724941208287
2.62,0.6251714641359626,-0.3644714119425818,1.659281187365533,0.1323047731420983,0.1273287310738283,0.0517348941331834,-0.5265139782409011,0.7477109713654538,-0.2683684295721267,0.6194387730311748,-0.3555083224368118,1.6563224689791416,-0.5744268451221468,0.7622729666047434,-0.2271247590737298,0.9012190442526784,0.2154070991612744,-0.8504610641469901,-0.2061832333741159,10.028465912759202,-0.9549839495646892,0.174299088134773,-0.8888481416118523
2.64,0.6152186718084687,-0.3504572354375445,1.6541698847970372,0.1313714751506174,0.1262682214269138,0.0509617641268806,-0.5213446075270877,0.7282666587559978,-0.2694349728951298,0.6194387730311748,-0.3555083224368118,1.6563224689791416,-0.5744268451221468,0.7622729666047434,-0.2271247590737298,1.0073991278174257,0.2584685356906702,-0.9722156304728002,-0.0533271661501522,10.028465912759202,-0.954389089211689,0.1695329811281839,-0.8941558834849515
