t,x,y,z,roll,pitch,yaw,v_x,v_y,v_z,ref_x,ref_y,ref_z,ref_v_x,ref_v_y,ref_v_z,a_com,a_x,a_y,a_z,thrust,wind_x,wind_y,wind_z
0.0,0.0308136704292554,1.808363007736653,1.8929445188964595,0.0228931282629069,0.0997497850159556,0.0419611045171681,0.0034335509675191,-0.0058664839938449,0.0076012931271936,0.0309200789337579,1.808126406897401,1.8931731484102208,-0.0964825715645767,-0.1073472264217187,-0.0923835204696641,0.5098641091068112,0.1716775483759583,-0.2933241996922495,0.3800646563596833,10.25079176892632,-0.9422688030757448,0.2600676526280459,-0.874776475293844
0.02,0.0310251306835284,1.808527436090796,1.8928710040236971,0.0296014653797432,0.0938647048930996,0.0422726603947469,0.0175671589664696,0.0179539600236024,-0.0154087700546184,0.0309200789337579,1.808126406897401,1.8931731484102208,-0.0964825715645767,-0.1073472264217187,-0.0923835204696641,1.8004412208451368,0.706680399947523,1.191022200872372,-1.150503159090607,10.249906178811216,-0.9503512923231952,0.2597699483054187,-0.8613296938362321
0.04,0.0314766932024097,1.8089418127865144,1.892243726771696,0.0437888187105552,0.077499504704789,0.0426139896866364,0.0255086543154299,0.0213707210059038,-0.0462768974020101,0.0309200789337579,1.808126406897401,1.8931731484102208,-0.0964825715645767,-0.1073472264217187,-0.0923835204696641,1.6027966885435974,0.3970747674480183,0.1708380491150707,-1.5434063673695857,8.860454031157133,-0.9499767120652454,0.2452341775292787,-0.8670543518513917
0.06,0.0319782779605016,1.8093349952015925,1.8909928755803045,0.058560916688597,0.0550681375106574,0.0423885675558214,0.0232306653403022,0.0173859616414351,-0.0772548973466909,0.0299552532181121,1.807052934633184,1.8922493132055245,-0.1164825718625999,-0.1273472267197419,-0.1123835207676873,1.5658097118872438,-0.1138994487563872,-0.1992379682234347,-1.5488999972340378,8.533030934420367,-0.9570813959186584,0.2281805740674448,-0.8682700790729776
0.08,0.0323224626386871,1.8095959690974517,1.889240729626124,0.0720949557074873,0.0317549300490329,0.0416449710971979,0.0125167732493034,0.0099857741274551,-0.1056890510310093,0.0280256017868206,1.8049059901047493,1.8904016427961312,-0.1564825724586463,-0.1673472273157883,-0.1523835213637338,1.5636906301464115,-0.5356946045499412,-0.3700093756990028,-1.4217076842159213,8.624188080844306,-0.9695162238141648,0.208339491797109,-0.8670278426140966
0.1,0.0323802527355414,1.8096863178928055,1.886817699240939,0.08569083477282,0.0078469121560915,0.0404665935385287,-0.0066974849811914,-0.0008889082874639,-0.1351549527621649,0.026095950355529,1.8027590455763152,1.888553972386738,-0.1964825730546928,-0.2073472279118348,-0.1923835219597802,1.8409819402995284,-0.9607129115247448,-0.5437341207459507,-1.4732950865577783,8.624188080844306,-0.9848008367165468,0.1889012576645042,-0.8625366549577898
0.12,0.0319810668180479,1.809528048391167,1.883811319522244,0.0986396471631144,-0.0133989185697447,0.0391052182468425,-0.0325373057205226,-0.0147000741520196,-0.164039912258309,0.0221662988944352,1.7986121010180784,1.8847063019475423,-0.2364825736507392,-0.2473472285078813,-0.2323835225558267,2.057173742949853,-1.2919910369665577,-0.6905582932277858,-1.4442479748072057,8.785936453217346,-0.9998617798942604,0.1685684709274445,-0.8596709899991496
0.14,0.0310093998407432,1.8090649054874648,1.8802247717300928,0.1109684008484313,-0.0306869443330132,0.0377877898864532,-0.0632445662466251,-0.0312002782171379,-0.1932458300648308,0.0182366474333413,1.7944651564598415,1.8808586315083464,-0.2764825742467857,-0.2873472291039278,-0.2723835231518732,2.273861373374477,-1.5353630263051232,-0.8250102032559165,-1.4602958903260896,8.785936453217346,-1.0123685334423271,0.1487229548003,-0.8598353967989154
0.16,0.029482413016239,1.8082949374365649,1.8762746456324384,0.1221218007217715,-0.042888093447225,0.0367502723303689,-0.0957152675306641,-0.0492468061598852,-0.2211237151379116,0.0133069959573463,1.789318211886704,1.87601096105425,-0.3164825748428321,-0.3273472296999742,-0.3123835237479196,2.3222834069152456,-1.6235350642019517,-0.9023263971373632,-1.393894253654039,8.877031052442817,-1.023436282526079,0.129483889636982,-0.8605230128920393
0.18,0.0271874619590147,1.80709009120757,1.8715430545413776,0.1332853417886479,-0.0510436107451347,0.0360356501433513,-0.1321133906940409,-0.0705435011619275,-0.2506046602439098,0.0073773444664501,1.783171267298665,1.870163290585252,-0.3564825754388785,-0.3673472302960206,-0.352383524343966,2.572692515716387,-1.8199061581688412,-1.0648347501021154,-1.4740472552999122,8.877031052442817,-1.0309164387420426,0.1121060999330861,-0.8632044776668882
0.2,0.024141185396636,1.8054300127885377,1.8662228397345328,0.1437067522403222,-0.0538288351356467,0.0358976591825438,-0.1703366786041892,-0.0945497825431252,-0.2798837171018232,0.0205817924243127,1.8035629161494735,1.859012821529182,-0.212380663583655,-0.1705435026520436,-0.350604661734026,2.690067125047372,-1.911164395507416,-1.2003140690598872,-1.463952842895666,8.922171484586215,-1.035906936861938,0.0949326299338582,-0.8690261045855486
0.22,0.020266711916201,1.8031030913372337,1.8604176269896684,0.1486820551557355,-0.0490571050168378,0.0364504009972761,-0.2144683113026333,-0.1349453332122618,-0.2980012862076298,0.0205817924243127,1.8035629161494735,1.859012821529182,-0.212380663583655,-0.1705435026520436,-0.350604661734026,3.1255590815071934,-2.206581634922204,-2.0197775334568275,-0.905878455290332,9.895508417511335,-1.0384453308311743,0.0821752457097487,-0.8773522306062519
0.24,0.015825148865552,1.8002025441098064,1.8546037644237192,0.1474358736536944,-0.0374328671290922,0.0376097861830942,-0.249965133212804,-0.1676639606771637,-0.3128934593682163,0.0205817924243127,1.8035629161494735,1.859012821529182,-0.212380663583655,-0.1705435026520436,-0.350604661734026,2.526019482483405,-1.7748410955085323,-1.6359313732450933,-0.7446086580293221,9.895508417511335,-1.0364467411082432,0.0808386344547649,-0.8828370247964317
0.26,0.010499969292657,1.7965282455323828,1.8481727282485776,0.14284343381988,-0.021288168836386,0.0391233968579862,-0.2799585457642889,-0.1971673209782584,-0.3293351098198743,0.0184579857884761,1.8018574811229533,1.855506774911842,-0.2284341181615778,-0.1905435029500668,-0.3706046620320492,2.258528799414732,-1.4996706275742482,-1.4751680150547395,-0.8220825225829037,9.76235691838292,-1.0280736457455426,0.0818500578375132,-0.8956531443521644
0.28,0.0046396737861992,1.792315477565872,1.841395336414992,0.1371503900848995,-0.0034683276399454,0.0406971488498954,-0.303975711777826,-0.2223146769587364,-0.3474888285070645,0.014210372516803,1.7984466110699124,1.8484946816771608,-0.2605410273174235,-0.2305435035461133,-0.4106046626280956,1.961358762633905,-1.2008583006768547,-1.2573677990238994,-0.907685934359509,9.584809115432108,-1.0167113966008383,0.0841655940113288,-0.9106132633667288
0.3,-0.0013208234565624,1.7878766037876528,1.8346021477125247,0.1317593837739399,0.0136858764447962,0.0421156004401473,-0.3218363623138689,-0.2435896533308346,-0.3666677850487379,0.0099627592451299,1.7950357410168716,1.8414825884424808,-0.2926479364732691,-0.2705435041421598,-0.4506046632241421,1.6877942937687782,-0.8930325268021427,-1.063748818604908,-0.95894782708367,9.431100588022671,-1.0024994671609204,0.0861345254313151,-0.928833680881863
0.32,-0.0079079228118631,1.782790286096766,1.827036122970466,0.126579890986124,0.030831635452688,0.0434153181800676,-0.3355589195792678,-0.2638906683089401,-0.3890748312532265,0.0041098005156646,1.7896248709340283,1.832470495177998,-0.3247548456291148,-0.3105435047382062,-0.4906046638201885,1.660207446867337,-0.6861278632699475,-1.0150507489052731,-1.1203523102244315,9.15480668334294,-0.9871010530592358,0.0876112913616591,-0.9477815603680614
0.34,-0.0147227838215913,1.7773134677597753,1.8190029919668336,0.1220797361856192,0.0460823572439286,0.0444298345156876,-0.3450084849085228,-0.2827910102559362,-0.4132361764668307,-0.0017431582138007,1.784214000851185,1.8234584019135152,-0.3568617547849604,-0.3505435053342527,-0.530604664416235,1.604904836085456,-0.4724782664627502,-0.9450170973498068,-1.2080672606802094,9.15480668334294,-0.971825396310932,0.0883238025418693,-0.9662339830268486
0.36,-0.0216942753343293,1.7714614932231116,1.8104705719460736,0.1179968955385441,0.0590039270865163,0.0451159373295842,-0.3515335465628222,-0.301358432874169,-0.4388835832399698,-0.0083987896721623,1.7778031307534408,1.813446308634131,-0.3889686639408061,-0.3905435059302991,-0.5706046650122814,1.6164119883737318,-0.3262530827149668,-0.92837113091164,-1.2823703386569518,9.017898404318656,-0.9579540044066986,0.088263546579631,-0.983091814943894
0.38,-0.0284160517198145,1.7655644910318324,1.8018771244237932,0.1142380677459141,0.0690627432391727,0.0454593368086746,-0.3556954910039788,-0.3183373096681325,-0.4644385055424895,-0.0158570938594199,1.7703922606407954,1.8024342153398456,-0.4210755730966516,-0.4305435065263455,-0.6106046656083278,1.5481102129723276,-0.208097222057832,-0.8489438396981769,-1.2777461151259883,9.017898404318656,-0.94463343396667,0.0879033039662589,-0.9994061284810576
0.4,-0.0355626492548712,1.7590183256099858,1.7922947968707137,0.1103852810388777,0.0774633426606158,0.045531180396868,-0.3587168894019362,-0.3352876950516961,-0.4925237476334819,-0.0462008262700135,1.749647625548426,1.778655199146669,-0.3637959065839535,-0.4183373111582487,-0.5137314089359966,1.6471378480869117,-0.1510699198978699,-0.8475192691781791,-1.4042621045496166,8.972842274632967,-0.9333525141700364,0.0877141765307738,-1.0132445456617758
0.42,-0.0428014909302727,1.7521088686354105,1.7824563792715706,0.1067987733069352,0.0860385394384166,0.0455973450163705,-0.364531957211355,-0.3549301206573012,-0.48825329541872,-0.0462008262700135,1.749647625548426,1.778655199146669,-0.3637959065839535,-0.4183373111582487,-0.5137314089359966,1.046275130425108,-0.290753390470938,-0.9821212802802516,0.2135226107380927,8.923375356709585,-0.9274482008255824,0.0868535468408377,-1.0228053425750765
0.44,-0.050121409607551,1.7448150486551717,1.7727351302381626,0.1036570521440259,0.096546083161312,0.0458588350056162,-0.3666743003874532,-0.3734658852029408,-0.4842842567489545,-0.0462008262700135,1.749647625548426,1.778655199146669,-0.3637959065839535,-0.4183373111582487,-0.5137314089359966,0.9538310509960092,-0.1071171588049119,-0.9267882272819828,0.198451933488275,10.68771634868608,-0.9191594865601016,0.0896764778039707,-1.029606422530582
0.46,-0.0570824908675373,1.7375518851520542,1.7635329021760773,0.1010256181554386,0.1072276333786991,0.0461649563732313,-0.365623712952348,-0.3901297672939252,-0.4845846804538319,-0.049838785335853,1.7454642524368431,1.773517885057309,-0.3654159896999484,-0.4383373114562719,-0.5235899896146979,0.8349834649612562,0.052529371755261,-0.8331941045492175,-0.0150211852438686,10.68771634868608,-0.9078550738895976,0.0916319370569141,-1.039632072833938
0.48,-0.0643575339058358,1.7295756727387055,1.7538052500878378,0.0985952225888274,0.118517230742775,0.0464764065382076,-0.3616159666030482,-0.4065946358097028,-0.4883464092574064,-0.0571147034675321,1.7370975062136784,1.7632432568785892,-0.3686561559319383,-0.4783373120523183,-0.5433071509721008,0.8679062876166627,0.2003873174649922,-0.8232434257888832,-0.1880864401787252,10.441057981797712,-0.8950194832338161,0.0926912456989526,-1.051384148135653
0.5,-0.0715162181581275,1.721279288132387,1.7439692946569498,0.0965072002117218,0.1291266206375874,0.0467091423631706,-0.3542267822750496,-0.4222121115602851,-0.4952177328895618,-0.0643906215992112,1.7287307599905135,1.7529686286998691,-0.3718963221639281,-0.5183373126483648,-0.5630243123295036,0.9296782807925856,0.3694592163999283,-0.7808737875291155,-0.3435661816077684,10.093737942866936,-0.8820794858326828,0.0931419488959085,-1.0632840272672643
0.52,-0.078496081090512,1.71267864343466,1.7339672041277656,0.0947359069345245,0.1382780681030274,0.0467931186991901,-0.3440716123526304,-0.4371145387942342,-0.5046863915871249,-0.0718285480424897,1.7183640137375462,1.741708142453279,-0.375136488395918,-0.5583373132444113,-0.5827414736869063,1.0184121355660614,0.507758496120958,-0.7451213616974511,-0.4734329348781568,10.093737942866936,-0.870118188726658,0.0929353256643608,-1.074461943916323
0.54,-0.0849166657175824,1.704237201008475,1.7242838855804286,0.0933574176503011,0.1452271787342948,0.046705938890096,-0.3323214617318443,-0.45074982486371,-0.514169612900943,-0.0792664744857683,1.707997267484579,1.730447656206689,-0.3783766546279078,-0.5983373138404577,-0.6024586350443092,1.0172494191377754,0.587507531039308,-0.6817643034737919,-0.4741610656909034,9.980116945394911,-0.8589255184794854,0.0921424080091963,-1.085188375814741
0.56,-0.091419446118497,1.6950683090527143,1.71389320727482,0.0920642727046367,0.1505629607025412,0.0464211117743596,-0.3185970511654158,-0.4653694681764378,-0.524420487107547,-0.0867854050848466,1.6966305212167103,1.718694240926164,-0.3816168208598977,-0.6383373144365041,-0.622175796401712,1.126026018778982,0.6862205283214212,-0.7309821656363902,-0.5125437103301989,9.97756932892662,-0.849336246876855,0.0910240494795631,-1.0946584508173547
0.58,-0.0976375120431321,1.685604712693037,1.7032962026887803,0.090620544251594,0.1538945901397989,0.045924535611914,-0.3039760513090254,-0.4801773219189046,-0.5347720615518134,-0.0943853398397247,1.6842637749339409,1.7064478966117038,-0.3848569870918876,-0.6783373150325506,-0.6418929577591148,1.1621115079178588,0.7310499928195213,-0.7403926871233396,-0.5175787222133243,9.984596221912398,-0.8417564546444262,0.0900080236337997,-1.102503629407365
0.6,-0.1035577158106726,1.6758445146694123,1.6924917866065972,0.0887903981977787,0.1552957835912642,0.0452125326495204,-0.2889578230695802,-0.4949074491500861,-0.5451441237367737,-0.1128363146085833,1.6615958465970917,1.6765575996111897,-0.3101824566581012,-0.5801773234090207,-0.5383125183124882,1.172714267913915,0.7509114119722604,-0.7365063615590778,-0.5186031092480115,10.005293863207044,-0.836560498650829,0.0894247789945414,-1.1083312804473693
0.62,-0.1088509897332499,1.6662544963775554,1.682242771099164,0.0856436996666547,0.1543712640210413,0.0442310550601464,-0.269180523911485,-0.5129072695693906,-0.5330873186452942,-0.1128363146085833,1.6615958465970917,1.6765575996111897,-0.3101824566581012,-0.5801773234090207,-0.5383125183124882,1.4667154172929453,0.9888649579047616,-0.8999910209652212,0.602840254573972,11.462125461517644,-0.8411196844057791,0.0910372100774439,-1.10576887203961
0.64,-0.1140172146025251,1.6558363428004028,1.6717149484924854,0.0814026705179031,0.1502361998402556,0.0428711855798011,-0.2487750744779568,-0.527817716771066,-0.5204440139045513,-0.1128363146085833,1.6615958465970917,1.6765575996111897,-0.3101824566581012,-0.5801773234090207,-0.5383125183124882,1.4129375049038058,1.020272471676406,-0.7455223600837724,0.6321652370371467,11.33783053580646,-0.843516481206981,0.0948306100891729,-1.1034827877111055
0.66,-0.118802154125072,1.6451414016175123,1.661422130667734,0.0773388874303319,0.1431192490792302,0.0413065635887716,-0.2312685429505036,-0.5409142262248882,-0.5095101221278455,-0.1159381391751643,1.6557940733630014,1.6711744744280648,-0.3114237377279163,-0.6001773237070439,-0.5390206096646231,1.2222389244543004,0.8753265763726633,-0.6548254726911062,0.5466945888352892,11.33783053580646,-0.8480867871383451,0.0979393670632859,-1.09991848468333
0.68,-0.1232766610306794,1.6341977106800751,1.6513318418409937,0.0737945078606166,0.1340471357023387,0.0396622958125744,-0.217528705277029,-0.5528892275123969,-0.5000185245003552,-0.1221417883083264,1.6441905268948211,1.660408224061815,-0.3139062998675467,-0.6401773243030904,-0.540436792368893,1.0274655963236028,0.6869918836737293,-0.5987500643754362,0.474579881374515,11.20610526055043,-0.8556076656387883,0.100713743072393,-1.0940184127998325
0.7000000000000001,-0.1273096786270658,1.6235864409151388,1.641912031009188,0.070994790523184,0.1245237748619244,0.0381068801277178,-0.2080220801533508,-0.563593290064275,-0.491986434942078,-0.1283454374414884,1.6325869804266406,1.6496419736955652,-0.316388862007177,-0.6801773248991368,-0.5418529750731629,0.8207730183017342,0.4753312561839085,-0.5352031275939084,0.4016044779138611,11.102007106716885,-0.865015996579844,0.1029098711893825,-1.086500806076662
0.72,-0.1313969103403171,1.6122022439133068,1.632153792767014,0.0686691405059832,0.1143332117192624,0.0365326655950232,-0.2015308668897378,-0.5743534089745771,-0.4842824253059248,-0.134673214681632,1.618983433928658,1.638804914194102,-0.3188714241468073,-0.7201773254951833,-0.5432691577774328,0.737000293540453,0.3245606631806508,-0.5380059455151021,0.3852004818076571,11.020639583610318,-0.8753261813220728,0.1044949572349797,-1.078093502149454
0.74,-0.1353888162720736,1.6006056375417703,1.622549766720693,0.0669644683843415,0.1046095476851641,0.0350590852492815,-0.1982354464922886,-0.5848268952684806,-0.476481711775992,-0.1410009919217755,1.605379887430675,1.6279678546926386,-0.3213539862864377,-0.7601773260912298,-0.5446853404817027,0.6734330744784274,0.1647710198724603,-0.5236743146951772,0.3900356764966417,10.957575749409443,-0.8859986651574506,0.1055304943391645,-1.069139925244854
0.76,-0.1393458992940502,1.5887934689382737,1.6131027979163577,0.0656135660769709,0.0958811607259686,0.0336954513257905,-0.1977701950610842,-0.5958061528976113,-0.4685798873644024,-0.1473908332154098,1.5907763409177913,1.6170953906235686,-0.3238365484260679,-0.8001773266872761,-0.5461015231859725,0.6767558385648674,0.0232625715602202,-0.5489628814565328,0.3950912205794799,10.957575749409443,-0.8956800337416259,0.1062485190084496,-1.0607726781996232
0.78,-0.1431193320062841,1.5773664124079336,1.6042741754013363,0.0643469105302271,0.0888358444822915,0.0324979409237513,-0.1995189996749082,-0.6064038311586386,-0.4611221497546139,-0.1538427385625348,1.5751727943900062,1.606187521986892,-0.3263191105656983,-0.8401773272833226,-0.5475177058902424,0.6538098966022867,-0.0874402306912006,-0.5298839130513655,0.3728868804894258,10.957078604553317,-0.9048746208572742,0.1070429786203968,-1.052559635032244
0.8,-0.1471483876414302,1.56512178020292,1.5951323514669715,0.0628915386439425,0.0830207416156451,0.0313471831163379,-0.2034586871304956,-0.6174291338418492,-0.4534508022708523,-0.1530952819900295,1.5470462208500018,1.5812180679136056,-0.2066575038559654,-0.7064038326487547,-0.4355512858967486,0.6998714323372858,-0.1969843727793685,-0.5512651341605279,0.383567374188079,10.947947094155095,-0.9121216854571768,0.1078492420631406,-1.0460465795730944
0.8200000000000001,-0.151291599297992,1.5526134455393945,1.5862596593015086,0.0600459025837226,0.0801122474919383,0.0302981430305119,-0.210754470788814,-0.6321046702574196,-0.4335124856788871,-0.1530952819900295,1.5470462208500018,1.5812180679136056,-0.2066575038559654,-0.7064038326487547,-0.4355512858967486,1.290480818140233,-0.36478918291592,-0.73377682077852,0.9969158295982604,10.935244340738793,-0.9205040244126258,0.1097854048465671,-1.0381828604890313
0.84,-0.1555808684440082,1.5398570728421153,1.577801505917416,0.0562011411421103,0.0810009932500094,0.0294229689312012,-0.2173415489241739,-0.6426582879901598,-0.413336143846018,-0.1530952819900295,1.5470462208500018,1.5812180679136056,-0.2066575038559654,-0.7064038326487547,-0.4355512858967486,1.1851721556032782,-0.3293539067679943,-0.5276808866370108,1.008817091643455,11.6969662891388,-0.9242055283050404,0.1144456541739885,-1.0323044106214527
0.86,-0.159756211142641,1.527566739554692,1.5701238942360465,0.0528445812775108,0.0841802785528948,0.0287488177190799,-0.2215456598276672,-0.650610268951873,-0.3958323423835426,-0.1551618570285891,1.5399821825235145,1.5768625550546382,-0.2080852046921769,-0.7264038329467779,-0.4304371131251755,0.9839862998818588,-0.2102055451746673,-0.3975990480856617,0.8751900731237688,11.6969662891388,-0.9245069520925516,0.1187014444453062,-1.0296787813789687
0.88,-0.1642131313431139,1.5144805955783558,1.5623876762442093,0.0500214711099792,0.0888961435121383,0.0281610502866163,-0.2236693971180832,-0.6576915076073296,-0.3787794916092097,-0.1592950071057084,1.525854105870539,1.5681515293367032,-0.2109406063645998,-0.7664038335428244,-0.4202087675820293,0.9293195366851816,-0.1061868645208005,-0.3540619327728311,0.852642538716647,11.554648809021272,-0.9227647850896944,0.1221291072988824,-1.0291690235559543
0.9,-0.1686887050771151,1.501261797461446,1.5549761645213742,0.0480564828507586,0.094138191112591,0.0276597529767282,-0.2235969416110216,-0.6640399651891309,-0.363230473297179,-0.1634281571828278,1.511726029217564,1.5594405036187682,-0.2137960080370226,-0.8064038341388708,-0.4099804220388832,0.8397620703751417,0.003622775353082,-0.3174228790900624,0.7774509156015325,11.35394493412332,-0.920390976369119,0.1247156674481667,-1.0293195703357174
0.92,-0.1729200629338909,1.488592972741429,1.5482128948905196,0.0470173525323158,0.0989951347503975,0.0272385481757454,-0.2217204627279753,-0.6693340027352898,-0.3494776291974343,-0.1677040773435682,1.495597952534787,1.5512408951779906,-0.2166514097094455,-0.8464038347349173,-0.3997520764957371,0.7427797913421961,0.0938239441523144,-0.2647018773079435,0.6876422049872377,11.284690794489508,-0.9183160014108162,0.1268856126688509,-1.0288646486393866
0.94,-0.1773187004701759,1.4751559697368808,1.541373878280698,0.0470728845330263,0.1035311047545572,0.0268558663260239,-0.2181584646823738,-0.6741962589263364,-0.335160514241008,-0.1719799975043087,1.4794698758520093,1.5430412867372127,-0.2195068113818684,-0.8864038353309638,-0.3895237309525909,0.7767064214034867,0.1780999022800766,-0.2431128095523316,0.7158557478213118,11.284690794489508,-0.9164272897650472,0.1277925885463741,-1.0285958991009667
0.96,-0.1816325435579533,1.4616152591821454,1.5348193714403433,0.0482874418284567,0.1071979701257039,0.0265247876801114,-0.2133742483468481,-0.6797021148454514,-0.3210170552277823,-0.1763273027068597,1.4623417991543306,1.5350973869350135,-0.2223622130542913,-0.92640383592701,-0.3792953854094448,0.7956767688671724,0.2392108167762807,-0.2752927959557505,0.7071729506612889,11.26819890552906,-0.9151106962021688,0.1275492261605534,-1.0280452921853742
0.98,-0.1858406516988694,1.447955126699259,1.5285468814768053,0.0503033030282718,0.1098441123658039,0.0262130545540995,-0.2077287410950255,-0.6860773556236981,-0.3069411319547637,-0.1807459929512213,1.4442137224417508,1.5274091957713936,-0.2252176147267142,-0.9664038365230566,-0.3690670398662987,0.8225677222862969,0.282275362591132,-0.3187620389123347,0.7037961636509271,11.26819890552906,-0.9146268840203404,0.1265716281471353,-1.0270015553317675
1.0,-0.1897289376126127,1.4348463622015168,1.522848865784491,0.0525360151548788,0.1113960889751019,0.0259011743921066,-0.2019187774563043,-0.6935607512479581,-0.2935561930241482,-0.1962270887536207,1.413651258918074,1.513199824879067,-0.1951912141969394,-0.7860773571138142,-0.2804367736780389,0.819929078836643,0.290498181936058,-0.3741697812130018,0.6692469465307743,11.267415458094549,-0.9150720250053096,0.1251651055192277,-1.0251777591426643
1.02,-0.1937191387112367,1.4208190138300836,1.5171348688775923,0.0526799755282093,0.1127426181626208,0.0254139312716226,-0.1973827706421501,-0.7081849812465445,-0.2784439634706861,-0.1962270887536207,1.413651258918074,1.513199824879067,-0.1951912141969394,-0.7860773571138142,-0.2804367736780389,1.075666006418979,0.2268003407077126,-0.7312114999293184,0.7556114776731071,11.2721619464819,-0.9152732899827876,0.1253129958596076,-1.02401980003757
1.04,-0.1976134322438204,1.4065308925506022,1.5117260671122306,0.0497578214537586,0.1143342947649836,0.0247366543884323,-0.1922226505566924,-0.719561877367968,-0.2631735153106967,-0.1962270887536207,1.413651258918074,1.513199824879067,-0.1951912141969394,-0.7860773571138142,-0.2804367736780389,0.986467424273257,0.2580060042728829,-0.5688448060711726,0.7635224079994674,11.377558940187557,-0.9165778155665956,0.1288238328875265,-1.0208061899316547
1.06,-0.2012120499304364,1.3927853815812312,1.5068661299295567,0.0459602162863724,0.1157809887683241,0.0240297182791061,-0.1868256505490927,-0.7266200425122804,-0.249151432508408,-0.1981790008955901,1.4057904853469358,1.5103954571422866,-0.1926837088173222,-0.8060773574118374,-0.2751359020226939,0.8300061903393542,0.2698500003799869,-0.3529082572156228,0.7011041401144349,11.304536155655114,-0.9176168426827424,0.1336672169485525,-1.0174616764222677
1.08,-0.2048856347585603,1.378200878260894,1.5020331142486514,0.0423837223594182,0.1170607611671916,0.0233166935885303,-0.1808067363333514,-0.7315605181992547,-0.2349190676582531,-0.2020828251795289,1.3900689382046596,1.5047867216687258,-0.1876686980580878,-0.8460773580078839,-0.264534158712004,0.8111655773915122,0.300945710787065,-0.2470237843487155,0.7116182425077457,11.304536155655114,-0.9186554254413986,0.1381078413350285,-1.0141597343597593
1.1,-0.2084362601028953,1.3635313122829484,1.497477909355052,0.0397621379287238,0.1179954561169223,0.0226703699389915,-0.1745643175303514,-0.7353342057859564,-0.2213462040033464,-0.2059866494634677,1.3743473910623834,1.499177986195165,-0.1826536872988534,-0.8860773586039303,-0.2539324154013141,0.7704400338585135,0.3121209401500013,-0.1886843793350856,0.6786431827453365,11.260573693249173,-0.9198090486154732,0.1416087930548542,-1.0109103516539013
1.12,-0.2118606907845684,1.3487956089772764,1.4931886386578983,0.0382887737511104,0.118533196887329,0.0221038989747605,-0.1682247875311358,-0.7382989338625621,-0.2082593865063408,-0.2096397232094448,1.3566258438903047,1.4940993378871388,-0.1776386765396189,-0.9260773591999768,-0.2433306720906242,0.7420310731012232,0.3169764999607805,-0.1482364038302819,0.6543408748502816,11.183471903538702,-0.9210858320712344,0.1438775272045691,-1.0078664236895911
1.14,-0.2149965572086562,1.3347481963484469,1.4893546264355642,0.0381464462443169,0.1186818696157774,0.0216535351836586,-0.1622212144784517,-0.7404356337213742,-0.1959744871760047,-0.2132927969554218,1.338904296718226,1.4890206895791125,-0.1726236657803845,-0.9660773597960232,-0.2327289287799342,0.6919666307742971,0.3001786526342045,-0.1068349929406076,0.6142449665168012,11.183471903538702,-0.9227079219670876,0.1450070300448352,-1.0046341537655985
1.16,-0.2181751444406676,1.3199114813728017,1.485571629809775,0.0393228410663415,0.1184913654745172,0.0212714423837074,-0.1559922646313936,-0.7432232128482608,-0.1829626396377974,-0.216820495432418,1.3201827495312464,1.4842070848538536,-0.1676086550211501,-1.0060773603920696,-0.2221271854692443,0.7346403711057709,0.3114474923529009,-0.139378956344327,0.6505923769103666,11.170507423617892,-0.9247292569813592,0.1448447730947772,-1.0012579698346769
1.18,-0.2212306801713937,1.3050102388344855,1.4820502368569155,0.0415976087969481,0.1179879484693368,0.020963853779413,-0.1499173854382975,-0.7468816650444435,-0.1698171857704124,-0.2202228186404334,1.3004612023293654,1.4796585237113618,-0.1625936442619157,-1.046077360988116,-0.2115254421585544,0.746812203740026,0.3037439596548077,-0.1829226098091385,0.6572726933692485,11.173248655321004,-0.927110028503114,0.1436462633697637,-0.9977404276376262
1.2,-0.2241667128278628,1.290015113348583,1.478793750183223,0.0443551883636379,0.1172187440428645,0.0206863572023401,-0.1440482018962489,-0.7525552782049119,-0.1564831932359677,-0.2287265494433086,1.2676661555822637,1.473559377568395,-0.136804912136708,-0.8468816665345597,-0.1489347375889025,0.781716954295991,0.2934591771024286,-0.2836806580234163,0.6666996267222349,11.177823606529271,-0.9296395437833732,0.1420503179812238,-0.9942730678625994
1.22,-0.2268497332225257,1.2755852390179376,1.4759306820094444,0.0446248648204239,0.1162722009748204,0.0202576831871684,-0.138746534890623,-0.7650286230817592,-0.1455055822055801,-0.2287265494433086,1.2676661555822637,1.473559377568395,-0.136804912136708,-0.8468816665345597,-0.1489347375889025,0.872066438681432,0.2650833502812977,-0.6236672438423685,0.5488805515193831,11.188516018716657,-0.9327993239941424,0.1425695121309479,-0.989829194624372
1.24,-0.2295712794491513,1.2601859389319854,1.4731442793374003,0.0419488252259656,0.1151241330675404,0.019611824282309,-0.1337426470762978,-0.7740290113702539,-0.1336805813174414,-0.2287265494433086,1.2676661555822637,1.473559377568395,-0.136804912136708,-0.8468816665345597,-0.1489347375889025,0.784022526153592,0.2501943907162601,-0.4500194144247349,0.591250044406931,11.095783715606558,-0.9356014456055356,0.1455714129732529,-0.9857161417914394
1.26,-0.2321993686412498,1.2446464821140193,1.470591772970529,0.0382657301427283,0.1139548457410267,0.0189202961028462,-0.1293627323301545,-0.7792824819404067,-0.1221731940673062,-0.2300945985646757,1.259197338916918,1.472070030192506,-0.1341824174763901,-0.8668816668325828,-0.1447582479526005,0.6693328162049106,0.2189957373071621,-0.2626735285076398,0.5753693625067599,11.095783715606558,-0.9383062017509664,0.1494702475095893,-0.981395665784762
1.28,-0.234620716968014,1.2298143046300491,1.4683743413569497,0.0352661430202854,0.1129299213428211,0.0183258682951636,-0.1257473288725092,-0.7819635883199241,-0.1118128534201717,-0.2328306968074098,1.2422597055862268,1.469091335440728,-0.1289374281557543,-0.9068816674286292,-0.1364052686799965,0.5647922890419753,0.180770172882265,-0.1340553189758675,0.5180170323567254,11.055751645267264,-0.9410913454458978,0.1531922966942077,-0.9768523469197188
1.3,-0.2370997534949503,1.21415781832388,1.4662490767327137,0.033132862548151,0.1120212401094661,0.0178008567568283,-0.1223611797335623,-0.7837597158119878,-0.1012765457403089,-0.235566795050144,1.2253220722555356,1.46611264068895,-0.1236924388351185,-0.9468816680246758,-0.1280522894073925,0.5605931222457065,0.1693074569473478,-0.0898063746031851,0.5268153839931441,11.010968491717904,-0.9436301496863486,0.1559261805859819,-0.9727205903524052
1.32,-0.2395145512059368,1.1984732797439244,1.464330977553797,0.032271744302167,0.1113353952437861,0.017392458150077,-0.1192911312644738,-0.7847385525420155,-0.0910721473250652,-0.2380406438268464,1.206384438895042,1.463551594900802,-0.1184474495144827,-0.9868816686207222,-0.1196993101347885,0.5350538897242773,0.153502423454422,-0.0489418365013871,0.5102199207621845,10.982048933663464,-0.9457226722459986,0.1574634946918067,-0.9692600804788156
1.34,-0.2418702802016497,1.1827780280388918,1.4626145594011353,0.0331033109974043,0.1108897002076591,0.0171264343609715,-0.1164174791952121,-0.7850168542649761,-0.0810764014596684,-0.2405144926035487,1.1874468055345486,1.4609905491126542,-0.1132024601938469,-1.0268816692167688,-0.1113463308621845,0.5202169342441924,0.1436826034630842,-0.0139150861480308,0.4997872932698363,10.957370137430187,-0.9474524476851108,0.1575245347796801,-0.9664575832732536
1.36,-0.2440551369953145,1.1678529427111588,1.4611691187008506,0.0354058477899614,0.1106600248145714,0.0169973077705769,-0.1136978795372525,-0.7861851857638099,-0.0715708193358489,-0.2428572166472352,1.167509172159154,1.4586383278063215,-0.1079574708732111,-1.0668816698128152,-0.1029933515895805,0.497788389537712,0.135979982897981,-0.0584165749416887,0.4752791061909789,10.941709061300571,-0.9493035069586352,0.1562045154037954,-0.9636929368195346
1.38,-0.2462982988412468,1.1520950425033407,1.4598450723695815,0.0387224083735983,0.1105687483124439,0.0169387313984657,-0.1107500107619772,-0.789794381092924,-0.0613223133984176,-0.2450688159579058,1.146571538768858,1.4564949309818038,-0.1027124815525753,-1.1068816704088615,-0.0946403723169765,0.5629122826637953,0.1473934387637661,-0.1804597664557039,0.5124252968715628,10.939097653941644,-0.9512483733580532,0.1541305755911046,-0.9609187384175844
1.4,-0.2484813128906312,1.136241395252466,1.4587286494925564,0.0418992896732609,0.1105763280281256,0.0168836318471662,-0.1076928121252075,-0.7953697805808748,-0.0508155341516931,-0.2518357993793457,1.1126053234486946,1.4567789566996605,-0.0780416564676771,-0.8897943825830401,-0.0641041157211331,0.6140520195681891,0.1528599318384824,-0.2787699743975413,0.5253389623362238,10.969994680846868,-0.9529632529142243,0.1521009110807885,-0.9584752192723884
1.42,-0.2506443654692127,1.1201918343172963,1.4577616591593727,0.0421011335301464,0.1118152691745586,0.0166851198138605,-0.1084060379666935,-0.8080573125049606,-0.0463590590465833,-0.2518357993793457,1.1126053234486946,1.4567789566996605,-0.0780416564676771,-0.8897943825830401,-0.0641041157211331,0.6733170274620315,-0.0356612920742981,-0.6343765962042891,0.2228237552554888,10.627907274681093,-0.9512959157791598,0.1525311916609648,-0.9589824383944092
1.44,-0.2527014060994476,1.1047582024006004,1.456919429320756,0.0393315944598145,0.1147223342437706,0.0163751942239433,-0.1078372408444475,-0.8156735354337057,-0.0424966764541367,-0.2518357993793457,1.1126053234486946,1.4567789566996605,-0.0780416564676771,-0.8897943825830401,-0.0641041157211331,0.4279263404987251,0.0284398561123021,-0.3808111464372543,0.1931191296223301,10.60053628238984,-0.949412188961187,0.1549472696074302,-0.9603837112789598
1.46,-0.2548364662810021,1.0884001571380042,1.4561070246164023,0.0355851768223668,0.1188863488398973,0.0160418406861014,-0.1054864267003249,-0.8196170486021004,-0.0389853462490064,-0.2526162159440224,1.1037073796228642,1.4561379155424492,-0.0714999856088171,-0.9097943828810632,-0.0646604761856762,0.2889942173252332,0.1175407072061283,-0.1971756584197348,0.1755665102565161,10.60053628238984,-0.946293019185402,0.1584089000431893,-0.962557398192884
1.48,-0.2569055699445673,1.0719910096042513,1.4553566887142853,0.0324866505499693,0.1235421876612308,0.0157761804513516,-0.1013698873659393,-0.8212767718429581,-0.0362760869170046,-0.254177049073376,1.0859114919712034,1.4548558332280264,-0.0584166438910971,-0.9497943834771098,-0.0657731971147624,0.2600031896719038,0.2058269667192781,-0.0829861620428862,0.1354629666000896,10.553905536322418,-0.94246585778862,0.1614121529722029,-0.9653596889020024
1.5,-0.2588743326575117,1.055562145113582,1.454652929773042,0.0305771421062504,0.1281596260740367,0.0155995543897778,-0.0956005365371137,-0.8218668336948598,-0.0342570731879214,-0.2557378822027295,1.0681156043195426,1.4535737509136035,-0.045333302173377,-0.9897943840731562,-0.0668859180438486,0.3070423358975428,0.2884675414412833,-0.0295030925950845,0.1009506864541636,10.506030864322383,-0.938485707997004,0.1632558625862026,-0.9685254290133586
1.52,-0.260623725343906,1.0399509994997318,1.4540183162163722,0.0300638292464191,0.1321596976712171,0.0155214617968067,-0.0887838051908849,-0.8216224811935597,-0.0326632281414986,-0.2566445482461971,1.048319716638079,1.4522360325527268,-0.032249960455657,-1.0297943846692026,-0.0679986389729349,0.3502423319059098,0.3408365673114387,0.012217625065003,0.0796922523211361,10.461121006078429,-0.9342338903162308,0.1639187228042688,-0.9721717902641194
1.54,-0.2623141983318298,1.0235286921843043,1.4533804346924186,0.0312665010149107,0.1357439159967017,0.0155574837648309,-0.0805708908842386,-0.8208143591091688,-0.0312311691390005,-0.2575512142896646,1.0285238289566163,1.4508983141918497,-0.0191666187379369,-1.0697943852652492,-0.0691113599020211,0.418795342912952,0.4106457153323118,0.040406104219548,0.0716029501249073,10.461121006078429,-0.9302627734809342,0.1629827134606205,-0.9757743774751368
1.56,-0.2638292628775863,1.0071108522450387,1.452770875637201,0.0342088843232075,0.1385183710002011,0.0157077018739532,-0.0713331043420135,-0.8213604533951943,-0.0298062239691977,-0.2581307967901891,1.007727941260252,1.4495327778077456,-0.0060832770202169,-1.1097943858612955,-0.0702240808311073,0.4681489824454649,0.4618893271112562,-0.0273047143012739,0.071247258490141,10.453427870173982,-0.9273651028912449,0.1605581106282702,-0.978513250952842
1.58,-0.2651508694443688,0.9906508101320608,1.452192631191168,0.0377877742274218,0.1403364091734815,0.0158861459572864,-0.0613585918077811,-0.8247295555681876,-0.0280998930374712,-0.2583832957477707,0.9859320535489866,1.448139423400414,0.007000064697503,-1.149794386457342,-0.0713368017601935,0.5332759956068571,0.4987256267116192,-0.1684551086496677,0.0853165465863215,10.48665952230658,-0.9252954771615544,0.1575741167248634,-0.9806906221005068
1.6,-0.266218057889189,0.9749328872708658,1.4516783148714965,0.0408856031999669,0.1411753006388657,0.0160125545147598,-0.0515579025988489,-0.8295351079700508,-0.0261249104682825,-0.2682187990347578,0.9494143323536516,1.4507876365392949,-0.0196198954114303,-0.9247295570583036,-0.0401705712119669,0.5546336606394668,0.4900344604466137,-0.24027762009316,0.098749128459437,10.48665952230658,-0.9236562093604452,0.1546223506952849,-0.9824893243924416
1.62,-0.2671373006439499,0.9582117463129828,1.4511849038408682,0.0413505763229703,0.1411632800343813,0.0159241054135812,-0.0409644163572283,-0.8415848798596034,-0.0232393293893183,-0.2682187990347578,0.9494143323536516,1.4507876365392949,-0.0196198954114303,-0.9247295570583036,-0.0401705712119669,0.8150851665699295,0.5296743120810274,-0.6024885944776293,0.1442790539482111,10.51532761814542,-0.9237286107797136,0.1541984999214531,-0.9823577064708464
1.64,-0.2678529580501221,0.9412923398698618,1.4507484638251733,0.0384483174088119,0.1404659582481194,0.0155887456836446,-0.0312148767523092,-0.8494214808800807,-0.0205613272283124,-0.2682187990347578,0.9494143323536516,1.4507876365392949,-0.0196198954114303,-0.9247295570583036,-0.0401705712119669,0.6396044356404692,0.4874769802459565,-0.391830051023867,0.1339001080502935,10.590675429110888,-0.9230910441272429,0.1567457888907685,-0.9824371696633906
1.66,-0.2683606205175261,0.925115928266737,1.4503737409490465,0.0347945076712309,0.1395100658964705,0.0152171937354191,-0.0227519328818574,-0.8529121341008762,-0.0190108252423781,-0.2684149979888722,0.9401670367830685,1.450385930827175,-0.0112721561321601,-0.9447295573563268,-0.0425847068468661,0.4642470658783255,0.4231471935225909,-0.1745326610397723,0.0775250992967125,10.553815545012185,-0.9227956941630188,0.1602031391702051,-0.9818350947444112
1.68,-0.2687293921448091,0.9080445261499132,1.4500011691687025,0.0315602245635832,0.1384489903177375,0.0148899613736103,-0.0146070435692525,-0.8542201763775765,-0.0183818248962423,-0.2688073958971008,0.9216724456419024,1.4495825194029357,0.0054233224263801,-0.9847295579523734,-0.0474129781166643,0.4136599991166053,0.407244465630245,-0.0654021138350169,0.0314500173067932,10.482092575280149,-0.9225645112086448,0.1633221547260146,-0.9811900725768936
1.7,-0.2689419814617131,0.8909603473536645,1.449630542401643,0.0295255254319324,0.1375320092198531,0.0146719139593917,-0.0070507450440048,-0.8544881238259108,-0.0187176478475059,-0.2691997938053294,0.9031778545007364,1.4487791079786962,0.0221188009849205,-1.0247295585484195,-0.0522412493864626,0.3784250926283982,0.3778149262623845,-0.0133973724167124,-0.0167911475631821,10.364779183289102,-0.9221988438382452,0.1652256516477791,-0.9809586805769822
1.72,-0.2690076216560146,0.8747321853658669,1.44926672321122,0.0288736296808331,0.1368936399034729,0.0145767896210049,-0.0002154410011978,-0.8539656381812802,-0.0195678673372418,-0.2687574177856309,0.8826832633297679,1.447734282990967,0.0388142795434608,-1.064729559144466,-0.0570695206562609,0.3453883531156832,0.3417652021403504,0.0261242822315266,-0.0425109744867943,10.364779183289102,-0.9215225063167708,0.1659151753990714,-0.9813442925829936
1.74,-0.2689382844141058,0.8576662145956873,1.4488639769615257,0.0299030908023797,0.1365158767897085,0.0146172112529854,0.006809689105473,-0.8528481817145934,-0.0206759932150025,-0.2683150417659325,0.8621886721587995,1.4466894580032377,0.0555097581020012,-1.104729559740513,-0.0618977919260592,0.3599621679133651,0.3512565053335408,0.0558728233343408,-0.0554062938880363,10.333718602864792,-0.9205475362370824,0.1649693436538951,-0.9823448067824008
1.76,-0.2687263045353987,0.8406119927247181,1.448439285580452,0.0326714049872566,0.1363779491511165,0.0147944978031166,0.0140594599119139,-0.8529054370995306,-0.0217399227284475,-0.2674552787822706,0.8406940809729299,1.4455239262337636,0.0722052366605415,-1.144729560336559,-0.0667260631958575,0.366382317172262,0.3624885403220454,-0.0028627692468585,-0.0531964756722482,10.3224610358493,-0.9197567334298834,0.1626546817607511,-0.9833638756556816
1.78,-0.268365939233054,0.823527129123316,1.4479961095544092,0.0361931329658116,0.1363262467325952,0.0150326084224293,0.0216163491997931,-0.8557266636069241,-0.0225334451317625,-0.2661781288346452,0.8181994897721592,1.4442376876825442,0.0889007152190819,-1.1847295609326054,-0.0715543344656557,0.4052640266537548,0.377844464393961,-0.1410613253696735,-0.0396761201657512,10.327457373015932,-0.9188260018584836,0.1593991764669082,-0.9847731277109888
1.8,-0.2678810225542893,0.8072248390708604,1.4475633811114874,0.0392873640176017,0.1362455313922174,0.0152442462975283,0.0290360388817383,-0.860083192567109,-0.0229788348693223,-0.2672851217730643,0.7807407959429699,1.446869437297821,0.0738350359890673,-0.9557266650970402,-0.0058154915243225,0.4307827514409593,0.3709844840972599,-0.2178264480092451,-0.0222694868779871,10.348074935281147,-0.917831634798178,0.1562670984399985,-0.9863066394109256
1.82,-0.2671964324644458,0.7898892919897677,1.4472112468447895,0.0396466124003175,0.1359129422811894,0.0152609722162514,0.039063359213096,-0.8724897765325952,-0.0115638377041242,-0.2672851217730643,0.7807407959429699,1.446869437297821,0.0738350359890673,-0.9557266650970402,-0.0058154915243225,0.980781116001168,0.5013660165678857,-0.6203291982743109,0.5707498582599015,10.371691100864156,-0.9209731402440136,0.1550412740596794,-0.984675308663344
1.84,-0.2663134968155972,0.772345016359358,1.4471097958625403,0.0363193645070734,0.1352745241638082,0.0150228966830957,0.0486597342948953,-0.8807610086077359,0.0007823263282017,-0.2672851217730643,0.7807407959429699,1.446869437297821,0.0738350359890673,-0.9557266650970402,-0.0058154915243225,0.8844934441030584,0.4798187540899671,-0.4135616037570344,0.6173082016163007,11.17637400591957,-0.9229050366546454,0.1593338354467834,-0.9809054598555426
1.86,-0.2652460483124984,0.7546910788616332,1.4472420600627018,0.0319781663465692,0.1345290352965209,0.0147311771221216,0.0575626945061344,-0.8841117282931282,0.0117629254558823,-0.2665467714131737,0.7711835292919994,1.4468112823825778,0.0842787733469221,-0.9757266653950634,-0.0024719008028345,0.726401370001121,0.4451480105619507,-0.1675359842696178,0.5490299563840331,11.124591976362352,-0.924380992720538,0.1644939644943633,-0.9772064342269692
1.88,-0.2640734987241254,0.7378879444262708,1.447555397026882,0.0285399727023028,0.1338473425905471,0.0145227764560189,0.0654138175183243,-0.8847548561833246,0.0206757006450793,-0.2650700706933923,0.7520689959900586,1.4466949725520912,0.1051662480626318,-1.01572666599111,0.0042152806401414,0.5947505939653437,0.3925561506094944,-0.0321563945098191,0.4456387594598499,11.018636456731656,-0.9255444209200532,0.1692157642354011,-0.973835230082038
1.9,-0.2626830047974635,0.720198912844489,1.4480576390455155,0.0261355057628987,0.1332660104956863,0.0144105622296181,0.073214402755248,-0.8843830064373609,0.029030760536659,-0.263593369973611,0.7329544626881178,1.4465786627216048,0.1260537227783415,-1.0557266665871563,0.0109024620831174,0.571826958231178,0.3900292618461851,0.0185924872981857,0.4177529945789834,10.919972358570703,-0.9264246451483796,0.1726263392946704,-0.9711390231263326
1.92,-0.2611397303870335,0.7025247095686771,1.4487180454885171,0.0251376550693612,0.1328892977218875,0.014417369564531,0.0807284806116786,-0.8832166653109792,0.0365588256706915,-0.2610722955180442,0.7118399293563747,1.4467967119632672,0.1469411974940512,-1.0957266671832029,0.0175896435260934,0.5350081361947362,0.3757038928215307,0.0583170563190849,0.3764032567016255,10.803527625696006,-0.9267891443380468,0.1745150359614014,-0.9694712098852476
1.94,-0.259447137742555,0.6848831043207116,1.449528354848451,0.0259580070703959,0.132728050191277,0.0145680490421536,0.0881811974478564,-0.8813107137124999,0.0440974984030842,-0.2585512210624773,0.6907253960246316,1.4470147612049296,0.1678286722097609,-1.1357266677792492,0.0242768249690694,0.5385332540849144,0.372635841808893,0.0952975799239641,0.3769336366196314,10.8070479267044,-0.927107232366398,0.1747412410992443,-0.9682799669455304
1.96,-0.2576980845085513,0.6681493380548974,1.4504407552097431,0.0283709465847142,0.1326771768725122,0.0148348470943606,0.0955565695435715,-0.8804158191680356,0.0515682081400828,-0.2555079597390177,0.6686108626779873,1.4473999899826662,0.1887161469254706,-1.1757266683752956,0.0309640064120454,0.5268027471702559,0.3687686047857539,0.044744727223217,0.3735354868499335,10.8070479267044,-0.9276678659802772,0.1735362420528559,-0.9669962540469972
1.98,-0.2557028486886071,0.6505280956995206,1.451559432267218,0.0318785588688423,0.1325884743561062,0.0151864691891993,0.1035765978375114,-0.8820201942264335,0.0599274694565568,-0.2519425115476654,0.6454963293164419,1.4479523982964777,0.2096036216411803,-1.215726668971342,0.0376511878550214,0.5847480716528778,0.4010014146969942,-0.0802187529198972,0.4179630658236979,10.85649264750282,-0.9283960999963043,0.1714124390524546,-0.9657566353611876
2.0,-0.2535445212246672,0.6328495454897285,1.452850772444301,0.0352428659349056,0.1323526199778686,0.0155261263583999,0.1118177041082664,-0.8856967584853079,0.068791128197724,-0.2505240187967316,0.6064270859881989,1.4545558057400458,0.158213892100159,-0.925620645427634,0.0651468102466199,0.6324504004176534,0.412055313537752,-0.1838282129437207,0.4431829370583586,10.85649264750282,-0.929223886904771,0.1694383987535236,-0.9645268183639218
2.02,-0.251334799002064,0.6157318676193552,1.454205967589948,0.0299939749256195,0.1317046403652897,0.0152549366921804,0.1202251517640477,-0.9109324948892644,0.0736184510031768,-0.2505240187967316,0.6064270859881989,1.4545558057400458,0.158213892100159,-0.925620645427634,0.0651468102466199,1.351693949644965,0.4203723827890651,-1.2617868201978244,0.2413661402726405,10.711043376710222,-0.9305055010034744,0.1747355734813073,-0.9616960196526504
2.04,-0.2488496761527689,0.5974223439049551,1.4557343195525898,0.016402700672417,0.1305765073937927,0.014434205515192,0.1277361828718961,-0.9174680200788226,0.0789979118513122,-0.2505240187967316,0.6064270859881989,1.4545558057400458,0.158213892100159,-0.925620645427634,0.0651468102466199,0.5658340676007315,0.375551555392415,-0.3267762594779066,0.2689730424067713,10.711043376710222,-0.9305052834893018,0.1867703740980441,-0.9595603844534316
2.06,-0.2462281664770121,0.57910696988502,1.4573523876206222,0.0020655633171379,0.1294741232359413,0.013617593855688,0.1340052366461923,-0.9136081715741624,0.0824206891865586,-0.24894187987573,0.5971708795339226,1.455207273842512,0.1691413509526886,-0.934340735667874,0.0661906784046326,0.4059398674391978,0.3134526887148117,0.1929924252330073,0.1711388667623194,10.66175632489194,-0.9304837013454196,0.2002523391116837,-0.9561463356221036
2.08,-0.2434918735735288,0.5609359640948515,1.4590138127758316,-0.0101982981389881,0.1286922259648174,0.0129981589089201,0.1393540978359816,-0.9042044196054222,0.0835469417765655,-0.2457776020337268,0.5786584666253699,1.4565102100474443,0.1909962686577476,-0.9517809161483544,0.0682784147206578,0.5438504206436666,0.2674430594894667,0.4701875984370107,0.0563126295003442,10.404395747274975,-0.9300183749235136,0.211440867012723,-0.9534308421549073
2.1,-0.2407983539646633,0.5438773419771821,1.4605984289137055,-0.0192238727845564,0.1283945591593094,0.012626665592104,0.1439711679382743,-0.8925373427040311,0.0831999025122946,-0.2426133241917236,0.5601460537168172,1.457813146252377,0.2128511863628067,-0.9692210966288344,0.0703661510366831,0.6276114562438386,0.2308535051146323,0.5833538450695563,-0.0173519632135445,10.404395747274975,-0.9290458595695872,0.2207557580688942,-0.9515564999387388
2.12,-0.2378694219631975,0.5261713045136616,1.462252348388558,-0.0260597796470901,0.1286042822782205,0.0124416341907364,0.1487392394219462,-0.8791139199695303,0.0821910458543399,-0.2383563004644674,0.5407616317842405,1.4592204692731106,0.2347061040678657,-0.9866612771093146,0.0724538873527083,0.7140388213164921,0.238403574183596,0.6711711367250406,-0.0504428328977339,10.331126305059117,-0.9275695744236724,0.2275898651230626,-0.9507786972713852
2.14,-0.2348432739279572,0.5087408702098151,1.4638825262915058,-0.0304776428629983,0.1293182803878607,0.012435736273416,0.1537109336238125,-0.8650349915362792,0.0808765233740968,-0.2340992767372113,0.5213772098516639,1.4606277922938442,0.2565610217729248,-1.0041014575897949,0.0745416236687336,0.7494363522283621,0.248584710093315,0.7039464216625546,-0.0657261240121553,10.303282328387468,-0.9255857405755412,0.2323007095337533,-0.950997709782994
2.16,-0.2317107067948402,0.4915908874142842,1.4654877002219484,-0.0329364943713784,0.130350370119465,0.0125760140030921,0.1593585077442981,-0.8511389983746059,0.0797157527678015,-0.2292958800673287,0.5015567834070752,1.4620873087224786,0.2784159394779839,-1.0215416380702749,0.0766293599847589,0.7522318588641513,0.2823787060242791,0.6947996580836613,-0.0580385303147634,10.293616096587357,-0.9233974743707828,0.2351774480221158,-0.9518896360981456
2.18,-0.2286233894469302,0.4755555303574271,1.4669946737641586,-0.0338709161026615,0.1313815319532949,0.0128212352869862,0.1653645289121698,-0.8377236024023144,0.0789726941853585,-0.2239461104548196,0.4813003524504745,1.4635990185590135,0.3002708571830429,-1.038981818550755,0.0787170963007841,0.735862207582444,0.3003010583935886,0.6707697986145789,-0.0371529291221514,10.332181960877278,-0.9209264120134512,0.2368835658433677,-0.953373523421693
2.2,-0.2252446982409824,0.4589538787619744,1.4685701457128766,-0.0333059416487238,0.1323387054895972,0.0132069600248981,0.1722114648693589,-0.8232990340194075,0.0786376256934369,-0.2203551630013217,0.4336693502373113,1.4709433084734265,0.1944244363336395,-0.8220455803454964,0.0937609967782917,0.7985314269477494,0.3423467978594552,0.7212284191453422,-0.0167534245960797,10.332181960877278,-0.9185510161082612,0.2374120707880529,-0.9548038883205396
2.22,-0.2216411591998437,0.4424466918297265,1.470166735371994,-0.0372937419770934,0.1305071862698354,0.0133899959017379,0.187913861299051,-0.825617818226938,0.0810806631802681,-0.2203551630013217,0.4336693502373113,1.4709433084734265,0.1944244363336395,-0.8220455803454964,0.0937609967782917,0.8029795233976403,0.7851198214846019,-0.1159392103765255,0.1221518743415604,10.362669879572422,-0.9268477709349242,0.2427869541083366,-0.943558687888942
2.24,-0.217740730626197,0.4260270385687892,1.4718145971171062,-0.0466815756583602,0.1234293530403863,0.0134645463416344,0.2004910082780549,-0.8153727303838287,0.0835852168468726,-0.2203551630013217,0.4336693502373113,1.4709433084734265,0.1944244363336395,-0.8220455803454964,0.0937609967782917,0.8206997625706306,0.6288573489501972,0.5122543921554645,0.1252276833302243,10.491693721880438,-0.9277354862732876,0.2512552038314158,-0.9402241687043876
2.26,-0.2138596984858945,0.4106954818438219,1.4734166742572044,-0.055756434311369,0.114069917851383,0.0137621331068416,0.2069896790331752,-0.7991092070404748,0.0849609206181604,-0.2184109186379853,0.4254488944338563,1.4718809184412094,0.2002364178179335,-0.8189099759341327,0.0967186572968783,0.8783898251767387,0.3249335377560142,0.8131761671676951,0.0687851885643929,10.426737740382125,-0.9332791345068052,0.2612148696656596,-0.93071552386884
2.28,-0.2096959313418124,0.3949274086173489,1.4751233634842364,-0.0638248020082289,0.1034665733162976,0.0143504655337168,0.2086834678267622,-0.7787785494501177,0.0856320566689788,-0.2145224299113126,0.4090079828269464,1.4737561383767752,0.2118603807865214,-0.8126387671114056,0.1026339783340516,1.020606415485831,0.0846894396793487,1.0165328795178563,0.0335568025409176,10.426737740382125,-0.9408153731086204,0.2700491903055759,-0.9189563384522954
2.3000000000000003,-0.2055466073931526,0.3795869917289814,1.4768366353986908,-0.069888342173882,0.0936383040464056,0.0151391758110493,0.2059696810294805,-0.7566256676582447,0.0856722282624186,-0.2106339411846398,0.3925670712200365,1.475631358312341,0.2234843437551092,-0.8063675582886783,0.1085492993712248,1.1159260999532172,-0.1356893398640826,1.1076440895936512,0.0020085796719894,10.383829078615236,-0.9484866894406468,0.2768997690589336,-0.9076101445474712
2.32,-0.2014904285941507,0.36470095641471,1.478547677512272,-0.073888117315689,0.0857175632075527,0.0160139058854059,0.1998013640919593,-0.7336265601562406,0.0854825941180434,-0.2061642543095376,0.3764397200542629,1.4778023442997656,0.2351083067236971,-0.8000963494659511,0.1144646204083981,1.1906332777551236,-0.3084158468760603,1.1499553751002034,-0.0094817072187586,10.355416755513032,-0.954590168300788,0.2815374024416912,-0.898697670377821
2.34,-0.1977783990844361,0.3509866975916613,1.4801720624890076,-0.0760539789137612,0.0807216322987765,0.0168134665806109,0.191231190665912,-0.7115653897070441,0.0855519390464099,-0.2016945674344354,0.3603123688884894,1.47997333028719,0.246732269692285,-0.793825140643224,0.1203799414455714,1.183372218344804,-0.4285086713023689,1.1030585224598266,0.0034672464183253,10.352725759024906,-0.958492242798361,0.2847826242744188,-0.8926704720305066
2.36,-0.1940658880000205,0.3370036995546707,1.4818884783182678,-0.0768158516321934,0.0789187081557566,0.0175211690663671,0.1807152443095181,-0.6880515737386208,0.086137799999166,-0.1969342814851185,0.344341797943284,1.482292199300544,0.2583562326608729,-0.7875539318204967,0.1262952624827447,1.2882428946275968,-0.5257973178196942,1.175690798421164,0.0292930476378058,10.382455903131811,-0.96137049820035,0.28660320911294,-0.8881244573082419
2.38,-0.1905514435315337,0.3234987733490763,1.483624439905014,-0.0757281159204844,0.0803635546267147,0.0181220647879894,0.1715924085550202,-0.6638123275331284,0.087494246250731,-0.1918833964615869,0.3285280072186468,1.4847589513398272,0.2699801956294608,-0.7812827229977696,0.1322105835199179,1.2967335262568491,-0.4561417877248924,1.2119623102746224,0.0678223125782459,10.41288866170362,-0.9623596213112748,0.2871861648047518,-0.8855622499099928
2.4,-0.1871966380927123,0.3104801929599173,1.4853989857169083,-0.0724500762714784,0.0840303565302589,0.0187218948093858,0.1646789979250162,-0.6398877438061713,0.0899516670688707,-0.1819718231037826,0.2903081569724198,1.4879991522175506,0.1949929704390658,-0.6351079729936148,0.1061817403498711,1.251219275471586,-0.3456705315001987,1.1962291863478525,0.1228710409069848,10.445746467438768,-0.9612004126999152,0.2862490790107817,-0.885714299164766
2.42,-0.1840942617718385,0.2984868599768164,1.487098494612301,-0.0693383932326389,0.0879412633168491,0.0192777240880921,0.1622054587066101,-0.6232410068632718,0.0887615921721416,-0.1819718231037826,0.2903081569724198,1.4879991522175506,0.1949929704390658,-0.6351079729936148,0.1061817403498711,0.8435765012299029,-0.1236769609203047,0.8323368471449766,-0.0595037448364518,10.489948446506787,-0.959140343760992,0.285556047254041,-0.8862868955865051
2.44,-0.1808684369403,0.2862138305026139,1.4888733649654993,-0.0669704202692516,0.0914014158832355,0.0198607648548124,0.1605531895895273,-0.6048775611634062,0.0888744360968808,-0.1819718231037826,0.2903081569724198,1.4879991522175506,0.1949929704390658,-0.6351079729936148,0.1061817403498711,0.9218986725211836,-0.0826134558541413,0.9181722849932794,0.0056421962369587,10.32794479686163,-0.955404571915274,0.2847003276224568,-0.8900620206633129
2.46,-0.1776670110100588,0.2743122912021657,1.4906669386798523,-0.0649607485053051,0.0942222595666871,0.0204739178359149,0.1597062660688316,-0.5862187933241333,0.0905349825549222,-0.180021893399392,0.2839570772424837,1.4890609696210493,0.1996730828158749,-0.629367102085712,0.1099192391696992,0.9375824114032668,-0.042346176034784,0.9329383919636448,0.0830273229020711,10.32794479686163,-0.9523946684114188,0.2843506557624229,-0.892591934866318
2.48,-0.1744757486282225,0.2627844590705417,1.4925081451097484,-0.0630471155159649,0.0964245587649581,0.0211303039647566,0.1594594130034662,-0.5675739995908613,0.0934959890238805,-0.1761220339906107,0.2712549177826114,1.4911846044280468,0.2090333075694932,-0.6178853602699066,0.1173942368093552,0.944003216495251,-0.0123426532682741,0.9322396866635996,0.1480503234479159,10.489236570520006,-0.9501637153132196,0.2842909051850415,-0.8939745118401435
2.5,-0.1714448418149589,0.2521766291796071,1.4943214728969074,-0.0612213873784463,0.0980098182492525,0.0217935781549233,0.1595887214623093,-0.5500548486461586,0.0972337773993746,-0.1722221745818294,0.2585527583227391,1.4933082392350443,0.2183935323231114,-0.6064036184541012,0.1248692344490113,0.8956958641759822,0.0064654229421576,0.8759575472351344,0.1868894187747022,10.54498539774795,-0.9483834527127912,0.2843857081775575,-0.8945714678850325
2.52,-0.1682495359792508,0.2413661258343079,1.496315044183704,-0.0592870793045398,0.0992400971408948,0.0225253351293277,0.1599385526999121,-0.5319851638281363,0.1019656459676112,-0.1678543039353671,0.2464246859536571,1.4958056239240245,0.2277537570767296,-0.5949218766382958,0.1323442320886673,0.9341125085670006,0.0174915618801396,0.9034842409011146,0.2365934284118319,10.54498539774795,-0.9471355981230456,0.2845837717614473,-0.8944338846335139
2.54,-0.1650458602053577,0.2309137190149707,1.4984087444097165,-0.0573371203142363,0.1001223591368697,0.02328330207507,0.1604115530745379,-0.5142358244018426,0.1071898971785622,-0.1634864332889049,0.234296613584575,1.4983030086130047,0.2371139818303479,-0.5834401348224904,0.1398192297283234,0.9254128539999116,0.0236500187312888,0.8874669713146877,0.2612125605475489,10.591733573940472,-0.946295884637932,0.2848812951475163,-0.8937038707277992
2.56,-0.1618310136373483,0.2208147430779189,1.5006111313457344,-0.0552897823662516,0.1007129431771888,0.0240677462332131,0.1610346929260884,-0.4966866784798339,0.1128005620461699,-0.1588845570236022,0.2224555847608881,1.5009872682429763,0.2464742065839661,-0.5719583930066848,0.1472942273679795,0.9217380133790074,0.0311569925775273,0.877457296100434,0.2805332433803854,10.634302602202297,-0.946363845822204,0.2854673530840948,-0.8914711780505167
2.58,-0.1587647962730864,0.2115422111385251,1.5028108658456265,-0.0532206845012482,0.1010352913967091,0.0248362331272127,0.1616788666120097,-0.4803699054016828,0.1184827347236647,-0.154048675139459,0.2109015994825964,1.5038584028139392,0.2558344313375844,-0.5604766511908794,0.1547692250076356,0.8644928133859414,0.0322086842960617,0.8158386539075524,0.2841086338747376,10.650966926823456,-0.9468418372563878,0.2860431038659128,-0.8887805332592772
2.6,-0.1555242244485455,0.2021108914452818,1.5052469280545722,-0.0509554317824346,0.1011739097044874,0.0256620843323716,0.1623318119809899,-0.4637164460783057,0.1248541326329405,-0.1506808529424859,0.187523715868441,1.5087350025818096,0.1810190669616982,-0.4434563428356409,0.1076459257814063,0.892130534743339,0.0326472684490139,0.832672966168857,0.3185698954637925,10.650966926823456,-0.9479889154846256,0.2869535258928886,-0.8847347099139805
2.62,-0.1522687983163961,0.1929602241629434,1.5076933753591713,-0.049976072664836,0.1007364384006034,0.0264273919764453,0.1630761722551707,-0.4518664736617047,0.1188106410652497,-0.1506808529424859,0.187523715868441,1.5087350025818096,0.1810190669616982,-0.4434563428356409,0.1076459257814063,0.6661450833353306,0.037218013709038,0.5924986208300509,-0.3021745783845425,9.86921425950095,-0.9462033513650984,0.2893192570207339,-0.8828344353875693
2.64,-0.1490080268941311,0.1840550883635952,1.5099990570052848,-0.0510507934561199,0.0995234613799982,0.0270920391590155,0.1628803357621729,-0.4390371089134466,0.1121230400823258,-0.1506808529424859,0.187523715868441,1.5087350025818096,0.1810190669616982,-0.4434563428356409,0.1076459257814063,0.7234551794731993,-0.0097918246498879,0.641468237412901,-0.3343800491461934,9.86921425950095,-0.9452501535058312,0.2909937680666049,-0.8830258073072157
