t,x,y,z,roll,pitch,yaw,v_x,v_y,v_z,ref_x,ref_y,ref_z,ref_v_x,ref_v_y,ref_v_z,a_com,a_x,a_y,a_z,thrust,wind_x,wind_y,wind_z
0.0,1.8618694075144249,-0.7012201671534487,2.77032127274306,0.0287940564089605,0.0998612328674597,0.0428071905160924,0.0046624167593203,-0.0072040457382475,0.0121120065675756,1.862006314610364,-0.7013847986718268,2.770689164452111,-0.0954071609182125,0.0940022547584954,-0.0877785585343654,0.74218782684936,0.2331208379660187,-0.3602022869123784,0.6056003283787827,10.24528547297723,-0.9430301156695235,0.2568581920813784,-0.8739968217755185
0.02,1.8621069928317744,-0.7015959686798692,2.770332441754558,0.0185306845926451,0.0947663452362034,0.0419716395634467,0.0184384317276211,-0.0260389618322803,-0.0119638072710301,1.862006314610364,-0.7013847986718268,2.770689164452111,-0.0954071609182125,0.0940022547584954,-0.0877785585343654,1.6764377893820768,0.6888007484150386,-0.9417458047016374,-1.2037906919302923,10.245666029527456,-0.9443996697876802,0.2606038133189207,-0.8756706021691633
0.04,1.862576178371751,-0.702122003839383,2.769774890481602,0.0016996805559153,0.0800616108222065,0.0407036544484811,0.0262714845137557,-0.0249199061306887,-0.0424098917449877,1.862006314610364,-0.7013847986718268,2.770689164452111,-0.0954071609182125,0.0940022547584954,-0.0877785585343654,1.572874010695864,0.3916526393067318,0.0559527850795792,-1.5223042236978792,8.870541886962656,-0.9457644956251984,0.2717756592324321,-0.8714413391567143
0.06,1.8630662136847893,-0.7025311693075371,2.7686826195957424,-0.0145738134434678,0.060745756710797,0.0398059068830217,0.024089152121389,-0.0179266414228148,-0.0710330547886127,1.8610522430011815,-0.7004447761242418,2.7698113788667675,-0.1154071612162357,0.1140022550565186,-0.1077785588323886,1.4772895692509835,-0.1091166196183355,0.3496632353936945,-1.4311581521812458,8.588515675409326,-0.9530503462926092,0.2822180824559782,-0.8633344980988706
0.08,1.8634423439460064,-0.7027841553016274,2.766950598818163,-0.0310165797989303,0.0384972407262549,0.0393560216911409,0.0129221979985199,-0.0074304132306768,-0.100672993957806,1.8591440997828172,-0.6985647310290719,2.76805580769608,-0.1554071618122822,0.1540022556525651,-0.147778559428435,1.6683807004077158,-0.5583477061434569,0.5248114096069006,-1.481996958459665,8.632903027319571,-0.964855987034148,0.2914133971885839,-0.8518368988415099
0.1,1.8635105842860544,-0.7027993271994568,2.7646313849908286,-0.0466468459057639,0.0170271134291205,0.0393608402849199,-0.0059958006363865,0.0056825747390493,-0.1297850155993146,1.8572359565644527,-0.696684685933902,2.766300236525393,-0.1954071624083286,0.1940022562486115,-0.1877785600244815,1.8556339414740248,-0.945899931745322,0.6556493984863077,-1.45560108207543,8.632903027319571,-0.9786449627531963,0.2996927004511756,-0.8386582192674937
0.12,1.863131604301312,-0.7025262142148316,2.76173677393899,-0.061499509282546,-0.0017138275994102,0.03966622340065,-0.0310335015983606,0.0212631518502026,-0.1582826532120413,1.8533278133162865,-0.6928046408089298,2.7625446653249037,-0.2354071630043751,0.234002256844658,-0.2277785606205279,2.0504610469868285,-1.2518850480987065,0.7790288555576635,-1.4248818806363348,8.694499632266798,-0.9910084654969956,0.3063419360986179,-0.8280747293357255
0.14,1.8622652016057104,-0.701955889614131,2.758455667949258,-0.0749301095176967,-0.016073844669163,0.0400753395021108,-0.0588274077219908,0.0382359722915485,-0.1857155042973163,1.84941967006812,-0.6889245956839576,2.7587890941244133,-0.2754071636004216,0.2740022574407045,-0.2677785612165744,2.129048596210413,-1.3896953061815107,0.8486410220672964,-1.3716425542637494,8.791673609130612,-1.001856523836764,0.3124316789480038,-0.8202799783419304
0.16,1.86075167302652,-0.70096528185023,2.7544315361815483,-0.0877793304066786,-0.027135014125779,0.0405126052113621,-0.0910155235563342,0.0598674927223362,-0.2152812161396134,1.8445115268050525,-0.6840445505440842,2.7540335229090225,-0.315407164196468,0.3140022580367509,-0.3077785618126208,2.4383030953177505,-1.6094057917171705,1.0815760215393873,-1.47828559211486,8.791673609130612,-1.009819719777036,0.3177027763876301,-0.8161548753525336
0.18,1.858566112056697,-0.6995080990775987,2.74981224310054,-0.0985322329234666,-0.0336130753310374,0.0408347603790728,-0.1259844746930636,0.0844679005028576,-0.2451706485364732,1.8386033835270832,-0.6781645053893096,2.748277951678731,-0.3554071647925144,0.3540022586327973,-0.3477785624086673,2.608345153338297,-1.7484475568364708,1.230020389026067,-1.494471619842988,8.805765847715065,-1.013465602058888,0.3218593532415704,-0.8175508178413515
0.2,1.8556595411147532,-0.6975382673218475,2.744595938331319,-0.1068650814949713,-0.0347498348582991,0.0408592245982607,-0.1622128176685688,0.1107696179484753,-0.2748507616659468,1.852266888322044,-0.6952847040524558,2.7375537106737164,-0.2259844761831798,0.1844679019929737,-0.3451706500265893,2.6856946451143218,-1.8114171487752584,1.315085872280885,-1.4840056564736803,8.849993858535072,-1.0151055380026954,0.3245245934215908,-0.8206692280448116
0.22,1.852195510279968,-0.6950351291211323,2.73922447355442,-0.1088621519754292,-0.0302576877061239,0.040706796910479,-0.1995960602594975,0.1488721690825314,-0.2886913024082456,1.852266888322044,-0.6952847040524558,2.7375537106737164,-0.2259844761831798,0.1844679019929737,-0.3451706500265893,2.757205014854181,-1.8691621295464325,1.905127556702807,-0.6920270371149395,9.852359012861143,-1.0186360289611744,0.3245676006073805,-0.8179121265223832
0.24,1.8478414883954628,-0.6917135897576943,2.7333013745506585,-0.1048813260812127,-0.0203984976718495,0.0404268041015077,-0.2330832369231277,0.1802298844030715,-0.3028310460388124,1.852266888322044,-0.6952847040524558,2.7375537106737164,-0.2259844761831798,0.1844679019929737,-0.3451706500265893,2.4003279260151986,-1.674358833181511,1.5678857660270065,-0.7069871815283374,9.852359012861143,-1.0153564933596384,0.3201796352784438,-0.8255389810628994
0.26,1.8428783787896656,-0.6878356848204198,2.727078113647542,-0.0988626375465709,-0.0076382747477672,0.0400397648336169,-0.2609640991829065,0.2056472809541484,-0.3188311816929595,1.850007043560212,-0.6934400250325261,2.7341020041734505,-0.245984476481203,0.2044679022909969,-0.3651706503246126,2.0490185874794795,-1.3940431129889408,1.27086982755384,-0.8000067827073576,9.678100006665773,-1.0082820670120043,0.3146873859620384,-0.8376486867796271
0.28,1.8374136947477613,-0.6834877072398485,2.720507465074093,-0.0927321063860543,0.006276836156636,0.0396239754942117,-0.2836685880788422,0.2278325983651265,-0.3373968085314061,1.8454873540365488,-0.6897506669926666,2.727198591172919,-0.2859844770772494,0.2444679028870434,-0.405170650920659,1.8387255263877489,-1.135224444796784,1.109265870548906,-0.9282813419223268,9.492855563541523,-0.9991964677661208,0.3096398757064424,-0.8514072288392147
0.3,1.831846184401044,-0.6789660678306797,2.713898173767011,-0.0874654100461988,0.019351589139306,0.039274939990175,-0.3009985256117314,0.2471027632480077,-0.3574019087474331,1.840967664512885,-0.6860613089528071,2.720295178172387,-0.3259844776732959,0.2844679034830898,-0.4451706515167055,1.6369713071405343,-0.8664968766444597,0.9635082441440596,-1.000255010801354,9.322919949927382,-0.9883657397948452,0.3049999256241286,-0.8664801158237831
0.32,1.8256689919912317,-0.673824577939913,2.7065063595715886,-0.082744291653082,0.032069659258123,0.039003595569412,-0.3155717174932091,0.2661089574601618,-0.3808701971311362,1.8344479749594191,-0.6803719508831454,2.711391765142053,-0.3659844782693423,0.3244679040791363,-0.4851706521127519,1.676584250571037,-0.7286595940738883,0.9503097106077038,-1.1734144191851508,9.174090453878309,-0.9771114174959772,0.3010446328926889,-0.8814220608499296
0.34,1.819233015483868,-0.6683109956007534,2.6986274840825777,-0.0788822941919069,0.0431300970761334,0.0388555997258416,-0.3271598183791064,0.2843826164593465,-0.4059347788546805,1.827928285405953,-0.6746825928134835,2.702488352111719,-0.4059844788653888,0.3644679046751828,-0.5251706527087985,1.655629753550328,-0.5794050442948617,0.9136829499592352,-1.2532290861772155,9.039031361237903,-0.9663872879852428,0.2975577175633837,-0.8955715203132807
0.36,1.81258594040477,-0.6624290591177626,2.6902331691250345,-0.0755061069267362,0.0523377928844445,0.0388504876817069,-0.3369256074142966,0.3028263933033648,-0.4322670672004902,1.820408595837586,-0.6679932347289206,2.692584939066484,-0.4459844794614352,0.4044679052712292,-0.5651706533048448,1.6799798728546242,-0.4882894517595104,0.922188842200916,-1.3166144172904874,8.967918692111198,-0.956820226147514,0.294531699252035,-0.908100714492172
0.38,1.8061030699221188,-0.6565020536746305,2.6817612302244185,-0.0724186659153114,0.0595035505565084,0.0389763065701822,-0.3449746180576425,0.3200389659115667,-0.4582170489389581,1.8118889062543175,-0.6603038766294564,2.681681526006347,-0.4859844800574816,0.4444679058672756,-0.6051706539008913,1.6081517188655845,-0.402450532167295,0.8606286304100957,-1.2974990869233929,8.920177651310041,-0.9476517858279764,0.291315738365312,-0.9202727450371784
0.4,1.799123495148328,-0.6499168135663845,2.6723000075147727,-0.0692337185190815,0.065568530512722,0.0392252004829901,-0.3525218856394234,0.3374838783544999,-0.4866008519728071,1.7888543390192366,-0.6405001053790522,2.658850377777471,-0.4449746195477586,0.4200389674016828,-0.5582170504290742,1.7080152902981764,-0.3773633790890462,0.8722456221466585,-1.4191901516924537,8.880586905782366,-0.9394065600738982,0.2880238733713516,-0.9314616600739402
0.42,1.7920249773058086,-0.642983823060746,2.6624699556262392,-0.066420782144291,0.0699478110176731,0.0395723584821417,-0.3569217271777034,0.3550846285580811,-0.4939395390104893,1.7888543390192366,-0.6405001053790522,2.658850377777471,-0.4449746195477586,0.4200389674016828,-0.5582170504290742,0.978521002237412,-0.2199920769139995,0.8800375101790631,-0.3669343518841073,8.83193239422053,-0.9401547059559504,0.2847007640987675,-0.9328670958942646
0.44,1.784849082299197,-0.6357129375457266,2.65249631200671,-0.0644761301898513,0.0723369023496418,0.0399912531925141,-0.3605930968020539,0.3712889925197281,-0.5034273490978463,1.7888543390192366,-0.6405001053790522,2.658850377777471,-0.4449746195477586,0.4200389674016828,-0.5582170504290742,0.9566594307457058,-0.1835684812175247,0.8102181980823492,-0.474390504367847,10.072383077055749,-0.9364183176559738,0.2839584746551568,-0.9363935269593
0.46,1.7779609449187828,-0.6285059061960759,2.642797772817522,-0.0634438978892264,0.0728617313272296,0.0404402227621897,-0.3644156638750028,0.386598455751973,-0.5169847950394754,1.784404592823759,-0.6362997157050354,2.65326820727318,-0.4649746198457818,0.4400389676997061,-0.5782170507270974,1.040187511878084,-0.1911283536474461,0.7654731616122457,-0.6778722970814555,9.799185711363862,-0.9336704954914136,0.2836070325374101,-0.9392640429822272
0.48,1.7706272846435238,-0.6206094904688676,2.6322758579661816,-0.0630905087711479,0.0717593407461511,0.0409602241034805,-0.3688366667892891,0.4022668413330115,-0.5346440213655896,1.7755051004328035,-0.6278989363570017,2.6421038662645984,-0.5049746204418283,0.4800389682957525,-0.6182170513231439,1.2009286489225208,-0.2210501457143132,0.7834192790519223,-0.8829613163057137,9.377849656426406,-0.9326027367470052,0.2835907350258655,-0.940784236304737
0.5,1.763200168083984,-0.6124021324018568,2.6213701122052955,-0.0635359281986617,0.0689721557761341,0.0415257974588672,-0.373788833297108,0.417749841111358,-0.5550321225053814,1.7666056080418486,-0.619498157008968,2.630939525256017,-0.5449746210378748,0.520038968891799,-0.6582170519191903,1.3037656071393926,-0.2476083253909466,0.7741499889173276,-1.0194050569895865,9.246696320694356,-0.9336197101948344,0.2841805696882682,-0.9401183703346402
0.52,1.7556648353693778,-0.6038850467626089,2.61003722443235,-0.0647674089465696,0.06454282924599,0.0421404141700853,-0.3797026516742965,0.4332534559671484,-0.5772306011260755,1.7557061156210911,-0.609097377631132,2.617775184217633,-0.5849746216339212,0.5600389694878455,-0.6982170525152368,1.385737867048158,-0.2956909188594259,0.7751807427895191,-1.1099239310347064,9.246696320694356,-0.9363889100910252,0.2853924479945398,-0.9374218879246335
0.54,1.748378538889486,-0.5955043979653032,2.598855110218356,-0.0666429994118674,0.0591557972019634,0.0427572456232322,-0.3872344041029042,0.4482182070250102,-0.59872246446165,1.7448066232003336,-0.5986965982532961,2.6046108431792496,-0.6249746222299677,0.600038970083892,-0.7382170531112833,1.3625080353016494,-0.3765876214303826,0.7482375528930885,-1.0745931667787256,9.152477151929816,-0.9407374031607018,0.2871571635913746,-0.9331506316268786
0.56,1.7405267896282546,-0.5863578111006017,2.5866396384795385,-0.0688664108834365,0.0530592051598618,0.0434294914019548,-0.3977423755513948,0.4656813983282686,-0.6217016568627671,1.7329071307646748,-0.5872958188605589,2.5904465021259644,-0.664974622826014,0.6400389706799383,-0.7782170537073296,1.535760233454473,-0.5253985724245319,0.8731595651629231,-1.148959620055856,9.134493633294367,-0.9460701904560028,0.2891501616785423,-0.9276693506163992
0.58,1.7324395230034622,-0.5768469442430398,2.5739632903089107,-0.0705396783123138,0.047300859824325,0.0441272714688844,-0.4105299327133221,0.4843242690485021,-0.6447597402329072,1.7200076383141152,-0.5748950394529206,2.5752821610577783,-0.7049746234220605,0.6800389712759848,-0.8182170543033761,1.6145846645230664,-0.6393778580963655,0.9321435360116732,-1.1529041685070018,9.123165177802548,-0.9518616864599352,0.2906182329276248,-0.9217375523267962
0.6,1.7240743868314246,-0.5669551543371377,2.560824066669822,-0.0712683181521203,0.0424887248447121,0.0448271302187955,-0.4254325626298499,0.5037325681217489,-0.6679914561130137,1.711913026367796,-0.5526307307906148,2.541725303297265,-0.5105299342034383,0.5843242705386182,-0.7447597417230233,1.6870707410179744,-0.7451314958263872,0.9704149536623408,-1.1615857940053265,9.126639012248232,-0.9569113151910628,0.2913239029463254,-0.9165594042172264
0.62,1.715789932737656,-0.5571548360394848,2.548121885866343,-0.0699068641209711,0.041000006190376,0.0454093957699919,-0.4455659397411063,0.5263838597797498,-0.6678392686285463,1.711913026367796,-0.5526307307906148,2.541725303297265,-0.5105299342034383,0.5843242705386182,-0.7447597417230233,1.515302815207502,-1.0066688555628227,1.132564582900042,0.0076093742233718,9.123992460024963,-0.9636362598895538,0.288842466762487,-0.9119599596508868
0.64,1.7066764796473417,-0.5464059923145982,2.5347389570668875,-0.0662897261540481,0.0439106651570385,0.0458527618962511,-0.4641842165691849,0.5468093598233456,-0.6706892080910023,1.711913026367796,-0.5526307307906148,2.541725303297265,-0.5105299342034383,0.5843242705386182,-0.7447597417230233,1.3892115020917095,-0.930913841403927,1.021275002179789,-0.142496973122802,10.545069687276737,-0.9651026486403173,0.2875276185535085,-0.9082899991292896
0.66,1.6972243184029312,-0.5352819849503305,2.5212402779349,-0.0620193950361508,0.0496395254006934,0.0461577961057167,-0.4796748976481794,0.5643929853860518,-0.6789715359210391,1.7068077270257616,-0.5467874880852286,2.534277705880035,-0.5305299345014615,0.6043242708366414,-0.7647597420210465,1.2427208480837284,-0.774534053949727,0.8791812781353103,-0.4141163915018397,10.204426256213084,-0.9622485629108296,0.2853200662139445,-0.9105336426676606
0.68,1.687986897559114,-0.5244065627631135,2.5082193813986517,-0.0580202536081254,0.0564790866101532,0.0463689718069057,-0.491630061648858,0.5794691891219784,-0.6912139617667936,1.696597128341693,-0.5351010026744561,2.519382511045575,-0.5705299350975079,0.6443242714326879,-0.8047597426170929,1.1402794130816016,-0.5977582000339293,0.7538101867963332,-0.6121212922877262,9.61632574244868,-0.9567046952012964,0.2824768719942736,-0.9166003917431884
0.7000000000000001,1.6780462629102662,-0.5126630980148189,2.494222640711819,-0.0541726864231313,0.0641835369044787,0.0465525459478671,-0.5015633865787027,0.5940767765623166,-0.7079988125556145,1.686386529657624,-0.5234145172636838,2.5044873162111143,-0.6105299356935544,0.6843242720287344,-0.8447597432131394,1.2183839409151571,-0.4966662464922333,0.7303793720169094,-0.839242539441043,9.61632574244868,-0.9496051623962576,0.2795163723338838,-0.9248585480027532
0.72,1.6679315712120932,-0.5006364152126676,2.479853095690926,-0.0507945759589324,0.0716968760481305,0.046727641082535,-0.5092389691729913,0.6078685397185357,-0.7282642230002463,1.6741759309437532,-0.5097280318231091,2.4875921213468515,-0.6505299362896009,0.7243242726247808,-0.8847597438091859,1.2843423994484306,-0.3837791297144288,0.6895881578109553,-1.0132705222315908,9.393265927365974,-0.942021767404989,0.2766489265391607,-0.9338477827368826
0.74,1.6576848447108938,-0.4883408964406484,2.465054933070086,-0.0478907548551583,0.0785168112351635,0.0469139523392105,-0.5149723409555496,0.6210487598682255,-0.7505414843224181,1.661965332229882,-0.4960415463825344,2.4706969264825887,-0.6905299368856473,0.7643242732208273,-0.9247597444052325,1.3255811246465217,-0.2866685891279141,0.659011007484489,-1.113863066108589,9.215505236410536,-0.9361003220041926,0.2742949410008214,-0.9407638228832014
0.76,1.6478549303038386,-0.4764122411433849,2.450571350555337,-0.0452728677828039,0.084199579142102,0.047123321252092,-0.5194032789667358,0.6338053979783355,-0.7729341725322793,1.6487547335011097,-0.4813550609270586,2.452801731603425,-0.7305299374816937,0.8043242738168737,-0.9647597450012788,1.307476111440799,-0.2215469005593107,0.6378319055054982,-1.119634410493059,9.127081080929202,-0.9303801193304382,0.2718544911782263,-0.947540012954436
0.78,1.6374261582614342,-0.4635983882482637,2.434852823486985,-0.0424463208824692,0.0893778553034624,0.0473864505217993,-0.5231703021210469,0.6467810342801603,-0.797801880765398,1.6345441347574363,-0.4656685754566816,2.4339065367093595,-0.7705299380777402,0.8443242744129201,-1.0047597455973252,1.4150622898391036,-0.188351157715555,0.6487818150912428,-1.2433854116559395,9.06758731057107,-0.925240165068102,0.2692743880103496,-0.95377550138877
0.8,1.626930133124468,-0.4505297409761966,2.418624957173208,-0.0394894257256059,0.0937760684227843,0.0476909310228207,-0.5261900712186454,0.6592872004766094,-0.823785629619901,1.6112676431553818,-0.4312593365342557,2.3949627294487152,-0.623170303611163,0.6997159863604101,-0.8426760459725456,1.449722734585737,-0.1509884548799245,0.6253083098224532,-1.299187442725147,9.001219306423081,-0.9206220540576636,0.2664382720289038,-0.95966085040265
0.8200000000000001,1.6164201597720966,-0.4370607523857963,2.402245040233264,-0.0318668644800002,0.0970911646212382,0.0483606099091073,-0.5243450284760242,0.6844392459561688,-0.8107800163757816,1.6112676431553818,-0.4312593365342557,2.3949627294487152,-0.623170303611163,0.6997159863604101,-0.8426760459725456,1.4187807709293376,0.0922521371310602,1.2576022739779702,0.6502806622059709,11.412480995772055,-0.9221318427328532,0.2580316766209653,-0.96317446566988
0.84,1.606485825466016,-0.423905559178816,2.3869588536398725,-0.0202962151359643,0.098867347537498,0.049338490511843,-0.5215618902297066,0.6981188129323289,-0.7991303741696254,1.6112676431553818,-0.4312593365342557,2.3949627294487152,-0.623170303611163,0.6997159863604101,-0.8426760459725456,0.909107494585791,0.1391569123158798,0.6839783488080065,0.5824821103078082,11.412480995772055,-0.9199978338499966,0.2497150885011315,-0.9645827755576902
0.86,1.596087750081662,-0.4098525803327573,2.3710476797899425,-0.0073718878525434,0.0992521693490365,0.0504279073121257,-0.5184916837665329,0.7060403849857992,-0.7928776582864798,1.6050359401192702,-0.4242621766706516,2.38653596898899,-0.6431703039091862,0.71030297677646,-0.8516508790139752,0.5274322881663971,0.1535103231586843,0.3960786026735163,0.3126357941572788,11.03723602363698,-0.9184856877795744,0.2398197991132198,-0.9667566940003992
0.88,1.5857507068639152,-0.3956880817318671,2.355201472634948,0.0049598378517194,0.0979392090076863,0.0514432062866892,-0.5154447224229578,0.7098170252401775,-0.79227806595183,1.592572534047047,-0.4102678569434435,2.369682448069539,-0.6831703045052326,0.73147695760856,-0.8696005450968342,0.2444713480553607,0.1523480671787536,0.1888320127189147,0.0299796167324895,10.650316253291749,-0.9185593430631616,0.2297973839764701,-0.9680778676472738
0.9,1.575474876799828,-0.3814826049507663,2.33931550021214,0.0161209085116398,0.0945407998554346,0.0522975454995668,-0.5124552898531183,0.7105453435541251,-0.7963202569245662,1.5801091279748236,-0.3962735372162352,2.352828927150088,-0.7231703051012791,0.7526509384406599,-0.8875502111796932,0.2540003076578776,0.1494716284919761,0.0364159156973797,-0.2021095486368085,10.329849238593852,-0.9205461522796984,0.2208013778912413,-0.9677670537651588
0.92,1.5657609744030054,-0.3679976965478453,2.324118614535565,0.0254470828182266,0.0891232843638211,0.0529022904308363,-0.5106456686426857,0.7089667844979133,-0.8031368150888962,1.5656457218727982,-0.381220518447422,2.335077922926494,-0.7631703056973256,0.7738249192727598,-0.9054998772625524,0.3613586958511247,0.0904810605216299,-0.0789279528105924,-0.3408279082165011,10.089317376206054,-0.9242094317349114,0.2120399130151581,-0.966190013439956
0.94,1.5555466273738856,-0.3538567934031666,2.3079742574702866,0.0338431630650757,0.0816446995846154,0.053295434657422,-0.5112619958294689,0.7052692912534201,-0.8109481213656813,1.5511823157707725,-0.3661674996786088,2.3173269187029,-0.803170306293372,0.7949989001048597,-0.9234495433454112,0.4332084407187334,-0.0308163593391586,-0.1848746622246599,-0.3905653138392528,9.918624552636174,-0.9303106836606369,0.2038266205618619,-0.9628907952909768
0.96,1.5452875007635571,-0.3398041448342333,2.291673102194034,0.0409128886365843,0.0732085972287917,0.0534623787690201,-0.5149388685751456,0.7002160298810711,-0.8187644525836207,1.5357189096538455,-0.3505851313889931,2.2991271728272347,-0.8431703068894184,0.8161728809369596,-0.9413992094282704,0.5003745531941781,-0.183843637283837,-0.252663068617448,-0.3908165608969727,9.889987384874075,-0.937806261838711,0.1964761550490149,-0.9582821885370844
0.98,1.5349243230623213,-0.3258678763374952,2.275216114735508,0.0468089916510328,0.0646492865068173,0.0534494568391721,-0.521432996893707,0.6938008944041878,-0.8265307034061006,1.519255503522018,-0.3344734135785749,2.280478685299498,-0.8831703074854649,0.8373468617690596,-0.9593488755111294,0.5992543651121314,-0.3247064159280721,-0.3207567738441663,-0.3883125411239918,9.893864986549488,-0.9456962310396608,0.1905210238706939,-0.9527518251866546
1.0,1.5249348081316751,-0.3127587129014146,2.2594377605518123,0.0514118187003847,0.0569453725528202,0.053313353180659,-0.529913879522094,0.6865889558761724,-0.833946654633562,1.508852673217636,-0.2911778316172859,2.2338895795652025,-0.6214329983838232,0.7015930617697388,-0.8274395878005488,0.668830621488795,-0.4240441314193488,-0.3605969264007691,-0.3707975613730707,9.898746616126118,-0.9541606567833192,0.1852852556531568,-0.94631319891791
1.02,1.5141795374546667,-0.299030179506717,2.242916616202814,0.0585298589803792,0.0513315328004809,0.0533892449451845,-0.5453519548568586,0.6848872739848549,-0.8165952348327081,1.508852673217636,-0.2911778316172859,2.2338895795652025,-0.6214329983838232,0.7015930617697388,-0.8274395878005488,1.1643685632206071,-0.77190376673823,-0.0850840945658737,0.8675709900426931,9.899020780480896,-0.9651794770654892,0.1779533802723108,-0.9379575508739096
1.04,1.5031077511687423,-0.2854284612671533,2.2267662454433887,0.0678511180121133,0.0502853147749095,0.0538193456860346,-0.5605222573608222,0.6750173655269998,-0.7995769897403187,1.508852673217636,-0.2911778316172859,2.2338895795652025,-0.6214329983838232,0.7015930617697388,-0.8274395878005488,1.2421491829213216,-0.7585151251981781,-0.493495422892759,0.8509122546194736,11.585983023371227,-0.9700475045178104,0.1711564330130281,-0.932893465288926
1.06,1.4917618464370033,-0.2720752785836811,2.2109108366679755,0.0766232225682078,0.0523382973772027,0.0543876102112618,-0.572983446283651,0.6609245039426068,-0.7867788687323195,1.5026383432337975,-0.2841619009995885,2.225615183687197,-0.6414329986818463,0.703151495242849,-0.8276213646794385,1.1376311774282126,-0.623059446141444,-0.7046430792196468,0.6399060503999576,11.350285796652315,-0.9709474167710452,0.1644334117534124,-0.932698051830591
1.08,1.480777423724332,-0.2596750914127581,2.1960523826745284,0.0836057048665367,0.0558449441950484,0.0549419912663647,-0.5824585233050269,0.645365734301079,-0.7778788312925722,1.4902096832661211,-0.2701300397641937,2.209066391931186,-0.6814329992778928,0.7062683621890694,-0.8279849184372178,1.0137345112849268,-0.4737538510687922,-0.7779384820763902,0.445001871987366,11.088282073800656,-0.9694872733080956,0.157906175599829,-0.9354804700455206
1.1,1.4690441985754268,-0.2469534232480441,2.180569280046798,0.0893350955463662,0.0601505354280035,0.0554591486119767,-0.590211148630351,0.627868694654998,-0.7709885176249651,1.4777810232984447,-0.2560981785287989,2.192517600175175,-0.7214329998739393,0.7093852291352898,-0.8283484721949971,1.0170128050440188,-0.3876312662662029,-0.8748519823040535,0.3445156833803531,10.73308267450102,-0.967364633774289,0.1525496730498699,-0.9389557335956328
1.12,1.457175973912752,-0.2345906615474424,2.165201401575235,0.0933880331499797,0.0643426383921867,0.0558412124755383,-0.5961417371021388,0.6095884373699882,-0.766203855134347,1.463352363300966,-0.2419104739460931,2.175950630731275,-0.7614330004699857,0.7125020960815102,-0.8287120259527764,0.9902432544291598,-0.2965294235893922,-0.9140128642504852,0.2392331245309076,10.73308267450102,-0.9648603199329864,0.1482853727357236,-0.9428907393063698
1.14,1.4452065099242972,-0.2226000703167053,2.149921514290036,0.0957769380603942,0.0678907221440825,0.0560326446884636,-0.6005379879756286,0.5908468361234692,-0.7619862727504334,1.4489237033034872,-0.2277227693633873,2.159383661287375,-0.8014330010660322,0.7156189630277305,-0.8290755797105557,0.9853459293457318,-0.2198125436744913,-0.9370800623259512,0.2108791191956782,10.600877889973162,-0.9629211890615628,0.1453090509216167,-0.9462174802176844
1.16,1.4337604897525689,-0.2115600761234802,2.135482879266748,0.0965729778086534,0.0705134029556568,0.0560219212028568,-0.6041139168953422,0.5724640522378991,-0.7580642768761688,1.433495043291107,-0.213457143107026,2.1428076029995307,-0.8414330016620786,0.718735829973951,-0.829439133468335,0.9566818471416833,-0.1787964459856794,-0.9191391942785064,0.196099793713228,10.605351666577008,-0.9613721966855782,0.1433735073021902,-0.9490971057013964
1.18,1.421643375285883,-0.200321779311427,2.12036501669388,0.0955422626645988,0.0725409971875165,0.0557878744795371,-0.6074279256024224,0.5525385480834213,-0.7539087034663996,1.4170663832638262,-0.1991135951770092,2.1262224558677416,-0.881433002258125,0.7218526969201714,-0.8298026872261143,1.0311124573545516,-0.1657004353540103,-0.99627520772389,0.2077786704884621,10.605351666577008,-0.9605236849271996,0.1430284803620986,-0.9510804128899704
1.2,1.409462920105838,-0.1894839124268293,2.105331937389118,0.0922037129531362,0.0738722088980238,0.0553049404317084,-0.6105070782900396,0.5328575232475103,-0.7495428201494331,1.391271979005762,-0.1726948519072559,2.0826695815205603,-0.7074279270925385,0.5483182002319065,-0.7504229896138301,1.0196627592037109,-0.1539576343808579,-0.9840512417955471,0.2182941658483261,10.614900441449208,-0.9602095862474566,0.1446044762611597,-0.952304835313798
1.22,1.3972024278657798,-0.178947400736998,2.090449818278425,0.0894903044098617,0.0751707742800598,0.0548430955542047,-0.6152827753525553,0.521082486399203,-0.7386587242172769,1.391271979005762,-0.1726948519072559,2.0826695815205603,-0.7074279270925385,0.5483182002319065,-0.7504229896138301,0.8365439609971154,-0.2387848531257841,-0.5887518424153693,0.5442047966078112,11.015344547397945,-0.9610525525687869,0.1460516575081775,-0.9520012120299522
1.24,1.3854817138377638,-0.1691826232085552,2.0765157673050734,0.088414758847829,0.0765743679966858,0.0545069369003118,-0.6182401892406381,0.5073681982355852,-0.7286630948441531,1.391271979005762,-0.1726948519072559,2.0826695815205603,-0.7074279270925385,0.5483182002319065,-0.7504229896138301,0.861308021710329,-0.1478706944041397,-0.6857144081808875,0.4997814686561852,11.015344547397945,-0.9618397393232736,0.146943180058641,-0.9510312770949382
1.26,1.3730935094573726,-0.1591980386652346,2.062042711758643,0.0874443430818142,0.0775852501292878,0.0541054292950769,-0.6204558375703662,0.4919004152241018,-0.7192085414303577,1.3841976997348366,-0.1672116699049368,2.075165351624422,-0.7274279273905617,0.5474741306616036,-0.7497258468433162,0.913167549064345,-0.1107824164864046,-0.7733891505741719,0.4727276706897709,10.957940010782297,-0.9623144807537548,0.1473273995964686,-0.9507046788549808
1.28,1.3606663366072909,-0.1495289136586963,2.047748983822389,0.0859882916291008,0.0778035703866068,0.0535844642542078,-0.6222349565312343,0.4759247550750925,-0.710659624521421,1.3700491411929858,-0.1562453059002987,2.0601568918321456,-0.7674279279866082,0.5457859915209976,-0.7483315613022885,0.9103171999219116,-0.0889559480434065,-0.7987830074504626,0.4274458454468388,10.89420154974232,-0.9631860481395212,0.1478815472432704,-0.950150901513769
1.3,1.3482061832425891,-0.1401791163032885,2.0336195059712265,0.0836695032588407,0.0770203666416269,0.0529048095861885,-0.6238283199044777,0.4602588507858506,-0.7026765005784056,1.355900582651135,-0.1452789418956606,2.045148432039869,-0.8074279285826547,0.5440978523803917,-0.7469372757612607,0.8827366990337878,-0.0796681686621725,-0.7832952144620958,0.3991561971507684,10.843828205003774,-0.9649218966672626,0.1490460025332312,-0.9486540740961444
1.32,1.3363398471007406,-0.1315766343578785,2.0203428606184355,0.080868280465889,0.0751424812259497,0.0521165980957891,-0.6252989521362652,0.4463175116232064,-0.6952365124062851,1.3397520240794818,-0.1343969848480527,2.0302096865246435,-0.8474279291787011,0.5424097132397857,-0.7455429902202328,0.7935318531891802,-0.0735316115893724,-0.6970669581322114,0.3719994086060219,10.793122011594278,-0.9679704664604144,0.1508457787937197,-0.9456905626115488
1.34,1.323817065644934,-0.1227964536625489,2.006523085906245,0.0775256661945432,0.0716852843808889,0.0511411328212369,-0.6270249498985613,0.4326361317066687,-0.6870971109955011,1.3236034655078288,-0.1235150278004449,2.0152709410094185,-0.8874279297747476,0.5407215740991798,-0.7441487046792051,0.8006389323876956,-0.0862998881148047,-0.6840689958268809,0.4069700705392032,10.793122011594278,-0.972461963550732,0.1530114557932057,-0.9411201899085212
1.36,1.3112477317095332,-0.1142805517661635,1.992871022388936,0.0739338264960346,0.0666266661455428,0.0500342067260669,-0.6300711740095503,0.4198130725489898,-0.6784771945946265,1.3064549069212743,-0.1126752742313522,2.000367052632719,-0.927427930370794,0.5390334349585739,-0.7427544191381773,0.787421879067649,-0.1523112055494491,-0.6411529578839475,0.430995820043728,10.822998588609153,-0.9781662704171962,0.1553977350434789,-0.935124368338901
1.38,1.2985912819896108,-0.1060128531916266,1.9793972827878847,0.0701947418750954,0.0605119741895733,0.0488570342732428,-0.6357153877574871,0.407781547375373,-0.6693060244677547,1.288306348319819,-0.1018777241407747,1.985498021394545,-0.9674279309668404,0.537345295817968,-0.7413601335971496,0.8073492248274626,-0.2822106873968444,-0.6015762586808415,0.4585585063435926,10.822998588609153,-0.9847713725270428,0.1578617632631747,-0.927984473402172
1.4,1.2864369757500909,-0.0983736862248117,1.966771885722313,0.0665972399256556,0.0544973323361009,0.0477424025044321,-0.643567727505116,0.3970873528507447,-0.6601216586152369,1.2668055126017366,-0.0856237758228579,1.945931981564497,-0.7357153892476033,0.3852709647942105,-0.6268752697167876,0.8068110252030476,-0.3926169873814444,-0.5347097262314138,0.4592182926258903,10.849400507714565,-0.9926167480427406,0.1606883590799092,-0.9191895710388406
1.42,1.2734227763310515,-0.0904660136478729,1.9538088951079888,0.0656345980513886,0.0497669464786188,0.0468867020672906,-0.6576976861467806,0.393293167872755,-0.6360233015502605,1.2668055126017366,-0.0856237758228579,1.945931981564497,-0.7357153892476033,0.3852709647942105,-0.6268752697167876,1.409594253760145,-0.7064979320832276,-0.1897092488994861,1.2049178532488158,10.874749663238616,-1.002522959844682,0.162506674313674,-0.907064447064191
1.44,1.2601090270135384,-0.0826754686398067,1.941348596374708,0.0685121402362874,0.0485429565135684,0.0465183187022658,-0.6725955322683502,0.3855185590396675,-0.6113145952897445,1.2668055126017366,-0.0856237758228579,1.945931981564497,-0.7357153892476033,0.3852709647942105,-0.6268752697167876,1.494080425075866,-0.7448923060784818,-0.3887304416543724,1.2354353130258011,11.89085863566106,-1.009168376627562,0.1619801274013219,-0.8981272871704207
1.46,1.2465185233517249,-0.0750880597701009,1.9293636929097435,0.0727986415832286,0.0499330336493257,0.0464144981745462,-0.6854256675194111,0.3734003987338988,-0.5883939700590498,1.2594483587092606,-0.0817710661749158,1.9396632288673297,-0.7557153895456264,0.380768848277978,-0.6183891187665942,1.446389678408609,-0.6415067625530457,-0.6059080152884366,1.1460312615347357,11.8068350046251,-1.013123058060641,0.1598728072927135,-0.8927576281923888
1.48,1.2333905299414636,-0.0681318964279147,1.918386443533447,0.0765801913865507,0.0525950914386055,0.0463889443790415,-0.6956675382936188,0.359575860167652,-0.5682245299984694,1.2447340509243086,-0.0740656468790316,1.927125723472994,-0.7957153901416729,0.3717646152455131,-0.6014168168662074,1.32553771719495,-0.5120935387103842,-0.6912269283123385,1.0084720030290206,11.676554230539296,-1.0150426689771304,0.1577518885692682,-0.8899091993564544
1.5,1.2193813143325614,-0.0611047771838836,1.9072333939362525,0.0797291240646058,0.0559389780398508,0.0463449829110267,-0.7045862636572253,0.3440144144741358,-0.5481754625190097,1.2300197431393565,-0.0663602275831474,1.9145882180786584,-0.8357153907377194,0.362760382213048,-0.5844445149658206,1.3450533084041865,-0.4459362681803247,-0.7780722846758098,1.0024533739729835,11.560008865521011,-1.01595516655226,0.1560864296375775,-0.8883533409119775
1.52,1.2052102985331554,-0.0543956290207547,1.8964686946529252,0.0818744887482435,0.0591977625873076,0.0462231975949993,-0.7120028270513645,0.3278839758896835,-0.5293265853591645,1.213305435324602,-0.0591050199388864,1.9028993277793416,-0.8757153913337659,0.353756149180583,-0.5674722130654338,1.2946781759311925,-0.3708281697069604,-0.8065219292226172,0.9424438579922588,11.475766428045972,-1.0162988150763854,0.1549967801668433,-0.8875116915159899
1.54,1.1909048704034195,-0.048016130651648,1.8860753127332348,0.0828655026637265,0.0619258625069981,0.0459742655067529,-0.7181887692503787,0.3110876240012789,-0.5109343563181492,1.1965911275098478,-0.0518498122946254,1.8912104374800252,-0.9157153919298124,0.3447519161481181,-0.5504999111650469,1.2832160834655102,-0.3092971099507069,-0.8398175944202307,0.919611452050767,11.397398196288124,-1.0161542960762762,0.1545055729492017,-0.8873230401694471
1.56,1.177203819432601,-0.0422741614742954,1.8765397878438064,0.0824095653967756,0.0639437368734069,0.0455882738554707,-0.7237315300839248,0.2944076585480013,-0.4937042209694261,1.1788768196801922,-0.0448197104761761,1.8799458547282184,-0.9557153925258588,0.3357476831156531,-0.5335276092646601,1.2306715740965803,-0.277138041677305,-0.8339982726638773,0.8615067674361543,11.375830672464872,-1.016139088660727,0.1549680271187136,-0.8869200747430207
1.58,1.1626704946588564,-0.0365732663089388,1.8668566361031755,0.0801187973634565,0.0655703909064765,0.0450099685451347,-0.7293156077573062,0.276773600251665,-0.4754929471895665,1.1601625118356351,-0.0380147144835384,1.869105579523921,-0.9957153931219052,0.3267434500831881,-0.5165553073642734,1.2978755989557968,-0.2792038836690713,-0.8817029148168148,0.9105636889929823,11.36624073022449,-1.0165695066345874,0.156863167473198,-0.8858220261929247
1.6,1.1480260673116012,-0.0312073489883944,1.8575392080458444,0.0761750291239188,0.0667775787333648,0.0442800083938512,-0.7348724358257219,0.2612259022774547,-0.4571167187378552,1.126204714270991,-0.0227345862963556,1.843081988743697,-0.8293156092474223,0.2506862584215306,-0.4659762330487936,1.2352074953106833,-0.2778414034207865,-0.7773848987105147,0.9188114225855608,11.367783343966948,-1.0173851466672144,0.1602011492169161,-0.8837323325255763
1.62,1.1332399265466155,-0.0260935707103013,1.84849279241198,0.0724476683288407,0.0683745886554153,0.0435928777859741,-0.7433862721355533,0.2507517239723967,-0.4489859570541912,1.126204714270991,-0.0227345862963556,1.843081988743697,-0.8293156092474223,0.2506862584215306,-0.4659762330487936,0.7878818208229106,-0.425691815491569,-0.523708915252899,0.4065380841832028,11.367783343966948,-1.0150789724155562,0.1634339168500961,-0.8847421575918891
1.64,1.1190510194216892,-0.0214270123393785,1.8400294817758691,0.0696794273817041,0.0704770797070028,0.0430343862993889,-0.7496923041846323,0.2409238539866284,-0.4422444455500892,1.126204714270991,-0.0227345862963556,1.843081988743697,-0.8293156092474223,0.2506862584215306,-0.4659762330487936,0.6741680910965677,-0.315301602453949,-0.4913934992884158,0.337075575205098,10.675594187041495,-1.0149652401570075,0.1652681933647982,-0.8848637406010023
1.66,1.103998591884221,-0.0167149164371217,1.831260177211045,0.0671972304180072,0.0725388440833661,0.0424638246064265,-0.7551802863403764,0.2308105574877797,-0.435039678635302,1.1179115581785168,-0.0202277237121403,1.838422226413209,-0.8493156095454455,0.2454687900555037,-0.4640728902206391,0.6787955887301496,-0.2743991077872043,-0.5056648249424367,0.360238345739361,10.675594187041495,-1.0144065094884025,0.1667281008886227,-0.8854518211961453
1.68,1.0888450527774989,-0.0122014250636519,1.82263539560855,0.0650080869621451,0.0741134893118943,0.0418802876382457,-0.759904295292332,0.2210627834330551,-0.427801189519925,1.1013252459935683,-0.0152139985437097,1.8291027017522328,-0.889315610141492,0.23503385332345,-0.46026620456433,0.6514044140807427,-0.2362004475977841,-0.4873887027362286,0.36192445576885,10.679547931902562,-1.0142146599746558,0.1680313041143956,-0.8855477281936607
1.7,1.073602628773885,-0.0078785029555614,1.8141558236478956,0.0630499206599097,0.0750060030092647,0.0412698756604167,-0.7641751628515553,0.2117211338943609,-0.4205214996456199,1.08473893380862,-0.0102002733752791,1.8197831770912571,-0.9293156107375384,0.2245989165913962,-0.4564595189080208,0.6294851278590098,-0.2135433779611617,-0.4670824769347076,0.3639844937152525,10.679642899536702,-1.0145137891250218,0.1690679035792321,-0.8851365102349182
1.72,1.0590447001737855,-0.0039411960003873,1.8062357101880044,0.0613776372298494,0.0751661821232422,0.0406627754449205,-0.7681101183801641,0.2031979997575667,-0.4135404951233493,1.0661526215938693,-0.0057082950434511,1.8106539867130969,-0.9693156113335848,0.2141639798593425,-0.4526528332517117,0.5849404129180172,-0.1967477764304392,-0.4261567068397129,0.3490502261135342,10.679642899536702,-1.01541059506382,0.170007634769522,-0.8840420172274606
1.74,1.0436385380664204,3.245615297722631e-05,1.7980397527213583,0.0598197357235305,0.0746152271662772,0.0399985387844495,-0.7723768029818037,0.1946296936839359,-0.4064349876643104,1.0475663093791183,-0.0012163167116232,1.8015247963349368,-1.0093156119296314,0.2037290431272887,-0.4488461475954026,0.5960467739862018,-0.2133342300819796,-0.4284153036815383,0.3552753729519436,10.682014346338292,-1.0169192332784398,0.1707981377926844,-0.8822385448830198
1.76,1.0281384356456988,0.0038367818889765,1.78998338255776,0.0584525358634286,0.0735291920768858,0.0393216636535205,-0.7775077632052729,0.1862646841401599,-0.3995622003124625,1.0279799971494663,0.0030147882019033,1.7924907730981838,-1.0493156125256775,0.1932941063952349,-0.4450394619390934,0.5990311833828165,-0.256548011173463,-0.4182504771887987,0.3436393675923938,10.663492254658197,-1.0184948910275329,0.1712886557802258,-0.8804683679228408
1.78,1.0125257799788232,0.0074763181130499,1.7820630922800778,0.0572519008598129,0.0723245582638658,0.0386561417573088,-0.7835323249459588,0.1781434096085098,-0.3928021111810303,1.0073936849049134,0.0069850196971285,1.7835519170028389,-1.089315613121724,0.1828591696631812,-0.4412327762827843,0.6081719519401424,-0.3012280870342942,-0.4060637265825062,0.3380044565716111,10.64541562366503,-1.0204822771835842,0.1717153612821203,-0.8782388940973532
1.8,0.997575615552736,0.0107856456505923,1.774663406902413,0.0562713552185127,0.0713376997365749,0.038050276926955,-0.7898642856149526,0.1706427005229138,-0.3864429324692757,0.9733491637315252,0.0163834885934754,1.7624229867210262,-0.8441113343000733,0.1559912278937366,-0.3718047862225866,0.5847938025245745,-0.3165980334496887,-0.3750354542798026,0.317958935587731,10.64541562366503,-1.0225094774615804,0.1720462356655664,-0.8759696059570978
1.82,0.9816196704015318,0.014094404304671,1.7670520084265535,0.0548819862985065,0.0734913373149714,0.0375710940967151,-0.8049426876449682,0.1607982728495284,-0.3747224328704217,0.9733491637315252,0.0163834885934754,1.7624229867210262,-0.8441113343000733,0.1559912278937366,-0.3718047862225866,1.0742917141563928,-0.7539201015007824,-0.4922213836692668,0.5860249799427009,10.640499530732086,-1.0194487932254,0.1716271444683132,-0.8804238940370366
1.84,0.965399473030816,0.017218481538783,1.7596845202636564,0.052915858854112,0.0806378220257998,0.0373235844108108,-0.8156274330246573,0.1523118975049232,-0.362607301073425,0.9733491637315252,0.0163834885934754,1.7624229867210262,-0.8441113343000733,0.1559912278937366,-0.3718047862225866,0.912357891368445,-0.5342372689844554,-0.4243187672302612,0.6057565898498318,11.059025960703366,-1.0177175941463363,0.1737020944060255,-0.8817249158373958
1.86,0.9498406978989512,0.0200431369836012,1.7528975079038844,0.0509972549465527,0.0898134217209239,0.037201902812903,-0.8211853479012914,0.1454919264563741,-0.3524224566402043,0.9649080503885246,0.0179434008724128,1.7587049388588003,-0.8562271361708963,0.151560791550782,-0.3676053212308979,0.6729291920549,-0.277895743831702,-0.3409985524274531,0.5092422216610354,10.990522561235592,-1.012116621099767,0.1756643926085682,-0.8874707260102084
1.88,0.9333962429830216,0.022886618265175,1.745947872960277,0.0491535033729045,0.1002716444447207,0.037114434898215,-0.822600894929299,0.1392342323770996,-0.3431641394644304,0.9480258237025232,0.0210632254302875,1.7512688431343486,-0.8804587399125421,0.1426999188648727,-0.3592063912475204,0.5632027732209748,-0.0707773514003806,-0.3128847039637256,0.4629158587886955,10.875661092983137,-1.0046740272755894,0.1773080826283366,-0.895272998819832
1.9,0.9169655597403168,0.0256128261166637,1.7391661559695868,0.04759032901174,0.1102516422725059,0.0370122928009929,-0.8201636195459204,0.1337030470313479,-0.335563981300967,0.9311435970165216,0.0241830499881623,1.743832747409897,-0.904690343654188,0.1338390461789635,-0.350807461264143,0.4855325085232229,0.1218637691689283,-0.2765592672875891,0.3800079081731689,10.778554119814544,-0.9966234197835974,0.1785555064820921,-0.9036890833883094
1.92,0.900618495329754,0.0282362070537399,1.732520642853182,0.0464189631444282,0.1188069763523367,0.0368634703950503,-0.8146288769368923,0.1288807188950493,-0.3293964097806026,0.9130497901434378,0.0268598309117415,1.736816598184614,-0.9289219473958336,0.1249781734930542,-0.3424085312807656,0.4793932698243098,0.2767371304514043,-0.2411164068149257,0.30837857601822,10.688641413837104,-0.989446665984625,0.1793456343637496,-0.9110901332335894
1.94,0.8852136867038085,0.0306447372885503,1.7263146711476387,0.0458087063563201,0.1251248822591136,0.0366723376003451,-0.8072696855390868,0.124839553326017,-0.3241955083580197,0.8949559832703541,0.0295366118353208,1.7298004489593313,-0.9531535511374796,0.1161173008071449,-0.3340096012973881,0.4938068772133786,0.3679595698902749,-0.202058278451616,0.2600450711291446,10.62416138649769,-0.9831008912941566,0.1796782637125771,-0.9175380238988304
1.96,0.869160223914707,0.03309873472488,1.7198862587877874,0.0457843916784635,0.1297593397874464,0.0364254723596295,-0.7985055334419388,0.1207399723984307,-0.3189371002730079,0.8762563863037292,0.0319918709417524,1.7229942729836327,-0.9773851548791253,0.1072564281212356,-0.3256106713140106,0.5506082576394317,0.4382076048574046,-0.2049790463793145,0.2629204042505911,10.600073701710244,-0.9782399633088622,0.1794318204663909,-0.922410364807327
1.98,0.8532894108338711,0.0354702482301756,1.713562901178564,0.0464062611909969,0.1324447083449378,0.0361401770785039,-0.7891629312571636,0.1165586890674159,-0.31367132281531,0.8569509992435631,0.0342256082310362,1.7163980702575188,-1.0016167586207712,0.0983955554353264,-0.3172117413306332,0.575534008793544,0.4671301092387558,-0.2090641665507424,0.2632888728848953,10.610546298160443,-0.9751081328015544,0.1786563244930579,-0.9254844129539628
2.0,0.837606220228777,0.0377543245309605,1.7073472805787724,0.0476078239447749,0.1334279853266989,0.035821590246037,-0.7797870013046061,0.1120044348699106,-0.3081565229565386,0.8138312642710129,0.0412981826835464,1.6978793350377983,-0.7944790248211971,0.0858395522481724,-0.2894465125130525,0.5896234206106981,0.4687964976278769,-0.2277127098752614,0.2757399929385673,10.610546298160443,-0.9736600174573772,0.1774809433894695,-0.9268574440942872
2.02,0.8227891819070369,0.0398494066781799,1.7015334010438086,0.0497464502724043,0.1358334459783623,0.0356645634252074,-0.7796393428059866,0.1084164024393057,-0.3041344729076227,0.8138312642710129,0.0412981826835464,1.6978793350377983,-0.7944790248211971,0.0858395522481724,-0.2894465125130525,0.2695953743634718,0.0073829249309764,-0.1794016215302486,0.2011025024457963,10.630711069126846,-0.9662405199974736,0.1739871610785428,-0.9354300788223628
2.04,0.8072345071941048,0.041958635898922,1.6954995003625564,0.0528374558977562,0.1416555810013881,0.0357346295930182,-0.7753525711349128,0.1025040366708815,-0.2994590250539398,0.8138312642710129,0.0412981826835464,1.6978793350377983,-0.7944790248211971,0.0858395522481724,-0.2894465125130525,0.4335674485361587,0.2143385835536859,-0.2956182884212073,0.233772392684145,10.578374554750551,-0.9628276918404782,0.1714267460511364,-0.9392204332317184
2.06,0.7918056204990571,0.0439317378581698,1.689560696126223,0.0559284475186261,0.1490862238179382,0.0359118409277265,-0.767406771626329,0.0950947959988772,-0.2946928977730664,0.805886474022801,0.0421565782060281,1.694984869912668,-0.7955422435340038,0.0796957248843238,-0.284601550452601,0.5931874628306412,0.3972899754291936,-0.3704620336002176,0.2383063640436722,10.615560604483107,-0.9566845239122286,0.1687061937470751,-0.9458099697054764
2.08,0.7773236824506643,0.045659805548423,1.684006202743136,0.0585444540943038,0.1567273766181927,0.0361128705403937,-0.7571567228996757,0.0872332666222254,-0.2902605553457269,0.789996893526377,0.0438733692509916,1.689195939662407,-0.7976686809596173,0.0674080701566264,-0.2749116263316979,0.6828484503019642,0.5125024363326625,-0.3930764688325864,0.2216171213669737,10.615560604483107,-0.9486294624308662,0.1659321012776564,-0.9542253583640256
2.1,0.7623250251466552,0.0473128285909791,1.678249469364636,0.0608814740629917,0.1645509958810974,0.0363035163290043,-0.7430398498701112,0.0785151978519835,-0.2856712162704158,0.7741073130299531,0.045590160295955,1.6834070094121458,-0.7997951183852307,0.055120415428929,-0.2652217022107949,0.8607451137876013,0.7058436514782274,-0.4359034385120988,0.229466953765553,10.625399902340178,-0.940584528685831,0.1635672146349132,-0.9623408072390646
2.12,0.7476406640156366,0.0487870405403357,1.6725836442598754,0.0627691416074566,0.1712653793637502,0.0364115068952013,-0.7260112230369461,0.0693927328150642,-0.2811592242622407,0.7581114106622484,0.0466925686045336,1.67810257536793,-0.801921555810844,0.0428327607012316,-0.2555317780898919,0.991906714432916,0.8514313416582542,-0.4561232518459641,0.2255996004087573,10.660620247319455,-0.932941785530481,0.1614892115441457,-0.9698597064591196
2.14,0.7333220175286536,0.0500741634342195,1.667009253896628,0.0641560424632778,0.1762223029035479,0.0363841275121846,-0.7068095417653345,0.059829426314234,-0.2765224415604196,0.7421155082945438,0.0477949769131122,1.672798141323714,-0.8040479932364575,0.0305451059735342,-0.2458418539689889,1.0973389958318338,0.9600840635805796,-0.4781653250415085,0.2318391350910525,10.660620247319455,-0.9268585459509434,0.1598664306546343,-0.9756914609972168
2.16,0.7200877867843143,0.0511123944224205,1.6618031390410626,0.0648118433175069,0.1790679992231435,0.0361965389436905,-0.6873838296726037,0.0500258242518612,-0.2717213260948336,0.7260664449911989,0.0485901938534983,1.6677359553825208,-0.8061744306620708,0.0182574512458369,-0.2361519298480859,1.1141360031667111,0.9712856046365403,-0.4901801031186398,0.2400557732793018,10.689471828226488,-0.9220370753804416,0.1586940692460881,-0.9801834099215864
2.18,0.7065608879884238,0.0519998662536334,1.6564285248220898,0.0645587218673812,0.1801049893935873,0.035807772889055,-0.6664360385260429,0.039307727109363,-0.2659481316031017,0.7099642207522135,0.0490782194256921,1.66291601754435,-0.8083008680876843,0.0059697965181395,-0.2264620057271829,1.2114220310396793,1.0473895573280378,-0.5359048571249088,0.2886597245865957,10.732367180884468,-0.919270579091889,0.1581979272722793,-0.9827978091840858
2.2,0.6934571666244226,0.0526706664399308,1.6511787772057973,0.063149026293976,0.1791125810978617,0.0352103955551192,-0.6450627499092411,0.0284175050379685,-0.2592607076068123,0.6732390860621216,0.0539652526091015,1.6431311182419348,-0.6592541510111537,0.0272830376436018,-0.2235204315901794,1.2451265425324736,1.068664430840094,-0.5445111035697263,0.3343711998144705,10.846080564293516,-0.9190358270159482,0.1588731864146358,-0.9828062829270788
2.22,0.6807492742700695,0.0530560669612372,1.6460300921063895,0.0581698540765282,0.1767863947702275,0.0342926829895214,-0.6269658393079734,0.012743241347363,-0.2557984257439897,0.6732390860621216,0.0539652526091015,1.6431311182419348,-0.6592541510111537,0.0272830376436018,-0.2235204315901794,1.209512413382492,0.9048455300633806,-0.7837131845302748,0.1731140931411273,10.846080564293516,-0.9166202547012828,0.1615063777538425,-0.9849866955941852
2.24,0.6690089343148025,0.0532107421720907,1.6412296690317,0.0512624196100032,0.1740704039704834,0.0332711859663648,-0.6098763967304669,0.0046687266270231,-0.2496421799338966,0.6732390860621216,0.0539652526091015,1.6431311182419348,-0.6592541510111537,0.0272830376436018,-0.2235204315901794,0.9939142292637332,0.8544721288753276,-0.4037257360169936,0.3078122905046568,10.65014604318094,-0.9187461865289784,0.1676370835913744,-0.9818266164651483
2.26,0.6569985444600728,0.053249857864282,1.63632862930229,0.0440072432996561,0.1705436333844538,0.0322071314423479,-0.5921690719943669,-0.0002365072534039,-0.2406705309443777,0.66664654455201,0.0542380829855375,1.640895913926033,-0.6578177735081758,0.0248780997504496,-0.2150348915875949,1.0223760980218155,0.8853662368050019,-0.2452616940213566,0.4485824494759427,10.812291662332427,-0.9220205571467864,0.1741635192691733,-0.9771428457559294
2.28,0.645337301601341,0.0532157085215139,1.631629514812916,0.037556305470512,0.1662639329635045,0.031215661837409,-0.574971157588803,-0.0029654605983498,-0.229599525700289,0.653461461531787,0.0547837437384096,1.6364255052942294,-0.6549450185022202,0.0200682239641451,-0.198063811582426,1.0317250159013205,0.859895720278192,-0.1364476672472966,0.5535502622044358,10.947802441089152,-0.9264283751061732,0.1802973598464867,-0.9710801406278003
2.3000000000000003,0.6340116840516838,0.0531438680240964,1.6271718097152297,0.0321883476292046,0.1612063720408447,0.0303203527480363,-0.5586355332733394,-0.004254120069796,-0.2167123880518008,0.6402763785115639,0.0553294044912816,1.631955096662426,-0.6520722634962645,0.0152583481778407,-0.1810927315772571,1.042343011897232,0.8167812157731824,-0.0644329735723095,0.64435688242441,11.057358850865056,-0.9315603676833776,0.1854653307507407,-0.9642153143377972
2.32,0.6235417195507063,0.0530611046150545,1.6231896133288977,0.0280838770462041,0.155813407451688,0.0295638393874133,-0.5445096858351133,-0.0045715558384724,-0.2030901918043512,0.6272349332416387,0.0556345714548384,1.6283332420308807,-0.6491995084903087,0.0104484723915362,-0.1641216515720882,0.981331444924832,0.7062923719113046,-0.0158717884338192,0.6811098123724796,11.1467700823805,-0.937386920761184,0.1902234149949785,-0.9563103887784604
2.34,0.6127907857116776,0.0529729289904373,1.6192887537304324,0.0247093050771242,0.1499175761861545,0.0288682054363034,-0.53152205692603,-0.004341501409629,-0.1876507594341584,0.6141934879717134,0.0559397384183953,1.6247113873993355,-0.6463267534843531,0.0056385966052317,-0.1471505715669193,1.0088452577502196,0.6493814454541613,0.0115027214421723,0.7719716185096411,11.274704050698348,-0.9435380972529492,0.1942948057623518,-0.9479279758599564
2.36,0.6022796321527517,0.0528934943830073,1.6157058333395284,0.0221723130426292,0.144200202477172,0.0282707644713518,-0.5204216195253983,-0.003719046661973,-0.171367297187031,0.601223861576937,0.0561246584872945,1.6215138097679196,-0.6434539984783973,0.0008287208189272,-0.1301794915617503,0.9858477356466452,0.5550218700315857,0.0311227373827977,0.8141731123563714,11.274704050698348,-0.949737828579548,0.197760603847028,-0.9393972043101284
2.38,0.5919698791130836,0.0528302014432852,1.612456037570279,0.0203669628030722,0.139087507513283,0.0277663660755384,-0.5112622097577946,-0.0027812147338507,-0.1544074321621531,0.5883260540573095,0.056189331661536,1.618740509136633,-0.6405812434724417,-0.0039811549673771,-0.1132084115565814,0.9648981004209156,0.4579704883801883,0.0468915964061176,0.8479932512438934,11.339413550680549,-0.9551703469618428,0.2005321266921851,-0.9317044501969682
2.4,0.5823272611578045,0.0527908836828873,1.6096874301605946,0.0192949288373293,0.135236797039517,0.0273733008604747,-0.5043107357931353,-0.0014824124550402,-0.1378578141912826,0.5664067686251939,0.0526911407065927,1.6047356659621714,-0.5302685048874514,-0.0125593297008988,-0.1412239958056682,0.8998607289777382,0.3475736982329613,0.0649401139405229,0.8274808985435256,11.339413550680549,-0.9600560332856386,0.2029718468521089,-0.9244078714047704
2.42,0.572302036715151,0.0527845790175716,1.606955596753296,0.019018765667367,0.132105262175967,0.0270531477883152,-0.4986861553864016,0.0007277530019056,-0.1370308432855703,0.5664067686251939,0.0526911407065927,1.6047356659621714,-0.5302685048874514,-0.0125593297008988,-0.1412239958056682,0.3049779376355931,0.2812290203366846,0.1105082728472933,0.0413485452856146,11.359751162611246,-0.9597899246339942,0.2044422183167782,-0.9222814317288724
2.44,0.5623836762459832,0.0528261329094204,1.6042192652547125,0.0198480897530692,0.1293447779724343,0.0268283301447699,-0.4935030460434206,0.0031682388931405,-0.1365449949831868,0.5664067686251939,0.0526911407065927,1.6047356659621714,-0.5302685048874514,-0.0125593297008988,-0.1412239958056682,0.2874745311307738,0.2591554671490526,0.1220242945617485,0.0242924151191731,10.253132873728646,-0.9620953025414836,0.2037338081102717,-0.9198221381701436
2.46,0.5530510996698584,0.0529075617858622,1.6016449092229863,0.0217128000183751,0.1271370140623421,0.0267034786546786,-0.4891895284760799,0.0051539338730223,-0.1344630240616966,0.5611040835763194,0.0525655474095837,1.6033234260041147,-0.5340697639133827,-0.0145149526943085,-0.1385873085343712,0.2592490177166299,0.2156758783670331,0.0992847489940891,0.1040985460745103,10.33910988495063,-0.9640536918882218,0.202110502001046,-0.9178293938148372
2.48,0.5433101637655746,0.0530208851620485,1.598990924953975,0.0245674952683155,0.1254522110853395,0.0266501116984412,-0.485162870465266,0.0057518227498575,-0.1309926404019036,0.5504987134785704,0.0523143608155657,1.6004989460880017,-0.5416722819652454,-0.0184261986811277,-0.1333139339917773,0.2674649911261934,0.201332900540696,0.0298944438417568,0.1735191829896537,10.43442777857399,-0.9657532210645172,0.1997310569333728,-0.9163072880611208
2.5,0.5336496730711714,0.0531247657095946,1.5964171162586842,0.0275332554353522,0.1244596674062311,0.0266230873816283,-0.4810383781211741,0.0045597510281836,-0.1265228669253593,0.5398933433808213,0.0520631742215477,1.597674466171888,-0.5492748000171082,-0.022337444667947,-0.1280405594491833,0.3098844422430131,0.2062246172045923,-0.0596035860836941,0.2234886738272129,10.508148566031196,-0.9672308468919876,0.1974302721943878,-0.9148844057511452
2.52,0.5240754201001355,0.0531930704083569,1.5939406629936097,0.0301916544694074,0.1239194586797419,0.0265904656673714,-0.476570940541586,0.0023458985443466,-0.1213162175002546,0.5289078473804791,0.0516164253281888,1.5951136549829044,-0.5568773180689709,-0.0262486906547663,-0.1227671849065894,0.3604453480891716,0.2233718789794059,-0.1106926241918474,0.2603324712552319,10.562151032723705,-0.9681379441589713,0.195505530521512,-0.9139665866397912
2.54,0.5150649699201812,0.053210168586709,1.5916841570560798,0.0322933609117489,0.1236210515025355,0.0265410268766505,-0.4721206396237868,-0.0003584409280379,-0.1164712774942116,0.517922351380137,0.0511696764348299,1.5925528437939207,-0.5644798361208336,-0.0301599366415855,-0.1174938103639954,0.3556405274396417,0.2225150458899621,-0.1352169736192338,0.2422470003021502,10.602272598609488,-0.9685343737814168,0.1938423313524251,-0.9134738181069144
2.56,0.5056723623732415,0.053168532165169,1.5894068511703725,0.034049465524255,0.1234042826099844,0.026466257978627,-0.4673753924271391,-0.0036102343531182,-0.1115179051094743,0.5067467924284983,0.0506251463918004,1.5901238669685018,-0.5720823541726963,-0.0340711826284048,-0.1122204358214014,0.3795636620468526,0.2372623598323853,-0.1625896712540125,0.2476686192368689,10.59080190568966,-0.9686790750502428,0.1924996745694158,-0.913238888930684
2.58,0.4963752855691549,0.0530562065472147,1.5872273177289349,0.0352671514595253,0.1232200465858811,0.026361997496251,-0.4625777447508854,-0.0073946256110404,-0.1066795955556577,0.4953811705255629,0.0499828351991005,1.5878267245066475,-0.579684872224559,-0.0379824286152241,-0.1069470612788075,0.3897059139821102,0.239882383812684,-0.1892195628961117,0.2419154776908259,10.58197531834685,-0.9687550720578774,0.1915689737616792,-0.9130862257844676
2.6,0.4871745593881812,0.0528631159779808,1.5851441506078554,0.0357901578168804,0.1230198374937633,0.02621673133637,-0.4577484961547918,-0.0116468103483421,-0.1018753791838198,0.4732463983316107,0.0526864752666626,1.5818933379511515,-0.4642022603802589,-0.021114768266115,-0.0776372826802677,0.4015071979132151,0.2414624298046785,-0.2126092368650836,0.2402108185918967,10.57650153286977,-0.9688274384423324,0.1911088920827122,-0.9128724231561846
2.62,0.4784971674728359,0.0525924693571196,1.5832770204464135,0.0353654804322836,0.1237275720722611,0.0260552003873852,-0.4556269294295115,-0.0164748405189961,-0.0948987191257662,0.4732463983316107,0.0526864752666626,1.5818933379511515,-0.4642022603802589,-0.021114768266115,-0.0776372826802677,0.4372776756941793,0.1060783362640149,-0.241401508532699,0.3488330029026779,10.575427800333271,-0.9673825906676704,0.1910934749182689,-0.9144672680654872
2.64,0.4694225040840357,0.052214651728575,1.5814619547978062,0.0338955788925805,0.1258742224722758,0.0258726737083556,-0.4517619055616165,-0.0209674963440919,-0.0869613428534564,0.4732463983316107,0.0526864752666626,1.5818933379511515,-0.4642022603802589,-0.021114768266115,-0.0776372826802677,0.4952885723252466,0.19325119339475,-0.2246327912547885,0.3968688136154925,10.743546100396088,-0.9668539753899787,0.1928262698426264,-0.9141943507446304
