t,x,y,z,roll,pitch,yaw,v_x,v_y,v_z,ref_x,ref_y,ref_z,ref_v_x,ref_v_y,ref_v_z,a_com,a_x,a_y,a_z,thrust,wind_x,wind_y,wind_z
0.0,0.0293803427493029,1.807706129678051,1.8943714134937208,0.0218117975038254,0.09974005936822,0.0419478375688618,0.0034639223396697,-0.0039987313773558,0.0086460316035656,0.0294894209315461,1.8075073550292575,1.8946315988225677,-0.0964088217158201,-0.1059368535294628,-0.0913339201309608,0.5068098092316512,0.1731961169834868,-0.1999365688677921,0.432301580178282,10.248724628272612,-0.942739129113355,0.261608606349278,-0.8732583990367491
0.02,0.029592963604598,1.80790236435372,1.8943186458912904,0.0288580938010536,0.093856196948757,0.042289743587344,0.017656829261105,0.0194165594647546,-0.0142629972629667,0.0294894209315461,1.8075073550292575,1.8946315988225677,-0.0964088217158201,-0.1059368535294628,-0.0913339201309608,1.7850336521399004,0.7096453460717655,1.1707645421055228,-1.1454514433266214,10.247957020089416,-0.9507492181629528,0.2608364432896088,-0.8602112828862875
0.04,0.0300463160440261,1.8083449512834988,1.8937152149168384,0.0431421566444568,0.0774813313141928,0.0426502303631501,0.0255922472654589,0.0227805449156869,-0.0450457350658071,0.0294894209315461,1.8075073550292575,1.8946315988225677,-0.0964088217158201,-0.1059368535294628,-0.0913339201309608,1.5983305381368422,0.396770900217694,0.1681992725466175,-1.5391368901420164,8.86623334610158,-0.950396014492768,0.2463426947161298,-0.8658128526254726
0.06,0.0305494247915344,1.8087671761008743,1.892490047778658,0.0579574981396999,0.0550442167090546,0.042442961857704,0.0232999344873268,0.0188832271548938,-0.0759211685523982,0.0285253327143879,1.806447986493963,1.8937182596212576,-0.1164088220138433,-0.1259368538274861,-0.111333920428984,1.560237302933671,-0.1146156389066061,-0.1948658880396567,-1.5437716743295564,8.535881132553186,-0.957518489541314,0.2293340952349198,-0.8669423211576426
0.08,0.0308950433322021,1.8090576239160023,1.890764096806269,0.0715226536360519,0.0317186134291041,0.0417157483802635,0.0125963665992583,0.0115860233238184,-0.1042701949363591,0.0265971562800715,1.8043292494233736,1.8918915812186388,-0.1564088226098897,-0.1659368544235325,-0.1513339210250305,1.5584309787453363,-0.5351783944034217,-0.364860191553767,-1.4174513191980425,8.626740168007473,-0.969971087752993,0.2095451536672979,-0.8656058293460827
0.1,0.0309543628423349,1.8091811036897496,1.888370223885151,0.0851479029875748,0.0077863585865137,0.0405522076079471,-0.0066260200662269,0.0008176648221743,-0.133663920104899,0.0246689798457551,1.8022105123527845,1.8900649028160197,-0.1964088232059362,-0.205936855019579,-0.1913339216210769,1.8367422064766032,-0.9611193332742676,-0.5384179250822068,-1.469686258426995,8.626740168007473,-0.9851621259655964,0.1900334548099743,-0.8612939194771845
0.12,0.0305563060051909,1.8090580453264025,1.8853942666951555,0.0981240829990097,-0.013484272216683,0.0392030216511382,-0.0324958898949049,-0.0128913614110988,-0.1624929015233239,0.0207408033816364,1.798091775252393,1.886238224383598,-0.2364088238019826,-0.2459368556156254,-0.2313339222171233,2.0544450192455885,-1.2934934914338965,-0.6854513116636578,-1.4414490709212469,8.7869656296848,-1.0002245893208266,0.1697393869042196,-0.8583700233899142
0.14,0.0295878658397435,1.8086321784508,1.88183948409578,0.110478864240536,-0.0308823862776655,0.0378857531478939,-0.063137446541982,-0.0292911009031664,-0.1916406884600411,0.0168126269175177,1.7939730381520014,1.8824115459511763,-0.2764088243980291,-0.285936856211672,-0.2713339228131698,2.26795609110493,-1.5320778323538553,-0.8199869746033841,-1.4573893468358603,8.7869656296848,-1.0127475932436267,0.149942844262825,-0.858446245595451
0.16,0.0280618016441833,1.8078993827124756,1.8779199343866613,0.1216557927609281,-0.0431453189563303,0.0368494749130569,-0.0957155678601827,-0.0472488887703755,-0.2195131644654981,0.0118844504384978,1.7888543010367086,1.8775848675038536,-0.3164088249940756,-0.3259368568077184,-0.3113339234092163,2.324161704992717,-1.6289060659100378,-0.8978893933604536,-1.3936238002728474,8.876222505937676,-1.0238235215057496,0.1305012669112448,-0.8593825655732579
0.18,0.025765571351011,1.806735401370132,1.8732206730985068,0.1328427811953724,-0.0513273107599439,0.0361377407388387,-0.1322349449155622,-0.0684600623103824,-0.2489814597196886,0.0059562739445767,1.7827355639065148,1.8717581890416295,-0.356408825590122,-0.3659368574037648,-0.3513339240052627,2.574858835278845,-1.8259688527689717,-1.060558677000345,-1.4734147627095282,8.922365722570703,-1.031332348766183,0.1131279283406208,-0.8620320610513948
0.2,0.022715628694883,1.8051197235279717,1.867933365822042,0.1433460127424396,-0.0541031901013363,0.036008836437823,-0.1705660886544497,-0.0922302450127958,-0.2782195565514725,0.0191538241052329,1.803312398254613,1.8607716001125223,-0.2025261586067968,-0.1684600638004985,-0.3489814612098048,2.6875474285964445,-1.9165571869443772,-1.188509135120671,-1.4619048415891955,8.922365722570703,-1.0359536635043949,0.09673966323619,-0.8677288199396878
0.22,0.0188271296419712,1.8028413186895655,1.862159855529677,0.148490184358943,-0.0490278344087342,0.0366182865804968,-0.2155944888840391,-0.1324209118533311,-0.296491770293287,0.0191538241052329,1.803312398254613,1.8607716001125223,-0.2025261586067968,-0.1684600638004985,-0.3489814612098048,3.1530621320192624,-2.25142001147947,-2.0095333420267654,-0.9136106870907212,8.980427219948524,-1.0383041931457422,0.0827974348623189,-0.8771298504517812
0.24,0.014368169364867,1.7999909524230946,1.8563733492548384,0.1474987599670652,-0.0369839098347589,0.037858413892777,-0.2506592913650596,-0.164925859881394,-0.3115261762786416,0.0191538241052329,1.803312398254613,1.8607716001125223,-0.2025261586067968,-0.1684600638004985,-0.3489814612098048,2.506065333681721,-1.7532401240510225,-1.6252474014031415,-0.7517202992677302,9.899615694730985,-1.036461041410641,0.081512011742031,-0.8822098004871785
0.26,0.0090334681610438,1.796369943199853,1.8499664531796984,0.143161645180683,-0.0206160947002011,0.0394264817085527,-0.2802547308521925,-0.1945781581617038,-0.3282867563720424,0.017128562519165,1.801627797616608,1.857281785500424,-0.2165844013450437,-0.1884600640985217,-0.368981461507828,2.256139333467859,-1.479771974356647,-1.4826149140154912,-0.8380290046700434,9.743552052352245,-1.0276293111216883,0.082147804460544,-0.8957482757530008
0.28,0.0031705699390685,1.7922076524910435,1.8432072116407088,0.1376369036388582,-0.0026974069995944,0.0410334099650007,-0.3039672770928717,-0.2198381250182919,-0.3467067923818664,0.013078039347029,1.798258596340598,1.8503021562762283,-0.2447008868215375,-0.2284600646945682,-0.4089814621038744,1.9619177489229056,-1.18562731203396,-1.2629983428294025,-0.9210018004912002,9.564632840256309,-1.015387292234826,0.0843447093208188,-0.9119148101434608
0.3,-0.0031142797105643,1.787572162362683,1.8360599775014437,0.1321004011255306,0.0155261297256511,0.0425655285105247,-0.3228215534486556,-0.2423362229299803,-0.3670782285919928,0.0090275161748931,1.794889395064588,1.843322527052032,-0.2728173722980314,-0.2684600652906147,-0.4489814626999209,1.7865074585678609,-0.9427138177891952,-1.1249048955844207,-1.018571810506319,9.284497821752666,-1.001359908898814,0.0859242360528992,-0.9299456219675613
0.32,-0.0093941516352151,1.7827714947982156,1.8288732334755948,0.1272603881625029,0.0325147296890925,0.0439039192054434,-0.3368790268828037,-0.2618745516300662,-0.3884194171942509,0.0035711687289325,1.7895201937587757,1.8343428977980336,-0.3009338577745252,-0.3084600658866611,-0.4889814632959673,1.608419393924923,-0.7028736717074047,-0.9769164350042936,-1.0670594301129015,9.284497821752666,-0.9847687569104024,0.0870377415691801,-0.9504109489924064
0.34,-0.0162480242454461,1.7773333652127266,1.8208546414203597,0.1228156547914371,0.0494909295632046,0.0451468783850224,-0.3473899405124069,-0.2809290512253869,-0.4124301386722051,-0.0018851787170281,1.7841509924529635,1.8253632685440355,-0.329050343251019,-0.3484600664827076,-0.5289814638920138,1.6202376415582915,-0.5255456814801607,-0.952724979766037,-1.2005360738977122,9.08528033422499,-0.9679690349802288,0.0877738000573367,-0.9702693073741748
0.36,-0.0232679052965365,1.7715169530706536,1.812340112665824,0.118809660470635,0.0648704950180094,0.0461421121856567,-0.3538111367371366,-0.2996518890162055,-0.4379102848209401,-0.008044438299901,1.77778179113225,1.815383639275136,-0.3571668287275129,-0.3884600670787541,-0.5689814644880602,1.613237632572058,-0.3210598112364848,-0.9361418895409284,-1.2740073074367475,9.08528033422499,-0.9522923593622024,0.087906170256163,-0.9885414732583252
0.38,-0.0303797883375085,1.7653335396177186,1.803301115815324,0.1149299305297266,0.0781342708354923,0.0468243363019102,-0.35696656888436,-0.3176200406427348,-0.4647587699894422,-0.0149066100196863,1.7704125897966354,1.804404009991335,-0.3852833142040067,-0.4284600676748005,-0.6089814650841067,1.6230006013191725,-0.1577716073611706,-0.8984075813264658,-1.3424242584251067,9.02680293792764,-0.9363571554625792,0.0876763575963537,-1.00696917038346
0.4,-0.037170937299405,1.7591346639532752,1.7942055738576377,0.1112971955329773,0.0886046287043364,0.0471753901886101,-0.3577201974414117,-0.3338834144769709,-0.4913592634557288,-0.0482281167817265,1.7494525375855818,1.7800631773158515,-0.3505758114912681,-0.4176200421328509,-0.5082453129891866,1.559368090865716,-0.0376814278525816,-0.8131686917118075,-1.3300246733143284,8.977337416425144,-0.9221563351138762,0.0875714594727088,-1.0231774316123197
0.42,-0.0443368763284114,1.752251975166159,1.7843984843995182,0.1076781297916349,0.0989906328505556,0.0474361078386062,-0.3583634495599854,-0.3536396376330215,-0.4862794581875582,-0.0482281167817265,1.7494525375855818,1.7800631773158515,-0.3505758114912681,-0.4176200421328509,-0.5082453129891866,1.0204491024081628,-0.0321626059286844,-0.9878111578025262,0.2539902634085295,8.9361579304923,-0.9146706116377368,0.0870723225648846,-1.0336847348931786
0.44,-0.0514844840035451,1.7449828106785117,1.7747248471731176,0.1044608149605529,0.11005614250398,0.0477490759442593,-0.3559671432860665,-0.3722738301741473,-0.4815550167456467,-0.0482281167817265,1.7494525375855818,1.7800631773158515,-0.3505758114912681,-0.4176200421328509,-0.5082453129891866,0.9686275888547436,0.1198153136959451,-0.9317096270562902,0.236222072095571,10.997014297198804,-0.904438575349684,0.0897490151780237,-1.042231238142648
0.46,-0.0582042566780762,1.7377416750476558,1.7655835796302668,0.101746215587445,0.1206368160687438,0.0480348417834515,-0.3512030260366113,-0.3889999982458965,-0.4809424489842995,-0.0517338748966392,1.7452763371642532,1.7749807241859596,-0.3492976600126498,-0.4376200424308741,-0.5169426215891355,0.8701102671403219,0.2382058624727595,-0.8363084035874602,0.0306283880673635,10.742683781090818,-0.8920739622988406,0.0916376727036329,-1.053040736463311
0.48,-0.0651553748516797,1.7297873303644051,1.75594100462557,0.09923778278951,0.131523796875999,0.0482937114725285,-0.3438710812702236,-0.4055379155138658,-0.4835211639828177,-0.0587453911264646,1.7369239363215965,1.764815817926176,-0.346741357055413,-0.4776200430269205,-0.5343372387890333,0.913660074457592,0.3665972383193855,-0.8268958633984663,-0.1289357499259125,10.515985815438398,-0.8786428034170546,0.0926695585094953,-1.0650629956071225
0.5,-0.0719308776990086,1.7215108419267315,1.7462163307294636,0.0970819802506699,0.1417841222277502,0.0484781742158918,-0.3338152912194659,-0.4212745292823712,-0.4889633149961598,-0.06575690735629,1.7285715354789393,1.7546509116663922,-0.3441850540981762,-0.517620043622967,-0.551731855988931,0.9725956689396312,0.5027895025378815,-0.7868306884252718,-0.2721075506671055,10.34013130808762,-0.8652383951024344,0.0931398166791806,-1.0770527525299312
0.52,-0.0784737484209307,1.712927833037104,1.736356376751655,0.0952527925232633,0.1507830718818811,0.0485314339088979,-0.3209004125829521,-0.436283198289417,-0.4968013298962593,-0.0726406084382535,1.71821913460648,1.7436162745466135,-0.3416287511409395,-0.5576200442190135,-0.5691264731888288,1.06476372159874,0.645743931825693,-0.7504334503522891,-0.3919007450049722,10.200866191843488,-0.8531119915563415,0.0930971121222902,-1.0879395373853489
0.54,-0.0844265021576051,1.704501095180166,1.726839826911964,0.0938236245168077,0.1576788919267287,0.0484217535292541,-0.3063796282060332,-0.450032320705483,-0.5045831546680478,-0.079524309520217,1.7078667337340203,1.732581637426835,-0.3390724481837027,-0.5976200448150599,-0.5865210903887266,1.0729030045998575,0.7260392188459447,-0.6874561208032981,-0.3890912385894257,10.097555590262346,-0.8416407191585887,0.0924663223513379,-1.0984803101198692
0.56,-0.0903780963833379,1.6953451434393043,1.7166608983988103,0.0924626586924658,0.1629710967603616,0.048110939132788,-0.2895649303161172,-0.4647850505550307,-0.5129146080593125,-0.0863441030282496,1.69651433284666,1.7211121348770588,-0.3365161452264659,-0.6376200454111063,-0.6039157075886243,1.193513949178745,0.8407348944957982,-0.7376364924773865,-0.4165726695632366,10.105532698297791,-0.8318548025856939,0.0915509837877756,-1.1077100335385537
0.58,-0.0959803379599905,1.6858913330095116,1.706315469940231,0.0909074954328018,0.1661514986660881,0.0475731358988419,-0.2716749420148113,-0.4797359697581042,-0.5212170080050177,-0.0930999889623513,1.6841619319443983,1.7092077668972854,-0.3339598422692291,-0.6776200460071528,-0.6213103247885221,1.2374484951869114,0.8944994150652974,-0.7475459601536755,-0.415119997285257,10.12164429069253,-0.8245553275926374,0.0908257101644678,-1.1149034280100487
0.6,-0.1009662795031218,1.6766345026286311,1.6963341540463008,0.0890867101369596,0.16726487292008,0.0468512847274528,-0.2542135742948875,-0.4937410537564337,-0.529022898836677,-0.109564085060731,1.6619045345216064,1.68025461953998,-0.2586807578560688,-0.5797359712482204,-0.5203883030336632,1.1852991944298732,0.8730683859961896,-0.7002541999164724,-0.3902945415829639,10.140737555241683,-0.8190556310340782,0.0904457175309422,-1.120763430806467
0.62,-0.1058146369261013,1.6665614660009336,1.6858572114112962,0.0858396888909867,0.1662190542084946,0.0457933803813139,-0.2314731655369102,-0.5122045173050804,-0.5171725403602382,-0.109564085060731,1.6619045345216064,1.68025461953998,-0.2586807578560688,-0.5797359712482204,-0.5203883030336632,1.5799182516131969,1.1370204378988626,-0.9231731774323376,0.5925179238219391,10.1556802550449,-0.8226432915941798,0.0919927186616164,-1.1191166929012788
0.64,-0.1102030466572292,1.6561575958232524,1.675652969058161,0.0816340818695698,0.1624311039405042,0.0444400816551183,-0.2087066078491882,-0.5270954127861522,-0.5039866277826313,-0.109564085060731,1.6619045345216064,1.68025461953998,-0.2586807578560688,-0.5797359712482204,-0.5203883030336632,1.5115581428453817,1.1383278843861004,-0.7445447740535904,0.6592956288803464,11.410130565453072,-0.8248626331037763,0.095923421326782,-1.1168809392717338
0.66,-0.1141547325891293,1.6454780890996874,1.665696411551207,0.0776084407348738,0.1558635114139991,0.0428949359772691,-0.1881655040640114,-0.5401364490866858,-0.4922732409844687,-0.1121508926392917,1.656107174809124,1.6750507365096434,-0.2560819210243203,-0.5997359715462436,-0.5202225620393923,1.3501935072320248,1.027055189258838,-0.6520518150266774,0.5856693399081292,11.29838361205566,-0.828337080892769,0.0989841792362474,-1.1143375380807097
0.68,-0.1175618796468137,1.6351023554168214,1.656444426169736,0.0742625291812518,0.1478616447697549,0.0413529270026008,-0.1718995927185775,-0.5514824419557549,-0.4821682713893154,-0.1173245077964131,1.6445124553841597,1.6646429704489702,-0.2508842473608234,-0.63973597214229,-0.5198910800508506,1.112903675752596,0.8132955672716963,-0.5672996434534561,0.505248479757664,11.20878005008035,-0.8349451998059051,0.1017642657432401,-1.1093521026709077
0.7000000000000001,-0.120534164235939,1.625080263057986,1.6478505504892784,0.0716333527189999,0.1394279975858468,0.0398941056720395,-0.1594963645909567,-0.5615511857841725,-0.4732620103568535,-0.1224981229535345,1.632917735959195,1.6542352043882969,-0.2456865736973264,-0.6797359727383365,-0.5195595980623088,0.9145233127789194,0.6201614063810423,-0.5034371914208802,0.4453130516230946,11.20878005008035,-0.842100539330361,0.1036636428911794,-1.1038323894785496
0.72,-0.1236089554315298,1.613738074739866,1.638482833741285,0.0694280258841199,0.1297973672901209,0.0383319637338359,-0.14899838258044,-0.5722354017381077,-0.4640157929990109,-0.127411854427481,1.6193230165044286,1.6438440124270506,-0.2404889000338294,-0.719735973334383,-0.519228116073767,0.880131570096091,0.5248991005258343,-0.5342107976967603,0.4623108678921267,11.085267506240598,-0.8515248493601889,0.1052357512432945,-1.0964251954641282
0.74,-0.1263656149248931,1.6027671510304449,1.629755007306988,0.0679960349737874,0.1209630304817439,0.0369360081741843,-0.1418929972622452,-0.5821496794478239,-0.4551424125733813,-0.1323255859014276,1.6057282970496618,1.6334528204658043,-0.2352912263703324,-0.7597359739304295,-0.5188966340852252,0.7541821451137334,0.355269265909737,-0.4957138854858101,0.4436690212814842,11.08216064642238,-0.8615036568428526,0.1061710814263714,-1.088347825958338
0.76,-0.1291478103956289,1.5910098537555404,1.6207515228531215,0.0669631683999888,0.112407347718133,0.0355641951772858,-0.1369319256754424,-0.5930469061599575,-0.4456522916614989,-0.1371093755337867,1.591133577579994,1.6230699155542718,-0.2300935527068355,-0.7997359745264758,-0.5185651520966834,0.7639112779426128,0.2480535793401433,-0.5448613356066778,0.4745060455941169,11.081750238632594,-0.8707238753978351,0.10666039938902,-1.0806717924635023
0.78,-0.1317223850838448,1.5796345046465827,1.6123737279126868,0.0661180244624129,0.1053074836499408,0.0343496318161833,-0.134399029718253,-0.603735449091493,-0.4366729783167268,-0.1417632233245583,1.5755388580954248,1.612695297692453,-0.2248958790433385,-0.8397359751225223,-0.5182336701081417,0.7093810331423211,0.1266447978594695,-0.5344271465767769,0.4489656672386044,11.081750238632594,-0.8796786118413704,0.1070933256774722,-1.0729712128716633
0.8,-0.1344004693885964,1.5674401860919138,1.6037380606785956,0.0651774487635546,0.0991328099349453,0.0331638271072108,-0.1337108416427488,-0.6150731908599774,-0.4273603404288927,-0.1384423365697575,1.5494477321920082,1.5905400789968505,-0.1310015880162894,-0.7037354505816091,-0.4258220728759791,0.734409993916926,0.0344094037752068,-0.5668870884242172,0.4656318943917048,11.071095763806625,-0.8871383476974868,0.1075158431665612,-1.0664677045318574
0.8200000000000001,-0.1370873625718098,1.5549717982204472,1.595349723334796,0.0626782864910269,0.09495083489125,0.0320129490333952,-0.1351781831382007,-0.6304867139261929,-0.4115421848364046,-0.1384423365697575,1.5494477321920082,1.5905400789968505,-0.1310015880162894,-0.7037354505816091,-0.4258220728759791,1.1067337425112662,-0.0733670747725942,-0.7706761533107787,0.7909077796244057,11.057498464711898,-0.8947755904962402,0.1093394991863794,-1.0596109294183556
0.84,-0.1398226739282345,1.542243617619152,1.5872822656296497,0.0589012590224343,0.0935808817966708,0.0309698303185868,-0.1380048137011027,-0.6414050587616545,-0.3960025562651489,-0.1384423365697575,1.5494477321920082,1.5905400789968505,-0.1310015880162894,-0.7037354505816091,-0.4258220728759791,0.960052277766384,-0.1413315281450999,-0.5459172417730807,0.7769814285627841,11.53106324149212,-0.8995681960191985,0.1136295273958484,-1.0532850182468392
0.86,-0.1424643479977028,1.5299737205325272,1.5798924327852626,0.0555548605129767,0.0944503119933917,0.0301372061037096,-0.1396979267754332,-0.6496850017948841,-0.3826405048788492,-0.1397523524499203,1.5424103776861922,1.5862818582680906,-0.1303220996758967,-0.7237354508796323,-0.4236518917878296,0.7905196167175588,-0.0846556537165227,-0.4139971516614771,0.6681025693149878,11.430049794907973,-0.9026876000915136,0.1182261642905096,-1.0478215547147405
0.88,-0.1452646547925486,1.5169022797575384,1.572376248023983,0.052710361744103,0.096789733698068,0.0293949349431637,-0.1400582939168585,-0.6571235658718688,-0.3697375720589116,-0.1423723842102461,1.52833566867456,1.577765416810571,-0.1289631229951113,-0.7637354514756788,-0.4193115296115304,0.744895588924797,-0.0180183570712658,-0.3719282038492366,0.645146640996877,11.311300568081606,-0.9035917661790626,0.121958647103158,-1.044597558218138
0.9,-0.1480567924593308,1.5036899159437245,1.5651056671261885,0.0506710916964278,0.0998906845001391,0.0287548459972896,-0.1389889646088301,-0.6638685962109336,-0.3580210498513308,-0.1449924159705719,1.5142609596629275,1.5692489753530514,-0.1276041463143259,-0.8037354520717253,-0.4149711674352314,0.6780777833048517,0.0534664654014208,-0.3372515169532408,0.5858261103790424,11.141107825284053,-0.9031206982892352,0.1247536217793997,-1.0428848841150855
0.92,-0.1508131229530716,1.4903495000250793,1.5580592522590762,0.0494779761653513,0.1032070162681856,0.0281912447371489,-0.1365890896241052,-0.6698992698067219,-0.3472486098845231,-0.1475444988968584,1.4981862506214931,1.5609495520043468,-0.1262451696335405,-0.8437354526677717,-0.4106308052589323,0.6288360016723766,0.1199937492362426,-0.3015336797894119,0.5386219983403828,11.141107825284053,-0.902002333937281,0.1265056663578557,-1.0421455457645412
0.94,-0.1533753137213709,1.4775723319127656,1.5515598003044513,0.0493952580654939,0.1061739354207602,0.0277279704016594,-0.1331917094852566,-0.6749205643673507,-0.3374485350205454,-0.150096581823145,1.4821115415800588,1.5526501286556422,-0.124886192952755,-0.8837354532638182,-0.4062904430826332,0.5761880296656915,0.1698690069424316,-0.2510647280314415,0.4900037431988885,11.081076855061838,-0.9007047673025591,0.1271352776491653,-1.0418223335569652
0.96,-0.1559928526944136,1.4640134736645425,1.5449173427685954,0.0503698865442656,0.1088506291647324,0.0273026314386042,-0.1287029763789311,-0.6807632085978511,-0.3273233827380441,-0.1526146903324118,1.465036832523723,1.5444592143613451,-0.1235272162719696,-0.9237354538598646,-0.4019500809063341,0.6261068703661204,0.2244366553162763,-0.2921322115250202,0.5062576141250635,11.046068635575466,-0.8996516152668041,0.1266325363635819,-1.0415310424481734
0.98,-0.1585126848030266,1.4503294217932603,1.5384756631644954,0.0521268041267902,0.1109141954351435,0.0269121129558242,-0.1235006652123373,-0.6873987355535895,-0.3173581826337427,-0.1550988244246591,1.446962123452486,1.5363768091214554,-0.1221682395911842,-0.963735454455911,-0.397609718730035,0.6526857447753208,0.2601155583296869,-0.3317763477869218,0.4982600052150704,11.046068635575466,-0.8990895219939862,0.1254172844406826,-1.04102167751424
1.0,-0.1608050263424598,1.4371961171327594,1.5325397223920063,0.0541726342204409,0.1122190907758807,0.026542742010921,-0.1181056024097969,-0.6947881358195667,-0.3079782118616713,-0.1646877180636435,1.415959485015581,1.5226077540328082,-0.1021266873276871,-0.7873987370437057,-0.2995391747751087,0.655159886247419,0.2697531401270221,-0.369470013298856,0.4689985386035711,11.038744217504243,-0.8990777281011253,0.1236896309089886,-1.0401184337303186
1.02,-0.1631152238467278,1.4231446063449578,1.526535637709327,0.0543403658211988,0.1134701638861512,0.0260183897545857,-0.1131401571061054,-0.7094355217541937,-0.2925942330463185,-0.1646877180636435,1.415959485015581,1.5226077540328082,-0.1021266873276871,-0.7873987370437057,-0.2995391747751087,1.090720365140721,0.248272265184575,-0.73236929673135,0.7691989407676375,11.036792577837332,-0.9004073231311707,0.1233176093795362,-1.038505083217321
1.04,-0.1652132828339099,1.4095495947753456,1.5211238066241362,0.0517615311172567,0.1149496866166277,0.0253551827889723,-0.1079024337189288,-0.7206661728990652,-0.2778937429748293,-0.1646877180636435,1.415959485015581,1.5226077540328082,-0.1021266873276871,-0.7873987370437057,-0.2995391747751087,0.9613345928451944,0.2618861693588312,-0.561532557243577,0.7350245035744607,11.446881899250002,-0.9016019369186205,0.1267871154474947,-1.035280440713847
1.06,-0.1673091902335489,1.3950473545424416,1.5157192036779432,0.0478899070634621,0.1165269021686774,0.024588896665602,-0.101932035039472,-0.728706334417378,-0.2633747406172831,-0.1657089849369203,1.408085497645144,1.5196123622850572,-0.097851891750757,-0.8073987373417288,-0.2959753732033819,0.8818890053326573,0.2985199339728392,-0.4020080759156386,0.7259501178773109,11.38689530147076,-0.9024205633006324,0.1314967915494936,-1.0321992180070017
1.08,-0.1692819097057449,1.380414926582704,1.5105925957543036,0.0443495773695105,0.1179335070371295,0.0238504572327169,-0.0956215629528195,-0.7342128376141303,-0.250069740096373,-0.1677515186834741,1.3923375229042698,1.513621578789555,-0.0893023005968969,-0.8473987379377753,-0.2888477700599283,0.7860767683147764,0.315523604332623,-0.2753251598376138,0.6652500260455052,11.222174778078625,-0.9029710096466556,0.1356502982907292,-1.0295372136398095
1.1,-0.1710366334828705,1.3664265445736254,1.5059574480578244,0.041830981254282,0.1189966574412031,0.0232089951545443,-0.0894069124055973,-0.7382183534655453,-0.2385073492477044,-0.1697940524300278,1.3765895481633956,1.5076307952940529,-0.0807527094430369,-0.8873987385338218,-0.2817201669164747,0.6862122863906671,0.310732527361112,-0.2002757925707532,0.5781195424334307,11.222174778078625,-0.903528370786216,0.1390681544896034,-1.0270048001040106
1.12,-0.1727549701268783,1.3516269073362088,1.5013090056371237,0.0402130031502426,0.1197882458255635,0.0226069903554928,-0.0827628373746382,-0.7416824244709751,-0.2269765748415401,-0.1714091066188885,1.3588415733927193,1.501996391955723,-0.0722031182891768,-0.9273987391298684,-0.2745925637730211,0.6875723222933117,0.3322037515479554,-0.173203550271489,0.5765387203082145,11.152853875600158,-0.9042579272984076,0.1413573998473104,-1.0246032288149154
1.14,-0.1743396710105788,1.3367649598846894,1.4968876012526726,0.0398733576466864,0.1202388837238684,0.0220955181844208,-0.0760579890442055,-0.7444654280908349,-0.2157512242870602,-0.1730241608077493,1.341093598622043,1.496361988617394,-0.0636535271353167,-0.9673987397259148,-0.2674649606295675,0.6684096710723527,0.3352424165216333,-0.1391501809929918,0.5612675277239937,11.11018029623483,-0.9052898017707678,0.1423749609453858,-1.022180347747922
1.16,-0.1757892668512976,1.3218424766268992,1.4926888047545153,0.0408054611543188,0.1203295073561044,0.0216720707479898,-0.0692832669394243,-0.7477502508157517,-0.2046847537474014,-0.1744254752177635,1.3223456238364653,1.490905775357651,-0.0551039359814566,-1.007398740321961,-0.2603373574861139,0.6692415298983571,0.3387361052390604,-0.1642411362458407,0.5533235269829406,11.090680855470964,-0.9066122665716492,0.1422118707171012,-1.019753980133678
1.18,-0.1770412381776817,1.3075981104105376,1.4889052285376196,0.0425986562146348,0.1200821913945018,0.0213301711105458,-0.0628913369427498,-0.751555578154319,-0.1941340842090685,-0.1756130498489313,1.3025976490359863,1.485627752176494,-0.0465543448275965,-1.0473987409180074,-0.2532097543426603,0.6454725264159972,0.3195964998337262,-0.1902663669283599,0.5275334769166445,11.080410922672854,-0.9083676434889468,0.1411021493524063,-1.0170572335196897
1.2,-0.1782296834914011,1.2925140989888038,1.485140693294423,0.0451122818348981,0.1195101700710729,0.0210094468909175,-0.0563344811833589,-0.7568752217042493,-0.182868153056468,-0.1801858050248192,1.2700203315028218,1.479198524327166,-0.0527552467237289,-0.8515555796444351,-0.1741181813918192,0.7039392191143112,0.3278427879695428,-0.2659821774965154,0.5632965576300247,11.081092610237649,-0.9105049156806776,0.1393809283410695,-1.0141213040838477
1.22,-0.1792542191071578,1.2772393407199412,1.4816240733683357,0.0454667296387522,0.1176679300735113,0.0204899769189724,-0.0464222281241021,-0.769682453077477,-0.1691812521816043,-0.1801858050248192,1.2700203315028218,1.479198524327166,-0.0527552467237289,-0.8515555796444351,-0.1741181813918192,1.0601994997599238,0.4956126529628398,-0.640361568661385,0.6843450437431827,11.268804435492711,-0.9171468857173458,0.1398815504820556,-1.0065681239965685
1.24,-0.1800458433912371,1.2625218324492706,1.4785407873433831,0.0429144551114101,0.113623018438824,0.0197126959591851,-0.0376028621804661,-0.7786816973662786,-0.1560366054363928,-0.1801858050248192,1.2700203315028218,1.479198524327166,-0.0527552467237289,-0.8515555796444351,-0.1741181813918192,0.910424834175914,0.4409682971818006,-0.4499622144400805,0.6572323372605784,11.268804435492711,-0.9229835338098856,0.1431168216911243,-0.9993785138095224
1.26,-0.1807233336320124,1.2468849128049289,1.4755603067409206,0.0391495408836762,0.1073749982385751,0.0187749417898993,-0.0310587833402941,-0.7843258440886173,-0.1427060124767223,-0.1807133574920565,1.2615047757063775,1.477457342513248,-0.0507280286799247,-0.8715555799424582,-0.1701150008283693,0.7943331617559634,0.3272039420085982,-0.2822073361169352,0.6665296479835255,11.17308500807394,-0.9298485908522344,0.1473872305814584,-0.9909785258927252
1.28,-0.1813095496005226,1.2311648659574133,1.4728377744346497,0.0358539501697068,0.100256236539145,0.017885047612293,-0.0281763936107681,-0.7875311085618701,-0.1302431799961567,-0.181768462426531,1.2444736641134888,1.4739749788854115,-0.0466735925923164,-0.9115555805385048,-0.1621086397014696,0.6593634891602171,0.1441194864763028,-0.1602632236626433,0.6231416240282783,11.17308500807394,-0.9375875009537492,0.151149682518596,-0.9816404328790512
1.3,-0.1818737971288953,1.2153945236687966,1.4703544714714496,0.0336065860847125,0.0933397563840139,0.0171190045216152,-0.0285230009704441,-0.7896649016722104,-0.1186913328528342,-0.1828235673610056,1.2274425525206,1.4704926152575752,-0.0426191565047081,-0.9515555811345512,-0.1541022785745699,0.5876188861034949,-0.0173303679838025,-0.1066896555170116,0.5775923571661241,11.102586459800476,-0.9460270292537668,0.1541256600353378,-0.9715844339486296
1.32,-0.1824434554080481,1.2003799601841614,1.4682032548275248,0.0325881363780197,0.0876935539133429,0.0165303509949713,-0.031522631910797,-0.7909216884843632,-0.1083178749705791,-0.1836759504910998,1.208411440897909,1.4674105696860835,-0.0385647204170997,-0.9915555817305975,-0.1460959174476702,0.5435667560301223,-0.1499815470176425,-0.0628393406076399,0.518672894112756,11.042096143834897,-0.953585378657692,0.1558836951333762,-0.9625994765857008
1.34,-0.1831304989424482,1.1845558456362093,1.4661495128086313,0.0330329886980754,0.0835053170200837,0.0160936637538958,-0.0371790396108257,-0.7915871240970577,-0.097606636574572,-0.1845283336211939,1.189380329275218,1.4643285241145925,-0.0345102843294914,-1.031555582326644,-0.1380895563207704,0.6065648782275546,-0.2828203850014341,-0.0332717806347249,0.5355619198003564,11.001892828954624,-0.9595742390288452,0.1561609986016635,-0.9554406709104296
1.36,-0.1839521526735792,1.168710292501134,1.464307889141735,0.0350521485498581,0.0819288881145321,0.0158649759049497,-0.0445450139808285,-0.7930574003473053,-0.0870847580280003,-0.1852793558490979,1.169349217637626,1.4614466375712736,-0.0304558482418831,-1.0715555829226904,-0.1300831951938707,0.6463923321412216,-0.3682987185001433,-0.0735138125123824,0.5260939273285844,10.97846683010357,-0.9643102200307712,0.1551988359315858,-0.949582958327092
1.38,-0.1849147002348614,1.152817933034105,1.462677059911476,0.0381108678961111,0.0829056156001043,0.0158103219820044,-0.0510285472263423,-0.7964257075915344,-0.0765136083506728,-0.1859290171748116,1.1483181059851324,1.458764910056127,-0.0264014121542747,-1.1115555835187367,-0.122076834066971,0.6425163471415897,-0.3241766622756908,-0.1684153622114548,0.5285574838663709,10.968704758929562,-0.9671759436324996,0.1536043231121883,-0.9456462685214718
1.4,-0.1859336287327525,1.1376346640643846,1.4613248650028854,0.0410012385429038,0.0854704445434914,0.0158358151181749,-0.0556850510597906,-0.8015924949666323,-0.0663398849563788,-0.1874661275961785,1.1129966476545283,1.4588513794939424,-0.0248358187963096,-0.8964257090816505,-0.0606625223451043,0.6162048511534048,-0.2328251916724137,-0.2583393687548951,0.5086861697147033,10.968704758929562,-0.968286919742734,0.1518131132457662,-0.9436566307668306
1.42,-0.1871000373734327,1.1214672697877035,1.4601137038786831,0.0413887519337249,0.0897787994979615,0.0157632958676397,-0.0604351747581414,-0.8141479774897975,-0.0552402692479859,-0.1874661275961785,1.1129966476545283,1.4588513794939424,-0.0248358187963096,-0.8964257090816505,-0.0606625223451043,0.8709266407297775,-0.2375061849175404,-0.6277741261582592,0.5549807854196432,10.968685711040052,-0.9669343605355104,0.1519472428702506,-0.9443387472946296
1.44,-0.1883384687819992,1.1050893805044952,1.459123765993657,0.0384178399096251,0.0955550752074233,0.0155273901064295,-0.0628778695726461,-0.8226310107670064,-0.0443164702689382,-0.1874661275961785,1.1129966476545283,1.4588513794939424,-0.0248358187963096,-0.8964257090816505,-0.0606625223451043,0.7022428277912235,-0.1221347407252351,-0.4241516638604448,0.5461899489523858,10.978598609267465,-0.9650878188513308,0.1551019893283776,-0.9448306931169616
1.46,-0.1895369639001376,1.089417550181031,1.4583769784214786,0.0346817535749919,0.101604951509957,0.0152602407864591,-0.0629640069531531,-0.8265500985916874,-0.0348428657716037,-0.1877144857841416,1.1040323905637115,1.4582447542704913,-0.0195972731103031,-0.9164257093796736,-0.0574923051439906,0.5126301083573803,-0.0043068690253472,-0.1959543912340489,0.4736802248667252,10.978598609267465,-0.9614406825827932,0.1593964481178231,-0.9467589574842468
1.48,-0.1907778598416852,1.0728696938113276,1.457776342589519,0.0313597463245532,0.1079188006256143,0.0150173890947012,-0.0609430761425787,-0.8281964257873441,-0.0257784813262842,-0.1882112021600678,1.0861038763820787,1.4570315038235893,-0.00912018173829,-0.9564257099757202,-0.0511518707417632,0.4715867363190945,0.1010465405287191,-0.0823163597828358,0.4532192222659756,10.847922187500444,-0.9572895473403832,0.1632105079968356,-0.9491827205705315
1.5,-0.1919578219303902,1.056301805712559,1.4573473820807594,0.0291912098338061,0.1136985169547957,0.0148416041701356,-0.0570357948661349,-0.8287518536166381,-0.0176242204651237,-0.188707918535994,1.0681753622004455,1.4558182533766872,0.001356909633723,-0.9964257105717668,-0.0448114363395358,0.4529550674146806,0.1953640638221874,-0.0277713914646982,0.4077130430580222,10.847922187500444,-0.9532306338706078,0.1659918782281652,-0.951684782910075
1.52,-0.1930424688672276,1.0397328411619855,1.4570745107477354,0.0284354119524319,0.1185932064456177,0.0147491724627275,-0.051596541232306,-0.8283901008007296,-0.0100864893830051,-0.1886807803433196,1.0482468479890104,1.4549220246498964,0.0118340010057361,-1.036425711167813,-0.0384710019373084,0.4651175525049484,0.271962681691449,0.0180876407954222,0.3768865541059337,10.798579132127088,-0.9496750920871504,0.1673980402489761,-0.954040627213779
1.54,-0.1939610302680634,1.0240054731258044,1.4569528738495727,0.0293553075079661,0.1222680938602592,0.0147632534096467,-0.0453811922151243,-0.8274069943521701,-0.0031063839020366,-0.1886536421506451,1.028318333777575,1.4540257959231058,0.0223110923777492,-1.0764257117638596,-0.032130567535081,0.4698907698072671,0.3107674508590813,0.0491553224279739,0.3490052740484253,10.766275263775242,-0.9466167260087288,0.1673462239811879,-0.9561254801066816
1.56,-0.1947921266501474,1.0074601532849812,1.4569690652535132,0.0320322712600366,0.1250554254892581,0.0148844618847022,-0.0380656190626873,-0.8274235688319773,0.0043588228361295,-0.1883645766736703,1.0073898195512383,1.4532880780563706,0.0327881837497623,-1.116425712359906,-0.0257901331328536,0.5226069194566777,0.3657786576218503,-0.0008287239903592,0.3732603369083078,10.77878197667087,-0.9445810475976638,0.1657891174084101,-0.9574133944524948
1.58,-0.19547034145217,0.9908856335912976,1.4571375592434632,0.0355639612336739,0.1267195766725795,0.0150470894098947,-0.0302089563835762,-0.8302132326680596,0.0121090082550788,-0.1878135839123952,0.9854613053100008,1.4527088710496914,0.0432652751217754,-1.1564257129559523,-0.0194496987306262,0.5691545194404068,0.392833133955555,-0.1394831918041128,0.3875092709474632,10.801550532875808,-0.9435205916205052,0.1634099066442887,-0.9579556704145652
1.6,-0.195989712592755,0.974232523782984,1.457464818183544,0.0388574253046813,0.1273545754087668,0.0151699461652682,-0.0222245608207419,-0.834886546987523,0.0202326138503951,-0.1969807892713488,0.9493749719578948,1.4577430096562172,0.0088365264903403,-0.9302132341581756,0.0078397375630581,0.6155960670369898,0.3992197781417163,-0.2336657159731692,0.4061802797658141,10.828361869957009,-0.9434289905295128,0.1612797448519926,-0.9576210739054974
1.62,-0.1963474738393158,0.9582471083827032,1.457884580827411,0.0391731608799161,0.1273478783180534,0.0150780834992256,-0.0158776241191647,-0.8463701556432277,0.0235867541428391,-0.1969807892713488,0.9493749719578948,1.4577430096562172,0.0088365264903403,-0.9302132341581756,0.0078397375630581,0.6771394434542286,0.3173468350788594,-0.5741804327852373,0.1677070146222009,10.828361869957009,-0.943038355682862,0.1617465937411393,-0.95681292467244
1.64,-0.1966013341344448,0.9412392990122505,1.4583912528673288,0.0362974754673029,0.127143640501425,0.0147672834883461,-0.0098631922480068,-0.8535193665276953,0.0269235396985945,-0.1969807892713488,0.9493749719578948,1.4577430096562172,0.0088365264903403,-0.9302132341581756,0.0078397375630581,0.4960311100336555,0.3007215935578932,-0.3574605442233813,0.1668392777877732,10.567017254228633,-0.9426553875156718,0.1641871908680117,-0.9567092474266898
1.66,-0.196740008824297,0.924134393108058,1.45895820487161,0.0325793585690052,0.1269811437018453,0.0144208881092963,-0.004291271510212,-0.856570132947453,0.0296067708436584,-0.1968924240064453,0.9400728396163128,1.4578214070318478,0.0166456230651236,-0.9502132344561988,0.006985883424654,0.3447941626319608,0.2785960368897437,-0.1525383209878827,0.1341615572531908,10.50456813911751,-0.9423595912510094,0.1676658316116268,-0.9560507684987046
1.68,-0.1967716168011287,0.907854110342015,1.4595393562813337,0.0296886932871325,0.1269740474614738,0.0141611837433204,0.0007149187235079,-0.8572712255592942,0.0314249668012856,-0.1967156934766386,0.9214685749331494,1.4579782017831089,0.0322638162146903,-0.9902132350522452,0.0052781751478457,0.2686043002583164,0.2503095116859993,-0.0350546305920629,0.0909097978813637,10.50456813911751,-0.9419076142056914,0.1704877203863348,-0.9555983816064846
1.7,-0.1967035843865411,0.8907132153593657,1.4601828820989025,0.0278164224002937,0.1271913535287678,0.0139947496077852,0.0058534389686071,-0.8570064886995215,0.0328004182753753,-0.1965389629468317,0.902864310249986,1.4581349965343702,0.0478820093642569,-1.0302132356482918,0.0035704668710375,0.2663003129541553,0.256926012254961,0.0132368429886398,0.0687725737044848,10.456818414938423,-0.9411683174377696,0.1723855080377756,-0.9556303164420376
1.72,-0.1965325215320009,0.8735854745938112,1.4608500402341975,0.0274274586045337,0.1276601602031734,0.0139552499688747,0.01103470656669,-0.8559451235078175,0.0338282403889786,-0.1955813227595466,0.8822600455370201,1.458206405871791,0.0635002025138236,-1.0702132362443382,0.0018627585942292,0.2693902758560355,0.2590633799041442,0.0530682595851983,0.0513911056801656,10.424970090254646,-0.9401001548187292,0.1729335043086619,-0.9562877503308505
1.74,-0.1962561899082717,0.8564862636161069,1.4615351493757365,0.0289546406163988,0.1283516165647667,0.0140693291302259,0.0163923387294491,-0.854342324867312,0.0346236358625753,-0.1946236825722614,0.8616557808240543,1.4582778152092115,0.0791183956633903,-1.1102132368403848,0.0001550503174209,0.2824262728255584,0.2678816081379535,0.0801399320252749,0.0397697736798308,10.407008014539317,-0.938819582444308,0.1718944953222461,-0.9574566751236616
1.76,-0.1958896648691361,0.8402572168468889,1.462201324406,0.0320011861772362,0.1290995586011732,0.0143021832404603,0.0219467441063916,-0.8544665728104941,0.0354482313911072,-0.1932755875562372,0.8400515160961872,1.4583065318397122,0.0947365888129569,-1.1502132374364311,-0.0015526579593872,0.2808327546266105,0.2777202688471271,-0.0062123971591054,0.0412297764265955,10.39576579117329,-0.9377317269938834,0.1693728260476007,-0.958646454462422
1.78,-0.1953851541117977,0.8231399461259349,1.4629219263431303,0.0356953413033169,0.1298355790497308,0.0145890349210562,0.0282323512221138,-0.8573588789633002,0.0365783774647498,-0.1915370377114737,0.8174472513534191,1.4582925557632926,0.1103547819625235,-1.1902132380324777,-0.0032603662361955,0.3505407317365105,0.314280355786109,-0.1446153076403056,0.0565073036821326,10.402224779481005,-0.9366054595173748,0.166231185123806,-0.9601353659044274
1.8,-0.194750654007865,0.8059454013813819,1.4636686244004584,0.0390302544916346,0.1304090864991554,0.0148534642109195,0.034906990386261,-0.8619052173481551,0.0380497268089897,-0.193973536550692,0.7802720021777698,1.4647508452163678,0.062293365874366,-0.9539697603514876,0.0503884337264681,0.4104414378872075,0.3337319582073599,-0.2273169192427426,0.0735674672119938,10.424451336118182,-0.935624975324938,0.1633570100884861,-0.9614770509498948
1.82,-0.193927039503786,0.7885514345041318,1.4645280793088074,0.0386158271007939,0.1294180523597283,0.0148045672679879,0.0468956118587286,-0.8757288884448495,0.0478903231572805,-0.193973536550692,0.7802720021777698,1.4647508452163678,0.062293365874366,-0.9539697603514876,0.0503884337264681,1.0388193585625118,0.5994310736233812,-0.6911835548347234,0.4920298174145385,10.449084845100517,-0.9416248646502638,0.1637973287755647,-0.9557644311897632
1.84,-0.1929295937046556,0.7718303505164044,1.465532728583471,0.0343981339490535,0.1259563943638209,0.0144185619929442,0.057301381322116,-0.882924627225926,0.057400154071101,-0.193973536550692,0.7802720021777698,1.4647508452163678,0.062293365874366,-0.9539697603514876,0.0503884337264681,0.7913526058908716,0.5202884731693662,-0.3597869390538244,0.4754915456910275,10.99153376153481,-0.9447330282212232,0.1684298746004027,-0.9510278028563846
1.86,-0.1916914447036044,0.754146478068057,1.4667752264563705,0.0293228473584726,0.1202518136125217,0.0139432135733739,0.065534178235422,-0.88507204101887,0.0663042242853581,-0.1933506028919483,0.7707323045742549,1.4652547295536325,0.0691055688048165,-0.973291936629125,0.0531504449788117,0.6157775519501486,0.411639845665299,-0.1073706896472015,0.4452035107128549,10.93845289242654,-0.948606756038722,0.1736322769195998,-0.9453115691229356
1.88,-0.1903294160432361,0.736451680765622,1.4681793004790118,0.0252525427215636,0.1136994054355272,0.0135651684416126,0.0700435870030573,-0.884657250896938,0.0736785523825126,-0.192104735574461,0.7516529093672252,1.4662624982281618,0.0827299746657173,-1.0119362891844002,0.0586744674834991,0.4326879162957984,0.2254704383817654,0.0207395060966009,0.3687164048577218,10.843057681130633,-0.953720748369366,0.1778631682203703,-0.9384394088493602
1.9,-0.188983187855832,0.7196605008194323,1.469638591250233,0.022713216720785,0.1077363574904303,0.013345146644974,0.0713542334175435,-0.8832541954536244,0.0795730199177385,-0.1908588682569737,0.7325735141601954,1.4672702669026911,0.0963543805266182,-1.050580641739675,0.0641984899881864,0.3099641355247817,0.0655323207243104,0.0701527721656825,0.2947233767612967,10.745503017340525,-0.9594625617249104,0.1810542452388204,-0.9311068972039764
1.92,-0.1875670783354632,0.7020190687036203,1.4712886201707145,0.0215088998062844,0.1026037334829062,0.0132702457928829,0.0699986111078688,-0.8811577225153013,0.0850939280364415,-0.1889317806464413,0.711561901325402,1.4685542367024549,0.1099787863875191,-1.08922499429495,0.0697225124928737,0.3029576582740951,-0.067781115483733,0.1048236469161523,0.2760454059351505,10.672298933384807,-0.964122097188654,0.1827394053982243,-0.9253447086993932
1.94,-0.1862060401732129,0.6844258752020169,1.4730465520373248,0.0220990844040594,0.0996273372650949,0.0133824646599045,0.0660531209228362,-0.8784634694341416,0.0904219293130422,-0.1870046930359089,0.6905502884906084,1.4698382065022186,0.12360319224842,-1.127869346850225,0.075246534997561,0.3578180056571593,-0.1972745092516305,0.134712654057989,0.266400063830037,10.633439714484666,-0.9669188710347884,0.1828112756668709,-0.9219948567098444
1.96,-0.1849339840377004,0.6668786451908844,1.4749122285825798,0.0244993830412149,0.0994647075424264,0.0136909200059756,0.0617443153500129,-0.8765899983551609,0.0958911508473377,-0.1847369952788541,0.668572566841933,1.4712602768645997,0.1372275981093209,-1.1665136994055,0.0807705575022483,0.3605138122852279,-0.2154402786411647,0.0936735539490307,0.2734610767147746,10.63361483278095,-0.9696412317380092,0.1817926787385495,-0.9186572055651298
1.98,-0.1837894678313898,0.6502214178147757,1.476789786800864,0.0277866438206701,0.1013006933444935,0.0141115248396625,0.0591818989004025,-0.8771493267940756,0.1014714008483961,-0.1821286873752766,0.6456287363793758,1.4728204477895974,0.1508520039702217,-1.2051580519607747,0.0862945800069356,0.3082937577949166,-0.1281208224805208,-0.0279664219457353,0.2790125000529164,10.630055786599767,-0.970254914516934,0.1798199792317995,-0.9177664143426616
2.0,-0.1826175058694654,0.6326526977871757,1.4788854322567684,0.0312088780088178,0.1045054303265907,0.0146011241434645,0.0583534248184521,-0.8797070112025073,0.1078195764022482,-0.1808303728863697,0.6063639514750719,1.481863356843284,0.0991940499032864,-0.9179411959575888,0.0914476886678412,0.3447007822014778,-0.0414237040975193,-0.1278842204215813,0.3174087776926091,10.645279268879676,-0.969332034061911,0.177735427330588,-0.9186683089758704
2.02,-0.1814463670339131,0.6147814216470412,1.4810489559632554,0.0264005737608666,0.1083367400336636,0.0145481355461996,0.0588955170400411,-0.9036991428198556,0.1080603686277779,-0.1808303728863697,0.6063639514750719,1.481863356843284,0.0991940499032864,-0.9179411959575888,0.0914476886678412,1.1999731501337387,0.0271046110794516,-1.199606580867424,0.0120396112764847,10.671285274521324,-0.967376633200979,0.1821769331994,-0.9192931875351916
2.04,-0.1803153604805659,0.5975323074567311,1.4830983106563818,0.0138344737564416,0.1121708923632363,0.0139328497236592,0.0602421986106285,-0.9095159141380692,0.1077072873100648,-0.1808303728863697,0.6063639514750719,1.481863356843284,0.0991940499032864,-0.9179411959575888,0.0914476886678412,0.2990528642141187,0.0673340785293706,-0.2908385659106671,-0.017654065885659,10.336097028367476,-0.9628334483997366,0.1927241355446238,-0.9226553398730076
2.06,-0.1790883781277931,0.5793796179639199,1.4852311730913814,-0.000243037480323,0.1161887740270952,0.0132013263549172,0.0624887299557064,-0.9052921694214484,0.1054738801577781,-0.1798384323873369,0.597184539515496,1.4827778337299624,0.1071964801038632,-0.9260995697902916,0.0894429462317302,0.2639840431895602,0.1123265672538943,0.2111872358310285,-0.1116703576143351,10.274052898481386,-0.9580632056237188,0.204939261392631,-0.9248793740995792
2.08,-0.177807885572871,0.5613759019064324,1.487296635333839,-0.0124378175811953,0.1200122637464578,0.0125805619580884,0.0655360929913527,-0.8955748271389611,0.1010758388204974,-0.1778545513892712,0.5788257155963442,1.484606787503319,0.1232013405050168,-0.9424163174556968,0.0854334613595083,0.5546528871971893,0.1523681517823151,0.485867114124372,-0.2199020668640333,10.047792274912354,-0.9529726282705216,0.2157137427062773,-0.9274573276869617
2.1,-0.1764581167678618,0.5436020126426745,1.4892561020654769,-0.0217857168179112,0.1235094637221973,0.0121523357196926,0.0693598957906565,-0.8829898430344019,0.0950829732505479,-0.1758706703912054,0.5604668916771924,1.486435741276676,0.1392062009061703,-0.958733065121102,0.0814239764872863,0.7226993332283105,0.1911901399651874,0.6292492052279608,-0.2996432784974766,10.047792274912354,-0.948025121058618,0.2236947820804496,-0.9304810131479646
2.12,-0.1750977573891415,0.52696267622741,1.490999544243132,-0.0281037341630406,0.1264567660426349,0.0119327694425992,0.0736900524518996,-0.8697694898281431,0.0887356940322244,-0.173086546373082,0.5412922303747704,1.4880642208064216,0.1552110613073239,-0.9750498127865072,0.0774144916150644,0.7645520732502581,0.2165078330621572,0.6610176603129403,-0.3173639609161747,9.98404473897608,-0.942946327646475,0.2297824360078169,-0.9341005033306148
2.14,-0.1735706108240814,0.5097200753441816,1.4927011757481652,-0.0324630187216752,0.1291388494341554,0.0118814325945891,0.0788459890802284,-0.8555901977451866,0.0817525413795621,-0.1703024223549586,0.5221175690723483,1.4896927003361673,0.1712159217084775,-0.9913665604519126,0.0734050067428424,0.8312647404099326,0.2577968314164381,0.7089646041478215,-0.3491576326331131,9.962652830968182,-0.9380004834833264,0.2338610825724193,-0.9380475701791384
2.16,-0.1719320817172182,0.4927584475515998,1.4942638454962336,-0.034994250809572,0.1313262882993559,0.0119869267704375,0.0847772590741992,-0.841598032465409,0.0748736860536993,-0.1671181768268064,0.5025349890782912,1.4912209427441077,0.187220782109631,-1.0076833081173178,0.0693955218706205,0.8340852827381378,0.2965634996985384,0.6996082639888823,-0.3439427662931385,9.957454209750722,-0.9334977497645204,0.2364060107357243,-0.9418917417789012
2.18,-0.1701683707497485,0.476076931536978,1.4956922537793291,-0.0360743398243856,0.1329229960592381,0.0122299708448637,0.0912983407253572,-0.8274039089182551,0.0683252492277002,-0.1635338097886253,0.4825444903925989,1.4926489480302425,0.2032256425107846,-1.0240000557827231,0.0653860369983986,0.8468761332642454,0.3260540825579014,0.709706177357694,-0.3274218412999574,9.973283331733,-0.9293417550282572,0.2376959052008415,-0.9457115968257228
2.2,-0.168269640163567,0.4596850870393479,1.4969946068398468,-0.0355549773092358,0.1338930504597054,0.012622931609886,0.0982059087173032,-0.8127404710833758,0.0622369523366902,-0.1656034537134806,0.4347067360910653,1.499108516240714,0.1142794069821187,-0.8283319174979041,0.0575741806356286,0.8657341735974854,0.3453783995972979,0.7331718917439667,-0.3044148445504973,10.031574713866576,-0.9258787931498248,0.2376922274621227,-0.9491020031843698
2.22,-0.1662741914450814,0.4442469296629364,1.4981370932938785,-0.0378983017776291,0.1323628591529988,0.0129030529847122,0.1112545806282229,-0.8109895944781174,0.0582616717460198,-0.1656034537134806,0.4347067360910653,1.499108516240714,0.1142794069821187,-0.8283319174979041,0.0575741806356286,0.6876341020125253,0.6524335955459883,0.0875438302629205,-0.1987640295335216,10.031574713866576,-0.9306731027993284,0.2406979718449254,-0.9429324498735132
2.24,-0.163921880559082,0.4281294062952255,1.4992561042756836,-0.0439640763764718,0.1264383547247859,0.0131573779627491,0.1225835374531719,-0.8003175335464117,0.053849750467054,-0.1656034537134806,0.4347067360910653,1.499108516240714,0.1142794069821187,-0.8283319174979041,0.0575741806356286,0.8088621585959339,0.5664478412474513,0.5336030465852848,-0.2205960639482907,10.126749173980896,-0.9302787151142063,0.2462258807087735,-0.942237668806438
2.26,-0.1613959460021477,0.4122831897137421,1.5002793258977565,-0.0501511450359528,0.1179766536355689,0.0135916571305628,0.1290077420307564,-0.7848789591192687,0.0486785252166483,-0.1644606596436594,0.4264234169160862,1.4996842580470704,0.1188756202334711,-0.828517519213834,0.0554239669172143,0.8751593503292997,0.3212102288792207,0.7719287213571457,-0.2585612625202828,10.060506260013426,-0.9333292958507624,0.2522175405154699,-0.9376594961777928
2.28,-0.1587910971413935,0.3967741153388112,1.5011907458580644,-0.0551189102199044,0.1088332424780281,0.0142251739761078,0.1309217029744321,-0.7671643284717391,0.04275968233127,-0.162175071504017,0.4098567785661282,1.5008357416597828,0.1280680467361757,-0.8288887226456936,0.0511235394803857,0.9387546092751112,0.0956980471837884,0.8857315323764825,-0.2959421442689167,10.023701883240392,-0.937842389896028,0.2570031077903589,-0.9318153119409546
2.3000000000000003,-0.1563176062327185,0.3823787823246896,1.50194286648481,-0.0584407374504412,0.1007584432910222,0.0149502868503597,0.1292863037601726,-0.7494028664989446,0.0367397079967767,-0.1598894833643747,0.3932901402161701,1.5019872252724955,0.1372604732388803,-0.8292599260775532,0.0468231120435571,0.9412546852326722,-0.0817699607129754,0.8880730986397245,-0.3009987167246621,10.023701883240392,-0.9431099822490592,0.2608111376364899,-0.925337207799418
2.32,-0.1537760730130483,0.3675909225334686,1.5026096411138372,-0.0605935157940534,0.0937629867585921,0.0157618223386439,0.1248344700223337,-0.7305778000522902,0.0302699066668478,-0.1571442738995971,0.376704941694619,1.5029236875133667,0.1464528997415849,-0.8296311295094128,0.0425226846067285,1.0198777863046429,-0.2225916868919458,0.9412533223327192,-0.3234900664964457,10.004358428892374,-0.9474931218483558,0.2633585353258059,-0.920110594458931
2.34,-0.1513525826334967,0.3531855696491565,1.5031476973067883,-0.0613647965353156,0.0891450653023418,0.0165514849732762,0.1177105535896468,-0.7111642113413855,0.0238788563907584,-0.1543990644348195,0.3601197431730679,1.503860149754238,0.1556453262442896,-0.8300023329412723,0.0382222571698999,1.0822235624023997,-0.3561958216343454,0.9706794355452352,-0.3195525138044726,10.019126813182083,-0.9496108013294904,0.2646085403059406,-0.9177262470547988
2.36,-0.1490905240394217,0.33917311851633,1.5035612747795162,-0.0605085972346936,0.0876983343244476,0.0172728886446284,0.1091613216921539,-0.6913054681949412,0.0178271027707736,-0.1514240443074742,0.3435252645657204,1.5046891013091883,0.1648377527469942,-0.830373536373132,0.0339218297330713,1.1225893809298195,-0.4274615948746444,0.9929371573222155,-0.3025876809992408,10.040494935739844,-0.9507629749654184,0.2646410878537002,-0.9163681973676646
2.38,-0.1470884645915683,0.3262294190587758,1.5038480317663658,-0.0579696994718954,0.0890121868005307,0.0179234031009219,0.102324459873,-0.6724863494689887,0.0126867891738142,-0.1482192135175614,0.3269215058725763,1.505410542178218,0.1740301792496988,-0.8307447398049916,0.0296214022962427,1.0335917146421831,-0.3418430909576962,0.9409559362976272,-0.257015679847966,10.040494935739844,-0.9498747919751456,0.2630884330094187,-0.9176032838982052
2.4,-0.145099279527618,0.3129667811602055,1.5040527096504617,-0.0539923749064361,0.0922754654066805,0.0186019397738649,0.0972205897848604,-0.6551303425897275,0.0081007622415423,-0.1419722415979183,0.2926051015853264,1.5044823712250566,0.1182375943137797,-0.6458806185926621,0.0331067760923829,0.93315607978126,-0.2551935044069808,0.8678003439630599,-0.2293013466135961,10.065590023602454,-0.9469155397116288,0.2603955117325023,-0.921284950535704
2.42,-0.1431503011105913,0.2999315116080654,1.504247642129531,-0.052974521668006,0.0956185630972833,0.0190832532931383,0.0980069045047389,-0.6481734452447411,0.0119346125809008,-0.1419722415979183,0.2926051015853264,1.5044823712250566,0.1182375943137797,-0.6458806185926621,0.0331067760923829,0.3991087568945817,0.0393157359939243,0.3478448672493195,0.1916925169679235,10.582336220082652,-0.9476614468564548,0.2597317441738166,-0.9208544225338902
2.44,-0.1412754138982413,0.2877150912489353,1.5045209578575205,-0.0562196715061045,0.0976426073041037,0.0193147929914775,0.0992137817587975,-0.637373057627923,0.0165625252802727,-0.1419722415979183,0.2926051015853264,1.5044823712250566,0.1182375943137797,-0.6458806185926621,0.0331067760923829,0.59059821649936,0.0603438627029301,0.540019380840906,0.2313956349685952,10.582336220082652,-0.9456549155540164,0.2638282690320078,-0.9208944404266493
2.46,-0.1392793045393336,0.275138877064336,1.5048992481073369,-0.0610987366726658,0.0988530406584222,0.0195159235637453,0.100283833021838,-0.6205960552463579,0.0209990880842891,-0.1407898656547805,0.2861462953993997,1.5048134389859804,0.1214202212019356,-0.6405594724173967,0.0371907734760966,0.8693329456119752,0.0535025631520261,0.8388501190782549,0.2218281402008189,10.60233474800225,-0.944382338564724,0.2695441383035967,-0.9193289899848076
2.48,-0.1372649792160518,0.2629345112797642,1.5053614485380096,-0.0655408710103876,0.0993722788709025,0.0198015386717396,0.1010539460970055,-0.6007934972573448,0.0249946461227968,-0.138425113768505,0.2732286830275465,1.505475574507828,0.1277854749782475,-0.6299171800668661,0.045358768243524,1.0108150932488271,0.038505653758377,0.9901278994506546,0.1997779019253879,10.59127542774877,-0.943639920597504,0.2751131119888823,-0.916948081141922
2.5,-0.1352389147973018,0.2511449852893259,1.5059012449837852,-0.0687935604957932,0.0994371280902887,0.0202135310731665,0.1014839006170753,-0.5794997069498755,0.028811357257747,-0.1360603618822294,0.2603110706556932,1.5061377100296758,0.1341507287545594,-0.6192748877163355,0.0535267630109515,1.0818706605175277,0.0214977260034915,1.0646895153734626,0.190835556747509,10.576998521909443,-0.94320603159466,0.2795270814265959,-0.9145742880800636
2.52,-0.1333093688880866,0.2403460090149579,1.5064855985753296,-0.0706748299088575,0.0992696762274071,0.0207169068958147,0.1015937334764256,-0.5586243603706883,0.0325337396616515,-0.1333773473071382,0.2479255729013665,1.507208245289895,0.1405159825308712,-0.6086325953658049,0.0616947577783789,1.060245595155993,0.005491642967513,1.0437673289593608,0.1861191201952262,10.574149355875306,-0.942815292807128,0.2830349057799048,-0.9124504972216426
2.54,-0.1312784404187018,0.229410299086661,1.5071827084005356,-0.0713784748736788,0.0990086204522624,0.0213520707351465,0.1014847283489634,-0.5361711348356296,0.0370232267524535,-0.130694332732047,0.2355400751470398,1.508278780550114,0.1468812363071831,-0.5979903030152743,0.0698627525458064,1.1448959705847757,-0.0054502563731094,1.1226612767529345,0.2244743545400995,10.5834250185153,-0.9427034649244328,0.2854239864313769,-0.9103824760070665
2.56,-0.1292510076467954,0.2189329537191592,1.507975761540218,-0.0704109212946172,0.0987526825037973,0.022110444895025,0.1012639395848917,-0.5128730874211214,0.0421018418747383,-0.127852186812548,0.2234206347014763,1.5095535156795186,0.153246490083495,-0.5873480106647436,0.0780307473132338,1.192308781909404,-0.0110394382035861,1.1649023707254125,0.2539307561142397,10.657043840452388,-0.9427524816239984,0.2864844345647266,-0.9084615348196836
2.58,-0.1272286072853576,0.2089247106903489,1.508877966579636,-0.0673419132463854,0.0985390273704531,0.0230144936269555,0.1010009811887636,-0.4896636754938414,0.047909788118686,-0.1248509095486412,0.2115672515646762,1.511032450678109,0.1596117438598069,-0.576705718314213,0.0861987420806612,1.1963258217359165,-0.0131479198064041,1.1604705963639994,0.2903973121973821,10.657043840452388,-0.94293938414668,0.2858579939675719,-0.9070035022146632
2.6,-0.1253115561860382,0.1998208678028609,1.509851223276177,-0.0631206367120208,0.0983845632431791,0.0239586094798499,0.1008180295798351,-0.4701762674994861,0.0542780404202058,-0.1221785582259195,0.1844415269156568,1.5112734559855705,0.1157924493471279,-0.4607722070732166,0.0591285473499553,1.0251185041319395,-0.009147580446428,0.9743703997177612,0.3184126150759928,10.692926755666122,-0.943318651348194,0.2839858948810247,-0.9057277557661432
2.62,-0.1232969435308884,0.1905914034578257,1.510934627420344,-0.0589042341584562,0.0980470886777955,0.0249423647960308,0.1005802985776499,-0.4536916090831888,0.0533133357662696,-0.1221785582259195,0.1844415269156568,1.5112734559855705,0.1157924493471279,-0.4607722070732166,0.0591285473499553,0.8257286694198192,-0.0118865501092586,0.8242329208148685,-0.0482352326968131,10.729765422258424,-0.9425241348950844,0.2829967978059867,-0.9045585906443656
2.64,-0.1212920066590903,0.1816867526392904,1.5119941915281585,-0.0554084349984115,0.0974497632486654,0.0258855809857734,0.0998957142927104,-0.4375687421476976,0.0528028632529833,-0.1221785582259195,0.1844415269156568,1.5112734559855705,0.1157924493471279,-0.4607722070732166,0.0591285473499553,0.8072733057174042,-0.0342292142469759,0.8061433467745599,-0.0255236256643108,10.21843522950894,-0.9420812806046148,0.2811275048236121,-0.9051749635334252
