t,x,y,z,roll,pitch,yaw,v_x,v_y,v_z,ref_x,ref_y,ref_z,ref_v_x,ref_v_y,ref_v_z,a_com,a_x,a_y,a_z,thrust,wind_x,wind_y,wind_z
0.0,1.8612037612281955,-0.7003914706147899,2.7691433555226173,0.0305801330258309,0.0999103236468338,0.0429941936915679,0.004797282785913,-0.0063654783257315,0.0128751540319858,1.86134793085324,-0.7005080754233789,2.7695482772691906,-0.0953118504755272,0.0955809526699929,-0.0869843503626619,0.7571374178290505,0.2398641392956517,-0.3182739162865777,0.6437577015992919,10.243790662488207,-0.9430397767829544,0.2556792320161064,-0.8741496636894956
0.02,1.8614447564772103,-0.7007600119537133,2.7691691068116,0.0203664152892627,0.0948208441684612,0.0421491369965143,0.0186358243756714,-0.0259791018402244,-0.0112532362291758,1.86134793085324,-0.7005080754233789,2.7695482772691906,-0.0953118504755272,0.0955809526699929,-0.0869843503626619,1.7017481286126506,0.6919270794879214,-0.9806811757246456,-1.2064195130580826,8.870942923731036,-0.9444748715397536,0.2593696375547472,-0.875772839088145
0.04,1.8619084578298748,-0.7012905410519621,2.7686812424031038,0.0034632248835504,0.0805900406571908,0.0408500424324929,0.0257817950787263,-0.02536081516243,-0.0361030296889313,1.86134793085324,-0.7005080754233789,2.7695482772691906,-0.0953118504755272,0.0955809526699929,-0.0869843503626619,1.2932124832151184,0.3572985351527453,0.0309143338897232,-1.2424896729877757,8.870942923731036,-0.9468669038910492,0.2702403775985039,-0.8710208731093103
0.06,1.862415154911663,-0.7017291350239128,2.7676940986732137,-0.0137414033632206,0.061034494665483,0.0398661162976359,0.0235793538971656,-0.0181847506196758,-0.0613701723154624,1.86134793085324,-0.7005080754233789,2.7695482772691906,-0.0953118504755272,0.0955809526699929,-0.0869843503626619,1.3179293854276408,-0.1101220590780344,0.3588032271377087,-1.2633571313265537,8.837549429204955,-0.9550112118976992,0.2817476868707935,-0.8604304470313623
0.08,1.8627671873339504,-0.7019799863928294,2.766285713105457,-0.029427462924192,0.0407707747617664,0.0393845626864707,0.0130764129970237,-0.0083046265263664,-0.0856452013308024,1.8603948123484848,-0.699552265896679,2.768678433765564,-0.1153118507735505,0.1155809529680161,-0.1069843506606851,1.41174152498489,-0.5251470450070966,0.4940062046654671,-1.2137514507670004,8.837549429204955,-0.9666568185821878,0.2918224090299882,-0.8475271057382846
0.1,1.8628455912945276,-0.7020137934335,2.7643001221549857,-0.0451408438247125,0.0202123135097982,0.0393082087537521,-0.0051411569446918,0.0047088205368745,-0.1116944333226625,1.8584885753389744,-0.6976406468432791,2.766938746758311,-0.1553118513695969,0.1555809535640626,-0.1469843512567316,1.7174051257746572,-0.9108784970857798,0.6506723531620517,-1.3024615995930071,8.837966547079304,-0.9800940685249988,0.3007308165917635,-0.8334011483221335
0.12,1.8624921394082976,-0.7017609110821881,2.7617914759519344,-0.0600697303221254,0.0022535499544404,0.0395304138219944,-0.0293699728529242,0.0202249715291643,-0.1379195021232872,1.856582338329464,-0.6957290277898792,2.7651990597510574,-0.1953118519656434,0.195580954160109,-0.186984351852778,1.946497299977607,-1.2114407954116178,0.7758075496144897,-1.3112534400312328,8.837966547079304,-0.9920501331963604,0.3079312985211102,-0.8219902941655137
0.14,1.8616654727153703,-0.7012007457351566,2.758912987821293,-0.0732467132700378,-0.0114822759564555,0.0398842504220341,-0.0563393893259516,0.0379838804194401,-0.1637979975388026,1.852676101290151,-0.6918174087066771,2.7614593727140018,-0.2353118525616898,0.2355809547561555,-0.2269843524488245,2.0690727360580943,-1.34847082365137,0.8879454445137892,-1.2939247707757715,8.87222873404653,-1.002471483012512,0.3143007250698415,-0.8134555551402772
0.16,1.8602166613925972,-0.7002160069939551,2.755341552234976,-0.0856143741346799,-0.0221578763074556,0.0402918310656294,-0.0870770967317754,0.0594920483155799,-0.1920260234088997,1.848769864250838,-0.6879057896234749,2.757719685676946,-0.2753118531577363,0.275580955352202,-0.266984353044871,2.3474610685469592,-1.5368853702911938,1.0754083948069932,-1.4114012935048548,8.862828112512489,-1.010127274117939,0.3192561905416097,-0.8093244144450688
0.18,1.858125067386864,-0.6987685842304794,2.751199806427713,-0.0958975805302092,-0.0286644802942494,0.0406216416082916,-0.1206166667960586,0.0838606854298381,-0.2207439770441456,1.843863627196624,-0.6829941705253716,2.7529799986249897,-0.3153118537537827,0.3155809559482484,-0.3069843536409174,2.521633446746125,-1.6769785032141598,1.2184318557129097,-1.435897681762295,8.850813375358939,-1.0136257322146671,0.3230909279919086,-0.8106236025233889
0.2,1.8553377996746503,-0.6968149463479737,2.746482181914728,-0.1037890345518431,-0.0301139684111615,0.0406927797685305,-0.1557966551721355,0.1097605489584684,-0.2494868320200091,1.8379573901275088,-0.6770825514123671,2.7472403115581314,-0.3553118543498291,0.3555809565442948,-0.3469843542369638,2.614663565884764,-1.7589994188038416,1.2949931764315123,-1.4371427487931745,8.885267652549828,-1.0146826538133138,0.3248851280364918,-0.8157259285771092
0.22,1.852055467976334,-0.6944710416051736,2.741472225331294,-0.1092935419120628,-0.0273192031817146,0.0404742979670122,-0.1874335830712542,0.1352299818506748,-0.2763470425153849,1.8520942340470608,-0.6945755499589875,2.7401626075755057,-0.2206166682861748,0.1838606869199543,-0.3207439785342617,2.434675608063906,-1.581846394955938,1.2734716446103216,-1.3430105247687882,8.915771515745746,-1.0132973453165195,0.3262263389715569,-0.8226440360836393
0.24,1.847926890248565,-0.6913300460380234,2.735802184788729,-0.1091065922885844,-0.0198198439919246,0.0401558048936075,-0.2230836670669043,0.1760479302793691,-0.2880757245504552,1.8520942340470608,-0.6945755499589875,2.7401626075755057,-0.2206166682861748,0.1838606869199543,-0.3207439785342617,2.7724517061187157,-1.7825041997825044,2.040897421434712,-0.5864341017535163,8.936060204155183,-1.015260475587454,0.3249811885046383,-0.8211180712604226
0.26,1.8431413954935945,-0.6874686228616823,2.7299306141507755,-0.1025364445430156,-0.0080591440739469,0.0398589263838635,-0.252942452544539,0.2068737063185606,-0.2985086831484649,1.8520942340470608,-0.6945755499589875,2.7401626075755057,-0.2206166682861748,0.1838606869199543,-0.3207439785342617,2.208292419339877,-1.4929392738817326,1.5412888019595783,-0.5216479299004845,10.030821214311343,-1.0100359362343003,0.3191544709776529,-0.8308826059697921
0.28,1.837820959344286,-0.6830687110496549,2.7238205563093274,-0.0944900162932368,0.0057477775826062,0.039547379180947,-0.2770654106542033,0.2312854292483621,-0.3118982786875828,1.8498880673641995,-0.692736943089788,2.736955167790163,-0.240616668584198,0.2038606872179775,-0.3407439788322849,1.8419626713530188,-1.2061479054832152,1.220586146490074,-0.6694797769558947,9.83687588450266,-1.00178141539217,0.3129443114361252,-0.8438178618763137
0.3,1.832370046359197,-0.6784742184888769,2.7177383880525285,-0.087133824032039,0.0192700590852313,0.0392925741924357,-0.2951909569834847,0.2511559430436728,-0.3276602622764687,1.845475733998476,-0.6890597293513889,2.7305402882194776,-0.2806166691802444,0.2438606878140239,-0.3807439794283314,1.558695668564639,-0.9062773164640686,0.9935256897655342,-0.788099179444296,9.604429880141652,-0.9910471878783093,0.3067195047298939,-0.8593192663564749
0.32,1.826305283038413,-0.6732537602536051,2.710981691015357,-0.0803326701418083,0.032786795011209,0.0391154396254856,-0.310042170958286,0.2699114528033183,-0.3473564309644035,1.8410634006327524,-0.6853825156129898,2.7241254086487925,-0.3206166697762909,0.2838606884100704,-0.4207439800243778,1.5494085676904887,-0.742560698740069,0.9377754879822732,-0.9848084343967416,9.39980823692349,-0.979567952511934,0.3011726860807627,-0.8750989331901576
0.34,1.819982101608504,-0.66767394093349,2.703797487307776,-0.0746846829626344,0.0447502969827024,0.0390566898933401,-0.3214367171665992,0.287320632276582,-0.370117887501357,1.8346510672372265,-0.6797053018447884,2.715710529048305,-0.3606166703723373,0.3238606890061168,-0.4607439806204242,1.541913678606322,-0.5697273104156575,0.8704589736631879,-1.138072826847672,9.218440121798269,-0.9686921345291344,0.2966976173379687,-0.8894649879196058
0.36,1.8137898272199544,-0.6620593025705842,2.696534077282789,-0.0703157550771646,0.0542734991598481,0.039115555133692,-0.3298108756178929,0.3030011321364647,-0.3933577490379717,1.8282387338417008,-0.674028088076587,2.707295649447817,-0.4006166709683838,0.3638606896021633,-0.5007439812164708,1.4629557152082393,-0.4187079225646872,0.7840249929941312,-1.161993076830739,8.995920100063813,-0.9581222015465344,0.2925571864284276,-0.9034244283546866
0.38,1.807114000258608,-0.655825740526602,2.6883964015850665,-0.0664187155795406,0.0623193511737135,0.0392975373031885,-0.3372898028285114,0.3195122741732475,-0.4192716303051974,1.8208264004312735,-0.6673508742934844,2.6978807698324285,-0.4406166715644302,0.4038606901982097,-0.5407439818125171,1.5812031857990418,-0.3739463605309245,0.8255571018391417,-1.2956940633612828,8.995920100063813,-0.9484485148483528,0.2888625437846376,-0.91619982426079
0.4,1.8002990107632,-0.6492647388021152,2.679728340438904,-0.0628802712546943,0.068558924642018,0.0395926165069386,-0.3438206180404423,0.335695722850174,-0.4462958495692707,1.8124140670059457,-0.6596736604954806,2.6874658902021387,-0.4806166721604766,0.4438606907942561,-0.5807439824085636,1.6084650953967063,-0.3265407605965442,0.8091724338463252,-1.3512109632036666,8.933006430371279,-0.940021401888558,0.2852952106282828,-0.9275942054526406
0.42,1.7933605017139764,-0.6423852438366603,2.670509309889904,-0.0595293350281538,0.0732449355426406,0.0399817832199721,-0.34973617001625,0.3513565533670781,-0.4742725789813969,1.790249510117182,-0.6398501268179396,2.6674328200698065,-0.4372898043186276,0.4195122756633636,-0.5192716317953135,1.6301478125134872,-0.2957775987903865,0.7830415258452073,-1.3988364706063072,8.889750824370822,-0.9330766768738276,0.2819221045142676,-0.9373074575211372
0.44,1.786690079750791,-0.6355615602770033,2.6614521281999197,-0.0567965932034155,0.076141646912888,0.0404145840924589,-0.3522696889374503,0.3662904320932045,-0.4777327162570657,1.790249510117182,-0.6398501268179396,2.6674328200698065,-0.4372898043186276,0.4195122756633636,-0.5192716317953135,0.7768719358703908,-0.1266759460600147,0.7466939363063196,-0.1730068637834425,8.853131802278767,-0.9354788357771656,0.2784760705308668,-0.937131945494204
0.46,1.7796217457809305,-0.6280883438783901,2.6518246634709484,-0.0549132272634891,0.0772871983329718,0.0409044327674556,-0.3545630398149111,0.3804395984297765,-0.4851790467534867,1.790249510117182,-0.6398501268179396,2.6674328200698065,-0.4372898043186276,0.4195122756633636,-0.5192716317953135,0.8076295625611086,-0.1146675438730371,0.7074583168285964,-0.372316524821048,10.218756212039809,-0.9327341164680228,0.2778351924688096,-0.9394512226560348
0.48,1.7725037150650882,-0.6203330783158829,2.641990745457283,-0.0541217017880781,0.0764500369944266,0.0414189538123032,-0.3572640200727636,0.3944915598102924,-0.4978214285553092,1.7858766120739955,-0.635655004061306,2.662240103751853,-0.4572898046166507,0.4395122759613868,-0.5392716320933367,0.9547024806397464,-0.135049012892624,0.7025980690257977,-0.6321190900911267,9.901214173564767,-0.9313575372578392,0.2777582516268838,-0.9407864401814804
0.5,1.7656863383983592,-0.6127074660248425,2.632379159607837,-0.0542445194727457,0.0738509911722929,0.041937472402433,-0.36034738109496,0.4075830323497854,-0.5132836252805342,1.7771308159876231,-0.6272647585480388,2.651854671115947,-0.4972898052126972,0.4795122765574333,-0.5792716326893832,1.0246625005520789,-0.1541680511098209,0.6545736269746499,-0.773109836261246,9.641338368017388,-0.9317471506616304,0.2781261397713263,-0.9407047206702588
0.52,1.7584377062436585,-0.6044145916209828,2.6219161954573407,-0.0553700723486225,0.06921982173082,0.042514140948285,-0.3646176350113955,0.4210883256243708,-0.5323228765755371,1.7683850199012507,-0.6188745130347715,2.641469238480041,-0.5372898058087436,0.5195122771534797,-0.6192716332854297,1.186508643897786,-0.2135126958217742,0.6752646637292692,-0.9519625647501472,9.450711739588767,-0.933619420936709,0.2791431526323249,-0.9393391579987342
0.54,1.7510789958835284,-0.5958504230958256,2.6110500759600863,-0.0575683218030903,0.0631259159904921,0.0431035630658173,-0.3713490946082611,0.4347870722431508,-0.553413878623499,1.757639223785076,-0.6084842674917019,2.629083805814332,-0.5772898064047901,0.5595122777495262,-0.6592716338814761,1.3017282498825398,-0.3365729798432831,0.6849373309390006,-1.054550102398094,9.19671648862004,-0.93801974802832,0.2812301662493403,-0.9348018861619288
0.56,1.7435587055883914,-0.5869979309572019,2.5997545215473976,-0.0604481878960647,0.0563907932602834,0.0436989210043691,-0.3805786830218737,0.4499737282121544,-0.5750830370215517,1.746893427668901,-0.5980940219486323,2.616698373148624,-0.6172898070008366,0.5995122783455726,-0.6992716344775226,1.4012246853069847,-0.4614794206806299,0.7593327984501796,-1.0834579199026362,9.19671648862004,-0.9435713200971284,0.283640901918136,-0.9289861872413732
0.58,1.7362173284968498,-0.5782861525124802,2.5886210225633066,-0.0629478453758321,0.0501022524188019,0.0442920496743424,-0.3918306285461634,0.4661413038519902,-0.5957634092173563,1.735147631537825,-0.5867037763906615,2.603312940468014,-0.6572898075968829,0.639512278941619,-0.739271635073569,1.4280008528607415,-0.5625972762144854,0.808378781991792,-1.034018609790227,9.18303790106438,-0.9498655201721652,0.2860076800637133,-0.9222335532791522
0.6,1.728237207331755,-0.5687781903191909,2.576473546872679,-0.0649333069170653,0.0442083719379715,0.0449286144756534,-0.4057067043108657,0.4836693656140889,-0.61789867219513,1.7224018353918478,-0.5743135308177896,2.588927507772503,-0.6972898081929294,0.6795122795376655,-0.7792716356696154,1.5730132666787189,-0.6938037882351117,0.8764030881049351,-1.1067631488886842,9.165477880283106,-0.955898926753318,0.287776744894142,-0.9157919135526822
0.62,1.7199561966817003,-0.5589122124018024,2.5638794342235234,-0.0660410828158947,0.0396499409860656,0.0455443111093899,-0.4217677570694559,0.5018666423127542,-0.6403873005423983,1.7079518721162117,-0.5445947220384864,2.5455786132629226,-0.5057067058009819,0.583669367104205,-0.7178986736852461,1.6544158333861907,-0.8030526379295133,0.9098638349332638,-1.1244314173634196,9.165477880283106,-0.9606068502764814,0.288654536531965,-0.9110457555916008
0.64,1.7117338009823844,-0.5491676714876609,2.551693987306608,-0.0653983490681422,0.0386530576729507,0.0460226753166215,-0.4425062163084959,0.522561308561165,-0.6410882879590175,1.7079518721162117,-0.5445947220384864,2.5455786132629226,-0.5057067058009819,0.583669367104205,-0.7178986736852461,1.4653022607133752,-1.036922961951997,1.0347333124205382,-0.0350493708309584,9.15660694278222,-0.9674200105125024,0.2868509176299646,-0.9059510388078384
0.66,1.70267846926974,-0.5385100234520196,2.5388366222296423,-0.062944565770664,0.041995271979849,0.0463550626523787,-0.4614347104448507,0.542025654320229,-0.6448579531648193,1.7079518721162117,-0.5445947220384864,2.5455786132629226,-0.5057067058009819,0.583669367104205,-0.7178986736852461,1.370546443815606,-0.9464247068177388,0.9732172879531986,-0.1884832602900898,10.47063354065358,-0.9684231220428454,0.2864363519593458,-0.9026785152218768
0.68,1.693278942328344,-0.527482116686917,2.5258519536248243,-0.0595349485517826,0.0480420158796418,0.0465850235096657,-0.4771810359895384,0.5594848425208956,-0.6535937922392424,1.7028948050582018,-0.5387580283674444,2.53839962652607,-0.525706706099005,0.6036693674022282,-0.7378986739832692,1.2540782522631906,-0.7873162772343872,0.8729594100333304,-0.4367919537211551,10.144211726277716,-0.9652149273900652,0.2847409353625839,-0.9052599068304328
0.7000000000000001,1.6835965940494502,-0.5161270197974495,2.51264092033997,-0.0560008089563691,0.0555068155829152,0.0467494521515542,-0.4899430782795849,0.5750940332429394,-0.6670372539573186,1.6927806709421822,-0.5270846410253602,2.524041653052365,-0.5657067066950515,0.6436693679982747,-0.7778986745793157,1.2116550884796533,-0.6381021145023258,0.7804595361021904,-0.67217308590381,9.581668438991072,-0.9596912535958788,0.2825278240607409,-0.9113059215682868
0.72,1.6741883501673835,-0.505062218409975,2.499804857119728,-0.0528694690563869,0.06302013389082,0.0468783925541921,-0.4995616851180573,0.5888520461657513,-0.6834528449881992,1.6826665368261626,-0.5154112536832761,2.5096836795786603,-0.605706707291098,0.6836693685943211,-0.8178986751753622,1.1739592688744518,-0.4809303419236188,0.6879006461405934,-0.8207795515440319,9.581668438991072,-0.9524920117878152,0.2799704033622897,-0.9197037041372588
0.74,1.6641118376222075,-0.4931422477958342,2.4859234437451825,-0.0499767807742256,0.0706923731064925,0.0470094010735538,-0.5074099636609991,0.6024476921255988,-0.7039851024858834,1.6705524026803409,-0.5017378663113897,2.493325706075153,-0.6457067078871445,0.7236693691903676,-0.8578986757714087,1.292295112488172,-0.3924139271470894,0.6797822979923762,-1.0266128748842085,9.373242695965018,-0.9445852232624372,0.2774134430713565,-0.9291645604654216
0.76,1.6539001700438782,-0.4809560633565279,2.47160780269443,-0.047547279651645,0.0776178283815132,0.0471520474448532,-0.5132882166851805,0.6155550657003755,-0.726560879527226,1.6584382685345187,-0.4880644789395033,2.4769677325716457,-0.6857067084831909,0.7636693697864141,-0.8978986763674551,1.3379301267867716,-0.2939126512090717,0.655368678738838,-1.1287888520671308,9.108543616447603,-0.9375080443853824,0.2751347667595298,-0.9377717694264908
0.78,1.6441009381659206,-0.469131528078788,2.4575771165846314,-0.0453514191895702,0.0833604915293919,0.0473216384053231,-0.5178536975507294,0.6283457225168436,-0.7492264384484152,1.6453241343737957,-0.4733910915527157,2.459609759053237,-0.7257067090792373,0.8036693703824604,-0.9378986769635016,1.3211473030478578,-0.2282740432774432,0.6395328408234036,-1.1332779460594578,9.108543616447603,-0.9317587793341704,0.2730571021810624,-0.9445345532076528
0.8,1.6337015924217966,-0.4564256621281777,2.442330036233076,-0.0429314169012013,0.0885697135495886,0.0475455534586704,-0.5217722751712447,0.6414435597727763,-0.7743491348603491,1.6312100001981713,-0.4577177041510269,2.441251785519928,-0.7657067096752838,0.8436693709785069,-0.977898677559548,1.4300860694002806,-0.1959288810257642,0.654891862796636,-1.2561348205966938,9.050859380364273,-0.926623595073727,0.2708168755880584,-0.9507192130251816
0.8200000000000001,1.623231821793846,-0.4434616795586434,2.42656897544922,-0.0403380813920112,0.0929763498567117,0.047814143367056,-0.5249566438943489,0.6541526218084911,-0.8005429738144315,1.618208253288384,-0.4377142419529459,2.4201157946622107,-0.6178536990408455,0.7171999683583468,-0.8051825339054922,1.4643920762083646,-0.1592184361552118,0.6354531017857379,-1.3096919477041224,8.937088227153254,-0.9220350722365304,0.2682933166155108,-0.9565287323919393
0.84,1.6127441478098457,-0.4301709610474273,2.410702579913199,-0.0356220579418912,0.0965488210120901,0.0482611339498025,-0.5235664813312884,0.6727372550502121,-0.7847073833098855,1.618208253288384,-0.4377142419529459,2.4201157946622107,-0.6178536990408455,0.7171999683583468,-0.8051825339054922,1.222790938088644,0.0695081281530285,0.9292316620860496,0.7917795252272986,8.937088227153254,-0.924165486546798,0.2621497116454189,-0.9589681328802084
0.86,1.6028185833367588,-0.4172580496754497,2.395907606675049,-0.0296457663103639,0.0990005240791488,0.0488204717234489,-0.5213559637948053,0.6852802304489415,-0.7735549626147077,1.618208253288384,-0.4377142419529459,2.4201157946622107,-0.6178536990408455,0.7171999683583468,-0.8051825339054922,0.8464471439411637,0.1105258768241523,0.6271487699364697,0.5576210347588928,11.433852604768616,-0.9211843989306832,0.2588600342675303,-0.9601626111865668
0.88,1.5924200828453623,-0.403443299781333,2.380501201580203,-0.0233696442319449,0.1003646399089217,0.0494342892024966,-0.5187051959348397,0.6954147284557668,-0.7679491495598405,1.6120297162979758,-0.4305422422693624,2.412063969323156,-0.6378536993388687,0.7349708175266474,-0.8163737529969076,0.5940533648248539,0.1325383929982826,0.5067249003412655,0.280290652743359,11.009821295748225,-0.9187972400669672,0.2549294683073578,-0.9617422182473064
0.9,1.582074578872712,-0.3894473249254116,2.365148264422875,-0.0176606692352092,0.1003017076983981,0.0500226517916763,-0.516072967930735,0.7036472900363105,-0.7678375519017563,1.5996726423171588,-0.4161982429021955,2.395960318645046,-0.6778536999349152,0.7705125158632486,-0.8387561911797384,0.4321925163637374,0.1316114002052337,0.4116280790271875,0.0055798829042108,10.626967812060684,-0.9177508219824566,0.2512868861284523,-0.9624734153897024
0.92,1.571781823568574,-0.3753022994792898,2.3497478000019485,-0.0127162533320391,0.0985484962444818,0.0505593730637967,-0.5134673630109052,0.710521522387201,-0.7721858233719526,1.5873155683363418,-0.4018542435350286,2.379856667966936,-0.7178537005309616,0.8060542141998499,-0.8611386293625692,0.4270588723782515,0.1302802459914875,0.3437116175445232,-0.217413573509817,10.31695770711758,-0.9184831142885276,0.247788466150112,-0.9617589841625632
0.94,1.5620503788804496,-0.3617472533712207,2.3350071602022195,-0.0087632911763529,0.0950032872500248,0.0510084369698486,-0.5111753692488881,0.7160886082027843,-0.7792247009257955,1.5729584943257224,-0.3857331592510316,2.362633895379685,-0.7578537011270081,0.8415959125364512,-0.8835210675454,0.4631184435465401,0.1145996881008581,0.2783542907791647,-0.3519438776921457,10.083384621484583,-0.9215354824658046,0.2450817575041142,-0.95848845624666
0.96,1.551843777286206,-0.347373384844629,2.3193386387166623,-0.0054110455614549,0.0891219491030783,0.0514039996698681,-0.5100483888723903,0.7210851034824625,-0.7872676827090556,1.5586014203151033,-0.3696120749670345,2.345411122792433,-0.7978537017230546,0.8771376108730524,-0.9059035057282308,0.476771973313002,0.056349018824886,0.2498247639839079,-0.4021490891630008,9.876234954223946,-0.925951144387347,0.2422876668223751,-0.9548866518935166
0.98,1.5416278104268637,-0.3328993940430223,2.30350799720667,-0.0026317678302042,0.0817835073494223,0.0517259726873551,-0.5119387074424702,0.7260402655659854,-0.7953762659515113,1.5432443462895828,-0.3526024482246225,2.327628789250612,-0.837853702319101,0.9126793092096536,-0.9282859439110616,0.4844482887011964,-0.0945159285039909,0.2477581041761489,-0.405429162122789,9.876234954223946,-0.9322206555218204,0.2398111508131295,-0.9495555481996812
1.0,1.531343399993337,-0.3183306473521679,2.287514929453817,-0.0001311175805135,0.073918298143708,0.0519886407564955,-0.5166578818083686,0.7305400998567334,-0.803510696448768,1.526887272249161,-0.3347042790237954,2.3092868947542184,-0.8778537029151474,0.9482210075462548,-0.9506683820938924,0.5212678650527095,-0.2359587182949207,0.224991714537398,-0.4067215248628353,9.87112998816974,-0.9392709089580652,0.237651128624265,-0.9433100631853756
1.02,1.5214611298496776,-0.3044125471727342,2.272169200799775,0.0020513052487496,0.066577134308689,0.0521880110166236,-0.5234981803660425,0.7342671263971466,-0.8114108853931199,1.51603087505474,-0.296597380764723,2.2637391839090943,-0.6119387089325863,0.7488356335519493,-0.800940349762407,0.5547373174474544,-0.3420149278836937,0.1863513270206618,-0.3950094472175924,9.86536185931982,-0.9470455433762106,0.23549300086812,-0.9363070421724992
1.04,1.510857049172742,-0.2894951563176837,2.256136978946296,0.0105500970501803,0.0609257969284925,0.0527834794237421,-0.5366056605694275,0.7537095239784721,-0.7898370517718953,1.51603087505474,-0.296597380764723,2.2637391839090943,-0.6119387089325863,0.7488356335519493,-0.800940349762407,1.5931440284142084,-0.6553740101692518,0.9721198790662744,1.078691681061228,9.851892704869895,-0.9588132382970644,0.2272291099530861,-0.9275736089763892
1.06,1.4999827415850149,-0.2743597929357964,2.240566615793938,0.0250098823876084,0.059356896442735,0.0537543526006192,-0.5497126391329681,0.7578279961688855,-0.7686166068584952,1.51603087505474,-0.296597380764723,2.2637391839090943,-0.6119387089325863,0.7488356335519493,-0.800940349762407,1.2639837643053125,-0.6553489281770297,0.2059236095206695,1.061022245670007,11.880630473742713,-0.9640054075846372,0.2174185409505233,-0.9216583644209504
1.08,1.4894319234942237,-0.259990416145061,2.2261106102309927,0.0393541048003269,0.060589231072362,0.0547418096765063,-0.5599680878102624,0.7542793327327622,-0.7541085128003017,1.509911487965414,-0.2891090244292035,2.25572978041147,-0.6319387092306095,0.753394707149142,-0.8020531665245861,0.9058863518081164,-0.5127724338647166,-0.1774331718061683,0.7254047029096766,11.557516653194398,-0.9651757486801746,0.2066939052839649,-0.9213020779604688
1.1,1.478140289954757,-0.2449900437874073,2.211144008418773,0.0533194507486517,0.0634246634131878,0.0557509560829983,-0.5684532241410856,0.7458803780509103,-0.7435263063433658,1.4976727137867625,-0.2741323117581645,2.2397109734162224,-0.6719387098266559,0.7625128543435276,-0.8042788000489445,0.7976889616223708,-0.4242568165411575,-0.4199477340925905,0.529110322846793,10.879957572251442,-0.9641073785259424,0.1954817917419462,-0.9241476912103016
1.12,1.4667003050830354,-0.2301958525156292,2.19633953220718,0.0653840407253078,0.0668422232037971,0.0566600631998662,-0.5750137061286652,0.7342072494530862,-0.7374331642148563,1.4854339396081109,-0.2591555990871255,2.223692166420974,-0.7119387104227024,0.7716310015379131,-0.8065044335733027,0.7355750066596087,-0.3280240993789818,-0.583656429891205,0.3046571064254766,10.879957572251442,-0.9616742487477596,0.1851449873352573,-0.9287758442740192
1.14,1.4551467360817247,-0.2156604294041849,2.1816227316285213,0.0753639234063374,0.0701579184621959,0.0574173735410899,-0.5799856320947022,0.7202639529037556,-0.7345419091857398,1.471195165399657,-0.2437229790563672,2.207562077749508,-0.7519387110187489,0.7807491487322986,-0.8087300670976609,0.754146739895031,-0.2485962983018508,-0.6971648274665343,0.1445627514558234,10.643112554633262,-0.9590086142272002,0.1764039435914891,-0.9336990155832277
1.16,1.4440922413099366,-0.2021279322399553,2.167683818650572,0.082887735216362,0.0727758087453571,0.0579528946748122,-0.5834366654056419,0.7052973443821364,-0.7328401625894444,1.4569563911912025,-0.228290359025609,2.1914319890780423,-0.7919387116147953,0.7898672959266841,-0.8109557006220193,0.7726657476403048,-0.1725516655469827,-0.7483304260809565,0.0850873298147703,10.475584439336671,-0.9567533463816568,0.1684469409572642,-0.9384379713992398
1.18,1.4323903314221818,-0.1881983297689348,2.153041659032486,0.088962570074571,0.0748124690557408,0.0583116634990017,-0.5865923118321279,0.688681841056801,-0.7314665640127378,1.4417176169678472,-0.2126297853149911,2.175246259568467,-0.8319387122108417,0.7989854431210697,-0.8131813341463775,0.8484100249483708,-0.1577823213243012,-0.8307751662667728,0.0686799288353301,10.432998131174829,-0.9553384889736904,0.1620542677173973,-0.9419975147221272
1.2,1.4206285510810732,-0.1746107309831974,2.1384235767248025,0.0933453325081088,0.0761716401203336,0.0584688092091878,-0.5894638500340097,0.6711758157774002,-0.7304019741531699,1.4254788427295908,-0.1967412579245136,2.159004889220783,-0.8719387128068882,0.8081035903154552,-0.8154069676707358,0.8885944017055557,-0.1435769100940898,-0.8753012639700408,0.053229492978396,10.414478320124545,-0.954570330931976,0.1572088818824151,-0.9446302673056782
1.22,1.4094035021832578,-0.1620342894567102,2.124554337600136,0.0960074367096561,0.0768924256472865,0.0584356952089678,-0.592044608099157,0.6539276214599655,-0.7295414152379465,1.4030607158305757,-0.1537642377160947,2.116468330831849,-0.686592313322244,0.652950275849558,-0.7259072355349081,0.8730708462796387,-0.1290379032573674,-0.8624097158717314,0.0430279457611704,10.414478320124545,-0.9543317819911707,0.1533593956618665,-0.9466652044858248
1.24,1.397515268512365,-0.1490165758442754,2.110067428162063,0.1020462410944577,0.0776888367248386,0.0586036574392951,-0.5964522371300572,0.6464987411729889,-0.7189414813535301,1.4030607158305757,-0.1537642377160947,2.116468330831849,-0.686592313322244,0.652950275849558,-0.7259072355349081,0.6836922815606864,-0.2203814515450097,-0.3714440143488318,0.529996694220819,10.413486541368911,-0.9559573096305366,0.1473970607452748,-0.9466696085706496
1.26,1.385557865587953,-0.1362590764542976,2.09578790406298,0.1114499458493444,0.0787338464711653,0.0590007459631569,-0.5990011903133075,0.6291218498004494,-0.709719676548357,1.4030607158305757,-0.1537642377160947,2.116468330831849,-0.686592313322244,0.652950275849558,-0.7259072355349081,0.9918356718329816,-0.1274476591625106,-0.8688445686269752,0.4610902402586547,10.873450460856477,-0.9566996054789476,0.1390386562514948,-0.9472097850868374
1.28,1.3735627088594395,-0.1239117556907413,2.0816666964269706,0.120561900543848,0.079340790975568,0.0592948877313561,-0.6004716216823366,0.6065712733114648,-0.7028580349146023,1.396194792697353,-0.1472347349575992,2.1092092584765,-0.7065923136202672,0.6458039628081094,-0.7247953698393421,1.1808606970200235,-0.0735215684514567,-1.127528824449231,0.3430820816877344,10.873450460856477,-0.9569011052841656,0.1305213019415165,-0.9488698645024524
1.3,1.3621459329792909,-0.112629539272263,2.06836408851444,0.1278302656764853,0.0792070509155423,0.0593555261209641,-0.6013542111018819,0.5824672986569405,-0.697730493369625,1.3824629464309082,-0.134175729440608,2.0946911137658017,-0.7465923142163137,0.6315113367252122,-0.7225716384482103,1.232956041922127,-0.0441294709772666,-1.2051987327262148,0.2563770772488649,10.771942460825812,-0.95757204164865,0.1222895223569241,-0.9503914145351604
1.32,1.3501129803626128,-0.1012634838375646,2.054459412484664,0.1337518000747085,0.0780933219075726,0.0591311763040664,-0.601959301468642,0.5556527410168657,-0.6929978400695288,1.3687311001644633,-0.1211167239236168,2.0801729690551034,-0.7865923148123601,0.617218710642315,-0.7203479070570784,1.3617861827795787,-0.030254518338002,-1.3407278820037394,0.23663266500481,10.711498763455891,-0.9593706218797646,0.1153677852998256,-0.9507618352859738
1.34,1.3380711343193656,-0.0904467795286798,2.040646514906153,0.1378536175711406,0.0756296275643568,0.058552787062415,-0.6022925221478307,0.5276795757245144,-0.6884841424209709,1.352999253868216,-0.1087723497107705,2.0657660109139617,-0.8265923154084066,0.6029260845594179,-0.7181241756659466,1.4168472738415054,-0.0166610339594364,-1.3986582646175638,0.2256848824278956,10.686227843403683,-0.9623959943128556,0.1101276392243559,-0.9496972622179376
1.36,1.326023860175942,-0.0801998193902865,2.02692996355496,0.1401049333715679,0.0713898505972474,0.057555731816504,-0.6026279310045779,0.4989114058747038,-0.6833216447815079,1.3372674075719688,-0.0964279754979242,2.0513590527728205,-0.8665923160044531,0.5886334584765207,-0.7159004442748147,1.4614816775161756,-0.0167704428373605,-1.438408492490531,0.2581248819731485,10.726799966546425,-0.9673776731237392,0.1060592956274842,-0.9466507468295106
1.38,1.3145575515980754,-0.0710096903695446,2.014003195106984,0.1404156378202547,0.0657360482982444,0.0562196901074889,-0.6047232648160141,0.4702623736250765,-0.6775975249928189,1.3205355612608205,-0.0844409169371503,2.037007687916457,-0.9065923166004994,0.5743408323936234,-0.7136767128836827,1.46451614874742,-0.1047666905718114,-1.432451612481361,0.2862059894344515,10.726799966546425,-0.97339140085404,0.1033135055489025,-0.9425614011211384
1.4,1.302415560258896,-0.0619340830902826,2.000523384208905,0.1382709636353772,0.058898172304301,0.0545001752192142,-0.609669624182755,0.4390831673404685,-0.6705863826250735,1.302803714934771,-0.0728111740284489,2.022711916344872,-0.946592317196546,0.5600482063107263,-0.7114529814925509,1.616914880895005,-0.2473179683370463,-1.5589603142304036,0.350557118387268,10.788747566915845,-0.9811546072745372,0.1029289000595699,-0.9363013781729734
1.42,1.2901454581933274,-0.0534740546069331,1.9871983497753265,0.1334490686821223,0.0519111893919652,0.0525852750758303,-0.617361054309588,0.4093540944999873,-0.66208557176723,1.2843213883572746,-0.0474965716882907,1.9801233188573435,-0.7047232663061302,0.4270219009507067,-0.6316692292910767,1.5931412795099344,-0.3845715063416466,-1.4864536420240604,0.4250405428921744,10.858514213075068,-0.98956689701513,0.1050592859247432,-0.9288277222179506
1.44,1.277644726447166,-0.0455692755930482,1.9741570541296745,0.1279163567732959,0.0470692280328136,0.0509335901411987,-0.6323664070787584,0.3826850305620904,-0.6424562886312084,1.2843213883572746,-0.0474965716882907,1.9801233188573435,-0.7047232663061302,0.4270219009507067,-0.6316692292910767,1.8177653447880608,-0.7502676384585183,-1.333453196894843,0.9814641568010818,10.929511668845407,-0.9971396282663968,0.1080558255999092,-0.9217808828154428
1.46,1.2654829506962444,-0.0385503317070149,1.962150194482812,0.1226175530350017,0.0461917675191701,0.0498515947385825,-0.64665606098871,0.3578256456402838,-0.6223502025425691,1.2843213883572746,-0.0474965716882907,1.9801233188573435,-0.7047232663061302,0.4270219009507067,-0.6316692292910767,1.7510267883162962,-0.7144826954975814,-1.242969246090328,1.0053043044319645,11.680527087566588,-1.004542965356601,0.1136458092975428,-0.912625634365854
1.48,1.25241335574171,-0.0316582098866836,1.9499302493601376,0.1168114726537868,0.047893664490254,0.0490148108631133,-0.6593008064482387,0.3330153261720026,-0.6006373036336667,1.277274155694213,-0.0432263526787837,1.9738066265644325,-0.7247232666041534,0.4183738064158327,-0.6224835701507283,1.7655675566816071,-0.6322372729764381,-1.2405159734140636,1.085644945445119,11.703669092825294,-1.0084568928559472,0.1192166322078583,-0.9072155869734788
1.5,1.2391144181835765,-0.0252465374937415,1.9381449046290329,0.1107383307069229,0.0509853394973532,0.0483064262922062,-0.6697896649563999,0.3097675324879039,-0.5789265723823631,1.2631796903680907,-0.0346859146597695,1.961173241978611,-0.7647232672001999,0.4010776173460849,-0.6041122518700314,1.674687967539756,-0.5244429254080585,-1.1623896842049342,1.0855365625651814,11.691494383381723,-1.0103325667265608,0.1248671223101057,-0.903978410899213
1.52,1.2256262530065318,-0.0192803519114683,1.9267918070624075,0.1045036182067952,0.0545240460718555,0.0476158530600276,-0.6780024900150102,0.2893490919429268,-0.5585090143137776,1.2490852250419682,-0.0261454766407554,1.9485398573927892,-0.8047232677962464,0.3837814282763369,-0.5857409335893345,1.501032883730533,-0.4106412529305159,-1.0209220272488522,1.0208779034292736,11.656608285613402,-1.0112623934885645,0.130303136251481,-0.9017548389428708
1.54,1.212668227813204,-0.0139901876253049,1.916403976787048,0.0986148049803957,0.0576792657000289,0.0469220843748786,-0.6851467905141784,0.2697911493548537,-0.537082420199203,1.2329907596860432,-0.0184698480752287,1.9368250387210024,-0.8447232683922928,0.366485239206589,-0.5673696153086377,1.4938650233969448,-0.3572150249584072,-0.977897129403657,1.0713297057287297,11.617013595625394,-1.0120875184168168,0.1359904823993712,-0.8994694974793713
1.56,1.1989012456416448,-0.0087857741837538,1.905886877899918,0.0925671241685014,0.0603608808166532,0.0461242343042559,-0.691189350623909,0.2518267494433933,-0.5156903805601504,1.2168962943301185,-0.0107942195097019,1.925110220049216,-0.8847232689883393,0.3491890501368411,-0.5489982970279408,1.4290307526234236,-0.3021280054865294,-0.8982199955730213,1.0696019819526337,11.591724096333564,-1.0124506727503757,0.141461758285022,-0.8975493802652968
1.58,1.185016520430767,-0.0039255263984135,1.89579685140053,0.086683359350182,0.0622957171388293,0.0452593141848623,-0.697014519916856,0.2353003929607091,-0.4943629178916551,1.1998018289592922,-0.0035509956709189,1.9138546843344468,-0.9247232695843856,0.3318928610670931,-0.530626978747244,1.3801392318895864,-0.2912584646473537,-0.8263178241342095,1.066373133424764,11.576390739986891,-1.0129960334624684,0.1464579983235483,-0.8954690837228325
1.6,1.1717183300060534,0.0003999320827611,1.8866063039833096,0.0812890110644924,0.0635904570935294,0.0444008382785809,-0.7025289638520016,0.2209818726010222,-0.4741156947458881,1.181707363573565,0.0032598234411204,1.903058431576695,-0.964723270180432,0.3145966719973452,-0.5122556604665471,1.2702156926277426,-0.2757221967572776,-0.7159260179843419,1.0123611572883466,11.56535811680078,-1.014063444208174,0.1515415388226089,-0.8926972467411644
1.62,1.1576066965961136,0.0046744271501269,1.877348806005657,0.0759021000423519,0.0645090028151249,0.043482440675227,-0.7083645829462814,0.2073465104175642,-0.4526868346145417,1.1501657944349242,0.0078394932496218,1.8710787055059477,-0.7970145214069722,0.2085387661359725,-0.4602067630504705,1.3030479640216692,-0.2917809547139882,-0.6817681091728991,1.0714430065673213,11.556566953613585,-1.0157518299036592,0.1565094353125873,-0.8890872796475241
1.64,1.1433501891521416,0.008694413963194,1.86843987747944,0.0708583703071383,0.0657855935992117,0.0426170742403539,-0.7169342885166922,0.195472716811552,-0.4396881486151546,1.1501657944349242,0.0078394932496218,1.8710787055059477,-0.7970145214069722,0.2085387661359725,-0.4602067630504705,0.9790207682582228,-0.4284852785205406,-0.5936896803006103,0.6499342999693541,11.555755479264915,-1.014389126154563,0.1607666331348654,-0.8889396732586211
1.66,1.1289377177004838,0.0124926965387095,1.859780635194628,0.0662381769686,0.06769098499783,0.0418271613155885,-0.7238166241870555,0.1849771343774581,-0.4268357013683374,1.1501657944349242,0.0078394932496218,1.8710787055059477,-0.7970145214069722,0.2085387661359725,-0.4602067630504705,0.8982054263121497,-0.3441167835181669,-0.5247791217046965,0.6426223623408611,10.989499481014718,-1.0154913869907114,0.164429257085358,-0.8867819074886666
1.68,1.1151296751501882,0.0159168832845096,1.851798206199228,0.0622934474307051,0.0693951382259944,0.0411014943999836,-0.7293170563745731,0.1759880716798496,-0.4140654118828037,1.1421956492208545,0.0099248809109815,1.8664766378754427,-0.8170145217049953,0.2031864407710251,-0.4533755320822336,0.8278561106486853,-0.2750216093758806,-0.4494531348804231,0.638514474276683,11.021794957882776,-1.016211668399438,0.1679274616643541,-0.8849281062222764
1.7,1.1004902596037642,0.0193460702734437,1.8436628415474143,0.0586223146654955,0.070729545327228,0.0403456069855287,-0.7343438347202405,0.1674127310143285,-0.400124079387227,1.1262553587927149,0.014095656233701,1.8572725026144332,-0.8570145223010418,0.1924817900411305,-0.4397130701457597,0.8561041405962774,-0.2513389172833669,-0.428767033276059,0.6970666247788387,11.047978979639993,-1.0172586017249228,0.1711138590288999,-0.8826242442317495
1.72,1.085755412260831,0.022612258587626,1.835809793322409,0.0554523716658774,0.0713692836585746,0.0395900102690804,-0.7389730406342707,0.1595957723642297,-0.3858818986325362,1.1103150683645755,0.0182664315564204,1.848068367353424,-0.8970145228970883,0.1817771393112359,-0.4260506082092858,0.8446509672360711,-0.2314602957015132,-0.3908479325049396,0.7121090377345402,11.072447571871637,-1.0186947549425562,0.1738220928343722,-0.8798807538573861
1.74,1.071672318546428,0.0255764470983686,1.828615610842864,0.052877579305705,0.0712801509576385,0.0388721819451226,-0.7433201434735865,0.1527657142984531,-0.3721134855409774,1.0923747779066335,0.0219019743426451,1.8395473551892385,-0.9370145234931349,0.1710724885813412,-0.412388146272812,0.7986178612723276,-0.2173551419657915,-0.3415029032888275,0.6884206545779398,11.0934227771495,-1.020815692432862,0.176356873385351,-0.8762654938469209
1.76,1.0567569206873844,0.0285616281253382,1.8213257008963144,0.0506011715433487,0.0704572794661377,0.0381190372875625,-0.7480694572240566,0.1460828849179911,-0.357601129614668,1.074434487448692,0.0255375171288699,1.8310263430250524,-0.9770145240891812,0.1603678378514466,-0.3987256843363381,0.8334036599401519,-0.2374656875235026,-0.3341414690231012,0.725617796315467,11.087984406438409,-1.02364387110066,0.1785971445251109,-0.8717995327094554
1.78,1.04173724744041,0.0314158717875443,1.8143251551954076,0.0486923401538271,0.0690775224753284,0.0373755482428878,-0.7537573281006875,0.1396660143259033,-0.3431784452844794,1.055494196975849,0.0289054436468472,1.8228468924092789,-1.0170145246852276,0.149663187121552,-0.3850632223998643,0.8389605571674618,-0.2843935438315459,-0.3208435296043879,0.7211342165094309,11.087984406438409,-1.0265998960283371,0.1804735541914322,-0.8672299231405031
1.8,1.0265921623106986,0.0341448675733153,1.8076127603592225,0.0470728766445193,0.067582838898239,0.0366592923529571,-0.7605289144131642,0.1335424900929668,-0.3287721986926743,1.035553906488105,0.0320057538965772,1.8150090033419168,-1.057014525281274,0.1389585363916573,-0.3714007604633905,0.8527776250034049,-0.3385793156238326,-0.3061762116468289,0.7203123295902558,11.080169171152193,-1.0296139945504692,0.1820576229151258,-0.8626686457804426
1.82,1.0120704772894369,0.0366274888830244,1.801503114719816,0.0457967335517862,0.0663934452288468,0.0360194013390463,-0.7677210636808129,0.1280952635593041,-0.3150576366617839,1.0040493810353757,0.0383991725038394,1.7971662329311835,-0.8176414820628228,0.1204109983268246,-0.3072145709742244,0.8208052444038124,-0.3596074633824386,-0.272361326683132,0.6857281015445221,11.078096493524754,-1.0329257288538625,0.1834916733020814,-0.8578238902856954
1.84,0.9965443167485448,0.0391065590285375,1.7953386849619712,0.0440466977086492,0.0683874636027409,0.0354744630593817,-0.7840918184532645,0.1204280952339104,-0.3021130070281894,1.0040493810353757,0.0383991725038394,1.7971662329311835,-0.8176414820628228,0.1204109983268246,-0.3072145709742244,1.111699732729792,-0.8185377386225767,-0.3833584162696843,0.647231481679722,11.076135549285937,-1.0293086336062405,0.1835807173334789,-0.8624945232000873
1.86,0.980728240537348,0.04145332029097,1.789436728718763,0.0418313287397365,0.0753546074324892,0.0351176857549358,-0.7960343975620093,0.1147446670885523,-0.2886785597025983,1.0040493810353757,0.0383991725038394,1.7971662329311835,-0.8176414820628228,0.1204109983268246,-0.3072145709742244,0.9426172688267496,-0.5971289554372428,-0.2841714072679052,0.6717223662795563,11.04836129766136,-1.0282335919694434,0.186154294921697,-0.862793938425505
1.88,0.9647268088521974,0.0437011975943455,1.7837986694309853,0.0397662919085397,0.0848505950106929,0.0348706905986887,-0.803034655299544,0.1103183847599217,-0.2758017726601776,0.9958729662147474,0.0396032824871077,1.7940940872214413,-0.8304183128552499,0.1165599951270088,-0.3000217961121734,0.7655181712090752,-0.3500128868767327,-0.221314116431532,0.6438393521210339,10.98016244758037,-1.0237704869122406,0.1883157444417546,-0.8671467802129406
1.9,0.949440595210517,0.0457632582828573,1.7786719630469083,0.038126114466369,0.0945812657669329,0.0346795364163473,-0.805422302713542,0.1069037781019546,-0.2645146627044669,0.979520136573491,0.0420115024536442,1.7879497958019568,-0.855971974440104,0.1088579887273773,-0.2856362463880713,0.6015796912182698,-0.1193823706998997,-0.1707303328983514,0.5643554977855347,10.98016244758037,-1.017405415078329,0.1902239280944394,-0.8736369267403015
1.92,0.9333412017431336,0.0478708658560091,1.7734983267933282,0.036837793756208,0.1043081145450283,0.0344849764461062,-0.8041572748769475,0.104032761886691,-0.2535045268607824,0.9631673069322344,0.0444197224201807,1.7818055043824723,-0.8815256360249581,0.1011559823277458,-0.2712506966639693,0.5724205639913122,0.0632513918297217,-0.1435508107631829,0.5505067921842272,10.910613369736891,-1.0105992966146442,0.1917043466906219,-0.8805442837969085
1.94,0.917302193429952,0.049929391911519,1.7685343631244923,0.0362122253103405,0.1125703504402903,0.0342842922380647,-0.7997829030312037,0.1018850275457876,-0.2434721668623083,0.9455367942117352,0.0464428420667356,1.7763804904491929,-0.9070792976098124,0.0934539759281143,-0.2568651469398673,0.5576650853848446,0.2187185922871926,-0.1073867170451707,0.5016179999237022,10.861748505406467,-1.0046391949822575,0.1925725643977223,-0.8864732821651965
1.96,0.9021679630202686,0.0518495566449738,1.7639981619654148,0.0364000798663449,0.118578869256011,0.0340888251623653,-0.7935855769581177,0.1002508854688945,-0.2345461126277103,0.9279062814912362,0.0484659617132905,1.7709554765159137,-0.9326329591946664,0.0857519695284828,-0.2424795972157652,0.5494354261025792,0.3098663036542992,-0.081707103844654,0.4463027117299012,10.792405210118886,-0.999542354424738,0.1927775074228726,-0.8914147296454981
1.98,0.8863744255962085,0.0538360755310626,1.7594042044885203,0.037489611826156,0.1228763993978839,0.0338829365160962,-0.786145122422723,0.0984102691034262,-0.2253337972437757,0.9096369272311156,0.0502965311998546,1.7658901013257366,-0.9581866207795204,0.0780499631288513,-0.2280940474916632,0.5991973527794983,0.3720227267697329,-0.0920308182734155,0.4606157691967316,10.792405210118886,-0.9958534926875892,0.1921606593208671,-0.8949012728191833
2.0,0.8707348234509086,0.0557809994234286,1.754994495742788,0.0394391253968012,0.1252780260387534,0.0336778408724327,-0.7782790081074598,0.0960859694483503,-0.2160981866468733,0.8907287314313739,0.051934550526428,1.7611843648786625,-0.9837402823643746,0.0703479567292198,-0.2137084977675612,0.6176055100243837,0.3933057157631647,-0.1162149827537921,0.4617805298451197,10.793160196585632,-0.9938271324489628,0.1908554364958349,-0.8966477921956703
2.02,0.8591092374289881,0.0572023610409452,1.7518098321286573,0.0413048161435249,0.125969935504363,0.0335146071100592,-0.7722740279003629,0.0934297677539103,-0.2089892178524806,0.8470671694750723,0.0587565889862339,1.7481375146263316,-0.7776466884453576,0.0836492216656391,-0.2133165192430633,0.4838714499968429,0.3002490103548416,-0.1328100847220008,0.3554484397196314,10.802098154074883,-0.9935141296678256,0.1895564510625228,-0.8967237942872781
2.04,0.8436338856524012,0.0589989093551563,1.747621099966968,0.043035542061737,0.1288143100309516,0.0333326031779542,-0.774843935033265,0.0868518138793165,-0.2103548128548092,0.8470671694750723,0.0587565889862339,1.7481375146263316,-0.7776466884453576,0.0836492216656391,-0.2133165192430633,0.3596482641359787,-0.128495356645103,-0.3288976937296898,-0.0682797501164261,10.820941504161055,-0.9836184499078042,0.1857909568638182,-0.9086984462157216
2.06,0.8289213215546823,0.0605908018001347,1.743612368080348,0.0436694753925041,0.134770375174978,0.03323966639337,-0.7732969867371207,0.0811430460271472,-0.211536500199047,0.8470671694750723,0.0587565889862339,1.7481375146263316,-0.7776466884453576,0.0836492216656391,-0.2133165192430633,0.3015769570127894,0.0773474148072161,-0.2854383926084655,-0.0590843672118923,10.232795260987588,-0.9795299125240392,0.1847458772556576,-0.913673685420596
2.08,0.8135060553842145,0.0621528000447002,1.7393746997724442,0.0435255519980338,0.142661827103842,0.0331655686165561,-0.7679429999642778,0.0754087233404166,-0.2121620804935619,0.8392907025906188,0.0595930812028903,1.746004349433901,-0.7759470016498845,0.0806970121780817,-0.2109130636429208,0.3935066128548988,0.2676993386421411,-0.286716134336528,-0.0312790147257463,10.232795260987588,-0.9725042497081232,0.1842172194438295,-0.9215322432990168
2.1,0.798231066097052,0.0636032307847387,1.735129328622377,0.0426431249365699,0.1511955936505487,0.0330723786696811,-0.7595228109882235,0.0699770700740048,-0.2123527506028534,0.8237377688217116,0.061266065636203,1.7417380190490397,-0.7725476280589383,0.0747925932029669,-0.2061061524426358,0.5010957859770091,0.4210094488027172,-0.2715826633205915,-0.0095335054645748,10.310294345435068,-0.9639479038942748,0.1842552635310961,-0.9306468425020764
2.12,0.7831522718656435,0.0649505155687077,1.7308844682697853,0.0411349535199223,0.1598059157424723,0.0329376453280233,-0.748521895613823,0.0650782734983513,-0.2121661952570088,0.8081848350528045,0.0629390500695158,1.7374716886641783,-0.7691482544679921,0.0688881742278521,-0.2012992412423509,0.6021900652232224,0.5500457687200255,-0.2449398287826767,0.0093277672922303,10.310294345435068,-0.9551810753155884,0.1848198419002461,-0.9395929566555776
2.14,0.76905283798808,0.0661470760790427,1.7268584338097417,0.039299162283201,0.1677835630950276,0.0327683612482097,-0.7359806119781618,0.061152224170226,-0.2116733882266269,0.7928018699634446,0.0643168135540729,1.7334457038393314,-0.7657488808770458,0.0629837552527372,-0.1964923300420659,0.6575342525796095,0.6270641817830602,-0.1963024664062635,0.0246403515190979,10.345963700402535,-0.9457218381657562,0.1858777163317145,-0.9488449780290604
2.16,0.7544887235101156,0.067337953088062,1.7226302072463413,0.0372745382756751,0.1758242948649031,0.0325631116722043,-0.7208792876686793,0.0581995107094051,-0.2112066148240823,0.7774189048740847,0.0656945770386299,1.7294197190144842,-0.7623495072860996,0.0570793362776224,-0.1916854188417809,0.7697181141353042,0.7550662154741261,-0.1476356730410442,0.0233386701272278,10.382205199208329,-0.936205140784888,0.1871502737458538,-0.95777922921135
2.18,0.7402460739279503,0.068479339511298,1.7184109305944844,0.0355273540176553,0.1834206419286512,0.0323556394810865,-0.7039521102000705,0.0560297046577365,-0.2107894531413646,0.7621209241244986,0.0669247300488091,1.7255139069696444,-0.7589501336951535,0.0511749173025076,-0.186878507641496,0.8535388380518496,0.8463588734304361,-0.1084903025834332,0.0208580841358871,10.411755427841854,-0.9268838466395511,0.1882610616931739,-0.966308629899518
2.2,0.7263740591355357,0.06958397788208,1.7141997498443198,0.0341844770793316,0.1900751250243525,0.0321415514232278,-0.6840681871066694,0.0544993980901551,-0.210384493339268,0.7469079277146861,0.0680072725846104,1.7217282677048116,-0.7555507601042073,0.0452704983273928,-0.182071596441211,0.997341752129615,0.9941961546700572,-0.0765153283790686,0.0202479901048269,10.411755427841854,-0.9193529382961142,0.1892919006420192,-0.9728225960551669
2.22,0.7135861850168002,0.0706107500220713,1.710208026749248,0.0334415366681801,0.1948942342467924,0.0319266192111391,-0.6630968882573489,0.0535981614417915,-0.2098361495760048,0.7050484684179468,0.0712808247441848,1.707871457937416,-0.6704818334568969,0.0431459418287307,-0.1768658979758353,1.0498908083779162,1.0485649424660235,-0.0450618324181813,0.0274171881631632,10.434084506699946,-0.9123845998910766,0.1898984103540656,-0.978681883442682
2.24,0.7005563952500525,0.0716608405256059,1.7060085869791113,0.0328759207575361,0.198427924613344,0.0316700573586349,-0.6410199765031316,0.0515384983941678,-0.2101881629309373,0.7050484684179468,0.0712808247441848,1.707871457937416,-0.6704818334568969,0.0431459418287307,-0.1768658979758353,1.1087787852805635,1.1038455877108666,-0.1029831523811853,-0.0176006677466269,10.465193682717654,-0.905624535765438,0.1898298397666,-0.9846749477967676
2.26,0.6879800886792664,0.0726778389767661,1.7018186004213198,0.0324133163204166,0.2005907542370185,0.031382879422732,-0.6177466953033438,0.0502544842692675,-0.2086910038526944,0.7050484684179468,0.0712808247441848,1.707871457937416,-0.6704818334568969,0.0431459418287307,-0.1768658979758353,1.1678353858559258,1.1636640599893888,-0.0642007062450104,0.0748579539121468,10.419572469401828,-0.9016317398777104,0.1899139868596937,-0.9880274370418568
2.28,0.6758802056356414,0.0736737894288074,1.6976832219057618,0.0324142986201071,0.2012610416193696,0.0310877176209115,-0.5935712609392331,0.0493322096449047,-0.2049269582602583,0.6983436500833778,0.0717122841624721,1.7061027989576578,-0.6637877781082622,0.0405691892629296,-0.1700811869427295,1.2242040846996338,1.2087717182055369,-0.046113731218144,0.1882022796218019,10.68776126639932,-0.8992118787920472,0.1898511909989193,-0.989730411050774
2.3000000000000003,0.6648384306179788,0.0746035539802869,1.6938429289394512,0.0329791009247972,0.2004910779667241,0.0308079684454202,-0.5700360077869572,0.0485074583468496,-0.1994996329510397,0.6849340134142399,0.0725752029990468,1.702565480998141,-0.6503996674109928,0.0354156841313273,-0.1565117648765178,1.2083503379167817,1.1767626576137946,-0.0412375649027508,0.2713662654609289,10.68776126639932,-0.8986216186714178,0.1895461918561568,-0.989561190948845
2.32,0.6537015021268223,0.0755628533052419,1.6899293006749616,0.0342109489721768,0.1980515211796953,0.0305086613083956,-0.5449771741939986,0.0473912110640575,-0.1920584909175015,0.6715243767451019,0.0734381218356214,1.6990281630386244,-0.6370115567137233,0.030262178999725,-0.1429423428103061,1.3082065431337853,1.252941679647929,-0.0558123641396055,0.3720571016769119,10.80472471819212,-0.8999399873463219,0.1888580363834237,-0.987551264813866
2.34,0.6430672497574116,0.0764942221074965,1.686183859056465,0.0360466873648636,0.1937057869722968,0.0301853532711732,-0.5198922583161542,0.045716386799834,-0.1828339459302602,0.6587841456108274,0.0740433654156159,1.6961693161824185,-0.6236234460164539,0.0251086738681227,-0.1293729207440944,1.3389830760097414,1.2542457938922225,-0.0837412132111789,0.4612272493620659,10.9099631948975,-0.903223701604442,0.1878710464993673,-0.9837030694298982
2.36,0.6334180535898888,0.0773366755470669,1.6828116564987488,0.038103504392406,0.1878405889250253,0.0298302339508006,-0.4974493439708632,0.0429227413548917,-0.1725558565159803,0.646043914476553,0.0746486089956104,1.6933104693262122,-0.6102353353191845,0.0199551687365204,-0.1158034986778826,1.2421030363762555,1.122145717264547,-0.1396822722471123,0.5139044707139967,11.0039438132153,-0.906446881452048,0.1861057961100025,-0.9801118019285702
2.38,0.6236955825671089,0.0781520868972024,1.679488051992149,0.0401127117941825,0.1805553144584742,0.0293917580627216,-0.4762868239550485,0.0387671545665778,-0.1602487808979598,0.6336383861097102,0.0751250149473148,1.6907908580216613,-0.596847224621915,0.0148016636049182,-0.102234076611671,1.2415567498534223,1.0581260007907325,-0.2077793394156979,0.6153537809010207,11.086171052797908,-0.911552394795011,0.1846705330843984,-0.97460020745106
2.4,0.6143702167572658,0.0788747383768386,1.6764257617516918,0.041703707809629,0.1728246463269151,0.0288960340717633,-0.4575790091002725,0.0337914243478353,-0.1465568149870205,0.6215675605102993,0.0754725832707292,1.6886104822687658,-0.5834591139246456,0.0096481584733159,-0.0886646545454593,1.1855485632784204,0.9353907427388009,-0.2487865109371247,0.6845982955469676,11.16195456458263,-0.9174740709896364,0.1838193507964735,-0.9681459529963689
2.42,0.6053934944767647,0.0794904701494749,1.6736486224419866,0.0427282101844052,0.1652017105999886,0.0283600860053107,-0.4412365375279944,0.0281034655676789,-0.1318062750763818,0.5998812413693565,0.0800904446255312,1.6714756129472508,-0.49840534580933,0.0197888773452557,-0.1453279352701751,1.1368901440231831,0.8171235786139042,-0.2843979390078193,0.7375269955319369,11.27120555304282,-0.9241056033463352,0.1835150355482974,-0.9607571153593656
2.44,0.5971834198216974,0.0799742400563543,1.6711218783724118,0.0430228901562983,0.1564059759695647,0.0277384787510001,-0.424535173662546,0.0231497450494004,-0.1348395463238305,0.5998812413693565,0.0800904446255312,1.6714756129472508,-0.49840534580933,0.0197888773452557,-0.1453279352701751,0.8841318289711065,0.8350681932724202,-0.2476860259139223,-0.1516635623724352,10.145596401205694,-0.9295652451698012,0.1840091216700435,-0.9537274733742964
2.46,0.5888391812736572,0.0803831811904674,1.6684070301978444,0.042660237870445,0.1445552558611288,0.0269359206489281,-0.4113231868959043,0.0180061196955926,-0.1362615146026619,0.5998812413693565,0.0800904446255312,1.6714756129472508,-0.49840534580933,0.0197888773452557,-0.1453279352701751,0.7124525771731318,0.660599338332088,-0.2571812676903932,-0.0710984139415726,10.145596401205694,-0.9373577820044674,0.1830183866036349,-0.94674019430797
2.48,0.5807078706179938,0.0806880432370961,1.6656993504408817,0.0417141293794903,0.1317256265466502,0.0260712543248978,-0.4028811735221847,0.0127722043486114,-0.1344037760411639,0.5948971879112632,0.0802883333989838,1.670022333594549,-0.5028290501801863,0.0159932219009913,-0.1423437661446182,0.505254025773922,0.422100668685979,-0.261695767349058,0.092886928074902,10.288331461463711,-0.9471940355440164,0.1828808189403609,-0.9372511527467072
2.5,0.5726983322592165,0.0808900216876684,1.66305559628533,0.0402632484295792,0.1193077559439205,0.0252181509758544,-0.3987564421312244,0.0077281213197088,-0.1300375112729873,0.5849290809950766,0.0806841109458889,1.6671157748891456,-0.5116764589218988,0.0084019110124625,-0.1363754278935043,0.392174867488526,0.2062365695480156,-0.252204151445132,0.2183132384088293,10.572870201785918,-0.9576072565462828,0.1835881950521162,-0.9265538613412728
2.52,0.5651298815563944,0.0809926352038819,1.6606430167869148,0.0385440424758729,0.1087643134368518,0.0244671807960246,-0.3982388004971711,0.0033561504521515,-0.1241184853622226,0.57496097407889,0.081079888492794,1.664209216183742,-0.5205238676636115,0.0008106001239336,-0.1304070896423904,0.3688392260198829,0.0258820817026633,-0.2185985433778629,0.2959512955382347,10.572870201785918,-0.9685843966767284,0.1850502592931958,-0.9146294380230734
2.54,0.5571454016498718,0.0810180705542961,1.6582380612761265,0.03658001571762,0.0995035087696991,0.0237722871482883,-0.4003493590389918,-0.0004953454561274,-0.1166192955211129,0.5645504967256177,0.0810961004952727,1.6616010743908942,-0.529371276405324,-0.0067807107645951,-0.1244387513912765,0.4345294189204703,-0.1055279270910342,-0.1925747954139473,0.3749594920554849,10.668515159080926,-0.9785657362834382,0.187049707920956,-0.9030764371935078
2.56,0.5490927845728446,0.0809762099454803,1.6559864097791095,0.034791300922787,0.0924573972824328,0.0232033041763779,-0.4049466077820907,-0.0035141535930146,-0.1089160361528665,0.5541400193723456,0.0811123124977514,1.6589929325980464,-0.5382186851470366,-0.0143720216531239,-0.1184704131401626,0.4732549615897771,-0.2298624371549429,-0.1509404068443643,0.385162968412319,10.73553299966261,-0.985646968207327,0.1888180141093342,-0.8944795715196004
2.58,0.5413320894168211,0.0808847320328539,1.6539883943210465,0.0333895552244565,0.0884000598811017,0.0227991298134657,-0.4117590048759125,-0.0059815372287389,-0.1017772053813323,0.5435083568005306,0.0809387417280168,1.6565339992614765,-0.5470660938887492,-0.0219633325416527,-0.1125020748890487,0.5085755621202116,-0.3406198546910932,-0.123369181786214,0.3569415385767084,10.73553299966261,-0.990508968398819,0.1903687991083582,-0.8883089621830436
2.6,0.5330111224197649,0.0807419823273514,1.6520298216663245,0.0322949802288006,0.0874197802365979,0.0225284770503152,-0.4196278560092527,-0.008151326250535,-0.0944468935317169,0.5326555090101727,0.0805753881860691,1.6542242743811844,-0.5559135026304618,-0.0295546434301816,-0.1065337366379348,0.5485441513004854,-0.3934425566670063,-0.1084894510898021,0.366515592480774,10.730820105633027,-0.9947205194647484,0.1920261340190777,-0.8826974918183208
2.62,0.524548247301601,0.0805602506596755,1.6502149219242366,0.0316905188715341,0.0891819717452746,0.0223948329927959,-0.4259852103896502,-0.0099178232667297,-0.0874172109009174,0.5207441391730254,0.0805856551714169,1.6488995340519796,-0.422942180134251,-0.0290693852066156,-0.0946737040279195,0.482060432715514,-0.3178677190198764,-0.0883248508097369,0.3514841315399704,10.704241166563406,-0.9958667973974964,0.1932021164407465,-0.8806503137279669
2.64,0.5159314864370002,0.0803568623447754,1.6485018083560066,0.0320056727054738,0.0941739683003378,0.0224405869295765,-0.4346486934344311,-0.0105028731983696,-0.0842273453593201,0.5207441391730254,0.0805856551714169,1.6488995340519796,-0.422942180134251,-0.0290693852066156,-0.0946737040279195,0.4625296316539854,-0.4331741522390464,-0.0292524965819961,0.1594932770798668,10.670171518036112,-0.9906660808225956,0.193058201366285,-0.8861291817760704
