t,x,y,z,roll,pitch,yaw,v_x,v_y,v_z,ref_x,ref_y,ref_z,ref_v_x,ref_v_y,ref_v_z,a_com,a_x,a_y,a_z,thrust,wind_x,wind_y,wind_z
0.0,-1.099987901971366,1.492699756576193,2.234941926798686,0.0296807068270161,0.1002483736450868,0.0431494494666024,0.0036779490449875,0.0063159845384149,0.0197702889240003,-1.0998742723293276,1.4929194334735925,2.2355612518562737,0.0023530931653502,-0.0930959301874028,-0.0800721240666903,1.0539014351511626,0.1838974522493765,0.3157992269207488,0.9885144462000168,10.2321328162825,-0.9456925062485784,0.2603686970872352,-0.8664932947837226
0.02,-1.0999537673404214,1.493030506724446,2.2351308877641087,0.0383697456705867,0.1005935373123735,0.0437536840078191,-0.000153443847295,0.0231938603135575,-0.0021096413405479,-1.0998742723293276,1.4929194334735925,2.2355612518562737,0.0023530931653502,-0.0930959301874028,-0.0800721240666903,1.3948777818842002,-0.191569644614127,0.8438937887571291,-1.093996513227415,10.2321328162825,-0.9394598197402292,0.2589565577093883,-0.8671153747096261
0.04,-1.0999955851912857,1.4935103905049036,2.2347918831318627,0.0526240385960754,0.1015525877349365,0.044755526182519,-0.0037088104101326,0.023281458140044,-0.0308368268518502,-1.0998742723293276,1.4929194334735925,2.2355612518562737,0.0023530931653502,-0.0930959301874028,-0.0800721240666903,1.4473246803811182,-0.1777683281418805,0.0043798913243239,-1.436359275565112,8.89532253871812,-0.9278902833681832,0.2394997807054149,-0.8911631405098336
0.06,-1.100099268895934,1.493921133327225,2.23386951628142,0.0671685516967139,0.1030672916711861,0.0457967881277658,-0.0063445528767111,0.0174499296241684,-0.0600253349465169,-1.099850741397674,1.4919884741717184,2.234760530615606,0.00209020818342,-0.113095930485426,-0.1000721243647135,1.4940907502340834,-0.1317871233289268,-0.2915764257937785,-1.4594254047333346,8.723550365454685,-0.9173289981313936,0.2188961023885961,-0.9149168706365096
0.08,-1.1002366374847214,1.4941707605215564,2.2324554854917884,0.0804650234599095,0.1048406240563077,0.0467664050344954,-0.0078843062529544,0.008852372960476,-0.0874319233505593,-1.099803679534367,1.4901265555679704,2.233159088134273,0.0015644382195595,-0.1530959310814724,-0.14007212496076,1.4382366886170432,-0.0769876688121647,-0.4298778331846225,-1.3703294202021206,8.777208833319946,-0.9065037933036088,0.1974243178637855,-0.9385979294034827
0.1,-1.1004025299300708,1.4942291604160465,2.2304054599317182,0.0938011001950027,0.1068702568243582,0.0477488189186466,-0.008525301251668,-0.002856320706456,-0.1161749701536861,-1.09975661767106,1.4882646369642225,2.231557645652939,0.001038668255699,-0.1930959316775189,-0.1800721255568064,1.5521494141199577,-0.0320497499356801,-0.5854346833466025,-1.4371523401563424,8.777208833319946,-0.89616293351832,0.1767130975439144,-0.9603440031198588
0.12,-1.1005705273885764,1.4940261650609403,2.2277841649814616,0.1064675078912443,0.1088925581037388,0.0486759876791299,-0.0081594845530557,-0.0171398999196087,-0.1445541542998669,-1.0997358443059462,1.4844027183306718,2.227956203141803,0.0005128982918384,-0.2330959322735653,-0.2200721261528529,1.5886570978331276,0.018290834930617,-0.7141789606576368,-1.4189592073090382,8.873311204672518,-0.8857029125997979,0.1558266485138368,-0.9818682284794472
0.14,-1.1007221786722603,1.4935123270392254,2.224590618323619,0.118491111986977,0.1107606537339224,0.0495292902012909,-0.006973069406896,-0.0337945107868557,-0.1734712820110531,-1.099715070940832,1.4805407996971214,2.224354760630667,-1.287167202201271e-05,-0.2730959328696118,-0.2600721267488994,1.669568746041557,0.059320757307985,-0.8327305433623499,-1.445856385559309,8.873311204672518,-0.8755609307449906,0.1360335985372604,-1.0019759312182126
0.16,-1.1008367793717306,1.492694045730265,2.2210176664552845,0.1293444221454551,0.1122916304053419,0.0502540105295139,-0.0051266855292047,-0.0517243127576837,-0.2012472896872046,-1.0997074418248147,1.4756788810486698,2.2197533181046296,-0.0005386416358825,-0.3130959334656583,-0.3000721273449458,1.6555916877075492,0.092319193884561,-0.8964900985414002,-1.3888003838075744,8.895913290605222,-0.8661912191809515,0.1169468111443403,-1.0197882199343886
0.18,-1.100913426248766,1.4914428705639349,2.2166826301760896,0.1401970023474469,0.1135764162286782,0.0509098218675835,-0.0026064982396168,-0.0726918515451743,-0.2308591838064674,-1.0997129569578936,1.4698169623853172,2.214151875563691,-0.001064411599743,-0.3530959340617047,-0.3400721279409922,1.818552515127039,0.1260093644793966,-1.0483769393745277,-1.4805947059631397,8.895913290605222,-0.857250779334722,0.0984264507373978,-1.036387822912318
0.2,-1.1009337685820553,1.4897501130026023,2.2117553559198173,0.1504898290407482,0.1144875943849037,0.0514419272248104,0.000461909589022,-0.0957675262985269,-0.2604298466057205,-1.1010437511607467,1.487808277986676,2.205139670985766,-0.0065895758327646,-0.1726918530352904,-0.3308591852965835,1.881705337129396,0.153420391431943,-1.1537837376676303,-1.478533139962658,8.909925136131278,-0.8492891073620863,0.0811196018414035,-1.051254596172872
0.22,-1.1008541174939763,1.4873984258497337,2.20637648721328,0.1553337934672708,0.114775687737081,0.051458944128259,0.0071197210312049,-0.1352676541951851,-0.2755565615233682,-1.1010437511607467,1.487808277986676,2.205139670985766,-0.0065895758327646,-0.1726918530352904,-0.3308591852965835,2.140913392253293,0.3328905721091469,-1.97500639483291,-0.7563357458823833,9.913579907282838,-0.8460374959040049,0.0647685449021649,-1.065248058850808
0.24,-1.1006580827599246,1.4845073818558638,2.200993874852746,0.1547551168931465,0.1142864920586437,0.0509611541865212,0.0130911678136328,-0.1665829074575919,-0.2902547471266899,-1.1010437511607467,1.487808277986676,2.205139670985766,-0.0065895758327646,-0.1726918530352904,-0.3308591852965835,1.7552349725846832,0.2985723391213943,-1.5657626631203403,-0.734909280166085,9.913579907282838,-0.8427898853409149,0.0603957315602302,-1.0723064390145276
0.26,-1.100334833425226,1.4808551779605863,2.1950055537425084,0.1511245785217507,0.1129541133858268,0.0500756646624863,0.0188303684754111,-0.1963011926591541,-0.3078167323096456,-1.1011096469190744,1.486081359456323,2.2018310791328,-0.0073861913513941,-0.1926918533333136,-0.3508591855946067,1.749670128284118,0.2869600330889163,-1.485914260078111,-0.8780992591477854,9.64684892778496,-0.8413220814981596,0.0603834445336129,-1.076572004242036
0.28,-1.0999037738308046,1.4766523633092128,2.1886461537809443,0.1461500957774592,0.1107308351028974,0.0489501098207027,0.0238929571218141,-0.2221758545628835,-0.3271929894757926,-1.1012414384357296,1.4826275223956171,2.1952138954268685,-0.0089794223886532,-0.2326918539293601,-0.3908591861906532,1.6359762178922836,0.2531294323201509,-1.2937330951864694,-0.9688128583073496,9.64684892778496,-0.8403675088300312,0.0613917460031023,-1.0807571397767382
0.3,-1.0994088327772813,1.472205580407746,2.182230249705665,0.1413003725089356,0.1078059983628386,0.047751580907605,0.0278627315354407,-0.2445365598209182,-0.3471884756352429,-1.1013732299523848,1.4791736853349111,2.188596711720937,-0.0105726534259123,-0.2726918545254065,-0.4308591867866996,1.5129273902641136,0.1984887206813302,-1.1180352629017345,-0.9997743079725148,9.530603224960942,-0.8399714267444057,0.0621638367520848,-1.0847340345593977
0.32,-1.0988182034360106,1.467084007928484,2.1750499437363966,0.1365657610945126,0.103994294555513,0.0464159731875675,0.0308615797175542,-0.2664316629084414,-0.369875383192613,-1.101584683020903,1.4737198482444032,2.179979527985203,-0.0121658844631714,-0.312691855121453,-0.470859187382746,1.583575388282234,0.1499424091056718,-1.0947551543761604,-1.1343453778685064,9.428525128290858,-0.8408783697112721,0.0625233724420334,-1.088080848235231
0.34,-1.0981817964632898,1.4615344655354665,2.167406881961979,0.1323779246416981,0.0996753718703647,0.045055040159446,0.0324897072873562,-0.2874425425817745,-0.3933276723017685,-1.1017961360894213,1.468266011153895,2.171362344249469,-0.0137591155004305,-0.3526918557174995,-0.5108591879787926,1.5764816273035378,0.0814063784901021,-1.050543983666652,-1.1726144554577766,9.329720658020053,-0.8425399907497175,0.0621437621962064,-1.0911573122180644
0.36,-1.097529111815001,1.4555623705224037,2.1592885121190197,0.1284364052617982,0.0952247349592274,0.0436999170312738,0.0325663361482693,-0.3085599279869925,-0.417316115296111,-1.102047419933871,1.4618121740484855,2.161745160498834,-0.0153523465376896,-0.3926918563135459,-0.550859188574839,1.5979637320881703,0.0038314430456529,-1.0558692702609034,-1.199422149717125,9.293259950235552,-0.8445613710301169,0.06176116003441,-1.0935905122682503
0.38,-1.0969235752190991,1.449501173706238,2.1511276040570446,0.124649272535899,0.0912974550605768,0.0424545296388915,0.0310667036950603,-0.3282292377809842,-0.4405074509909478,-1.1023385345542522,1.4543583369281752,2.1511279767332976,-0.0169455775749487,-0.4326918569095923,-0.5908591891708854,1.522308031064463,-0.0749816226604468,-0.9834654896995836,-1.159566784741839,9.272680207872328,-0.8470960367326903,0.0617016478687137,-1.0955434968208844
0.4,-1.0963336073531218,1.4427258627200132,2.14205498447218,0.1206069340037211,0.0879705194789032,0.0412464390429398,0.0278843032911969,-0.3481180728175923,-0.4655500153712679,-1.0953702400343464,1.4330897118171888,2.129102231507497,0.0396900643512622,-0.4282292392711003,-0.540507452481064,1.6068785440928608,-0.1591200201931703,-0.994441751830405,-1.2521282190160048,9.251486898211624,-0.8498252826809362,0.0625405905773453,-1.0964085507810812
0.42,-1.0958486901884343,1.435556090430111,2.132676572740544,0.1172096437455016,0.0873609666015098,0.0404103791305206,0.0209986643908618,-0.3681755004781143,-0.4700303053003208,-1.0953702400343464,1.4330897118171888,2.129102231507497,0.0396900643512622,-0.4282292392711003,-0.540507452481064,1.0837267013311676,-0.3442819450167552,-1.0028713830260994,-0.2240144964526458,9.21505552687904,-0.8522750611364017,0.0609867883829619,-1.099312638643379
0.44,-1.095506775439377,1.428379236712183,2.123684332271917,0.114994874755314,0.0904443611738542,0.0401052974076901,0.0158166118977399,-0.3864847774771536,-0.476432313027188,-1.0953702400343464,1.4330897118171888,2.129102231507497,0.0396900643512622,-0.4282292392711003,-0.540507452481064,1.003828913714744,-0.2591026246560981,-0.9154638499519668,-0.3201003863433582,10.495503079426271,-0.8502281571340382,0.0626021810550713,-1.1009528287407842
0.46,-1.0952231949584796,1.4204472086611228,2.114045389839492,0.1132770349597754,0.0961389926167881,0.0400896247784755,0.0131680481648117,-0.405742275112329,-0.4873119976504289,-1.0949733393908336,1.4288074194244778,2.123697156982687,0.0414147364825025,-0.4482292395691236,-0.5605074527790872,1.1138151131554013,-0.1324281866464056,-0.9628748817587685,-0.5439842311620452,10.20019535946085,-0.8451724865944676,0.0635532801625692,-1.1050967128756093
0.48,-1.094963094180601,1.4121332685033423,2.10415200151414,0.1117886894228,0.1030993689739317,0.040211866851057,0.0132533495182031,-0.4246267828288438,-0.501619960209278,-1.0941795381038084,1.420242834639056,2.112887007933065,0.0448640807449833,-0.48822924016517,-0.6005074533751337,1.1846409800034632,0.0042650676695703,-0.944225385825742,-0.7153981279424543,9.952306835395577,-0.837919255455463,0.0638583400137395,-1.1114069989659918
0.5,-1.0946746188309548,1.4034480297674536,2.0939411079247705,0.1103935670930145,0.1103650762192023,0.0403527419364861,0.0157871561518699,-0.4429015038614473,-0.5187578543562473,-1.0933857368167832,1.4116782498536338,2.102076858883444,0.048313425007464,-0.5282292407612165,-0.6405074539711801,1.259060185881732,0.1266903316833397,-0.9137360516301708,-0.8568947073484656,9.76968364298591,-0.8301319479706982,0.0638051271182367,-1.1183291013821075
0.52,-1.0943332144798796,1.3948646914299776,2.0839027142667303,0.1091664987131072,0.1169364213606867,0.0404369900703587,0.0201260596619126,-0.4596631858634341,-0.537073699884245,-1.092419468316634,1.4011136650384095,2.0892667098040207,0.0517627692699447,-0.5682292413572629,-0.6805074545672266,1.260208578580014,0.2169451755021313,-0.8380841000993428,-0.9157922763998848,9.631351192268994,-0.8216322662163829,0.0633260734352623,-1.126144531091603
0.54,-1.0938672390246809,1.3854927979571647,2.0729488871820108,0.1081032317223519,0.123099583513653,0.0404399287700747,0.0263411414737005,-0.4766301894405718,-0.5574069627369286,-1.0914531998164847,1.390549080223185,2.076456560724597,0.0552121135324255,-0.6082292419533094,-0.7205074551632731,1.360099289160666,0.3107540905893954,-0.8483501788568826,-1.0166631426341777,9.525096108785874,-0.8132334371361953,0.0622324367688405,-1.1342557844813197
0.56,-1.0932606098431876,1.375774719698699,2.0615801993950758,0.1070447998843219,0.1282190503614748,0.0403124439215304,0.0340538485654148,-0.4942399627470989,-0.5784737229966284,-1.090400697709773,1.3789844953930597,2.062646411630272,0.0586614577949062,-0.6482292425493558,-0.7605074557593194,1.426006972659602,0.3856353545857141,-0.8804886653263566,-1.053338012984989,9.478383176556235,-0.8053886409600698,0.0608079017373994,-1.1422736924898498
0.58,-1.0924874137966378,1.3656995711480997,2.049782819407979,0.1054622372424118,0.1321095586264596,0.0399993304839208,0.0428270268425938,-0.5122044726456443,-0.600209381990547,-1.0892619619965,1.3664199105480328,2.0478362625210464,0.0621108020573869,-0.6882292431454022,-0.8005074563553659,1.4765933299981542,0.4386589138589518,-0.8982254949272683,-1.0867829496959305,9.438467358927484,-0.7988624176288275,0.0598718407877892,-1.1492757401730014
0.6,-1.0915844445953289,1.3557983554780606,2.0381667277041973,0.1032966863012991,0.1346455444482187,0.0395179061117921,0.0517054505947866,-0.5288405477382225,-0.6214321734353057,-1.090346062454508,1.3400893475158175,2.0197723503084517,0.0744283850476738,-0.6122044741357604,-0.7002093834806631,1.4195001580812925,0.4439211876096381,-0.8318037546289125,-1.0611395722379346,9.438467358927484,-0.793279148770369,0.0595402280219921,-1.1557768976826894
0.62,-1.0904508740197174,1.345017598566736,2.0257270138325256,0.1004598353966487,0.137218246479936,0.0389468635247577,0.0614442413376269,-0.5482203988901162,-0.6202249746788471,-1.090346062454508,1.3400893475158175,2.0197723503084517,0.0744283850476738,-0.6122044741357604,-0.7002093834806631,1.086139959489547,0.4869395371420154,-0.9689925575946834,0.0603599378229291,9.413371251458557,-0.7884796002691009,0.0571539064546943,-1.1645975745596464
0.64,-1.0891130298203844,1.333872145610536,2.0133169302399105,0.0976110101384857,0.1405880156845209,0.0384393746955702,0.0719836651072597,-0.5653243554373801,-0.6212424915392645,-1.090346062454508,1.3400893475158175,2.0197723503084517,0.0744283850476738,-0.6122044741357604,-0.7002093834806631,1.0058082863148274,0.5269711884816415,-0.8551978273631966,-0.05087584302087,10.573229817185164,-0.7837910737237518,0.0598354214591119,-1.1675236803944808
0.66,-1.087553265463032,1.3223945325942088,2.0008275569361222,0.0950262889936863,0.1441485539091248,0.0379531480121497,0.0835559932862277,-0.5815361325942497,-0.6276327371041112,-1.0896017786040313,1.33396730277446,2.0127702564736447,0.0807486566886898,-0.6322044744337836,-0.7202093837786863,1.0459155516158796,0.578616408948402,-0.8105888578434806,-0.3195122782423343,10.573229817185164,-0.7780384413673095,0.0618960875882367,-1.1717333141648103
0.68,-1.0858487726036483,1.3111989741511834,1.9888055339594808,0.0927302530604413,0.1472247965381952,0.0374597739996513,0.095308419067969,-0.5961033516524321,-0.6375257603877419,-1.0881132109030778,1.3217232132917447,1.9987660688040316,0.0933891999707219,-0.67220447502983,-0.7602093843747327,1.058531166918182,0.5876212890870612,-0.7283609529091184,-0.4946511641815365,10.28639060048954,-0.7720969052587114,0.0632451262438725,-1.1766919984852384
0.7000000000000001,-1.0838086539934535,1.299124764994667,1.9759153359487736,0.0905335893011607,0.1498695127594671,0.0368887511869583,0.10808732385916,-0.610538190015533,-0.6511251259545939,-1.0866246432021245,1.3094791238090295,1.984761881134418,0.1060297432527539,-0.7122044756258765,-0.8002093849707792,1.1796267524645825,0.6389452395595512,-0.7217419181550444,-0.679968278342602,10.06844974710657,-0.7664800157288736,0.0638345849148069,-1.1820372503478789
0.72,-1.0815098131981595,1.286768231583235,1.962724520052168,0.0885871498419124,0.1517724129328839,0.0362581966974001,0.1211320285175649,-0.6243856930631433,-0.6673868268538267,-1.0845040483370691,1.295235034296512,1.9687576934350024,0.1186702865347859,-0.752204476221923,-0.8402093855668257,1.251359836752297,0.6522352329202459,-0.6923751523805144,-0.8130850449616367,9.891315396709617,-0.7617122261535657,0.063886178693864,-1.1870486517658352
0.74,-1.078947570492257,1.274140105343665,1.9491935673584304,0.0868935755717794,0.1528618350149433,0.0355658002212976,0.134372921515411,-0.6377614297978369,-0.6848965577056197,-1.082383453472014,1.2809909447839944,1.952753505735587,0.1313108298168179,-0.7922044768179695,-0.8802093861628721,1.2853231646929075,0.662044649892305,-0.6687868367346805,-0.8754865425896541,9.756223635072274,-0.7574612112013546,0.0633903436276983,-1.1921642729034252
0.76,-1.0762659395319607,1.2618900477342685,1.936006765316964,0.0852416275215293,0.1531105039656616,0.0348317996433632,0.147145838259128,-0.6508954837143214,-0.7023019401784589,-1.079946845024908,1.2657468552565758,1.93574931802127,0.1439513730988499,-0.8322044774140158,-0.9202093867589184,1.2635249438068716,0.6386458371858472,-0.6567026958242239,-0.8702691236419591,9.70494960814085,-0.7541053497411057,0.0628024324255176,-1.196858905210611
0.78,-1.0731821936857378,1.2487290482572004,1.9217594430989051,0.0832475233409649,0.1525128799707205,0.0339656220331571,0.1605077572905719,-0.664373365735531,-0.7215479108309746,-1.0771942229957514,1.249502765714256,1.917745130292052,0.1565919163808819,-0.8722044780100623,-0.960209387354965,1.3514821219109812,0.6680959515721993,-0.6738941010604793,-0.9622985326257828,9.670268083902556,-0.7521524582162943,0.0626961737025405,-1.2004028735543888
0.8,-1.0698310461184022,1.235302070326155,1.90711823681679,0.0809518033086023,0.1508941916445382,0.03299450671537,0.1738801250959924,-0.6774871394170833,-0.7416278271868575,-1.065156805821209,1.215510379970424,1.8856820475573568,0.1899667308473289,-0.7643733672256471,-0.7403369097775221,1.3729478520265013,0.6686183902710224,-0.6556886840776155,-1.0039958177941457,9.619768154484518,-0.7519115099678452,0.0631793237734835,-1.2025130943517357
0.8200000000000001,-1.066115621881931,1.221555013477853,1.892518890553632,0.0774204786929786,0.1471153626141678,0.0317718000379522,0.1972668122467448,-0.6960596920270449,-0.7148562902452735,-1.065156805821209,1.215510379970424,1.8856820475573568,0.1899667308473289,-0.7643733672256471,-0.7403369097775221,2.005362832850676,1.1693343575376214,-0.92862763049808,1.338576847079198,9.576008545876904,-0.759735657266206,0.0608768281017133,-1.203018037438063
0.84,-1.0621570914905232,1.2081764538947697,1.879194210728147,0.072998584347078,0.1405183150178715,0.0303303459635765,0.2176060898340941,-0.7109652485337412,-0.689270261801225,-1.065156805821209,1.215510379970424,1.8856820475573568,0.1899667308473289,-0.7643733672256471,-0.7403369097775221,1.7961811427924177,1.0169638793674662,-0.7452778253348169,1.279301422202428,12.79392048032787,-0.7649503226268837,0.0668922022416773,-1.1983715225590852
0.86,-1.057620112554931,1.1938171248338456,1.8656405043303497,0.0682494249780822,0.1314168136827757,0.0286980130865952,0.2344974563007135,-0.7240584861603446,-0.6676555411302251,-1.0632571385127358,1.207866646298167,1.8782786784595813,0.1958585255586803,-0.7843733675236703,-0.7440947095668315,1.519825057647827,0.84456832333097,-0.6546618813301708,1.080736033549995,12.380982468323054,-0.7735733766448175,0.0727723017610773,-1.1915914528776446
0.88,-1.052793666674861,1.179214989233601,1.8524638432050031,0.0638374077142367,0.1210761499271504,0.0270638151728085,0.246842338637913,-0.7354417616969658,-0.6512727416601543,-1.0594578038957891,1.1925791789536544,1.863471940264031,0.2076421149813831,-0.8243733681197167,-0.7516103091454506,1.1729995741031731,0.6172441168599718,-0.5691637768310609,0.819139973503541,11.968942919877009,-0.7842231656302303,0.0778173877755105,-1.18377564515496
0.9,-1.0477674765690492,1.1644004398394394,1.839563162791992,0.0599335516447709,0.1103480846008105,0.0254998625975877,0.2548072581534817,-0.7454771476517932,-0.6395511951044901,-1.0556584692788429,1.1772917116091417,1.8486652020684804,0.2194257044040859,-0.8643733687157632,-0.7591259087240696,0.8682504935334544,0.3982459757784343,-0.5017692977413668,0.5860773277832076,11.313007541700244,-0.7968775218917876,0.0827671818425663,-1.1732130730378698
0.92,-1.0428835800940104,1.1501510501268897,1.8274904572594943,0.0567549212246356,0.1004633305608611,0.0241196960752658,0.2586708239759523,-0.754023000628532,-0.6318157915494553,-1.051269955190761,1.1600042442348262,1.833482683893999,0.2312092938267887,-0.9043733693118096,-0.7666415083026886,0.607855270857799,0.1931782911235302,-0.427292648836941,0.3867701777517385,11.313007541700244,-0.8100524394357659,0.087039580089571,-1.162273247316589
0.94,-1.0376964507243849,1.1349844595467835,1.8149306492859576,0.0540217382012952,0.0909231783688189,0.0228031744028389,0.2596194162970437,-0.7622560322228488,-0.6245935995083022,-1.0468814411026792,1.1427167768605109,1.8183001657195177,0.2429928832494915,-0.944373369907856,-0.7741571078813076,0.5496423712377615,0.0474296160545728,-0.4116515797158382,0.3611096020576576,11.016777809864834,-0.8221965299729913,0.090046902345069,-1.1525361069718023
0.96,-1.0325189681518436,1.1196498317718877,1.8025053324140543,0.0516443248658658,0.0826577324450881,0.0216173363076646,0.2579867191592518,-0.7707155308404842,-0.6182704779480886,-1.0421983372790298,1.1244293094712945,1.802929757555571,0.2547764726721943,-0.9843733705039026,-0.7816727074599266,0.5343469918292004,-0.0816348568895952,-0.4229749308817698,0.3161560780106764,11.016777809864834,-0.8325274394270278,0.0924266576134927,-1.1440766370547368
0.98,-1.027397784495831,1.104148375343713,1.7901974282622577,0.049316528108756,0.0758949845887807,0.0205450444429166,0.2541234357247139,-0.7788908981079821,-0.6128130041796352,-1.037220643719813,1.1051418420671768,1.7873714594021586,0.2665600620948971,-1.024373371099949,-0.7891883070385456,0.5280757729422172,-0.193164171726895,-0.4087683633748951,0.2728736884226701,10.959273224269964,-0.8417045913496966,0.0947684863374555,-1.13638989011281
1.0,-1.0226251841620568,1.0892751047992972,1.778597013558922,0.0470865577666882,0.0711979891855031,0.019637308021248,0.2483755550490995,-0.7862032134604275,-0.6085406969067387,-1.0146916127095953,1.0652038304383138,1.759556778053276,0.2885485714266087,-0.8788908995980982,-0.6210973699379351,0.5117633669694311,-0.287394033780719,-0.3656157676222737,0.2136153636448257,10.903004948045236,-0.8486109071146347,0.0970099701869825,-1.1304675940709747
1.02,-1.0177529040754691,1.0734479695498231,1.7666300157574075,0.044135131318762,0.0694625835979134,0.0188136646750045,0.2393426541334143,-0.7957298074927024,-0.5874982580297877,-1.0146916127095953,1.0652038304383138,1.759556778053276,0.2885485714266087,-0.8788908995980982,-0.6210973699379351,1.24009427736219,-0.4516450457842616,-0.4763297016137424,1.0521219438475504,10.847104260596096,-0.8520774247927924,0.0979808189703628,-1.1294616777042648
1.04,-1.0130537431774576,1.0574628147437173,1.7550860328535125,0.0409526549151908,0.0716847392904764,0.0181649887541228,0.2315339917221051,-0.802322229919429,-0.5680162352152123,-1.0146916127095953,1.0652038304383138,1.759556778053276,0.2885485714266087,-0.8788908995980982,-0.6210973699379351,1.0999823351466156,-0.3904331205654615,-0.329621121336332,0.9741011407287724,12.040055890422993,-0.8548463485011363,0.1030552405108919,-1.1229291513283022
1.06,-1.0087113200593585,1.0421708200599449,1.744448984104418,0.0384238971304972,0.0762924006091384,0.0176919702099628,0.2263193901128797,-0.8071581923622795,-0.552630953694313,-1.0118061269953291,1.0564149214423328,1.7533458043538963,0.2954335985669877,-0.8988908998961214,-0.622754243089595,0.847474911382219,-0.2607300804612703,-0.2417981221425225,0.769264076044962,11.76171263931883,-0.8537075279297416,0.1074214363820387,-1.1200218625518148
1.08,-1.004220153407012,1.0259845365267175,1.7335438122605094,0.0364897260877974,0.0827203625419184,0.0173086774542741,0.2233999226371368,-0.8113361721766024,-0.5388057886368286,-1.006035155566797,1.0388371034503707,1.740923856955138,0.3092036528477456,-0.9388909004921678,-0.626067989392915,0.7367394290682059,-0.1459733737871421,-0.2088989907161442,0.6912582528742217,11.524755305661529,-0.8497586908366216,0.1105746876629722,-1.1201362292089838
1.1,-0.9997598104852048,1.009723829209045,1.7228908271295236,0.0354748167224046,0.0899038219647356,0.017022487068273,0.2230605626596213,-0.8146745948816825,-0.5271862524954635,-1.000264184138265,1.0212592854584088,1.7285019095563792,0.3229737071285035,-0.9788909010882144,-0.6293817356962349,0.6047186360048451,-0.0169679988757748,-0.1669211352540056,0.5809768070682564,11.356818522860522,-0.8445608546137331,0.1124811250538246,-1.1218373014133
1.12,-0.9952797440186898,0.9934044740716388,1.7124535692063023,0.0356549494222752,0.0971439104230619,0.0168328255774914,0.2251684212493876,-0.8172764452066726,-0.5171377342922167,-0.9938047099956948,1.0016814674366443,1.7159142748424543,0.3367437614092614,-1.0188909016842609,-0.6326954819995548,0.5295880734804298,0.1053929294883113,-0.1300925162495081,0.5024259101623407,11.224027689605464,-0.8382931066058844,0.1130644666736982,-1.1247664282290482
1.14,-0.9909623607370448,0.9778564163067214,1.702719581893962,0.0372139749940457,0.1035865874387802,0.0167513660026738,0.2293021062610652,-0.8194351712890051,-0.5080139131314882,-0.9873452358531248,0.9821036494148804,1.70332664012853,0.3505138156900193,-1.0588909022803072,-0.6360092283028748,0.5123269528515622,0.2066842505838842,-0.1079363041166237,0.4561910580364203,11.130201765757192,-0.8319103506600161,0.1118546527598748,-1.1283258076435945
1.16,-0.986311749984281,0.96143136207265,1.692658324937543,0.0401390269310978,0.1095145563008524,0.0167481021953674,0.2356497225135534,-0.8233109375109263,-0.4986229310703329,-0.9805415103535357,0.9615258313782148,1.6906561617570222,0.3642838699707772,-1.0988909028763536,-0.6393229746061947,0.5989664848069108,0.3173808126244085,-0.1937883110960603,0.4695491030577675,11.111491253513124,-0.8257377415968533,0.1090576668523957,-1.1322061165131967
1.18,-0.9815149937673924,0.9449005422796838,1.6827824539278813,0.0433082491284192,0.1142307630144122,0.0167389155425431,0.2436865604155847,-0.829592712862536,-0.4894496036924689,-0.9733935334969276,0.9399480133266482,1.6779028397279314,0.3780539242515351,-1.1388909034724,-0.6426367209095146,0.6859325772499183,0.4018418951015637,-0.3140887675804837,0.4586663688931985,11.108846268043637,-0.8209404172941938,0.1059425824316857,-1.1351344488439212
1.2,-0.9765453110280766,0.928228869404354,1.673087620774533,0.0460328166613039,0.1175716283960799,0.0166594730050388,0.2523545663231606,-0.836777293438854,-0.4809432097268077,-0.9693306657466132,0.9034209066365568,1.6583099737432578,0.3023879079752752,-0.929592714352652,-0.4908686653709306,0.7055339516465752,0.4334002953787941,-0.3592290288158994,0.4253196982830581,11.109645328934675,-0.817926595664035,0.1034354889598659,-1.136701289680477
1.22,-0.971644096350062,0.9121728457786784,1.6641639601517784,0.0459411086879605,0.1197953153014624,0.016367082019177,0.262647547052367,-0.8515228665518192,-0.4592256515016906,-0.9693306657466132,0.9034209066365568,1.6583099737432578,0.3023879079752752,-0.929592714352652,-0.4908686653709306,1.409813563900357,0.5146490364603185,-0.7372786556482602,1.0858779112558583,11.1061340248134,-0.8162935728879099,0.1019544164633734,-1.1390480680014892
1.24,-0.966282356937704,0.8950202841518082,1.65520059744582,0.0424845585230291,0.1215335027334939,0.0158084099503305,0.272979427108259,-0.8624191600959604,-0.4383600565238345,-0.9693306657466132,0.9034209066365568,1.6583099737432578,0.3023879079752752,-0.929592714352652,-0.4908686653709306,1.2853501587790863,0.5165940027946042,-0.5448146772070617,1.0432797488928058,12.044797733168709,-0.817699402149722,0.1077523130201266,-1.1340883500984629
1.26,-0.9607161090421684,0.8777025127224407,1.6466208430587397,0.0379314492307605,0.1226909690699529,0.0151621313111036,0.2830912649961494,-0.8686544888220813,-0.4206337411438687,-0.9663067866668604,0.8941249794930304,1.6534012870895485,0.3141281774872133,-0.9495927146506752,-0.491152477706623,1.0669475698737187,0.5055918943945165,-0.3117664363060435,0.8863157689982887,11.851414999266126,-0.8188822059049498,0.1141841669629632,-1.1297106224545177
1.28,-0.9552441265394216,0.8611641258109853,1.638772080662427,0.0340143456651628,0.123304918028016,0.0145738752523194,0.2923675044466197,-0.8720630225459324,-0.406433625256612,-0.9602590285073548,0.8755331252059774,1.64358391378213,0.3376087165110895,-0.9895927152467218,-0.4917201023780077,0.8650289181591176,0.4638119725235173,-0.170426686192554,0.7100057943628363,11.638216232669038,-0.8199605604967071,0.1201006863595383,-1.1258758944283092
1.3,-0.9492981340233716,0.8437005482239278,1.6307805833633708,0.030827470990361,0.1235502806798195,0.0140248712589482,0.301704974365051,-0.8742814891012162,-0.3935574824237664,-0.9542112703478494,0.8569412709189244,1.6337665404747113,0.3610892555349657,-1.0295927158427682,-0.4922877270493924,0.8029710340142434,0.4668734959215631,-0.1109233277641896,0.6438071416422775,11.316467939917857,-0.8211051447238361,0.1249336149247883,-1.1222230720638022
1.32,-0.9431695900484172,0.8262007627892276,1.6230267405323715,0.0287252414361161,0.1234983379077674,0.0135616844859323,0.3106474921530223,-0.8757781669006055,-0.3825461080394389,-0.94698948523715,0.836349416602069,1.6239207859337237,0.3845697945588419,-1.0695927164388146,-0.4928553517207771,0.7131953355413772,0.4471258893985641,-0.0748338899694667,0.5505687192163738,11.316467939917857,-0.8223331238929942,0.1285041520962493,-1.1188116302376223
1.34,-0.9368655418128916,0.8086779973253829,1.6154828076798258,0.0277844085579431,0.1232357333784079,0.0131917988314541,0.3192808485842349,-0.8765371852099781,-0.3724242933572471,-0.9397677001264508,0.8157575622852136,1.6140750313927354,0.4080503335827181,-1.1095927170348612,-0.4934229763921617,0.6662621190698123,0.4316678215606329,-0.0379509154686319,0.5060907341095933,11.199709096517836,-0.8236168986509351,0.1305160274402256,-1.1159462758005845
1.36,-0.9307168208286346,0.7920156848532798,1.608497417489613,0.0279965058646135,0.1227754196940637,0.012926727069711,0.3274733413097686,-0.8774475288878384,-0.3633781300049788,-0.9319589015401544,0.7941657079534571,1.6042150862349631,0.4315308726065943,-1.1495927176309075,-0.4939906010635465,0.6119206118150907,0.4096246362766814,-0.0455171838930124,0.4523081676134105,11.111440030060294,-0.8251890090022851,0.1313464171824633,-1.1129502897679109
1.38,-0.9240780227166538,0.7744546690871621,1.6013267889530851,0.0292277907722102,0.122016535736325,0.0127235776765541,0.3359231389102356,-0.8786844587801258,-0.3541698588159148,-0.9235630894782614,0.7715738536067994,1.594340950460406,0.4550114116304704,-1.189592718226954,-0.4945582257349311,0.6279357716730262,0.4224898800233523,-0.0618464946143704,0.4604135594532016,11.111440030060294,-0.8268035913460373,0.1309974503524023,-1.1103372949783807
1.4,-0.9172726710711908,0.7568623480683278,1.5943369403124108,0.0313649697866074,0.1209677349800475,0.0125855502581967,0.3441278122631871,-0.8805784261484445,-0.3452838565700142,-0.907281865771142,0.7305204461481558,1.5836182960122895,0.402766350561084,-0.9641871950505536,-0.3402244040843312,0.6120964244607208,0.4102336676475776,-0.0946983684159352,0.4443001122950291,11.088517287547802,-0.8287064172667945,0.1296773834607058,-1.107620708008421
1.42,-0.9102858923657664,0.7390968053325621,1.5876733213599952,0.0302941091973179,0.1196226267326747,0.0122266113155731,0.3540247950882243,-0.8943012939358412,-0.3214418289230323,-0.907281865771142,0.7305204461481558,1.5836182960122895,0.402766350561084,-0.9641871950505536,-0.3402244040843312,1.4617708880574471,0.4948491412518574,-0.6861433893698365,1.1921013823490978,11.065286280420878,-0.8324364386987263,0.1301782730900205,-1.1045897929438016
1.44,-0.9034747593336088,0.7220282856832984,1.5817799575483804,0.0253008116614547,0.1182040844161168,0.0116300002197818,0.3623794827656024,-0.900802176771584,-0.300096067906823,-0.907281865771142,0.7305204461481558,1.5836182960122895,0.402766350561084,-0.9641871950505536,-0.3402244040843312,1.1913267784194543,0.4177343838689062,-0.3250441417871452,1.0672880508104636,12.10056592728688,-0.8375105212316899,0.1378738621020716,-1.096286538554292
1.46,-0.8961455691549961,0.7039962886677205,1.5759878696314225,0.0194064489230985,0.1167870570595654,0.0109949952496072,0.370042418177081,-0.9019775127349172,-0.2803598761638212,-0.9032542022655312,0.7208785741976502,1.5802160519714463,0.4161349928912536,-0.981287742304639,-0.3374353131380145,1.0602113683880814,0.3831467705739305,-0.0587667981666595,0.986809587150092,11.90613101451254,-0.8417286786195133,0.1464065479477381,-1.0883924695289695
1.48,-0.888674156636755,0.6859755093796335,1.5705565517105038,0.0144179234437752,0.1156209737168951,0.0104635962299823,0.3767219825802088,-0.9003057499586494,-0.2637388071106218,-0.8951988752543096,0.7015948302966392,1.5734115638897597,0.442872277551593,-1.01548883681281,-0.3318571312453811,0.8995433673076388,0.3339782201563862,0.0835881388133952,0.8310534526599661,11.696802453466262,-0.8450293537803711,0.1534626206015009,-1.0817549196796534
1.5,-0.8810766980449423,0.6680048182074608,1.5654328023807662,0.0107826422441865,0.1148070143235699,0.0100627865993403,0.3827172159898904,-0.8972100803537549,-0.2494561022905007,-0.8871435482430879,0.6823110863956281,1.566607075808073,0.4696095622119324,-1.049689931320981,-0.3262789493527476,0.7898127165948005,0.2997616704840833,0.1547834802447245,0.7141352410060586,11.498684296637292,-0.8477624179572185,0.1594502824072553,-1.0756588396332758
1.52,-0.873752367725362,0.6509971112071558,1.5608133705865126,0.0086309354953071,0.1144063112180303,0.0098013825954904,0.3880043092064532,-0.8935864290682904,-0.2375044588097111,-0.8777513569988493,0.6613172877692085,1.560081496821018,0.4963468468722717,-1.083891025829152,-0.3207007674601142,0.6780965735261699,0.2643546608281394,0.1811825642732245,0.5975821740394793,11.23868938110536,-0.8499840568058064,0.1639267246724865,-1.070273263609943
1.54,-0.8659354672572419,0.6331737232867976,1.5561911661127985,0.0077579955672503,0.1143846924705126,0.0096488091664438,0.39344126790227,-0.8890913581504246,-0.2253538482557423,-0.8683591657546107,0.6403234891427888,1.553555917833963,0.5230841315326111,-1.1180921203373233,-0.3151225855674808,0.7025018136113221,0.2718479347908392,0.2247535458932914,0.6075305276984396,11.23868938110536,-0.851775255598102,0.1667103030187667,-1.065775871964488
1.56,-0.8580062137526351,0.6154403744454463,1.5518083973027454,0.0084378076626973,0.1146390414398002,0.0096261059141363,0.3992365025268959,-0.8846540405109955,-0.2135221981288937,-0.8582985423938635,0.618474663153665,1.547169793394224,0.5498214161929504,-1.1522932148454943,-0.3095444036748473,0.6950943765270423,0.2897617312312944,0.2218658819714558,0.5915825063424279,11.186340301946984,-0.8530351909641761,0.1678082058353613,-1.0621823871326088
1.58,-0.8499571066744268,0.5977918274276051,1.5476611923336754,0.0105751583301105,0.114933635541861,0.0097221494469993,0.4053832465759179,-0.8805945980920208,-0.2017819313902029,-0.8475694869166079,0.5957708098018368,1.5409231235018006,0.5765587008532898,-1.1864943093536655,-0.3039662217822139,0.6929924210494106,0.3073372024511023,0.2029721209487356,0.5870133369345415,11.17614718751156,-0.8540230203323941,0.1674500106774201,-1.0592812417980395
1.6,-0.8421938077143961,0.5810862480894186,1.5439389409360351,0.013637756365123,0.1150974136706469,0.009897181518802,0.4114808021193281,-0.878433116668305,-0.1906182231199566,-0.8296879443456309,0.553762097523004,1.5375720957641652,0.4716330120316407,-0.9164578150584114,-0.1953143324341246,0.6451367449874574,0.3048777771705063,0.1080740711857874,0.5581854135123132,11.17614718751156,-0.8548552430684071,0.1659757494423558,-1.0566664552821263
1.62,-0.8338694675450806,0.5633105589880142,1.540294193385031,0.0101930935082455,0.1144516875836778,0.0096236682094905,0.4205899798525162,-0.8964146199003229,-0.1741256038528447,-0.8296879443456309,0.553762097523004,1.5375720957641652,0.4716330120316407,-0.9164578150584114,-0.1953143324341246,1.3022270037783257,0.4554588866594072,-0.899075161600893,0.824630963355595,11.172254232922567,-0.8597579620602187,0.1706888708857073,-1.0497570191010013
1.64,-0.8253740962608344,0.5453357990587832,1.5369771176439009,-0.0007093351139234,0.1125247535584826,0.0088654593601162,0.4283171332343194,-0.8989575644650909,-0.1584892203377684,-0.8296879443456309,0.553762097523004,1.5375720957641652,0.4716330120316407,-0.9164578150584114,-0.1953143324341246,0.8812944398382773,0.3863576690901593,-0.1271472282384,0.7818191757538145,11.525292072521552,-0.8636082962204286,0.1831399713368147,-1.0421469406811623
1.66,-0.8167452011156173,0.527418138321971,1.5339365592557082,-0.0124593983829689,0.1099275014492345,0.0081194085374802,0.4340750486370445,-0.8925849005868429,-0.1463322009129524,-0.8249716142253145,0.5445975193724198,1.535618952439824,0.4848829651227853,-0.9236304584516896,-0.1940208126429089,0.7442404785844104,0.2878957701362566,0.3186331939123987,0.6078509712408031,11.373861640552605,-0.8668052331833318,0.1961011995987679,-1.0345825305282648
1.68,-0.8084607689627054,0.5105658269211434,1.5312433177862108,-0.022230306019253,0.1074070781356492,0.0075769373248033,0.4376094939350027,-0.8820045576440733,-0.1377613737067306,-0.8155389539846817,0.5262683630712517,1.5317126657911415,0.5113828713050744,-0.9379757452382458,-0.1914337730604776,0.7033758585382807,0.1767222648979105,0.529017147138483,0.4285413603110868,11.150763231415112,-0.8700597905993324,0.2082096018959507,-1.02691869608499
1.7,-0.7996871107439248,0.4930694547852851,1.5285622426166263,-0.0303915113230691,0.1053614797441032,0.007202520806189,0.4394642994364081,-0.8684934122982229,-0.1308792626974782,-0.8061062937440489,0.5079392067700834,1.527806379142459,0.5378827774873636,-0.952321032024802,-0.1888467334780463,0.7637977545600864,0.092740275070266,0.6755572672925203,0.3441055504626214,10.96589087357279,-0.8722964837402694,0.2178188565912128,-1.0209601445565522
1.72,-0.7908891073554412,0.4758599151719287,1.52600066990561,-0.0362899063540105,0.1044832173315573,0.0069987837736814,0.4403587682260871,-0.8535113926316765,-0.1256697225296163,-0.7953486381943016,0.4888927861295873,1.524029444472898,0.5643826836696527,-0.9666663188113582,-0.186259693895615,0.7943555508477573,0.0447234394839513,0.7491009833273166,0.2604770083930952,10.74938304457828,-0.8738197453286008,0.2249027274997637,-1.0163897299825395
1.74,-0.7820727518461009,0.458957960912556,1.5235345638487612,-0.0400875993832092,0.1047503156441641,0.0069350243285776,0.4413447985202224,-0.8378201659490563,-0.1212078956218042,-0.7845909826445543,0.4698463654890913,1.5202525098033373,0.5908825898519419,-0.9810116055979146,-0.1836726543131837,0.8171516840550507,0.0493015147067649,0.784561334131012,0.2230913453906059,10.74938304457828,-0.8738754434997061,0.2295901750944483,-1.013938467265766
1.76,-0.773672078309355,0.4431932354737542,1.521272114192701,-0.0420141963011339,0.1058052193950535,0.0069850511106384,0.4429937454033621,-0.8227909499623146,-0.1171503040731723,-0.7731708294402498,0.4504413126789314,1.516540251123337,0.6173824960342309,-0.9953568923844708,-0.1810856147307523,0.7827202695968025,0.0824473441569856,0.7514607993370837,0.2028795774315937,10.71122323363852,-0.8731155341292097,0.232810238460527,-1.012496094555883
1.78,-0.7647863113692629,0.4269074547316651,1.5189750117875978,-0.0425269570892063,0.1073766157810567,0.0071476542870214,0.445584576953239,-0.8067286563796008,-0.1127611955012331,-0.7610881785813881,0.4306776276991075,1.5128926684328978,0.64388240221652,-1.009702179171027,-0.178498575148321,0.8425763427034337,0.1295415774938468,0.8031146791356913,0.2194554285969596,10.700889790698966,-0.8717331104481088,0.2345357876271452,-1.01199720122102
1.8,-0.7558392359974788,0.4109496240511633,1.5167677920263962,-0.0412093731472459,0.1090931575064513,0.0074547944270946,0.4490474835403228,-0.7901528463922608,-0.1081693449929463,-0.7425070825216009,0.386571021912685,1.5133369520125362,0.5113445561416813,-0.8009029174913669,-0.1062030258904347,0.8772603516883151,0.1731453293541907,0.8287904993669992,0.2295925254143418,10.708548801943834,-0.8701233683313898,0.2346370552540337,-1.0121069679473864
1.82,-0.7472355909446242,0.3959447069963221,1.5148101637776554,-0.0429724559037826,0.1097854016575837,0.0075969709533548,0.4561958129433342,-0.788170740649696,-0.0981989145325002,-0.7425070825216009,0.386571021912685,1.5133369520125362,0.5113445561416813,-0.8009029174913669,-0.1062030258904347,0.6213630983476089,0.3574164701505677,0.0991052871282427,0.4985215230223036,10.72086657143791,-0.871041311138156,0.2373863345918704,-1.0092331761892148
1.84,-0.7380447485254612,0.3802885672291333,1.5129476227589571,-0.0491342984625956,0.1090011574099324,0.0075434589390118,0.4623554097712053,-0.776807008150443,-0.0886614734818196,-0.7425070825216009,0.386571021912685,1.5133369520125362,0.5113445561416813,-0.8009029174913669,-0.1062030258904347,0.8031777997300863,0.3079798413935547,0.5681866249626466,0.4768720525340317,11.053402701110826,-0.8718868607879027,0.2449230203921259,-1.004913515770197
1.86,-0.7287469290499701,0.3649269198416648,1.511255863356972,-0.0556608833697125,0.1073933625948474,0.0075482951245366,0.4670002244118775,-0.7599221121921984,-0.0810638350631594,-0.7373936369601841,0.3785619927377713,1.5122749217536318,0.5244965519793697,-0.7997377697137201,-0.1048913919682751,0.9544607431786394,0.2322407320336089,0.8442447979122303,0.3798819209330069,10.981655303851769,-0.8735386117842198,0.2534311998595377,-0.9987681758472688
1.88,-0.7193733106934153,0.3499366323573087,1.509696560698562,-0.0609766822567918,0.1055796276366498,0.0076942057956526,0.470060707847002,-0.7403155662384494,-0.075213474047936,-0.7271667458373504,0.362543934387944,1.5101508612358232,0.5508005436547466,-0.7974074741584265,-0.1022681241239557,1.0344200393234717,0.1530241717562275,0.98032729768745,0.2925180507611709,10.783362553211193,-0.8750075278891226,0.260625105768572,-0.9933196176797228
1.9,-0.7104257181231448,0.3360721810225081,1.5083128010927545,-0.0645304652629205,0.1042209980159711,0.0079518312199647,0.4716480464741045,-0.7204947123491138,-0.0707063731132754,-0.7169398547145168,0.3465258760381167,1.5080268007180144,0.5771045353301235,-0.795077178603133,-0.0996448562796364,1.0194359367497074,0.0793669313551237,0.9910426944667816,0.2253550467330299,10.783362553211193,-0.8759564104845062,0.2659144520781138,-0.9890975769615946
1.92,-0.700981055869298,0.3218870738604102,1.5069435294394962,-0.0667784798997595,0.1035256225402906,0.0083111334819105,0.4727924111796324,-0.6993438922653238,-0.0664555409017453,-0.7053977640079143,0.330624332466054,1.5060339035924215,0.6034085270055004,-0.7927468830478395,-0.097021588435317,1.0802040724866455,0.0572182352763961,1.0575410041894997,0.2125416105765033,10.72421873798885,-0.8764410127146449,0.269955283903044,-0.9856372972288916
1.94,-0.6915143792234786,0.3081314623633008,1.5056579956654093,-0.0674946814262331,0.1036164408302529,0.0087508771020875,0.4738951345789603,-0.6774450027945671,-0.062293890161777,-0.6938556733013118,0.3147227888939913,1.504041006466829,0.6297125186808773,-0.7904165874925458,-0.0943983205909977,1.1159040010562318,0.0551361699663938,1.0949444735378344,0.2080825369984176,10.694634176446923,-0.8763374139821305,0.2724477903675607,-0.98324048356538
1.96,-0.6820201670859123,0.2948233940916345,1.504457598963162,-0.0662262947361399,0.1043230054435182,0.0093091412192745,0.4755549748790831,-0.6547937354753062,-0.057926820467988,-0.6816559828028249,0.298879502710811,1.5021136910373445,0.6560165103562542,-0.7880862919372523,-0.0917750527466784,1.156402048057833,0.0829920150061391,1.1325633659630463,0.2183534846894499,10.69323731962686,-0.8757499934441807,0.2733592799284686,-0.9815532907344312
1.98,-0.672963419227784,0.2825985303790667,1.503402507958327,-0.0629558445239933,0.10528988271226,0.0099812434334044,0.4777597476904156,-0.63379158888424,-0.0533097351348385,-0.6687986925124536,0.2830944739165131,1.5002519573039674,0.6823205020316311,-0.7857559963819587,-0.089151784902359,1.080819898914484,0.1102386405666261,1.050107329553307,0.2308542666574736,10.705320581383605,-0.874530341968913,0.272311928673258,-0.9809718873210994
2.0,-0.6633779502464293,0.2701281656552566,1.50239416457731,-0.0582700098363833,0.1063879012207777,0.0107865026245638,0.4807167348853469,-0.6146840178711819,-0.0477196808665361,-0.6490754318432632,0.2509089509348547,1.5007370212015851,0.5365337384109261,-0.6032567496266421,-0.0391991112759694,1.0063445607899584,0.1478493597465657,0.9553785506529078,0.2795027134151188,10.726785748473048,-0.8734811945503312,0.2703104258440438,-0.9801823965388456
2.02,-0.6536760066842398,0.2579186733922866,1.501548249145467,-0.0565357624737261,0.1059120486998751,0.0114910971322538,0.4890568565177648,-0.6055432612357708,-0.0372372200684756,-0.6490754318432632,0.2509089509348547,1.5007370212015851,0.5365337384109261,-0.6032567496266421,-0.0391991112759694,0.8108530154938862,0.4170060816208965,0.4570378317705514,0.5241230399030249,10.756405196986634,-0.8780192328674118,0.2704718229573815,-0.9737253951426024
2.04,-0.6443151200664207,0.2465332213740818,1.5009373730877995,-0.058405129472453,0.1029089639616206,0.0120794231417604,0.4956863500526224,-0.593080139147165,-0.0275878271394069,-0.6490754318432632,0.2509089509348547,1.5007370212015851,0.5365337384109261,-0.6032567496266421,-0.0391991112759694,0.8549713162202829,0.3314746767428794,0.6231561044302947,0.4824696464534388,11.018807287205163,-0.8822270946830729,0.2754778474361862,-0.9648243255564736
2.06,-0.6343491882913612,0.2348443240050337,1.5004830011237746,-0.0620746487096323,0.0977900836541535,0.0127312042777431,0.5001921686505189,-0.5760544924186688,-0.0183974255138896,-0.643710094459154,0.2448763834385883,1.5003450300888257,0.5482885365550282,-0.5971497817751226,-0.0363769865041956,0.9932755531560864,0.2252909298948197,0.8512823364248079,0.4595200812758646,10.917654820932512,-0.8878368877348503,0.2822593857016361,-0.9538578641447656
2.08,-0.6243309351306882,0.2235335216569115,1.5001989983758444,-0.0655881337364494,0.0918327507098094,0.0134926451140886,0.5011626273268346,-0.5559746373319129,-0.0104887653378667,-0.6329794196909354,0.2328112484460554,1.499561047863306,0.5717981328432324,-0.5849358460720834,-0.030732736960648,1.0801496147841785,0.0485229338157866,1.0039927543377958,0.395433008801142,10.917654820932512,-0.8937947752078592,0.2887274409279044,-0.9427359696996211
2.1,-0.6143291208552447,0.2126414842162649,1.5000603288259056,-0.0681076339854201,0.0862789647735079,0.0143389821506506,0.4988550337567418,-0.5345572602455372,-0.0037269046267672,-0.6222487449227169,0.2207461134535226,1.4987770656377866,0.5953077291314366,-0.5727219103690442,-0.0250884874171004,1.128884172115386,-0.1153796785046373,1.070868854318785,0.3380930355549782,10.842091021379929,-0.8989424091463963,0.2938815786462606,-0.933024398352723
2.12,-0.604898994985262,0.2026977859519894,1.5000468475460118,-0.0693765282430194,0.0823895796682298,0.0151555633576082,0.4938315432270846,-0.5134794903373411,0.0020062715356646,-0.6103425903400882,0.2092916752461417,1.4982752958894443,0.6188173254196407,-0.560507974666005,-0.0194442378735527,1.1206885721665598,-0.2511745264828585,1.053888495409805,0.2866588081215925,10.747989084024994,-0.9033816872454276,0.2985809664043478,-0.9233815080615834
2.14,-0.5950994796334927,0.1926671975635032,1.5001489905490848,-0.0693361917501655,0.080800653653967,0.0159565111774225,0.4864905395799813,-0.4908260104758276,0.0079306348690535,-0.5984364357574594,0.1978372370387608,1.4977735261411025,0.642326921707845,-0.5482940389629658,-0.0137999883300051,1.226956157823887,-0.3670501823551664,1.1326739930756724,0.2962181666694427,10.747989084024994,-0.906443898193287,0.3015430754622511,-0.9160817821406356
2.16,-0.5854406334361334,0.1830971697496665,1.5003715431547615,-0.0674913705799108,0.0818592786708658,0.0167135119204114,0.4800421803364457,-0.4675107253331548,0.0140749662569828,-0.5859425412676256,0.1866881472239559,1.4974128626313492,0.6658365179960491,-0.5360801032599267,-0.0081557387864575,1.2479349606675478,-0.3224179621767825,1.1657642571336415,0.3072165693964652,10.742547009727788,-0.9088438716499662,0.3033610805744485,-0.9090431427690956
2.18,-0.5758926885453557,0.1739869445883913,1.5007239176139182,-0.0636737225505935,0.08473016565066,0.0175008816938019,0.4753488761104855,-0.4454124798333193,0.0209238477471119,-0.5728609068705867,0.175844405801727,1.4971933053601847,0.6893461142842533,-0.5238661675568875,-0.0025114892429098,1.1803248878955408,-0.2346652112980102,1.1049122749917732,0.3424440745064592,10.741337102213038,-0.9091497647269716,0.3037167900277068,-0.9047137467649724
2.2,-0.5668896408224542,0.1657137024531703,1.5011942274770165,-0.0592395212213757,0.0883897172956361,0.0182647409027761,0.4727466841785128,-0.426817960170871,0.0282673799439598,-0.5521252447398314,0.1517163205967254,1.501770110001274,0.4920054816372904,-0.4135304806088949,0.0224876851496122,1.00803649419818,-0.130109596598632,0.9297259831224176,0.3671766098423925,10.757886222711022,-0.908780305665428,0.3033910886782293,-0.9011852064116748
2.22,-0.5573424740443306,0.1573516111465157,1.5018212718092323,-0.0549426590424106,0.0891483540474384,0.0192378235665698,0.4822407298787262,-0.4102348430863413,0.0339206014781765,-0.5521252447398314,0.1517163205967254,1.501770110001274,0.4920054816372904,-0.4135304806088949,0.0224876851496122,0.9963628727927026,0.4747022850106697,0.8291558542264821,0.2826610767108358,10.786247294547138,-0.9148754365048096,0.3021404041640503,-0.8927874248082495
2.24,-0.5476179294452377,0.1493176573410495,1.5025570574857094,-0.051374545960499,0.0833365139257493,0.0205150277812357,0.4888229513247186,-0.3939718241628936,0.0394313104639316,-0.5521252447398314,0.1517163205967254,1.501770110001274,0.4920054816372904,-0.4135304806088949,0.0224876851496122,0.9194826496380766,0.3291110722996204,0.8131509461723863,0.2755354492877549,10.634349118677164,-0.9202680744872525,0.3053311320689949,-0.8794630530047747
2.26,-0.5378283221795319,0.1416052968846697,1.503398128871671,-0.0482638385781121,0.0737035007255461,0.021933004809388,0.4892168683126006,-0.378091423371371,0.044449797352212,-0.5472051899234585,0.1475810157906364,1.50199498685277,0.4953368027426514,-0.4071540807640101,0.0228004526301122,0.8329578478839359,0.0196958493940968,0.7940200395761293,0.2509243444140188,10.606591205942095,-0.9293999435086344,0.3084932618495576,-0.862663358528957
2.28,-0.528579091987838,0.1345679991785796,1.5042821578760188,-0.0455884504505292,0.0632866256788915,0.0232945831460291,0.4840617194650243,-0.3635008731519948,0.0483896900780112,-0.5373650802907127,0.1393104061784585,1.5024447405557624,0.5019994449533733,-0.3944012810742403,0.0234259875911123,0.798408526438082,-0.2577574423788115,0.729527510968811,0.1969946362899623,10.549481569080854,-0.9403072270378754,0.3113073848175986,-0.8443927070174155
2.3000000000000003,-0.5190001186878013,0.1274535224406534,1.5052852137187946,-0.0430193187433286,0.0527745791835625,0.0246626830367016,0.4738460948116668,-0.3487530909769367,0.0516865355204454,-0.5275249706579669,0.1310397965662806,1.5028944942587543,0.5086620871640953,-0.3816484813844706,0.0240515225521124,0.9120379049312412,-0.5107812326678757,0.7373891087529061,0.1648422721217106,10.484038315888938,-0.9508773006290612,0.3133848676793283,-0.8275765167791863
2.32,-0.509668178606828,0.1206283303640619,1.5063445803260385,-0.0406720725296059,0.0439926705580669,0.0259181075437642,0.4597609016533025,-0.3345432192407286,0.0540644171071482,-0.517351728914685,0.1234068269385912,1.5033755247097969,0.5153247293748173,-0.3688956816947009,0.0246770575131125,1.0074316873965905,-0.7042596579182159,0.7104935868104012,0.118894079335137,10.427400753879738,-0.9598787378314728,0.3148005368675493,-0.8135562997346354
2.34,-0.500654863950745,0.114081661452799,1.5074417450688542,-0.0385139450315638,0.037977249627208,0.0270320289715244,0.4422494226743887,-0.3208659077152729,0.0555509555861206,-0.507178487171403,0.1157738573109018,1.503856555160839,0.5219873715855393,-0.3561428820049311,0.0253025924741125,1.1134749023246633,-0.8755739489456876,0.6838655762727852,0.074326923948622,10.375541233692276,-0.9655701837369371,0.315842558505468,-0.8041029010992988
2.36,-0.4924426405731129,0.1081131070028734,1.5085062785327026,-0.0365516372530779,0.0358102632859638,0.0279400330404854,0.4233432038929641,-0.3081530478429586,0.0564594717127305,-0.4968386793728531,0.1084597076754566,1.5043532239859063,0.5286500137962612,-0.3433900823151614,0.0259281274351126,1.140051880723533,-0.945310939071234,0.6356429936157176,0.0454258063304929,10.341850952427194,-0.9691299297726392,0.3158505575848147,-0.7988793881884463
2.38,-0.4841762715151804,0.1020871401611987,1.50964568702823,-0.0345276435447923,0.0372324559659279,0.0287571461058691,0.404682173321799,-0.2951696249520643,0.057461291294301,-0.4863323055190351,0.1014643780322557,1.5048655311849986,0.5353126560069832,-0.3306372826253916,0.0265536623961127,1.137768621486562,-0.9330515285582514,0.6491711445447162,0.0500909790785278,10.317156683841858,-0.969953183084636,0.3148626908733246,-0.798636456983519
2.4,-0.4762597175439471,0.0963173726501073,1.510807997306987,-0.0325318031981229,0.0414103958455068,0.0294825899383009,0.3882614553910269,-0.282517135819668,0.0587487501617858,-0.4639421628490905,0.0873286589135955,1.512518751592945,0.4288805918049371,-0.2578027914142473,0.0538256552291458,1.0384880944705754,-0.821035896538605,0.6326244566198125,0.0643729433742388,10.300897463494948,-0.9683092832625212,0.3139535984937372,-0.8012832996379385
2.42,-0.4686432332810843,0.0907769312255331,1.512021612509313,-0.031218077461956,0.0473549560372431,0.0301112497573298,0.3745414484692094,-0.2718864963692044,0.0625550275793642,-0.4639421628490905,0.0873286589135955,1.512518751592945,0.4288805918049371,-0.2578027914142473,0.0538256552291458,0.8884492569078476,-0.6860003460908787,0.5315319725231804,0.1903138708789199,10.300482846330851,-0.9657839723805026,0.3132194212184457,-0.8053100699579189
2.44,-0.4616383497177141,0.0857124529858184,1.5132438673054198,-0.0309318628851278,0.0538870617335688,0.0306186906712974,0.363748837079254,-0.2616497324046222,0.065908977046954,-0.4639421628490905,0.0873286589135955,1.512518751592945,0.4288805918049371,-0.2578027914142473,0.0538256552291458,0.7624315938369637,-0.5396305694977677,0.5118381982291115,0.167697473379489,10.434005152252212,-0.9619853439692256,0.3141736774324866,-0.8090314022635917
2.46,-0.4544610676994189,0.0805960476867024,1.5145957699389936,-0.031483357846146,0.0610689345632443,0.0310839115191263,0.3547791002669379,-0.2504742963456929,0.0690854662443123,-0.4596533569310411,0.084750630999453,1.5130570081452366,0.4337202755015648,-0.2503294247066839,0.0530985280161147,0.7338879907900963,-0.4484868406158054,0.5587718029464644,0.158824459867915,10.40182332016684,-0.9577456081934298,0.31591565984723,-0.8127744680125781
2.48,-0.4474389989813527,0.0757104693847441,1.516006870735334,-0.0326944763197622,0.0680163571090082,0.0315057831934239,0.3480290352236531,-0.2386122720533519,0.0718605164509994,-0.4510757450949423,0.0795945751711681,1.5141335212498197,0.44339964289482,-0.2353826912915571,0.0516442735900526,0.6963689791523906,-0.3375032521642396,0.5931012146170491,0.1387525103343549,10.376777402057089,-0.9534490471854324,0.3184922881119839,-0.8158150455008075
2.5,-0.4405317790610716,0.0710719445818615,1.5174695240225196,-0.0342641258631185,0.074344122079253,0.0319156661219071,0.3431281900268884,-0.2258386531545076,0.0742595262222215,-0.4424981332588436,0.0744385193428831,1.5152100343544024,0.4530790102880752,-0.2204359578764302,0.0501900191639905,0.6945121872544461,-0.2450422598382379,0.6386809449422117,0.1199504885611053,10.335724543637298,-0.9496805226581492,0.3215226849255226,-0.8176940050415599
2.52,-0.4340463776006179,0.0669120307191065,1.518900083377056,-0.0357574861798455,0.0795704799828516,0.0323252530709656,0.339835702778615,-0.2127287299615937,0.0762021142849581,-0.4334365530530821,0.0700298001853545,1.516213834737682,0.4627583776813305,-0.2054892244613035,0.0487357647379284,0.6827961020422421,-0.1646243624136678,0.6554961596456965,0.0971294031368294,10.335724543637298,-0.9462568255863952,0.3250530266518762,-0.8185039596212056
2.54,-0.4272764503931511,0.0628111383610694,1.520443487555616,-0.0369988003481302,0.0841664066855057,0.0328071208836045,0.3373826307198475,-0.1980688507083507,0.0780269552361316,-0.4243749728473206,0.0656210810278259,1.517217635120962,0.4724377450745857,-0.1905424910461766,0.0472815103118663,0.7487650945761468,-0.1226536029383773,0.7329939626621498,0.0912420475586768,10.31899174823502,-0.9435258265317412,0.3286032766123986,-0.8181851514909558
2.56,-0.4205456618052002,0.0590177760918151,1.5220207345063772,-0.0373957652256186,0.0877887166509103,0.0333819275529669,0.3358090862043355,-0.1821720668630702,0.0796129460149483,-0.4150714084567277,0.0615860302056755,1.5181850791435902,0.4821171124678409,-0.1755957576310498,0.0458272558858042,0.8026505243821256,-0.0786772257755974,0.7948391922640254,0.0792995389408315,10.309603948614496,-0.9417636187887056,0.3317027494924278,-0.8166982309811041
2.58,-0.414175437525789,0.055715841300437,1.5235466143818504,-0.0365436318543354,0.0903456456371719,0.0340473056779827,0.3347949589526798,-0.1663933943122379,0.0809379510079326,-0.4055258598813034,0.0579246477189032,1.5191161668055668,0.4917964798610962,-0.1606490242159231,0.0443730014597421,0.7933325276647452,-0.0507063625827836,0.7889336275416159,0.0662502496492183,10.288694550915352,-0.9406006815284635,0.3342191058108605,-0.8144234515610504
2.6,-0.4074886153367066,0.0525632116967947,1.5251787023101293,-0.0341042494292411,0.0922136184664792,0.0348864266407989,0.3339266567228158,-0.1498953037443831,0.0822085003010161,-0.397435689578155,0.0473961715848251,1.527593511932247,0.3500566062441613,-0.148174813678836,0.0734914533291759,0.828485420290666,-0.0434151114932002,0.8249045283927392,0.0635274646541714,10.288694550915352,-0.9399552758124244,0.3355859203873923,-0.812016396551788
2.62,-0.4007664867399317,0.0497819209321532,1.526862266356066,-0.0285922920956572,0.0917345409708367,0.0360120028301292,0.3384396089700432,-0.1304121763766222,0.0862991678519524,-0.397435689578155,0.0473961715848251,1.527593511932247,0.3500566062441613,-0.148174813678836,0.0734914533291759,1.0206524274041957,0.2256476123613682,0.9741563683880432,0.2045333775468179,10.27777555199009,-0.9448314696067732,0.3341938747439318,-0.8054095985172774
2.64,-0.3939564935942435,0.0473195490991217,1.5286290531626103,-0.0210806812533773,0.0872501074838096,0.0373571088192432,0.3418111431310422,-0.1172249523892537,0.0902046448447869,-0.397435689578155,0.0473961715848251,1.527593511932247,0.3500566062441613,-0.148174813678836,0.0734914533291759,0.7080304895154069,0.1685767080499528,0.6593611993684259,0.1952738496417243,10.450108266022651,-0.9491567783747796,0.3334595670394025,-0.7967240023538337
