t,x,y,z,roll,pitch,yaw,v_x,v_y,v_z,ref_x,ref_y,ref_z,ref_v_x,ref_v_y,ref_v_z,a_com,a_x,a_y,a_z,thrust,wind_x,wind_y,wind_z
0.0,1.8340749532185696,-1.8566233045600973,3.003285228536827,0.0300984896637409,0.099925090441451,0.0432895241017098,0.005012196841535,0.0062763034324145,0.0179956381295302,1.8342314876060852,-1.856396445386861,3.003849334488501,-0.0949603202227798,0.1070630771444748,-0.0818519645201403,0.9853388930249268,0.2506098420767549,0.3138151716207255,0.8997819064765119,10.233738073718996,-0.9452153196617822,0.2598629841852807,-0.8673508043772623
0.02,1.8343248970493176,-1.8567962127259876,3.003413475443079,0.0224167739003227,0.0948735088564833,0.0426145882840491,0.0193022411059323,-0.0188402546641833,-0.0061071481739614,1.8342314876060852,-1.856396445386861,3.003849334488501,-0.0949603202227798,0.1070630771444748,-0.0818519645201403,1.8814829013905443,0.7145022132198607,-1.2558279048298908,-1.2051393151745855,10.233738073718996,-0.9458588347371286,0.2598970842020906,-0.8723772786999521
0.04,1.8348117138840423,-1.857204872007577,3.002979659579886,0.0058474557082025,0.0801866709350323,0.041298615558767,0.0273193015454278,-0.0198550574901126,-0.0361054389572832,1.8342314876060852,-1.856396445386861,3.003849334488501,-0.0949603202227798,0.1070630771444748,-0.0818519645201403,1.553383832787928,0.4008530219747789,-0.0507401412964665,-1.4999145391660873,8.888471236292844,-0.9475289123678916,0.2709613821686875,-0.8675337684023362
0.06,1.8353487130895323,-1.8575405001886736,3.0019410895201317,-0.0114054435154606,0.0596444892523433,0.0402669954068967,0.0249983182273898,-0.0133170517699592,-0.0662278823003333,1.8332818844038576,-1.8553258146154168,3.0030308148433,-0.1149603205208031,0.127063077442498,-0.1018519648181635,1.545553359896252,-0.1160491659019016,0.3269002860076718,-1.5061221671525085,8.596614405734272,-0.9545888566073784,0.2812587582471933,-0.8596567228518508
0.08,1.8357238809098675,-1.857703926668956,3.000404396183511,-0.0271902895020042,0.0383412322873685,0.0397532027113739,0.0140816234523868,-0.0039431773048444,-0.0940576354874422,1.831382677999402,-1.853184553072527,3.0013937755528968,-0.1549603211168495,0.1670630780385445,-0.14185196541421,1.5664760688833597,-0.5458347387501494,0.4686937232557392,-1.3914876593554442,8.588020128961489,-0.9662991189245828,0.2902852415634236,-0.8483913247793102
0.1,1.8358155489439163,-1.8576561574390988,2.998218282538428,-0.0430122406963074,0.0167104853901899,0.0396647750019342,-0.0048142572119094,0.0085277307141632,-0.123120960958249,1.8294834715949464,-1.851043291529637,2.999756736262494,-0.194960321712896,0.2070630786345909,-0.1818519660102564,1.8420469187292208,-0.9447940332148186,0.6235454009503814,-1.4531662735403406,8.64331156393746,-0.9802943210863648,0.2985938498150641,-0.8348148972708328
0.12,1.8354595687235973,-1.8573326608864376,2.995456644009405,-0.0580469794603319,-0.0022223814908372,0.0398958458306026,-0.0299222563635934,0.0234916510217048,-0.151650438422477,1.8255842651606884,-1.8469020299569456,2.996119696942289,-0.2349603223089424,0.2470630792306374,-0.2218519666063029,2.042217922231433,-1.2553999575841974,0.7481960153770805,-1.4264738732113973,8.687535560262859,-0.9927239712405342,0.3052395370720686,-0.8240588537858285
0.14,1.8345534896809317,-1.8566848087388448,2.9921210577820565,-0.0723391091993415,-0.0174262586298476,0.0402724232779065,-0.0593422864226253,0.040828416758977,-0.1805313575939185,1.8216850587264304,-1.8427607683842535,2.992482657622084,-0.2749603229049889,0.2870630798266839,-0.2618519672023494,2.236184868861884,-1.4710015029515928,0.8668382868636129,-1.444045958572078,8.784990254614513,-1.0036656319254589,0.3112766799766515,-0.8161568853875957
0.16,1.8331143051731635,-1.8557116277096328,2.9884132515527773,-0.0847853901538089,-0.027897363306479,0.0406362481380466,-0.0904767916436189,0.0606446651629573,-0.2083309105479185,1.8167858522772715,-1.8376195067966608,2.9878456182869773,-0.3149603235010353,0.3270630804227303,-0.3018519677983958,2.310225238264976,-1.5567252610496845,0.9908124201990158,-1.3899776476999997,8.784990254614513,-1.0116152716547595,0.3165524460446627,-0.812147386069547
0.18,1.8309372130757289,-1.85424784909736,2.9839342092719106,-0.0960301790888659,-0.0343380287259502,0.0408996437574708,-0.1256404077760989,0.0844598818518276,-0.2381321893703331,1.8108866458132111,-1.831478245194167,2.98220857893697,-0.3549603240970818,0.3670630810187767,-0.3418519683944422,2.5941090305254817,-1.7581808066239977,1.1907608344435143,-1.4900639411207257,8.817831055006536,-1.0153907114384162,0.3208404246786036,-0.8134824855007613
0.2,1.8280365000586103,-1.852282902150869,2.978858671454497,-0.1049326510227164,-0.0354425136866526,0.0408764937581197,-0.1619598642306742,0.1103431813504592,-0.2678192596199834,1.824655192686924,-1.8500248550047684,2.972027599803394,-0.225640409266215,0.1844598833419438,-0.3381321908604492,2.678791821931729,-1.8159728227287637,1.294164974931579,-1.484353512482517,8.844433744838625,-1.0168671967750378,0.3235605694677134,-0.8173134310195723
0.22,1.8245761295322176,-1.8497821973968012,2.9736210675336405,-0.1071866028574055,-0.0309517843935327,0.0407131149929813,-0.1994565332331951,0.1488826739248572,-0.281621419939661,1.824655192686924,-1.8500248550047684,2.972027599803394,-0.225640409266215,0.1844598833419438,-0.3381321908604492,2.7756946444389285,-1.874833450126048,1.9269746287199008,-0.6901080159838813,8.88051607745274,-1.0200407388984165,0.323718280864089,-0.8152519764146765
0.24,1.8202236440133908,-1.8464603289216344,2.9678401347159347,-0.1031840505547525,-0.0211205342523864,0.0404532109898724,-0.2330644135508894,0.1801843218750537,-0.2956837463551632,1.824655192686924,-1.8500248550047684,2.972027599803394,-0.225640409266215,0.1844598833419438,-0.3381321908604492,2.4015785475716958,-1.6803940158847146,1.5650823975098218,-0.7031163207751073,9.853948668063822,-1.0167687938411385,0.3193006413752611,-0.822981011868132
0.26,1.815259314768556,-1.8425861209146677,2.961757263349119,-0.0970523905626714,-0.0083951636339403,0.0400989304053958,-0.2610810806773462,0.2052880676352026,-0.3117901877559696,1.8223987885942612,-1.848180256171349,2.968646277894789,-0.2456404095642382,0.204459883639967,-0.3581321911584724,2.0460627694809905,-1.4008333563228363,1.2551872880074475,-0.8053220700403207,9.678957856640409,-1.0101073046997997,0.3140048865637889,-0.8345518577244073
0.28,1.8097908003454128,-1.8382495461509625,2.955328354243861,-0.0908323725825069,0.0054714814573063,0.0397185053112564,-0.2839312619409857,0.2270764431054321,-0.3302682099124416,1.817885980408937,-1.8444910585045105,2.9618836340775805,-0.2856404101602847,0.2444598842360134,-0.3981321917545188,1.8291400932049653,-1.142509063181976,1.0894187735114718,-0.9239011078235992,9.32346703944586,-1.000733285293622,0.308524327456732,-0.8490902968947851
0.3,1.8042167673767109,-1.8337464583646248,2.9488551061116004,-0.0855126521943978,0.0184981745735934,0.0394011301414242,-0.3014167260464201,0.2459373976483442,-0.3502157984672672,1.8133731722236128,-1.8408018608376715,2.9551209902603714,-0.3256404107563312,0.2844598848320599,-0.4381321923505653,1.627408484681122,-0.8742732052717223,0.9430477271456058,-0.9973794277412796,9.32346703944586,-0.9899919344717104,0.3037659683567908,-0.8642880067706484
0.32,1.7980294179747285,-1.8286330062207237,2.9416073413347585,-0.0807754558610227,0.0311667579571816,0.0391581069000266,-0.3161628278708638,0.2645032323881842,-0.3736563019683291,1.8068603640084864,-1.8351126631410304,2.9463583464133603,-0.3656404113523776,0.3244598854281063,-0.4781321929466117,1.667029501079095,-0.7373050912221818,0.9282917369920012,-1.1720251750530957,9.173200136731792,-0.9788452598161592,0.2997872227527406,-0.8791912681973373
0.34,1.7915796237114758,-1.823156080599452,2.9338728770918605,-0.0769339342542114,0.042181901170928,0.0390317342261581,-0.3279431127345809,0.2823540311536665,-0.3987096607778198,1.8003475557933597,-1.8294234654443888,2.9375957025663486,-0.4056404119484241,0.3644598860241528,-0.5181321935426583,1.6470404637357494,-0.5890142431858536,0.8925399382741145,-1.2526679404745331,9.036412257696613,-0.9687561399869812,0.2964620316635948,-0.8926006514204547
0.36,1.784914764948824,-1.817319224475292,2.9256230886199512,-0.0736121064344159,0.0513520724633523,0.0390408622780843,-0.3379119044924257,0.3003824089586729,-0.4250408592937155,1.792834747563332,-1.8227342677328464,2.927833058704436,-0.4456404125444705,0.4044598866201992,-0.5581321941387046,1.671624382655113,-0.4984395878922409,0.9014188902503216,-1.3165599257947884,8.91627560836605,-0.9587723715226526,0.2933003579860529,-0.9057524348052408
0.38,1.778411122642511,-1.8114424967298357,2.9172883929654545,-0.0706031123527545,0.0584906838734551,0.0391738514347222,-0.3461647654038722,0.3172224964798512,-0.450997443203286,1.7843219393184029,-1.815045070006403,2.9170704148276227,-0.485640413140517,0.4444598872162457,-0.5981321947347511,1.60112656370382,-0.4126430455723279,0.8420043760589135,-1.2978291954785253,8.91627560836605,-0.949699503484522,0.2901299427991155,-0.9178715307505824
0.4,1.7714054224503075,-1.8049174950468805,2.9079714455576817,-0.0675222136995791,0.0645374265308311,0.0394244943273215,-0.353933541206629,0.3343048525222253,-0.4793932931933387,1.761102884372317,-1.7955813719058429,2.8947385208052903,-0.4461647668939884,0.4172224979699673,-0.5509974446934022,1.701826270576339,-0.3884387901378405,0.8541178021187035,-1.419792499502634,8.876308232214797,-0.9415399945155378,0.2869028411760571,-0.9290077704065643
0.42,1.764279614738372,-1.798048846175981,2.8983085516440035,-0.0647826941910207,0.0688361713370215,0.039775973235939,-0.358399161912859,0.3517871632339444,-0.4854941519807055,1.761102884372317,-1.7955813719058429,2.8947385208052903,-0.4461647668939884,0.4172224979699673,-0.5509974446934022,0.9523568580847074,-0.2232810353114983,0.8741155355859564,-0.3050429393683412,8.827497330866208,-0.9427330669528784,0.2837854900401588,-0.9298281641525966
0.44,1.7574346156184917,-1.7912160623579456,2.888993054382756,-0.0629564717641356,0.0710377429631967,0.0401773288006517,-0.3620930956990569,0.3668411505280078,-0.4948705074925774,1.761102884372317,-1.7955813719058429,2.8947385208052903,-0.4461647668939884,0.4172224979699673,-0.5509974446934022,0.9057920883840374,-0.1846966893098961,0.7526993647031688,-0.468817775593594,10.07171661765733,-0.9388822142531338,0.28300276423885,-0.9334961362539002
0.46,1.7501485157493342,-1.7837149736446205,2.878950195957973,-0.0619050558470823,0.0715395677495942,0.0406480617482468,-0.3664226770012568,0.3825093183206333,-0.5091202151984741,1.7566412367033777,-1.791409146926143,2.889228546358356,-0.4661647671920115,0.4372224982679906,-0.5709974449914254,1.0808456480156128,-0.2164790651099923,0.7834083896312766,-0.712485385294831,9.786063670978365,-0.9362594667607932,0.2826411141238731,-0.936324992632499
0.48,1.7427712161181386,-1.77590378051068,2.8685845417314004,-0.0616586967160563,0.0703556308637794,0.0411603400056983,-0.3711807744619416,0.3978578257397553,-0.5268670504703471,1.7477179413654975,-1.7830646969667436,2.878208597464488,-0.506164767788058,0.477222498864037,-0.6109974455874718,1.1970446249067055,-0.2379048730342392,0.7674253709560985,-0.887341763593652,9.369712576488382,-0.9353284747418296,0.28267179700647,-0.9377407703946998
0.5,1.7352933217421838,-1.7677880797245715,2.8578338505933187,-0.0622308017689269,0.0675247966462112,0.0417123091099211,-0.3765041734345156,0.4130145208379871,-0.5473019564294443,1.7387946460276178,-1.7747202470073442,2.86718864857062,-0.5461647683841044,0.5172224994600835,-0.6509974461835183,1.299662806730187,-0.2661699486287028,0.7578347549115905,-1.0217452979548625,9.240374051922116,-0.9360708224697126,0.2832034689100803,-0.9375092348979228
0.52,1.7280823414059534,-1.7597973680633028,2.847224662174178,-0.0635386501199404,0.0633617889986742,0.0422751134158922,-0.3824459059565316,0.427426065759213,-0.568426396530568,1.7278713506599357,-1.7643757970181426,2.8541686996469497,-0.5861647689801509,0.5572225000561299,-0.6909974467795648,1.312667876850097,-0.2970866261008009,0.7205772460612936,-1.0562220050561844,9.14670765075607,-0.9390235427413596,0.2845603269822835,-0.9346214062275554
0.54,1.7203513055510922,-1.751088897817419,2.835616574723089,-0.0657445104632789,0.0577568007207376,0.04289473247006,-0.3906360085798663,0.4428358426284401,-0.5913029219690802,1.7169480552922536,-1.754031347028941,2.841148750723279,-0.6261647695761974,0.5972225006521764,-0.7309974473756112,1.4386403479318723,-0.4095051311667319,0.7704888434613588,-1.1438262719256076,9.14670765075607,-0.9433321016104412,0.2865114608629462,-0.9303308758238076
0.56,1.712427523776601,-1.7420486891386715,2.823548761454318,-0.068123297139261,0.0517280772587968,0.043543818547188,-0.4015196885136906,0.4603772895031028,-0.6143219951481511,1.7050247599096704,-1.742686897024838,2.827128801784708,-0.6661647701722437,0.6372225012482228,-0.7709974479716576,1.5459904409325784,-0.5441839966912138,0.8770723437331318,-1.1509536589535465,9.115418099025192,-0.9486892315777546,0.2885874925245198,-0.9248068442701948
0.58,1.704260849632257,-1.732644636603723,2.8110201210444643,-0.069866411204866,0.0460923346962552,0.0442214359223693,-0.4146758383104415,0.4789298514366253,-0.6373684832365801,1.692101464512186,-1.7303424470058342,2.8121088528312352,-0.7061647707682902,0.6772225018442692,-0.8109974485677041,1.6189676069812506,-0.6578074898375474,0.9276280966761252,-1.152324404421451,9.120893489637638,-0.9540178031192844,0.29001312755608,-0.9193671532449624
0.6,1.6962387299964912,-1.7233606545386513,2.7986891991202327,-0.0706469373274974,0.041680443535271,0.0448634394370636,-0.4291729074779014,0.4972320718373407,-0.6594552238353119,1.683527057716735,-1.7086981440318916,2.7791516968826357,-0.5146758398005576,0.5789298529267415,-0.7373684847266962,1.606985062405797,-0.7248534583729954,0.915111020035772,-1.1043370299365862,9.125268145108748,-0.958935509415016,0.2907488857578426,-0.9144718562511418
0.62,1.687437477765953,-1.713168913271932,2.785464585278278,-0.0693647924275453,0.0401868249601715,0.0454573506877939,-0.4501295442475063,0.5207142132813978,-0.6606662767188572,1.683527057716735,-1.7086981440318916,2.7791516968826357,-0.5146758398005576,0.5789298529267415,-0.7373684847266962,1.5748478026293509,-1.0478318384802423,1.1741070722028513,-0.0605526441772696,9.1219982325415,-0.965977664666572,0.2883932154219755,-0.909306625870052
0.64,1.6782319996831685,-1.702532405148863,2.7722252481086325,-0.0657374056200194,0.0431892100529024,0.0458941544661084,-0.4688334919627219,0.5412300141892727,-0.6634767738065128,1.683527057716735,-1.7086981440318916,2.7791516968826357,-0.5146758398005576,0.5789298529267415,-0.7373684847266962,1.3952012766128077,-0.9351973857607804,1.0257900453937483,-0.1405248543827786,10.526036074014884,-0.9673488519153572,0.2870669018278461,-0.9057737167000044
0.66,1.6686856923381577,-1.6915205551622157,2.7588714349392185,-0.0613783940503878,0.0489623274943819,0.0462032510444815,-0.484437594817956,0.5587413419397425,-0.6717002637426344,1.6783802993187291,-1.7029088455026242,2.771778012035369,-0.5346758400985808,0.5989298532247647,-0.7573684850247194,1.2427393252715837,-0.7802051427617057,0.8755663875234854,-0.4111744968060771,10.20664559841498,-0.9644884573107382,0.2848095847617518,-0.908049231797902
0.68,1.6593566029843911,-1.6807540445131104,2.745989033732627,-0.0572931471397688,0.0558185658601178,0.0464214163531307,-0.4965127328876503,0.5736639841690773,-0.6839100025333313,1.6680867825227184,-1.6913302484440893,2.7570306423408346,-0.5746758406946273,0.6389298538208111,-0.7973684856207659,1.1375103646164697,-0.6037569034847146,0.7461321114667407,-0.6104869395348489,9.61499833216658,-0.9589582857257284,0.2818947529694863,-0.9141646854573232
0.7000000000000001,1.6493168877744022,-1.6691287702071078,2.7321385282654496,-0.0533762320454525,0.0635259838875773,0.0466125580908777,-0.5065838248555188,0.5880761131887067,-0.7006822814248602,1.6577932657267072,-1.6797516513855546,2.7422832726463007,-0.6146758412906738,0.6789298544168576,-0.8373684862168124,1.2149544184031498,-0.5035545983934242,0.7206064509814702,-0.838613944576444,9.390766443118991,-0.9518922476112964,0.2788745683144526,-0.9224545604069724
0.72,1.6391001721800569,-1.6572241575819269,2.717915403174856,-0.0499507785341064,0.0710382218783285,0.0467940688933321,-0.5144135763840804,0.6016752001411064,-0.7209404049113096,1.6454997489008938,-1.6661730542972175,2.725535902921965,-0.6546758418867202,0.7189298550129041,-0.8773684868128588,1.2812413337562272,-0.3914875764280789,0.6799543476199876,-1.01290617432247,9.390766443118991,-0.9440790458063752,0.2759437056689885,-0.931791136692306
0.74,1.6287484489368065,-1.64505494834675,2.703263417337038,-0.047027244171888,0.0778594956584053,0.0469842900070767,-0.5202888665286148,0.6146320690088705,-0.7432504392812916,1.6332062320750802,-1.6525944572088804,2.708788533197628,-0.6946758424827667,0.7589298556089505,-0.9173684874089052,1.3230052142080506,-0.2937645072267236,0.6478434433882019,-1.1155017184991012,9.213028216939165,-0.9375176968939052,0.2733970648232395,-0.9397163666004218
0.76,1.6188161837752555,-1.6332504209823753,2.688917953689435,-0.044419328223052,0.0835465790795469,0.0471944734242944,-0.5248534993124878,0.6271773702779438,-0.7656850951531504,1.6199127152343655,-1.638015860105642,2.6910411634583906,-0.7346758430788131,0.7989298562049969,-0.9573684880049516,1.3053105382170078,-0.2282316391936489,0.6272650634536692,-1.1217327935929389,9.123555022472829,-0.9317770912103766,0.2709334941902543,-0.9465756350230788
0.78,1.6082769120036595,-1.6205713604234306,2.6733439422741325,-0.0416279747352016,0.0887340205777664,0.0474556581891922,-0.528762685909064,0.6399480968560454,-0.7905975737327324,1.6056191983787498,-1.6224372629875026,2.6722937937042524,-0.7746758436748595,0.8389298568010434,-0.997368488600998,1.4133336355560313,-0.1954593298288065,0.6385363289050761,-1.2456239289791005,8.99754555538766,-0.9266443522218109,0.2683642175542605,-0.9528366624073384
0.8,1.5976675569656846,-1.6076415218916684,2.6572596745533263,-0.0387293303031271,0.093147035332833,0.0477554793711854,-0.5319230984814153,0.6522578973695246,-0.8166284546717986,1.5818387777082064,-1.5885739555806284,2.633814063587496,-0.6287626873991801,0.7399480983461615,-0.8798373126143204,1.4483837188163964,-0.1580206286175667,0.6154900256739593,-1.3015440469533068,8.9452664917535,-0.9220291825298418,0.2655601060062729,-0.9587426228022238
0.8200000000000001,1.5870222225934487,-1.5944587429516093,2.640952601268147,-0.0356791368039082,0.0970932279300966,0.0480808626697406,-0.532325981984691,0.6652236594309371,-0.8127678997359314,1.5818387777082064,-1.5885739555806284,2.633814063587496,-0.6287626873991801,0.7399480983461615,-0.8798373126143204,0.6767148316743626,-0.0201441751637887,0.6482881030706267,0.1930277467933561,8.9452664917535,-0.920416208756938,0.2607509413501249,-0.9646056562635712
0.84,1.576916849696309,-1.5817148983321565,2.625507201727161,-0.0330864619711976,0.1003504694971666,0.0483814278189525,-0.5314011101573038,0.6757268779321602,-0.8133513993796655,1.5818387777082064,-1.5885739555806284,2.633814063587496,-0.6287626873991801,0.7399480983461615,-0.8798373126143204,0.5279996652834372,0.0462435913693604,0.5251609250611577,-0.0291749821867026,10.300604015467798,-0.9161634312426008,0.2596274830441458,-0.967608389494124
0.86,1.5663053413168702,-1.568089659448237,2.6091810902938253,-0.0309089165990563,0.1028265697957508,0.0486827928734354,-0.5298438055439646,0.6862942465563763,-0.8194796315457876,1.5755511508342146,-1.5811744745971668,2.6250156904613524,-0.6487626876972032,0.7599480986441847,-0.897685260390638,0.6157306772865209,0.0778652306669624,0.5283684312108017,-0.3064116083061063,10.300604015467798,-0.9122181593452,0.2585487212629059,-0.9708778463978832
0.88,1.5557272730369616,-1.5542569605696577,2.5926825393103665,-0.029204170236785,0.1041173234714057,0.0489765704908764,-0.5281343633275801,0.6964740932484272,-0.8302468770389759,1.5629758970862309,-1.5663755126302437,2.607418944209066,-0.6887626882932497,0.7999480992402311,-0.9333811559432732,0.7457966325939704,0.0854721108192235,0.5089923346025482,-0.5383622746594152,9.983755224556262,-0.9106082630474316,0.2579246768153268,-0.9716973770281798
0.9,1.545183366663469,-1.5402261761761131,2.575927352004143,-0.0279803867777646,0.1041072863660617,0.0492614325208162,-0.5264611922531405,0.7061333177998909,-0.8447129229573362,1.5504006433382471,-1.5515765506633203,2.58982219795678,-0.7287626888892962,0.8399480998362776,-0.9690770514959084,0.8737370956014862,0.0836585537219825,0.4829612275731809,-0.7233022959180158,9.738751131173558,-0.9104826356344788,0.2575421239489627,-0.9713176973039972
0.92,1.535197236579949,-1.5267231759260529,2.559717022656325,-0.0273859331142888,0.1027585222786788,0.0495169171008591,-0.5248895980887143,0.7148065294644563,-0.8609036215719009,1.5358253895604614,-1.5347775886665949,2.5704406569268614,-0.7687626894853427,0.8799481004323241,-1.0047729470485436,0.9217283092425876,0.0785797082213102,0.4336605832282736,-0.809534930728234,9.554015005815018,-0.9118163718524354,0.2575939126620475,-0.9695039419798716
0.94,1.5247176859614675,-1.5123364652317204,2.5423116544300304,-0.0275729347383667,0.0996591520047443,0.0497631654741776,-0.5232463098844774,0.7234711541686265,-0.8788051351755045,1.5212501357826755,-1.5179786266698692,2.551059115896943,-0.8087626900813891,0.9199481010283704,-1.0404688426011788,0.9977979588653012,0.0821644102118435,0.4332312352085088,-0.8950756801801796,9.415924185988844,-0.914709724449704,0.2579918339277024,-0.9666136190695056
0.96,1.514261946983107,-1.4977676263472584,2.5245460549453385,-0.0284454088170989,0.0947027186408391,0.0500053063023748,-0.522709514425962,0.7329733184471278,-0.8968477581084742,1.5056748819899883,-1.5001796646582424,2.5307851774782093,-0.8487626906774355,0.9599481016244168,-1.076164738153814,1.0199454858486685,0.0268397729257685,0.4751082139250628,-0.9021311466484828,9.368521765728474,-0.9186637060205,0.2587724264199162,-0.9629086961268
0.98,1.5037920227556774,-1.483000833140792,2.506419851906556,-0.0295425821553594,0.0884553323937324,0.0502653454047712,-0.5245988619776901,0.7431611188773372,-0.9148533110904836,1.4890996281824,-1.4813807026317145,2.509618841670659,-0.888762691273482,0.9999481022204634,-1.1118606337064492,1.038702134835754,-0.0944673775864046,0.5093900215104696,-0.9002776491004671,9.358968137774356,-0.9238350368735536,0.2596836519079284,-0.9579518006803414
1.0,1.4937874274844158,-1.4687776091192062,2.488866530639693,-0.0304788137329039,0.0820309252319964,0.050532753958366,-0.5286092269899805,0.7534293550883067,-0.9319495923675096,1.4775620796567928,-1.445842777196925,2.460677186352032,-0.6245988634678062,0.8431611203674533,-0.9291104282650492,1.0171068477786214,-0.2005182506145175,0.5134118105484753,-0.8548140638513113,9.358968137774356,-0.9302997748028968,0.2605743097967183,-0.9516232071435587
1.02,1.4831434892069562,-1.453543092520394,2.4704423649067278,-0.0299065946774262,0.0765145659148816,0.0508774391759066,-0.5357109991857063,0.769193922900494,-0.9074055191711138,1.4775620796567928,-1.445842777196925,2.460677186352032,-0.6245988634678062,0.8431611203674533,-0.9291104282650492,1.5011398133544067,-0.3550886097862915,0.788228390609369,1.2272036598197975,9.355555695688054,-0.9385305470944564,0.2564610615364152,-0.9492858478796296
1.04,1.4723407456368252,-1.4380058141497878,2.4525603979123285,-0.0269641214668748,0.0740562982547665,0.0512741007009398,-0.5440995667068692,0.7833251160215132,-0.8824435061657692,1.4775620796567928,-1.445842777196925,2.460677186352032,-0.6245988634678062,0.8431611203674533,-0.9291104282650492,1.494289778924793,-0.4194283760581452,0.706559656050959,1.248100650267231,11.845700827177096,-0.9436634126368892,0.2568026050188786,-0.940375188768218
1.06,1.4613810354703398,-1.4222225951882417,2.435114824261793,-0.022964254038317,0.0740128083133438,0.0516560617134722,-0.5512233247737558,0.7940705639160662,-0.8633112247281299,1.4713160910221148,-1.4374111659932505,2.4513860820693814,-0.6445988637658294,0.8631611206654765,-0.9319618516999624,1.1535345383419606,-0.3561879033443293,0.5372723947276503,0.9566140718819616,11.845700827177096,-0.9462568434116028,0.2558660701176254,-0.9350679412228148
1.08,1.4508521658049525,-1.4070517916735483,2.418848571516842,-0.0192706628028134,0.0751093544467207,0.0519695138094697,-0.5566286784896199,0.8023376543305265,-0.8498616303967835,1.4588241137527589,-1.4205479435859014,2.4328038735040804,-0.6845988643618759,0.9031611212615228,-0.9376646985697888,0.8343473802803192,-0.2702676857932073,0.4133545207230138,0.6724797165673202,11.45084958039388,-0.9469512940525016,0.2544028480552348,-0.9324451520254086
1.1,1.4396708354152263,-1.3909264075950225,2.401963149881131,-0.0159116160561539,0.0766415850637071,0.0522423918917195,-0.5611666201228216,0.8098201141617383,-0.8395571670438385,1.4463321364834023,-1.4036847211785524,2.4142216649387795,-0.7245988649579224,0.9431611218575694,-0.9433675454396152,0.6759476392151775,-0.2268970816600823,0.3741229915605881,0.5152231676472496,11.127402451655144,-0.946799559922262,0.2530931883825271,-0.9310586139953434
1.12,1.4284075427739662,-1.3746591282014486,2.385247394001168,-0.0132155841059542,0.0780085486595852,0.0524591881171884,-0.564934815331671,0.8166118993481912,-0.8326671186129266,1.431840159184244,-1.384821498741401,2.395354314029987,-0.7645988655539688,0.9831611224536158,-0.9490703923094416,0.5191348777804017,-0.1884097604424706,0.3395892593226479,0.3445024215455949,10.87853084377366,-0.9466815242654048,0.2523589133144188,-0.9294894325857374
1.14,1.4170763837961091,-1.358261930543634,2.3686553188154806,-0.0112038777124186,0.078843144176695,0.0526222571371117,-0.5680678651352604,0.8229230785069763,-0.826870912176011,1.4173481818850855,-1.3659582763042497,2.3764869631211947,-0.8045988661500153,1.0231611230496622,-0.9547732391792676,0.4561879889513661,-0.1566524901794708,0.3155589579392548,0.2898103218457792,10.62668335872877,-0.9470599977915646,0.2517256435519941,-0.9280805000531948
1.16,1.4062522770197994,-1.3425622373494943,2.3529955784928696,-0.0096150599200405,0.0790995613225384,0.0527479982223753,-0.5712031447500149,0.8293176426891492,-0.821807192033287,1.401856204571026,-1.3460950538521972,2.357477041040657,-0.8445988667460617,1.0631611236457086,-0.960476086049094,0.4369258833785555,-0.156763980737723,0.3197282091086439,0.2531860071362024,10.62668335872877,-0.9477456035559412,0.2512614668013623,-0.9263616840698878
1.18,1.394791902450988,-1.3259064608596949,2.336611218619808,-0.0080272336815847,0.0789327964414164,0.0528646442101267,-0.5747142028064948,0.8358704593983906,-0.8169112412041177,1.3853642272420652,-1.3252318313852434,2.338324547788373,-0.8845988673421081,1.103161124241755,-0.9661789329189204,0.4450765945950433,-0.1755529028239943,0.3276408354620674,0.2447975414584635,10.60015577518243,-0.948933315981036,0.2508518103787617,-0.924136571177591
1.2,1.3832579899952169,-1.3091218403230556,2.320318777809599,-0.0064438888572065,0.0784310192299762,0.0529688848185377,-0.5785457686288308,0.8421925345845114,-0.8125978880269802,1.366056192310663,-1.284112937889775,2.2957656565596016,-0.6747142042966109,0.9358704608885068,-0.8173493256516413,0.4279443507647363,-0.1915782911168007,0.3161037593060412,0.2156676588568773,10.571573425048882,-0.9504245201611968,0.2504052532361993,-0.9216512696115684
1.22,1.3722064906717806,-1.2930392928760777,2.3050667240938245,-0.0041469072147121,0.0787264430678254,0.0531045904717173,-0.5842816531844496,0.8497898802107186,-0.7930666814793542,1.366056192310663,-1.284112937889775,2.2957656565596016,-0.6747142042966109,0.9358704608885068,-0.8173493256516413,1.086379378262335,-0.2867942277809399,0.3798672813103587,0.9765603273812984,10.534713262278274,-0.9532066709777076,0.2473632459280897,-0.9209842844029066
1.24,1.3604754972643287,-1.2759919089220104,2.2894044229676425,-0.0014234029889379,0.0802480379316639,0.0532503761696331,-0.5883843543025774,0.8545958065930747,-0.7743769040647936,1.366056192310663,-1.284112937889775,2.2957656565596016,-0.6747142042966109,0.9358704608885068,-0.8173493256516413,0.986454338354204,-0.2051350559063913,0.2402963191178053,0.9344888707280286,11.59037600634747,-0.9541650887155002,0.2469129035008839,-0.9179452568724478
1.26,1.3486777047852183,-1.258861209445955,2.2740806370335203,0.0007136822377274,0.0820313477720596,0.0533438311409933,-0.5911471587879839,0.8583620943369741,-0.7590753228430985,1.3593090502676972,-1.2747542332808903,2.2875921633030853,-0.6947142045946341,0.95587046118653,-0.8174369425411461,0.7999318719093546,-0.1381402242703222,0.188314387194971,0.7650790610847558,11.375973393086497,-0.9543685147438864,0.2471481753299968,-0.9153785224114936
1.28,1.336835676753284,-1.2416635857758511,2.259030230366577,0.0019883957339524,0.0834511606442955,0.0533663235179537,-0.5929687318733764,0.8613830546449258,-0.7467149515797978,1.345814766181765,-1.25603682406312,2.2712451767900523,-0.7347142051906805,0.9958704617825764,-0.8176121763201555,0.6426957045411849,-0.0910786542696273,0.1510480153975868,0.6180185631650348,11.157052525989457,-0.9544699371420352,0.2476908079655547,-0.9131843183419144
1.3,1.3255576436697576,-1.2252762631265812,2.244941339760222,0.0021302635158451,0.0841288363617535,0.0533022558123259,-0.5941961564686108,0.8636156465060351,-0.7369384018867645,1.3323204820958328,-1.23731941484535,2.25489819027702,-0.774714205786727,1.0358704623786228,-0.8177874100991649,0.5051533466572984,-0.0613712297617197,0.1116295930554622,0.488827484651666,10.86331280925424,-0.9549282666591324,0.2488273483150702,-0.9108647381923608
1.32,1.3136628896397675,-1.2079848683257712,2.2302978705199994,0.0008074793116554,0.0839441163559203,0.0531222541339477,-0.5953117226784155,0.8655660272042626,-0.7279772368386082,1.316826197980098,-1.2166020055977775,2.2385424420750364,-0.8147142063827735,1.0758704629746692,-0.8179626438781743,0.4619278944185326,-0.0557783104902342,0.0975190349113752,0.448058252407818,10.78038554345676,-0.9561281253420584,0.2509434146191581,-0.9078103219440732
1.34,1.301747355872592,-1.1906518337585643,2.215829170897451,-0.0022628970846188,0.0826574424351411,0.0528172423972502,-0.5963268700832746,0.8681911591956017,-0.7193271509451317,1.3013319138643635,-1.1958845963502052,2.222186693873053,-0.85471420697882,1.1158704635707155,-0.8181378776571837,0.4548236696513976,-0.0507573702429542,0.131256599566959,0.4325042946738244,10.78038554345676,-0.9583309564016244,0.2540996730793855,-0.9036971251897796
1.36,1.2904023988347395,-1.174103834250363,2.2022463516378035,-0.0058091422382728,0.0803560180545095,0.0524913724670524,-0.5979410802207842,0.8736528424139902,-0.7108657807132338,1.2848376297337278,-1.1741671870877315,2.2058265648265944,-0.8947142075748663,1.155870464166762,-0.8183131114361932,0.5099765782546103,-0.0807105068754809,0.2730841609194234,0.4230685115948929,10.77479474883603,-0.9616902580129888,0.2581267811100617,-0.8978396354314155
1.38,1.278418082558885,-1.1565545278610236,2.188125859756338,-0.0092734358683424,0.0768962118960795,0.0521840322137869,-0.6005382428372104,0.880980462859911,-0.7016008520176094,1.267343345588191,-1.1514497778103567,2.1894620549356607,-0.9347142081709128,1.1958704647628084,-0.8184883452152026,0.604727580797015,-0.1298581308213087,0.3663810222960417,0.4632464347812226,10.77479474883603,-0.9665911952530948,0.2622152632309041,-0.8899088306542012
1.4,1.266368616384733,-1.1388467275751046,2.1741939201031326,-0.0121309897117452,0.0725369178254442,0.0519402841086819,-0.6044378285405266,0.8893436334750008,-0.692031627100791,1.248391170417024,-1.112505504718028,2.1530458171554576,-0.7005382443273265,0.9809804643500272,-0.7055909210493247,0.6646793529651457,-0.1949792851658138,0.4181585307544866,0.4784612458409165,10.801777191131803,-0.9724411679690614,0.2658918628254322,-0.8808302625518777
1.42,1.2541677996465084,-1.1208993063707966,2.1605356969931675,-0.012081159189051,0.0694694249623025,0.0518881739530043,-0.6154623028284653,0.9038650104118572,-0.6742369664689145,1.248391170417024,-1.112505504718028,2.1530458171554576,-0.7005382443273265,0.9809804643500272,-0.7055909210493247,1.2738321793620788,-0.5512237143969312,0.7260688468428145,0.8897330315938257,11.393357236999693,-0.9754096883673784,0.2655951040605913,-0.8779531052420018
1.44,1.2423729552304574,-1.1036196935775102,2.1478806982648746,-0.0090305856508092,0.0695048564380003,0.0520029237909583,-0.6251848500724412,0.913956732896931,-0.6587451298355838,1.248391170417024,-1.112505504718028,2.1530458171554576,-0.7005382443273265,0.9809804643500272,-0.7055909210493247,1.0444709066088196,-0.486127362198796,0.5045861242536975,0.7745918316665379,11.393357236999693,-0.9802673248808244,0.2657081861579687,-0.8696445814984353
1.46,1.2297812017795366,-1.0852666814475809,2.1348518657147912,-0.0047768498837941,0.0713802900170749,0.0521718221431555,-0.6332751266539146,0.9206356371047172,-0.6450710343360702,1.2413857879737509,-1.102695700074528,2.145989907944964,-0.7205382446253497,1.0009804646480505,-0.7063889348556678,0.8617441968347359,-0.4045138290736716,0.3339452103893026,0.6837047749756797,11.218386039774488,-0.9818431072682297,0.2644153335372317,-0.8660038478433624
1.48,1.2170470899264183,-1.066805725799428,2.122066197848296,-0.0008517546620631,0.0741148635349109,0.0523112221022515,-0.6396015419414609,0.9251818876297748,-0.6342973219234909,1.2273750230872045,-1.0830760907875272,2.131878089523978,-0.7605382452213961,1.0409804652440968,-0.707984962468354,0.6647646263453959,-0.3163207643773147,0.227312526252893,0.5386856206289647,11.020333014342214,-0.9817672440400688,0.2627091328176603,-0.8651062759288032
1.5,1.2042025679652206,-1.048267206300955,2.1094669416303136,0.0022663494130055,0.0769672163448873,0.0523934450000869,-0.6444881588803395,0.9286449580046092,-0.6261553068120578,1.213364258200658,-1.0634564815005267,2.117766271102991,-0.8005382458174426,1.0809804658401432,-0.7095809900810401,0.5053817656069391,-0.2443308469439298,0.1731535187417143,0.4071007555716543,10.83538560487159,-0.9810259424587564,0.2613615505264705,-0.8652513471261418
1.52,1.191920837281358,-1.0305971452406075,2.0976300853143783,0.0044046244666553,0.0793309415484299,0.0524114112438749,-0.6480970739835968,0.9314001298268352,-0.6202343883727748,1.197353493284309,-1.041836872183724,2.1035746513013702,-0.8405382464134891,1.1209804664361895,-0.7111770176937263,0.3730700844249938,-0.1804457551628668,0.1377585911113032,0.2960459219641498,10.685997620774287,-0.9801554715790132,0.2603319837081029,-0.8656737697745558
1.54,1.17892711418033,-1.0119451548675389,2.085281374880716,0.0057413123191426,0.0811448934469573,0.0523597213846753,-0.651107065746824,0.9337571607033488,-0.6149902763687023,1.1813427283679605,-1.020217262866921,2.0893830314997497,-0.8805382470095355,1.160980467032236,-0.7127730453064125,0.3244855762541299,-0.1504995881613569,0.1178515438256699,0.2622056002036244,10.574765005588231,-0.9796856957045268,0.2597818489465935,-0.8657717420738857
1.56,1.1658735165881406,-0.9932417672119224,2.0730299758373034,0.0062411944982945,0.082228451359297,0.0522404724858468,-0.6541402051534032,0.9364876576012452,-0.6104361414772812,1.1643319634367102,-0.9975976535352168,2.075151511007812,-0.920538247605582,1.2009804676282825,-0.7143690729190986,0.3057600880528116,-0.1516569703289616,0.1365248448948253,0.2277067445710545,10.517598852952688,-0.9796148796990394,0.2598020816311488,-0.865313026525497
1.58,1.152757998929654,-0.9744814303406168,2.060864685975358,0.00614790312201,0.0827495738114943,0.0520714664404418,-0.6573056543368408,0.9394219027147848,-0.6063157186798102,1.146321198490559,-0.9739780441886118,2.060880089825557,-0.9605382482016284,1.2409804682243288,-0.7159651005317847,0.2983611358286101,-0.158272459171882,0.1467122556769728,0.2060211398735523,10.480825614388776,-0.9800867413612986,0.2602369226729881,-0.8641815788120137
1.6,1.1395769801820663,-0.9556594591796306,2.048778780273681,0.0055992642195843,0.0828586426573163,0.0518642311419134,-0.6606789324657529,0.9426337310946624,-0.6024761174512802,1.119892716212812,-0.9275103352048776,2.0305489000413672,-0.757305655826957,1.0394219042049009,-0.5853099149606472,0.3018169332182782,-0.1686639064456041,0.1605914189938939,0.1919800614264999,10.458439652047671,-0.9809844750460764,0.2610618128108414,-0.8623980085487679
1.62,1.1269809932897763,-0.93768055054929,2.037515628883721,0.0059605929586857,0.083327792644676,0.0517271174513643,-0.6648559001407435,0.9492372163124548,-0.5832952787965557,1.119892716212812,-0.9275103352048776,2.0305489000413672,-0.757305655826957,1.0394219042049009,-0.5853099149606472,1.035564637622981,-0.2088483837495269,0.3301742608896096,0.959041932736221,10.441682327436864,-0.9831224338592216,0.259009552014826,-0.8628098422677741
1.64,1.1136513980082103,-0.9186454593603568,2.0260538198172515,0.0075600951909156,0.0844384788035134,0.0516661251222931,-0.6678118899638185,0.9538745945765496,-0.5640282763885588,1.119892716212812,-0.9275103352048776,2.0305489000413672,-0.757305655826957,1.0394219042049009,-0.5853099149606472,1.0018240049881306,-0.1477994911537494,0.2318689132047469,0.9633501203998474,11.485212511138345,-0.9851007132523276,0.2596968421222179,-0.8584353146204947
1.66,1.1002736893988805,-0.8995333997103111,2.014951555210636,0.0094211073023896,0.0854667092240694,0.0516175873394272,-0.669813064664829,0.9571098055963184,-0.5472612868297532,1.1123196596545424,-0.9171161161628284,2.024695800891761,-0.7773056561249801,1.0594219045029238,-0.5811087542168146,0.8596557877887736,-0.1000587350505288,0.1617605509884379,0.8383494779402811,11.343174220017318,-0.9868773855080416,0.2605439775828382,-0.8538260933791403
1.68,1.0868630199499612,-0.880371029436362,2.0041593506305,0.0108939103173656,0.0859549253319347,0.0515318127727013,-0.6712468968329791,0.9590888242292114,-0.5327780391181406,1.0971735465380033,-0.8963276780787305,2.012989602592548,-0.8173056567210266,1.0994219050989704,-0.5727064327291495,0.7343991654946417,-0.0716916084075036,0.0989509316446479,0.724162385580629,11.17761704773602,-0.9885666990040366,0.2612796194385158,-0.8497997015331059
1.7,1.0740983444791703,-0.8621400177328464,1.994159508312708,0.0114505697664119,0.085705974343847,0.0513795778216467,-0.672451984094514,0.9600230990916188,-0.5205487614815042,1.082027433421464,-0.8755392399946325,2.0012834042933347,-0.8573056573170731,1.1394219056950168,-0.5643041112414843,0.6161987024093267,-0.0602543630767449,0.0467137431203745,0.6114638818318197,11.042588428143972,-0.9906954632906048,0.2623540230213637,-0.8454267938893161
1.72,1.0606367958092606,-0.842936958875289,1.983874702294836,0.0107016014431911,0.0845666190136317,0.0511143036423999,-0.6737132510231889,0.96038096598874,-0.5086051045679806,1.0648813202751226,-0.8527508018807322,1.989997322068505,-0.8973056579131196,1.1794219062910631,-0.5559017897538191,0.6007699298595605,-0.0630633464337449,0.0178933448560514,0.5971828456761807,10.943219744126509,-0.9935286504563936,0.2641140298139211,-0.8403890997372548
1.74,1.0471506818979126,-0.8237287363236101,1.9738283410079187,0.0082109952262997,0.0822906532127332,0.0507202455936701,-0.6749757431346027,0.9607521833931998,-0.4966047896554628,1.047735207128781,-0.8299623637668317,1.9787112398436757,-0.937305658509166,1.2194219068871095,-0.5474994682661539,0.6036125551468254,-0.0631246055706913,0.0185608702229944,0.600015745625887,10.881553995379363,-0.9970882401482922,0.266698019556451,-0.834593724502111
1.76,1.0343062594275014,-0.8054462342468186,1.964512179366328,0.0048774371392142,0.0790411487049002,0.0502830801253383,-0.6771431175631548,0.9638932668458988,-0.4846251190388428,1.0295890939675387,-0.8061739256380303,1.9676352156560373,-0.9773056591052124,1.259421907483156,-0.5390971467784887,0.6286422377892502,-0.1083687214276041,0.1570541726349517,0.5989835308310015,10.882642357662007,-1.0020207569387736,0.2706595492195717,-0.8261334892811281
1.78,1.020727527546451,-0.7861149473807472,1.9549593288939888,0.0014980528317794,0.0746961600404174,0.0498478496967195,-0.6807848789113785,0.9690697674081592,-0.471239980862279,1.0104429807913948,-0.7813854874943277,1.956769249505591,-1.0173056597012589,1.2994219080792024,-0.5306948252908236,0.7403048490220129,-0.1820880674111846,0.2588250281130133,0.6692569088281891,10.910400470474087,-1.008331513302969,0.2749241942512182,-0.8154343564397363
1.8,1.007056991914176,-0.7666671357259536,1.9456812883381875,-0.0013056606594059,0.0697656464176445,0.0494736626406716,-0.686276490203692,0.9753624338654496,-0.4571922532278473,0.986688283600882,-0.7376614590103392,1.9313973298508744,-0.7628364615458275,1.0605083216355111,-0.4285410238362742,0.8171506859505057,-0.2745805646156729,0.3146333228645326,0.702386381721587,10.949434417649172,-1.0154575141552644,0.278960363544684,-0.8034548125412782
1.82,0.9931676696166788,-0.746989459458511,1.9367726192320007,-0.0001273904389465,0.0676034354287909,0.0493838990004819,-0.7020151429220101,0.9905515071435524,-0.4343303028112827,0.986688283600882,-0.7376614590103392,1.9313973298508744,-0.7628364615458275,1.0605083216355111,-0.4285410238362742,1.581993926414421,-0.7869326359159046,0.7594536639051297,1.143097520828226,10.979506372475951,-1.0210209898589335,0.2800482486533207,-0.7947454755552744
1.84,0.9796996687129006,-0.7280793784653687,1.928736579065763,0.0050158455374956,0.0702006809575114,0.0495780019842719,-0.7142934984991186,0.9983734422408688,-0.4126962580092521,0.986688283600882,-0.7376614590103392,1.9313973298508744,-0.7628364615458275,1.0605083216355111,-0.4285410238362742,1.3038141919391846,-0.6139177788554273,0.3910967548658217,1.0817022401015313,11.651072388548528,-1.0249816311271929,0.278924760917525,-0.7885299216730024
1.86,0.965313346145943,-0.7080769454881011,1.920701753882676,0.0110933495218598,0.0757925405790257,0.0498603060000021,-0.7232885335273599,1.001394773257584,-0.3920246444376332,0.9790599189854238,-0.7270563757939841,1.927111919612512,-0.7792467780727174,1.0787960324809815,-0.4200012324310733,1.137271629741759,-0.4497517514120641,0.1510665508357545,1.0335806785809447,11.532039028861618,-1.02498877016245,0.2770456249791674,-0.7876805553821942
1.88,0.9507857710667268,-0.6880430663120191,1.91305255657616,0.0163947313447083,0.0827152683149048,0.0501332145733672,-0.7287268768171427,1.0019798992251343,-0.3740450054183691,0.9638031897545072,-0.7058462093612738,1.9185410991357863,-0.8120674111264969,1.1153714541719224,-0.4029216496206713,0.9396613344690636,-0.2719171644891383,0.0292562983775224,0.8989819509632069,11.350603680744824,-1.0228455058904165,0.2753878432166246,-0.7897680312730521
1.9,0.9361838150903136,-0.6680125692975081,1.905735408505128,0.0204225133809245,0.0897269055356423,0.0503471493377647,-0.7310552577919673,1.001369602391123,-0.3585644888998529,0.9485464605235906,-0.6846360429285636,1.9099702786590609,-0.8448880441802765,1.1519468758628633,-0.3858420668102694,0.7833265791953922,-0.1164190487412342,-0.0305148417005685,0.7740258259258087,11.168564128427532,-1.0195893625671464,0.2740923674264846,-0.7932859310062896
1.92,0.9222938885848267,-0.6490000040432685,1.8990543369708168,0.0230540868710976,0.0956708638015082,0.0504707471665575,-0.7309054480858521,1.0002963969704952,-0.3454834039587241,0.9316486996399852,-0.6615971054113063,1.9022534373228557,-0.8777086772340561,1.188522297553804,-0.3687624839998675,0.6562945147948783,0.0074904853057611,-0.053660271031386,0.6540542470564403,11.024573531430178,-1.0163279103384688,0.2734797837215069,-0.7966132619832649
1.94,0.9076956431900826,-0.6290111821569362,1.89228351196622,0.0246195667608078,0.1006338461877434,0.0504971454322298,-0.7289108412815571,0.9988136360006884,-0.3323128619452546,0.9147509387563796,-0.6385581678940491,1.89453659598665,-0.9105293102878358,1.225097719244745,-0.3516829011894656,0.6701496350179713,0.0997303402147486,-0.0741380484903464,0.6585271006734755,10.927355670070938,-1.0138847224123884,0.273624569403758,-0.7986867162806025
1.96,0.8931471123911484,-0.6090471190261365,1.8857724986595925,0.0251099668600182,0.1040847696093445,0.0504150492943572,-0.7260815888427639,0.9977284633867496,-0.3194563877690303,0.8970326620464295,-0.6146048448345183,1.8872467442207048,-0.9433499433416151,1.2616731409356858,-0.3346033183790637,0.6604377283445837,0.1414626219396642,-0.054258630696935,0.6428237088112132,10.885554653037616,-1.012703202494638,0.2747353847705467,-0.7986315662560881
1.98,0.8793832885927175,-0.5900993106545849,1.87982569875439,0.0247640432513228,0.1060290088169929,0.05024783079721,-0.7229886544698017,0.9968920060543476,-0.3071586883806974,0.878493869510135,-0.589737136232714,1.8803838820250196,-0.9761705763953948,1.2982485626266267,-0.3175237355686618,0.6354119021355049,0.1546467186481104,-0.0418228666201059,0.6148849694166458,10.885554653037616,-1.0127888857359495,0.2766745509130949,-0.7965503844755982
2.0,0.8649583944606615,-0.5701681145236384,1.873822360053633,0.0236381156656921,0.1068436259284728,0.0499895171413808,-0.7197551428642331,0.9963303776417176,-0.293792449064039,0.8432338558692274,-0.5402547103518675,1.864467764335355,-0.7424914674663083,1.0170505036709965,-0.2859648357325584,0.6881630934004758,0.1616755802784253,-0.0280814206314927,0.6683119658329212,10.893100567474905,-1.0144981247835367,0.2794535744767944,-0.7920555377704993
2.02,0.8504805213620792,-0.5499789367562257,1.8680230747668127,0.0304020013366755,0.1096000673176663,0.050333555236947,-0.7276848532276673,1.0185725029069552,-0.2872147944638358,0.8432338558692274,-0.5402547103518675,1.864467764335355,-0.7424914674663083,1.0170505036709965,-0.2859648357325584,1.225620233598126,-0.3964855181717075,1.1121062632618806,0.3288827300101576,10.916853333329527,-1.0135500620441509,0.2816031629858468,-0.7863418303138437
2.04,0.8358876978432603,-0.5295708260956538,1.86233045342841,0.0446959109709834,0.1163418701929544,0.0513700630626846,-0.7305827360761719,1.0202748339761392,-0.2823777069099125,0.8432338558692274,-0.5402547103518675,1.864467764335355,-0.7424914674663083,1.0170505036709965,-0.2859648357325584,0.2945041259349613,-0.1448941424252281,0.0851165534591968,0.2418543776961684,10.486622112847726,-1.0103439812739556,0.2719148634134595,-0.7941198339669195
2.06,0.8220125540588,-0.5102284090864272,1.856987773378787,0.0588938369454956,0.1245211244207182,0.052568528605275,-0.7294491755139532,1.0153710956492268,-0.280303472834299,0.8358089411945643,-0.5300842053151575,1.8616081159780296,-0.7463920300656097,1.021082203194326,-0.2817260652029306,0.2721858562062098,0.0566780281109347,-0.2451869163456188,0.1037117037806734,10.395023085628964,-1.0028113244856611,0.2605244181474141,-0.8075342497476979
2.08,0.8074648758409925,-0.4900107773626669,1.8513858141284727,0.0732150428781476,0.1338814220649624,0.0539466569903048,-0.7250343326435869,1.00639478214152,-0.2801306105974754,0.8209591118452382,-0.5097431952417375,1.8558888192633785,-0.7541931552642124,1.0291456022409855,-0.273248524143675,0.5002372514906878,0.2207421435183154,-0.4488156753853389,0.0086431118411778,10.251479479427871,-0.9934420030215804,0.2486621124796648,-0.8230754254685198
2.1,0.7930358911069977,-0.4700238329130903,1.845766131542974,0.0859316378816306,0.1433887890308294,0.0553386868905083,-0.7178069796913918,0.9928971036561828,-0.2819515566353793,0.806109282495912,-0.4894021851683176,1.8501695225487271,-0.761994280462815,1.037209001287645,-0.2647709830844194,0.7709374158485488,0.3613676476097505,-0.6748839242668614,-0.0910473018951946,10.097439328346807,-0.9824516160159632,0.2368251248273511,-0.8402378578972759
2.12,0.7794859687424979,-0.451316715164543,1.840379798399285,0.0958080527771319,0.1522508637744257,0.0565803330439685,-0.7086535419487321,0.9774039273459568,-0.2849587763606168,0.7908693968866557,-0.4686580051425647,1.8448741028870388,-0.7697954056614177,1.0452724003343044,-0.2562934420251638,0.9122325706259826,0.4576718871329877,-0.7746588155113032,-0.1503609862618715,10.097439328346807,-0.9709681441155988,0.2263033763966478,-0.85720038008167
2.14,0.7654404249536221,-0.4319564442214126,1.8346402879897128,0.1039474348839649,0.1610142021421299,0.0577411232137887,-0.6961868040917966,0.9597382661521048,-0.2888734759696508,0.7756295112773993,-0.4479138251168117,1.8395786832253505,-0.7775965308600203,1.0533357993809638,-0.2478159009659082,1.0986582854082598,0.6233368928467764,-0.8832830596925967,-0.1957349804517033,10.070987293044707,-0.9587639950636232,0.2163951166164886,-0.874469724780202
2.16,0.7516771938226251,-0.4129589806714234,1.828818515594945,0.1100054540113107,0.168551324810281,0.0586683094255989,-0.6806628459613369,0.9411801417718152,-0.2931197930033058,0.760194597538178,-0.4269680601148924,1.8344952020901435,-0.7853976560586231,1.0613991984276234,-0.2393383599066526,1.228239049310916,0.7761979065229851,-0.9279062190144792,-0.2123158516827483,10.070231850228993,-0.9469777509654947,0.2075995771821335,-0.8906412423026816
2.18,0.7382523459839208,-0.3943411849438599,1.8229143844016489,0.1141935664225704,0.1742212197212105,0.059272592818574,-0.6627096468823988,0.9219459654618056,-0.2970781945898869,0.7445646556689915,-0.4058207101368065,1.8296236594814177,-0.7931987812572258,1.0694625974742829,-0.230860818847397,1.3303569432798488,0.8976599539469055,-0.9617088155004728,-0.1979200793290558,10.093911157783625,-0.9370572298811976,0.2006933707554734,-0.9037721106342096
2.2,0.7258473588204184,-0.3770141969241714,1.8172397293993456,0.1167058272820726,0.1776167806503757,0.0595112193430437,-0.6441461957048714,0.9032582286799868,-0.3000379706563985,0.7051168636398009,-0.3482438866707696,1.8080604746721545,-0.6744808797034461,0.8776221522916111,-0.2911880146987476,1.325324016996299,0.9281725588763668,-0.9343868390909448,-0.1479888033255771,10.145677523198174,-0.9285259495423251,0.1949087121707776,-0.9148151297968096
2.22,0.7131302555948654,-0.3589858973274842,1.8111050008355136,0.1232483630123988,0.179581604474503,0.0598341742373594,-0.628617813609507,0.89809318543402,-0.3141981787077901,0.7051168636398009,-0.3482438866707696,1.8080604746721545,-0.6744808797034461,0.8776221522916111,-0.2911880146987476,1.0820349050412388,0.7764191047682223,-0.2582521622983447,-0.7080104025695838,10.221329366251666,-0.9194430056680428,0.1897080868543711,-0.9222279469667546
2.24,0.7007348403129531,-0.3411913036648359,1.8046633371843508,0.1335871967537144,0.180343184372525,0.0602530521088612,-0.6117131575362802,0.881108653500751,-0.3291645665015992,0.7051168636398009,-0.3482438866707696,1.8080604746721545,-0.6744808797034461,0.8776221522916111,-0.2911880146987476,1.4126521913947847,0.8452328036613388,-0.8492265966634494,-0.748319389690455,9.45029573472857,-0.9127612828935688,0.1763090368770304,-0.9335748370659248
2.26,0.6886901132063371,-0.3237907032688695,1.7979415875943632,0.1440553187087397,0.1796624362115601,0.0604479113143142,-0.5937064816979937,0.8595374073745174,-0.342322277117626,0.6983720548427664,-0.3394676651478535,1.8051485945251668,-0.6768351262676555,0.8687573896575722,-0.2900099787205198,1.551357778559462,0.9003337919143262,-1.0785623063116756,-0.6578855308013387,9.711814513668289,-0.906988445268334,0.1617909132537311,-0.9441100460323688
2.28,0.6775905211195867,-0.3076998241851973,1.7913289375306587,0.153148065585394,0.1774529439043761,0.0602927010105664,-0.5756872392493471,0.8353945864789578,-0.3530939948447505,0.6848824372486975,-0.3219152221020213,1.7993248342311918,-0.6815436193960744,0.8510278643894943,-0.2876539067640641,1.5996865333644494,0.9009621224323304,-1.2071410447779818,-0.5385858863562271,9.711814513668289,-0.9028673353845306,0.1474669395653915,-0.9530785713489196
2.3000000000000003,0.6662813499898824,-0.29128902726006,1.7841652096180192,0.1612069564247981,0.1731753056288651,0.0596494486575031,-0.5563137278059069,0.8070750219094129,-0.3625904680743136,0.6713928196546286,-0.304362779056189,1.7935010739372168,-0.6862521125244934,0.8332983391214165,-0.2852978348076084,1.7801079228922712,0.9686755721720064,-1.4159782284772435,-0.474823661478152,9.852389719195344,-0.9005155902226724,0.1341898647128221,-0.960076117246906
2.32,0.6553516396042889,-0.2754736545615714,1.776838172184873,0.1673421129205636,0.1669172049521667,0.0584686753133531,-0.5380740828887693,0.7762819619860971,-0.3695615802461724,0.6576677774041387,-0.2876968122737607,1.7877951172410649,-0.6909606056529123,0.8155688138533387,-0.2829417628511527,1.8231110711204763,0.9119822458568794,-1.5396529961657912,-0.3485556085929403,9.991952216465506,-0.8999778833717808,0.1225060213003393,-0.964975529304632
2.34,0.6447642103241895,-0.2602918707242906,1.7693941801099171,0.1715732594415734,0.1593896768121213,0.0568651029787969,-0.521945317409194,0.743882797599104,-0.3743996589464483,0.6439427351536489,-0.2710308454913323,1.7820891605449125,-0.6956690987813312,0.7978392885852608,-0.280585690894697,1.825684758098043,0.8064382739787657,-1.6199582193496542,-0.241903935013793,10.14639289304978,-0.9017317137836705,0.1134938589567595,-0.9669879993554908
2.36,0.6349834730932374,-0.2464835733953136,1.762253356848777,0.1738466193154298,0.1516686655604551,0.055065415738912,-0.5086856432799187,0.7117449808759826,-0.3769272395017493,0.6300999805749485,-0.2548081168406059,1.7764421056476716,-0.7003775919097501,0.780109763317183,-0.2782296189382413,1.7428761324367352,0.6629837064637656,-1.606890836156072,-0.12637902776505,10.272343020596054,-0.9054887420712108,0.106118796379522,-0.9669244479330538
2.38,0.6249376048137596,-0.2326171689333196,1.7547053395943013,0.1744006989389635,0.1434589112421551,0.052989742000648,-0.4968470801491458,0.6767834357128495,-0.3776000752294302,0.6161395136680378,-0.2390286263215815,1.7708539525493423,-0.705086085038169,0.7623802380491052,-0.2758735469817855,1.845883206700477,0.5919281565386431,-1.748077258156655,-0.0336417863840476,10.40129627065744,-0.9108253341317936,0.1010561452909338,-0.9649203928932822
2.4,0.615107537891763,-0.2194710290526545,1.7471662044034528,0.1724110428571255,0.1355655998388727,0.0507782324488993,-0.4869662245467106,0.6400593063590013,-0.3761876258103222,0.6000952508063023,-0.1987779971476772,1.7358253358328295,-0.5277583357770164,0.6285199641392583,-0.3385878666484594,1.9028189598565903,0.4940427801217617,-1.8362064676924084,0.0706224709554004,10.64787748010258,-0.9164136413338024,0.0984238785977123,-0.962399654938557
2.42,0.6059260512511128,-0.2076521664658687,1.7399952575116728,0.1678526668386201,0.1286321205843738,0.0486053982306772,-0.4801496512274664,0.6068696630113387,-0.3785396833316347,0.6000952508063023,-0.1987779971476772,1.7358253358328295,-0.5277583357770164,0.6285199641392583,-0.3385878666484594,1.6981977740720011,0.3408286659622117,-1.6594821673831306,-0.1176028760656228,10.64787748010258,-0.9210185837924556,0.0988424203352701,-0.9598820035698422
2.44,0.5963906200012432,-0.1958543895415396,1.732440342189853,0.1616896602221579,0.1219577950933809,0.0463686937043258,-0.4738919202222787,0.5750039723495196,-0.3765371530138891,0.6000952508063023,-0.1987779971476772,1.7358253358328295,-0.5277583357770164,0.6285199641392583,-0.3385878666484594,1.626800207740276,0.3128865502593836,-1.593284533090955,0.1001265158872777,10.378588598172428,-0.928358403297404,0.1014480207863879,-0.9544292674942884
2.46,0.5869699914704718,-0.1846770126838834,1.7249723545061968,0.1550733821157088,0.1158248229932066,0.0442369470806805,-0.4686230875154129,0.544605212058846,-0.3701462346193649,0.5948176674485322,-0.1924927975062846,1.732439457166345,-0.5339405869025905,0.61886726982454,-0.3307854249322653,1.5753484243400244,0.2634416353432922,-1.5199380145336785,0.3195459197262107,10.861978547547553,-0.935603214462298,0.1050473178979569,-0.9484324584346708
2.48,0.5776433596442971,-0.1740945291446136,1.7176697070156906,0.1483214317808275,0.1102250411948411,0.0422284127025003,-0.464463290462931,0.5154146394408844,-0.3602642353670909,0.5842625007329919,-0.1799223982234994,1.725667699833376,-0.5463050891537387,0.5995618811951036,-0.315180541499877,1.5548692473197478,0.2079898526240908,-1.4595286308980826,0.4940999626136977,10.861978547547553,-0.9425350011910436,0.1091167774655373,-0.942131539941208
2.5,0.5683863840010969,-0.1640833988811555,1.7105963279613683,0.1415637099206851,0.1052625865182105,0.040362476931516,-0.4616077792950117,0.4874378218507714,-0.347526842131472,0.5737073340174516,-0.1673519989407142,1.718895942500407,-0.5586695914048869,0.580256492565667,-0.2995756580674887,1.543613822284705,0.1427755583959661,-1.39884087950565,0.636869661780945,11.044189538683897,-0.9496363225971418,0.1138180251397077,-0.9352203013950204
2.52,0.5596321606620909,-0.1550785091677738,1.7041325202326345,0.1352283896689614,0.1013236880958216,0.0387471049425163,-0.4601565252660317,0.4620660108216154,-0.3334740201727432,0.5625339421893538,-0.1557468690894009,1.712904429339057,-0.5710340936560352,0.5609511039362305,-0.2839707746351004,1.4519958145252727,0.0725627014490026,-1.2685905514577989,0.7026410979364434,11.1863521989344,-0.9562726151253164,0.1187456900272079,-0.9284025826096436
2.54,0.5504342873616186,-0.1461048727241627,1.6976309563177263,0.1287492062408117,0.09821859899404,0.0372385540853811,-0.4598212199076715,0.4368197785000756,-0.3173434359034073,0.5513605503612561,-0.1441417392380876,1.706912916177707,-0.5833985959071833,0.5416457153067941,-0.2683658912027121,1.4980657737451415,0.0167652679180091,-1.2623116160769914,0.8065292134667917,11.293304201991305,-0.9620569000509028,0.1238422413642818,-0.9220349074177824
2.56,0.5412305809410495,-0.137624686871597,1.6914620589019418,0.1224285444003442,0.0964624965877326,0.0359456308562659,-0.4605832037372185,0.4126915796556388,-0.3002887931258834,0.5398780459768796,-0.1330192441025101,1.7013115251021669,-0.5957630981583316,0.5223403266773575,-0.2527610077703238,1.4778459316705863,-0.0380991914773504,-1.2064099422218393,0.8527321388761971,11.399979341030305,-0.9669944584737388,0.1290588081021428,-0.9162744864013505
2.58,0.532012030893937,-0.1296131007424422,1.6856422787023335,0.1161895037794184,0.0960460894483041,0.0348452479845577,-0.4611127296592297,0.3899327406744736,-0.2825029219825988,0.5280864290362244,-0.1223793836826686,1.6961002561124363,-0.6081276004094798,0.5030349380479211,-0.2371561243379354,1.444456958339542,-0.026476296100561,-1.1379419490582576,0.8892935571642308,11.399979341030305,-0.9710320177957596,0.1343133022327506,-0.911127106047922
2.6,0.5232507861663632,-0.1224090607864527,1.6804478668196468,0.1103770680635837,0.0964563727339447,0.0339166668357972,-0.4610300258832526,0.3697206501448043,-0.2651381723039902,0.5089563944109755,-0.1101164637087185,1.6715171326032037,-0.4682117802220585,0.3706738038073557,-0.2287131275375609,1.3323569106050803,0.0041351887988566,-1.0106045264834662,0.8682374839304285,11.42154149070666,-0.9743477698827808,0.1398182555991008,-0.9065252921517536
2.62,0.513979457746574,-0.1152518522493756,1.6752720145539186,0.1034213385104892,0.0990344135879254,0.0331222482792765,-0.4658440118590605,0.3478451117906694,-0.253591568649483,0.5089563944109755,-0.1101164637087185,1.6715171326032037,-0.4682117802220585,0.3706738038073557,-0.2287131275375609,1.2599977135026683,-0.2406992987903949,-1.0937769177067458,0.577330182725358,11.432363280182471,-0.9701061742876136,0.1444226439594246,-0.910480421355652
2.64,0.5046410839483862,-0.1084898356647927,1.6703384720592729,0.0957545159909076,0.1044715499411221,0.0325622154553008,-0.4673356992405065,0.3297761938834077,-0.2402714792602048,0.5089563944109755,-0.1101164637087185,1.6715171326032037,-0.4682117802220585,0.3706738038073557,-0.2287131275375609,1.1248730005223804,-0.0745843690723002,-0.9034458953630836,0.6660044694639113,11.012005367496386,-0.970467020225132,0.1508406989801791,-0.9092273821842614
