t,x,y,z,roll,pitch,yaw,v_x,v_y,v_z,ref_x,ref_y,ref_z,ref_v_x,ref_v_y,ref_v_z,a_com,a_x,a_y,a_z,thrust,wind_x,wind_y,wind_z
0.0,0.376463452147295,-0.8452645361126304,2.7516919879622,0.0283278338935326,0.1001653804216129,0.0431014780401207,0.0052013398220982,-0.0078175406935072,0.0191827243305049,0.3766165752932214,-0.8454651961646262,2.7522733162674453,-0.0545817572813775,0.0929573058593852,-0.0806750897825832,1.067877323454964,0.260066991104914,-0.3908770346753638,0.9591362165252486,10.23776255075336,-0.9448330005930624,0.2592159987693876,-0.8698675579500613
0.02,0.376645836911366,-0.8456457699386651,2.7518317943620354,0.0182142095495002,0.0970587289367915,0.0423243516048182,0.0133523486957656,-0.0267632062015635,-0.0042431211668773,0.3766165752932214,-0.8454651961646262,2.7522733162674453,-0.0545817572813775,0.0929573058593852,-0.0806750897825832,1.5605667435814654,0.4075504436833686,-0.9472832754028142,-1.171292274869114,10.2381434216486,-0.9424466421619236,0.2631530120278282,-0.8749539056042251
0.04,0.3769686987233448,-0.8461874789034207,2.7514482114131287,0.0013937740884313,0.0877843708088305,0.0411052437421476,0.017614814068763,-0.0257274569643131,-0.0329878097008319,0.3766165752932214,-0.8454651961646262,2.7522733162674453,-0.0545817572813775,0.0929573058593852,-0.0806750897825832,1.4538728507442875,0.2131232686498715,0.0517874618625225,-1.4372344266977306,8.8923977759855,-0.9407734191920076,0.2739788217606085,-0.8752931779833281
0.06,0.3773046091771571,-0.8466297418588336,2.750483630959639,-0.0157301526877052,0.0747922200232488,0.0401037034139239,0.0151380126019423,-0.0182058474478083,-0.0620314164599876,0.3760707577204076,-0.8445356231060324,2.7514665653696198,-0.0665247116428162,0.1129573061574084,-0.1006750900806064,1.5051912244008203,-0.1238400733410392,0.3760804758252392,-1.4521803379577858,8.676082051830235,-0.9429225389969804,0.2838603123156932,-0.8737737884522179
0.08,0.377518132195952,-0.8468775503080362,2.7490326992060523,-0.0313492063980562,0.0613914027359456,0.0394784344765947,0.0071456591245178,-0.0079800291825799,-0.0892774550358655,0.3749791225747801,-0.8426764769888447,2.749853063573968,-0.0904106203656937,0.1529573067534549,-0.1406750906766529,1.5089662781021682,-0.3996176738712201,0.5112909132614206,-1.3623019287938951,8.67748871652384,-0.9476848708612184,0.2925329006874059,-0.8704585871836563
0.1,0.3775284345395143,-0.8469006580221833,2.746947002540587,-0.046993171444997,0.0479172094365882,0.0391279672437649,-0.0059765751759539,0.0054373562437924,-0.1178853738053058,0.3738874874291525,-0.840817330871657,2.748239561778316,-0.1142965290885712,0.1929573073495014,-0.1806750912726993,1.710725197858502,-0.656111715023592,0.6708692713186175,-1.4303959384720155,8.711478605203865,-0.9540400006928076,0.3011802206844377,-0.865874134356389
0.12,0.3772342291829235,-0.8466284383315209,2.7442919946806663,-0.0618465775325847,0.0362528637527855,0.0389936893305993,-0.0229182964382043,0.0214063102705686,-0.1462012242596896,0.3716015568473811,-0.836958184724667,2.7446260599528625,-0.1381824378114487,0.2329573079455478,-0.2206750918687458,1.8329053432952476,-0.8470860631125211,0.798447701338812,-1.4157925227191892,8.738513328694353,-0.9595397526487408,0.3086243068006375,-0.8629027593527159
0.14,0.3765692746802854,-0.8460041117869754,2.7410652173780297,-0.075719972801427,0.0271311888951516,0.0389692578899319,-0.0426253397233929,0.0403449186955042,-0.1751019178690246,0.3693156262656097,-0.833099038577677,2.7410125581274083,-0.1620683465343262,0.2729573085415943,-0.2606750924647922,1.9888995293993577,-0.9853521642594304,0.9469304212467802,-1.4450346804667489,8.783947521788377,-0.9639592454172066,0.3157850712037354,-0.8617409984286685
0.16,0.3755484866264398,-0.8450161043539538,2.737457705712484,-0.0871711633846069,0.0212497862920022,0.0389877266618627,-0.0638040970212082,0.0622766533062182,-0.2032004504578939,0.3664325479657663,-0.8282398924157858,2.7363990562870533,-0.1859542552572037,0.3129573091376407,-0.3006750930608386,2.073082413558555,-1.058937864890762,1.096586730535699,-1.4049266294434677,8.781300235505114,-0.9655945430347648,0.3221719999257545,-0.8634812158976746
0.18,0.3740185032480826,-0.8435081086521466,2.733076737473386,-0.0969727180026236,0.0187356609511213,0.0389201868412791,-0.0879626825278049,0.0870723664572885,-0.2334293835939518,0.3629523219478511,-0.8223807462389934,2.730785554431797,-0.2098401639800812,0.3529573097336871,-0.3406750936568851,2.297962707973064,-1.2079292753298367,1.239785657553513,-1.5114466568028908,8.79321201027551,-0.9644485256657576,0.3262911056063446,-0.8701539731007205
0.2,0.3720105911454335,-0.8414886928437779,2.728090288115832,-0.1045129236356749,0.0200525089635945,0.0386671306813831,-0.1111937319104881,0.1132955940839184,-0.263652845229937,0.3696203691216924,-0.8391544903292822,2.7214052682936885,-0.1280894942407852,0.1870723679474046,-0.3334293850840679,2.313437353723128,-1.1615524691341623,1.3111613813314973,-1.511173081799262,8.794448827092765,-0.9609924921841054,0.3287457066399546,-0.8798981819405257
0.22,0.3694858423547528,-0.838782886150083,2.722659727931425,-0.1055828399709747,0.026537673404894,0.038324982702521,-0.138872682885297,0.1533049426704889,-0.2775272126738544,0.3696203691216924,-0.8391544903292822,2.7214052682936885,-0.1280894942407852,0.1870723679474046,-0.3334293850840679,2.5295110067740434,-1.3839475487404405,2.0004674293285243,-0.6937183721958701,9.858697250726893,-0.9587057517565613,0.3286376187478528,-0.8838927294887203
0.24,0.3666409842075492,-0.835560647770731,2.7172500757389604,-0.1007780775049734,0.0372524871029463,0.03795330310612,-0.1585296601802001,0.1826980202093704,-0.2911006790248825,0.3696203691216924,-0.8391544903292822,2.7214052682936885,-0.1280894942407852,0.1870723679474046,-0.3334293850840679,1.8937982682703591,-0.982848864745156,1.4696538769440717,-0.6786733175514037,9.858697250726893,-0.9507730397727452,0.3233252994641354,-0.8963095316214837
0.26,0.3633034372456891,-0.8316426147037328,2.7112547610554563,-0.0940526258433945,0.0507567528598928,0.0375292226844168,-0.1736312689809787,0.2072709720638499,-0.3078331779074434,0.3683394741792845,-0.8372837666498082,2.718070974442848,-0.1361148565833812,0.2070723682454278,-0.3534293853820912,1.6672320399911518,-0.7550804400389285,1.2286475927239762,-0.8366249441280449,9.651815629713385,-0.939510866170392,0.3172322146253755,-0.9112333968135498
0.28,0.3597121533385939,-0.8272708754998326,2.704893297940826,-0.0874334771800643,0.0650981030505552,0.0371134540561489,-0.1842861349561154,0.2286602935847459,-0.3274762981878406,0.3657776842944688,-0.8335423192908601,2.7114023867411663,-0.1521655812685733,0.2470723688414743,-0.3934293859781376,1.5466749969067066,-0.5327432987568395,1.0694660760448018,-0.9821560140198582,9.291849968532006,-0.9263767304780204,0.3114688100740175,-0.9276811919425516
0.3,0.3561396370319343,-0.8227411122316438,2.69846219435649,-0.0818144243460655,0.078728253479529,0.0367553576928473,-0.1909088155025076,0.2471863590602066,-0.3485315355180778,0.3632158944096531,-0.829800871931912,2.704733799039485,-0.1682163059537654,0.2870723694375208,-0.433429386574184,1.4408313734205969,-0.3311340273196073,0.9263032737730352,-1.0527618665118614,9.162429764096489,-0.911100875508042,0.3057819150804745,-0.94607490389156
0.32,0.3522856876887038,-0.8176061935063664,2.6912367686802305,-0.0767980375051527,0.092309396806334,0.0364526609798781,-0.1938542545321425,0.2654169421795264,-0.37305554531767,0.3598515682905778,-0.8240594245431616,2.6960652113080013,-0.1842670306389575,0.3270723700335672,-0.4734293871702305,1.5349729872201454,-0.1472719514817436,0.9115291559659856,-1.226200489979609,9.162429764096489,-0.8953882721925597,0.3005625509699356,-0.9645755639052176
0.34,0.3484105598458363,-0.8121145133057052,2.683504905686863,-0.0726955036812349,0.1043146286095933,0.0362646288942801,-0.1933411210724409,0.2829299006952802,-0.398996428992141,0.3564872421715025,-0.8183179771544112,2.6873966235765177,-0.2003177553241497,0.3670723706296137,-0.513429387766277,1.5651649016432885,0.0256566729850776,0.8756479257876898,-1.297044183723553,9.045354832330304,-0.8807284323686247,0.2962331791314492,-0.981375636545367
0.36,0.3445741885390191,-0.8062696665592465,2.6752432110000592,-0.0691266232322962,0.1142784784640718,0.036227631107545,-0.1903058848065008,0.300620701491076,-0.4259122542534757,0.3527216479352973,-0.8115765297507597,2.6777280358301327,-0.2163684800093418,0.4070723712256601,-0.5534293883623234,1.6175898286380492,0.1517618132970064,0.884540039789794,-1.3457912630667312,8.974073120260982,-0.867317284717115,0.2925494747196914,-0.9958712868623282
0.38,0.3410030087882129,-0.8003915939551431,2.666888863658054,-0.0658947320113205,0.1217601164992831,0.0363447596956922,-0.1857940987751611,0.3171405045189724,-0.4521722324786437,0.3485547855819624,-0.8038350823322069,2.6670594480688465,-0.2324192046945339,0.4470723718217065,-0.5934293889583698,1.567519187808704,0.2255893015669849,0.8259901513948176,-1.3129989112584006,8.954421450713198,-0.8556649440528424,0.289070602520153,-1.0083667421310842
0.4,0.3373470925644148,-0.7938716482895698,2.657547272305852,-0.0625845303280502,0.1276367167041987,0.0366118947442994,-0.1800491800891949,0.3338926462509875,-0.4806568161589089,0.3317133038494548,-0.7845345687291945,2.6442802520341218,-0.1981164389357694,0.4171405060090885,-0.5521722339687598,1.6770583254287244,0.2872459342983108,0.8376070866007557,-1.424229184013262,8.954421450713198,-0.8455450941890726,0.2856571041516165,-1.0193565094873949
0.42,0.3338021966348483,-0.7870143652763785,2.64782616363204,-0.0594491847544464,0.1328128468345867,0.0369241335435716,-0.1744635010054877,0.3510181125861244,-0.4890233924619883,0.3317133038494548,-0.7845345687291945,2.6442802520341218,-0.1981164389357694,0.4171405060090885,-0.5521722339687598,0.993077296912633,0.2792839541853581,0.8562733167568448,-0.4183288151539704,8.922722349421747,-0.8367801786840859,0.2812725807458906,-1.0307925645895464
0.44,0.3303866960232177,-0.7798337615975426,2.637939713878426,-0.0569805361632639,0.138315677523806,0.0371801021648052,-0.1672101858119262,0.3664526909964976,-0.4993540656659925,0.3317133038494548,-0.7845345687291945,2.6442802520341218,-0.1981164389357694,0.4171405060090885,-0.5521722339687598,0.9969448340442892,0.3626657596780755,0.7717289205186578,-0.5165336602002107,10.138404270061985,-0.8287583881527208,0.2799567010406657,-1.0370293180876589
0.46,0.327292397392375,-0.7727252409152384,2.6283164626329696,-0.0552598939668581,0.143238761682368,0.0374030656532256,-0.158815187890633,0.3811236308503212,-0.5131150456020003,0.3297321394600971,-0.7803631636691036,2.6387585296944343,-0.200580906967891,0.4371405063071117,-0.572172234266783,1.0898130976138012,0.4197498960646584,0.7335469926911836,-0.6880489968003861,9.895260090017471,-0.8214548408256294,0.2793001663070983,-1.0423381585406366
0.48,0.3242192463873224,-0.7649453626854044,2.617871050326315,-0.0539502118098416,0.1476344224721296,0.0376493447033929,-0.1489129084539948,0.3961035921557387,-0.5308536689190855,0.3257698106813818,-0.7720203535489218,2.627715085015059,-0.2055098430321343,0.4771405069031582,-0.6121722348628295,1.262055006664241,0.4951139718319106,0.7489980652708728,-0.88693116585426,9.679555359529331,-0.8153804152793339,0.2789795082807956,-1.0466546176586042
0.5,0.3213528044748827,-0.7568698919382143,2.6070429619600763,-0.0532198485343341,0.150961279893081,0.0379131130342032,-0.1382454720966056,0.410708898259938,-0.5511719318970595,0.3218074819026664,-0.7636775434287401,2.616671640335684,-0.2104387790963777,0.5171405074992046,-0.6521722354588759,1.3600928049938532,0.5333718178694588,0.730265305209965,-1.0159131488987003,9.506613283269871,-0.8099848286917373,0.2789774938568344,-1.0506939219019678
0.52,0.3187046702583632,-0.7485059618967242,2.595785703244211,-0.0531514075152426,0.153080207036503,0.038193164467842,-0.1271979154235225,0.4250095304618853,-0.5735307690391673,0.3175987063207388,-0.753334733278756,2.603628195626506,-0.215367715160621,0.5571405080952511,-0.6921722360549224,1.4374232050510174,0.5523778336541552,0.7150316100973636,-1.1179418571053923,9.286326631426164,-0.8065063175140391,0.2798219809051415,-1.0526546016045504
0.54,0.3162793535797634,-0.7398567029567834,2.584074440585867,-0.0538120951257804,0.154014493159585,0.0384830421309476,-0.1160062283468768,0.4392700392082074,-0.5964726660583064,0.3133899307388113,-0.7429919231287718,2.590584750917329,-0.2202966512248643,0.5971405086912975,-0.7321722366509689,1.4619735019505935,0.5595843538322876,0.7130254373161088,-1.1470948509569534,9.286326631426164,-0.8042189891209703,0.2812356617970269,-1.0536667996659723
0.56,0.3141825232001995,-0.7313639922459094,2.572521279702537,-0.0548159250653492,0.153852439696515,0.0387876580596079,-0.1053501850115109,0.4539243012498499,-0.6184922010726276,0.3090579317552776,-0.7316491129638866,2.57654130619325,-0.2252255872891076,0.6371405092873439,-0.7721722372470152,1.4257967753130492,0.5328021667682925,0.7327131020821248,-1.1009767507160595,9.261856734470712,-0.8033703715989703,0.2831831285568429,-1.0532902092035508
0.58,0.3121926515129595,-0.7221155045984289,2.559903845878519,-0.0558063144927551,0.1525392993284413,0.0391760324481156,-0.0942567216810116,0.4701176242827902,-0.6421018795534608,0.3046027093701379,-0.7193063027841002,2.5614978614542703,-0.2301545233533509,0.6771405098833904,-0.8121722378430617,1.5351755253737325,0.5546731665249688,0.8096661516470149,-1.1804839240416587,9.253526723462528,-0.8040314911564471,0.2852018101334559,-1.0515333426168942
0.6,0.3104228855878806,-0.7125331339739246,2.546811427439609,-0.0562962145997169,0.1499290462561159,0.0396723950334877,-0.0833539951892816,0.4872308021582252,-0.6659482928854177,0.3074798154289089,-0.6986096233842893,2.527798751900846,-0.1498585532065758,0.5701176257729064,-0.7421018810435769,1.5655524031059125,0.5451363245864995,0.8556588937717463,-1.192320666597846,9.228918432882892,-0.8064901373246149,0.2866934711375994,-1.0485064452848518
0.62,0.3089476212052491,-0.702559545790912,2.533447884087785,-0.0549612422703119,0.144249233256767,0.0404629945661816,-0.0649783938083203,0.5089886982833786,-0.6680298881842526,0.3074798154289089,-0.6986096233842893,2.527798751900846,-0.1498585532065758,0.5701176257729064,-0.7421018810435769,1.4277620677944587,0.9187800690480654,1.0878948062576692,-0.1040797649417446,9.21608126686533,-0.8083606318495679,0.2831337428900334,-1.0521396678392991
0.64,0.3078641775402098,-0.6927043880181074,2.520718537488192,-0.0517333570656367,0.1348996563051072,0.0415386097278626,-0.0506842373872697,0.5268743922624248,-0.6718224652989089,0.3074798154289089,-0.6986096233842893,2.527798751900846,-0.1498585532065758,0.5701176257729064,-0.7421018810435769,1.1603928193419768,0.7147078210525296,0.8942846989523134,-0.1896288557328151,10.265543303786217,-0.8182597549071354,0.2842270871319826,-1.039216308030696
0.66,0.3069628243655236,-0.6819970597863007,2.507200526852789,-0.0477739256405004,0.1223329770079456,0.0427933197269225,-0.0408242845127041,0.5427369552480131,-0.6799176337854278,0.3059812298968432,-0.6929084471265603,2.52037773309041,-0.1609789195116886,0.5901176260709295,-0.7621018813416001,1.017805639581471,0.4929976437282782,0.7931281492794151,-0.4047584243259461,9.979433713707294,-0.8316255251159788,0.2841511120809715,-1.024276617815803
0.68,0.3062036623520853,-0.6709930248817647,2.4934769793743907,-0.0439522798886173,0.1082764316886602,0.0440389576004746,-0.0361138347631676,0.5568154919234011,-0.6919515495402412,0.3029840588327117,-0.6815060946111021,2.5055356954695385,-0.1832196521219143,0.630117626666976,-0.8021018819376465,0.9555216640101593,0.2355224874768243,0.7039268337693971,-0.6016957877406692,9.979433713707294,-0.8461580149577588,0.2836593155391916,-1.008969693775563
0.7000000000000001,0.3054871371029372,-0.6597218909530229,2.479480647809569,-0.0405195510980852,0.0938201386176778,0.0452046276263503,-0.0361934906205367,0.569601529495488,-0.7070335294532054,0.2999868877685802,-0.670103742095644,2.490693657848667,-0.2054603847321399,0.6701176272630225,-0.842101882533693,0.9886293794257394,-0.0039827928684524,0.6393018786043481,-0.7540989956482114,9.559257493098812,-0.8619570187075627,0.2829969617978394,-0.9926435755576484
0.72,0.3047635258564796,-0.6487876398236492,2.4658802729199034,-0.0377169244290228,0.0804848034369774,0.0462053479632641,-0.0402453540744357,0.580783940933703,-0.7238045760517796,0.2958776800739374,-0.6567013895503836,2.473851620197993,-0.2277011173423656,0.710117627859069,-0.8821018831297395,1.0280222845762033,-0.2025931726949498,0.5591205719107484,-0.8385523299287101,9.407473845476488,-0.8771267677786502,0.281836748440182,-0.9777844388064956
0.74,0.3038820920312806,-0.6370574823701861,2.4512057115825017,-0.0353244028466837,0.0674323770670393,0.0471315747956173,-0.0479653540764312,0.5917030219863513,-0.7428195931726805,0.2917684723792946,-0.6432990370051231,2.4570095825473195,-0.2499418499525914,0.7501176284551154,-0.922101883725786,1.1623205314942917,-0.386000000099778,0.5459540526324136,-0.9507508560450462,9.407473845476488,-0.890963394497899,0.2801792750702235,-0.9652112974508792
0.76,0.3028108997056596,-0.6251063652794665,2.43614059744765,-0.0332430028170236,0.0558495150938688,0.0479423114080199,-0.0589504162236992,0.6027853465655284,-0.7627640644433179,0.2871032463693961,-0.6288966844449615,2.4391675448817445,-0.272182582562817,0.7901176290511618,-0.9621018843218324,1.266166895321122,-0.5492531073633973,0.5541162289588564,-0.9972235635318684,9.32580726922788,-0.903311008355047,0.278237925603916,-0.9544989209342292
0.78,0.3014905748976411,-0.6129366050897443,2.4206664458987137,-0.0311672401091022,0.0461341156689932,0.0486537243642177,-0.0718605518083521,0.6130015232548631,-0.7825921991689275,0.281882002044242,-0.6134943318698988,2.420325507201268,-0.2944233151730427,0.8301176296472083,-1.0021018849178789,1.2886007854051948,-0.6455067792326463,0.5108088344667361,-0.9914067362804811,9.27768830621153,-0.9134617176474412,0.2759716048228704,-0.9462462342867022
0.8,0.2999655045187433,-0.6011822340738742,2.4055690406779315,-0.0291722133084277,0.0387751151677757,0.0492417988683529,-0.087279440486903,0.6231608759430463,-0.804509325853158,0.2978975473072235,-0.5822865289270012,2.3815368359402678,-0.1453108414750048,0.7064422869071878,-0.8825922006590436,1.43292970624613,-0.7709444339275451,0.5079676344091566,-1.0958563342115255,9.230249377550535,-0.9223346941446788,0.273178264961604,-0.9397532996304068
0.8200000000000001,0.298023088323137,-0.5885785013070924,2.3894915533301475,-0.0259932926781322,0.0339846492604732,0.0498195117137746,-0.1063538779978273,0.6360532032577245,-0.8008219646080588,0.2978975473072235,-0.5822865289270012,2.3815368359402678,-0.1453108414750048,0.7064422869071878,-0.8825922006590436,1.165807555837171,-0.9537218755462152,0.6446163657339132,0.1843680622549637,9.17130174265276,-0.9222926783839608,0.264339881098751,-0.9513176569499056
0.84,0.2956882350976516,-0.5757626711531757,2.3734857274981893,-0.022186821250501,0.0334754720666222,0.0503007816380429,-0.125624446932581,0.6449226614790327,-0.8000444088425591,0.2978975473072235,-0.5822865289270012,2.3815368359402678,-0.1453108414750048,0.7064422869071878,-0.8825922006590436,1.0613984986529397,-0.963528446737684,0.4434729110654067,0.0388777882749824,10.817719693468462,-0.9262068558031624,0.2626392027628331,-0.9456949164678448
0.86,0.2931336535695363,-0.563438219427408,2.358239244863818,-0.0189828714898752,0.0359297756003446,0.0506498050506167,-0.1419874032440015,0.6520458232265951,-0.8048490511357351,0.2964444388924734,-0.5752221060579293,2.372710913933677,-0.1600008994083353,0.7251304396376528,-0.9025922009570668,0.9240811112894364,-0.8181478155710242,0.3561580873781222,-0.2402321146588004,10.42774463243859,-0.9275781962166384,0.2607724841839601,-0.9431027866332548
0.88,0.2901322582202485,-0.5503276928420392,2.34204451536436,-0.0162497192213745,0.0404661289285479,0.0509296032276042,-0.1570133969089074,0.6587373084828846,-0.8145687121175256,0.2935382220629733,-0.5610932603197856,2.3550590699204963,-0.1893810152749964,0.7625067450985826,-0.9425922015531132,0.9552856511979452,-0.7512996832452975,0.3345742628144743,-0.4859830490895223,10.071608045571338,-0.9264749395096464,0.2588496640744139,-0.9439000276596886
0.9,0.2868522501077708,-0.5370878292545291,2.3256120283775137,-0.0142108047771834,0.0461256927239784,0.0511392185581341,-0.1700048691312414,0.6650314112086451,-0.828348815435212,0.2906320052334732,-0.5469644145816418,2.3374072259073158,-0.2187611311416575,0.7998830505595125,-0.9825922021491598,0.9978543569482148,-0.6495736111167008,0.3147051362880237,-0.689005165884321,9.788148450125846,-0.9235741610485444,0.2570898709220048,-0.9470773081442766
0.92,0.2833326052078983,-0.5237260619353495,2.3088687555187537,-0.0128658851316036,0.0522686857644535,0.0512890318346589,-0.1811165368971444,0.6708928601588353,-0.8454188650626915,0.2862567826106401,-0.5309667535704515,2.317755381864332,-0.2481412470083185,0.8372593560204423,-1.022592202745206,1.0597314973851948,-0.55558338829515,0.2930724475095125,-0.8535024813739744,9.565384253561206,-0.9195401471038828,0.2555463248091618,-0.9518347813590372
0.94,0.2796103129069819,-0.5102537634132449,2.291763775086835,-0.0124382135186959,0.05840807604756,0.0513670238477259,-0.19041443733913,0.6761831001784943,-0.864220185442686,0.281881559987807,-0.5149690925592613,2.298103537821349,-0.2775213628749797,0.8746356614813723,-1.0625922033412527,1.0815812962115607,-0.4648950220992764,0.2645120009829471,-0.9400660189997244,9.391108661247928,-0.9150006802168568,0.2543523709061369,-0.957576156081668
0.96,0.2759141847058395,-0.4973513621746778,2.275155553209076,-0.0128128404413551,0.063997430656939,0.0513782480381494,-0.1980721663736094,0.6817254201307886,-0.8830787692396502,0.2767718344683073,-0.4980370239115477,2.277451693763465,-0.3069014787416407,0.912011966942302,-1.102592203937299,1.0547562600504354,-0.3828864517239724,0.2771159976147186,-0.9429291898482128,9.312998474457345,-0.9101114555759856,0.2537880589854497,-0.963556018439928
0.98,0.2718783641932273,-0.4836523951137111,2.2572747091962824,-0.0138284215445973,0.0695236315331709,0.0513363373759573,-0.2049931012654253,0.6879162858982025,-0.9040710151599052,0.2709276060521411,-0.480170547627311,2.255799849690679,-0.3362815946083017,0.949388272403232,-1.1425922045333454,1.1477157177447654,-0.3460467445907958,0.309543288370695,-1.0496122960127474,9.262380252238472,-0.9055144288072676,0.2540746155934585,-0.9686283721051424
1.0,0.2677149958739995,-0.469823416289617,2.2389638045574856,-0.0153176010342544,0.0746071373064351,0.0512505252269042,-0.2109033364694625,0.6947033696690811,-0.9260118678588308,0.261628709129956,-0.449256580818801,2.2120711584382877,-0.2303080022895285,0.7145228903551041,-0.9163306978003384,1.185744917168023,-0.2955117602018567,0.3393541885439277,-1.097042634946288,9.202720524988765,-0.9011663033126164,0.254767519559422,-0.9733534108807432
1.02,0.2634073437054859,-0.4555531960045004,2.220729604927153,-0.0076154022405428,0.0812015385150466,0.0517809139558853,-0.2184859590696914,0.7258761824052872,-0.8961307388661172,0.261628709129956,-0.449256580818801,2.2120711584382877,-0.2303080022895285,0.7145228903551041,-0.9163306978003384,2.192100755704032,-0.379131130011448,1.5586406368103043,1.494056449635689,9.158529034024468,-0.8874322182929112,0.2388222412626465,-1.0024189704994737
1.04,0.2592230279646572,-0.4416450719173577,2.2039585844107847,0.0071826936061927,0.0897016209481647,0.0528568193513204,-0.2210913616885972,0.7355086210392895,-0.870863318862682,0.261628709129956,-0.449256580818801,2.2120711584382877,-0.2303080022895285,0.7145228903551041,-0.9163306978003384,1.3583211241035915,-0.1302701309452883,0.4816219317001158,1.263371000171759,12.492384379740542,-0.880426729245722,0.2290226900316422,-1.0050262994425143
1.06,0.2548088514592247,-0.4269128354232278,2.186752465418926,0.0238463483890923,0.0995901887091945,0.0541944054188825,-0.219803551779673,0.7367151234439258,-0.8514376646297102,0.2593256291070607,-0.44211135191525,2.202907851460284,-0.2353709824943491,0.7198442112464843,-0.9187826343284252,0.9752821960756954,0.0643904954462093,0.0603251202318133,0.9712827116485911,11.962340914252309,-0.8719319599370502,0.2169564979461755,-1.010795438837416
1.08,0.2504574310188062,-0.4122055864393112,2.1698614545656296,0.0400203617679457,0.1093411433496308,0.0556268314220341,-0.215131391974889,0.7335551450941155,-0.8389431133075648,0.2547194690612702,-0.4278208941081479,2.184581237504277,-0.2454969429039904,0.730486853029245,-0.9236865073845985,0.6854348130100235,0.2336079902392013,-0.1579989174905149,0.6247275661072693,11.465048360089895,-0.8626332914310022,0.2039595773527758,-1.0188173801576377
1.1,0.2462308943339209,-0.3976032698203682,2.1531553502381247,0.0552288562537561,0.1181124572597086,0.0570670895364431,-0.2076303511939371,0.726614956932237,-0.832317291513767,0.2501133090154796,-0.4135304363010458,2.1662546235482703,-0.2556229033136317,0.7411294948120056,-0.9285903804407718,0.6089608751039495,0.375052039047595,-0.3470094080939234,0.3312910896898891,11.058598136592993,-0.8538552552688418,0.191438527881526,-1.0271903446056827
1.12,0.2423772424699379,-0.3838995811929604,2.137365286593693,0.0682327720723257,0.1250473759959088,0.0583342838762275,-0.1983928599176541,0.7163437386308651,-0.830149232126791,0.2450008509492069,-0.3987078464048057,2.1476828159394548,-0.2657488637232729,0.7517721365947663,-0.9334942534969451,0.6991595883260422,0.4618745638141505,-0.5135609150685949,0.1084029693487975,10.758864349148098,-0.845269972079828,0.1784982349200979,-1.0362455033973414
1.14,0.2385298417299884,-0.3697161447613815,2.120774608342145,0.0800047139554936,0.1305755803384157,0.0594566078308514,-0.1868352472911399,0.7026487642194033,-0.8290780621646119,0.2398883928829343,-0.3838852565085656,2.1291110083306397,-0.2758748241329142,0.7624147783775269,-0.9383981265531184,0.8976053403960865,0.5778806313257098,-0.6847487205730918,0.0535584981089576,10.51655524961734,-0.8370227097675524,0.1659311207161878,-1.0460749238094498
1.16,0.2349276447302196,-0.355829980713908,2.104197919400166,0.0897399162324904,0.1341487344873531,0.0602895125801393,-0.1740388348374536,0.6868105430675688,-0.8286627964747129,0.2345227858064207,-0.3687966005677565,2.11041660389542,-0.2860007845425555,0.7730574201602874,-0.9433019996092916,1.0182949800186576,0.6398206226843131,-0.791911057591721,0.0207632844949512,10.51655524961734,-0.8306297917273732,0.1553534698773011,-1.0541336875666236
1.18,0.2315904677891929,-0.3422815265665119,2.087624603584558,0.0974438186709871,0.1357295057156579,0.0607827128510578,-0.1605418338353033,0.6691856269504114,-0.8286708617809773,0.228904029719666,-0.3534418785823783,2.0915996026337957,-0.2961267449521967,0.7837000619430481,-0.9482058726654652,1.109962577339938,0.6748500501075144,-0.881245805857872,-0.0004032653132202,10.511490218981637,-0.825753519851654,0.1457950670177854,-1.0609787185342157
1.2,0.2286741319910507,-0.3297502313516799,2.071877289560765,0.1029831370139579,0.1353978993443402,0.0609134895808565,-0.1472584787106357,0.6511530837087427,-0.8289100107606306,0.2235633760974278,-0.3088222452189913,2.046191060495509,-0.2048082961613531,0.6549477983976885,-0.8086795775446654,1.1199077320980002,0.6641677562333816,-0.9016271620834349,-0.011957448982669,10.51280376005161,-0.8232179496420058,0.1378769517960293,-1.0658118366386429
1.22,0.2259294505950592,-0.3168786531507905,2.055458185238176,0.1094274700353454,0.1318820816384462,0.0607115720264693,-0.1278213307266193,0.6358524171906549,-0.8122433662810375,0.2235633760974278,-0.3088222452189913,2.046191060495509,-0.2048082961613531,0.6549477983976885,-0.8086795775446654,1.4913837164353752,0.9718573992008191,-0.7650333259043907,0.8333322239796548,11.642691545981506,-0.8234486769511016,0.126312828392642,-1.071830667433221
1.24,0.2235660749680696,-0.3043815524487295,2.039388566749428,0.116517679070185,0.1240258044247819,0.0599882436794664,-0.1102286089514614,0.6145091674837109,-0.7956844792352221,0.2235633760974278,-0.3088222452189913,2.046191060495509,-0.2048082961613531,0.6549477983976885,-0.8086795775446654,1.6118583279146723,0.879636088757893,-1.0671624853472006,0.8279443522907715,11.642691545981506,-0.8282783688230536,0.1189949338223175,-1.0687198820190844
1.26,0.2216098934120517,-0.2929424143576192,2.0244113480769688,0.1220773563995162,0.1135782173558478,0.0587666877989435,-0.0972060973250046,0.5910015178140949,-0.7816021542238364,0.2215152931358143,-0.3022727672350144,2.0381042647200625,-0.2136615886265631,0.6521002326871439,-0.804681320697403,1.5169931441645494,0.6511255813228423,-1.1753824834807969,0.7041162505692866,11.52825118110468,-0.836661046142965,0.1125569000444755,-1.063261849073995
1.28,0.2197715789945027,-0.2814009712023066,2.008926724236366,0.1262279662202844,0.1005269024361086,0.0570060492151409,-0.0879314104960772,0.5646685476794469,-0.767562591888007,0.2174191272125872,-0.2891738112670606,2.021930673169169,-0.231368173556983,0.6464051012660547,-0.7966848070028782,1.562493553961572,0.4637343414463694,-1.316648506732404,0.7019781167914685,11.42816697031776,-0.848116050709888,0.1068750585900319,-1.0557274577334106
1.3,0.2180696946619627,-0.2703995110580028,1.993716899153944,0.1285111446344802,0.0863251818627017,0.0548852615459785,-0.0832908151254323,0.5371623116767507,-0.7540693343815416,0.2133229612893601,-0.2760748552991069,2.005757081618276,-0.2490747584874029,0.6407099698449655,-0.7886882933083534,1.5493515922522698,0.2320297685322436,-1.3753118001348097,0.6746628753232731,11.370932428696506,-0.8605445265278203,0.1027605680043181,-1.0474187319074697
1.32,0.2164120016785554,-0.2599636529686754,1.9787729067738529,0.1286140075006779,0.0718109118082375,0.0525228691996772,-0.0832167076857595,0.5082406386983066,-0.740923048143377,0.2083414661196121,-0.2632606559022076,1.9899833157521083,-0.2667813434178229,0.6350148384238764,-0.7806917796138286,1.588468996896408,0.0037053719836394,-1.4460836489222029,0.6573143119082303,11.33214677860542,-0.874190929723245,0.099945751216471,-1.0383731437652035
1.34,0.2147968982299254,-0.2505990120427442,1.964824734892438,0.1260823302130869,0.0583952203033496,0.0501400305257875,-0.0871581441691309,0.4794647763874685,-0.7278825870750416,0.203359970949864,-0.2504464565053083,1.9742095498859416,-0.2844879283482428,0.6293197070027872,-0.7726952659193039,1.5918847305627462,-0.1970718241685667,-1.4387931155419031,0.652023053416767,11.36426829384618,-0.8878755528987285,0.0992831931524075,-1.029438126390747
1.36,0.2129724016208286,-0.2413118565930348,1.950421798289208,0.1207628289572587,0.0452595084119056,0.0476181323586,-0.0954523137842087,0.4515806479388758,-0.7129479538210329,0.1979358111568555,-0.2377746353939362,1.9586356968621372,-0.3021945132786627,0.623624575581698,-0.7646987522247791,1.635054386995305,-0.4147084807538899,-1.3942064224296336,0.7467316627004339,11.36426829384618,-0.9016380983872664,0.1014266875169606,-1.0197254052601246
1.38,0.210939492768962,-0.2325542432347737,1.936329292059532,0.1139429724646648,0.033694451590103,0.0452600453217861,-0.1076150284680712,0.4262490089286881,-0.6969606730636316,0.1920689867405864,-0.2252451925680913,1.943261756680697,-0.3199010982090826,0.6179294441606088,-0.7567022385302544,1.6164905733095734,-0.6081357341931264,-1.2665819505093878,0.799364037870065,11.4207502324889,-0.9149605804907898,0.1058469952167531,-1.008930447221493
1.4,0.2087514672414171,-0.2246816988296087,1.923244864794436,0.1066841767405275,0.0245250551398856,0.0432522576392793,-0.122164098355144,0.4042126705271573,-0.6810769120537334,0.2055587413455585,-0.2112417927883393,1.9014812584063503,-0.1430362769934523,0.4151979659919458,-0.6677847824540096,1.5407542864983952,-0.7274534943536408,-1.1018169200765398,0.7941880504949095,11.46698584753267,-0.9273260360501212,0.1114543764360151,-0.997646453519218
1.42,0.206039616511339,-0.2167647056863635,1.9098255739677492,0.1006361190394482,0.0196516450174577,0.0418188887608212,-0.1483710392279435,0.3879270764021086,-0.6616543605307792,0.2055587413455585,-0.2112417927883393,1.9014812584063503,-0.1430362769934523,0.4151979659919458,-0.6677847824540096,1.8229507903246065,-1.3103470436399756,-0.8142797062524354,0.9711275761477124,11.499418663583128,-0.9345604506447314,0.1158867715912849,-0.9910531852045152
1.44,0.2028121147380763,-0.2092045882071372,1.8967965678073813,0.0962487840565633,0.0220068303998259,0.0412420209920094,-0.1722703819075025,0.3690127865336897,-0.6421514448266021,0.2055587413455585,-0.2112417927883393,1.9014812584063503,-0.1430362769934523,0.4151979659919458,-0.6677847824540096,1.809207466479316,-1.1949671339779504,-0.945714493420946,0.975145785208853,11.729545444571158,-0.9384541889982112,0.119209851740391,-0.9870116964602884
1.46,0.1991551739538266,-0.2020267735861584,1.884156843018868,0.0919287165148444,0.0291519256252067,0.0411103086782804,-0.1916221565245995,0.3500058031660552,-0.6227429022238631,0.2041283785756239,-0.2070898131284199,1.89480341058181,-0.1501205266985285,0.4129877574045973,-0.6619496043320853,1.66766912450491,-0.9675887308548472,-0.9503491683817256,0.9704271301369528,11.660159748969818,-0.9364921925080424,0.1225968410155779,-0.9882394588790636
1.48,0.1953669402193827,-0.1955521121115439,1.8725068184715143,0.0874868634462582,0.0386025959163134,0.0411692800426098,-0.2056891672472414,0.3328427610208155,-0.6044826085855594,0.2012676530357549,-0.1987858538085809,1.88144771493273,-0.1642890261086809,0.4085673402299004,-0.6502792480882365,1.4369143416599937,-0.7033505361320954,-0.8581521072619808,0.9130146819151864,11.660159748969818,-0.9315109461045994,0.1272144049337507,-0.9913427311723092
1.5,0.191138324428414,-0.1890726174176347,1.860617802422183,0.0824891461964858,0.0498236641182953,0.0412679631117119,-0.2159869787227449,0.316308564930405,-0.585369231505397,0.1984069274958858,-0.190481894488742,1.8680920192836497,-0.1784575255188334,0.4041469230552035,-0.6386088918443876,1.3645015069152873,-0.5148905737751758,-0.8267098045205284,0.9556688540081182,11.60286400570476,-0.92415756626162,0.1320949932657527,-0.996685322420224
1.52,0.1867489948469411,-0.1829067458320998,1.8491067746043972,0.0772680111192311,0.0611488173523481,0.0413002621092982,-0.2220936295924661,0.3013790657603424,-0.5667054362517513,0.1948377769855092,-0.1823989560276379,1.8553198414467624,-0.1926260249289858,0.3997265058805065,-0.6269385356005388,1.233408269373501,-0.3053325434860587,-0.7464749585031294,0.9331897626822848,11.563229339093596,-0.91624649999627,0.1374264258543795,-1.0021493824691183
1.54,0.1822771139971611,-0.1770215495809222,1.8379645267134657,0.0719528723018324,0.0716785291592334,0.04120628507293,-0.2245518981909416,0.2881187788718212,-0.5484758848520412,0.1912686264751325,-0.1743160175665339,1.8425476636098743,-0.2067945243391383,0.3953060887058096,-0.61526817935669,1.133793231924154,-0.1229134299237738,-0.6630143444260578,0.9114775699855028,11.485778336256772,-0.9089648879565468,0.1426881255997058,-1.0069045192678636
1.56,0.1780121016905015,-0.1716609046638895,1.827712163534596,0.0669293866810492,0.0803864983583563,0.0409778562372746,-0.2242018105099326,0.2770029065189996,-0.5316414212754427,0.187345263479502,-0.1663435895347972,1.8300672446790829,-0.2209630237492907,0.3908856715311127,-0.6035978231128413,1.0088165634301935,0.0175043840504457,-0.5557936176410816,0.8417231788299284,11.485778336256772,-0.9017702446721556,0.1481575700620162,-1.01147957934798
1.58,0.1735518373780048,-0.1662300781541877,1.817262206922668,0.0617969851784283,0.087926478603124,0.0405995753500768,-0.2217619337289148,0.2668156085331071,-0.5142659314655839,0.1830676879986177,-0.158481671932428,1.817878584654388,-0.2351315231594431,0.3864652543564158,-0.5919274668689924,1.0144477378017402,0.1219938390508934,-0.5093648992946259,0.8687744904929406,11.456976633374325,-0.8957161866076415,0.1534944210274769,-1.014976059438162
1.6,0.169157802785007,-0.1609878517145957,1.807154978882188,0.056923161304133,0.0936696180656201,0.0400992627346132,-0.217753160413895,0.2580304667881796,-0.4973551282012646,0.1624637406915591,-0.1528892977275323,1.791548910349389,-0.2071537945567184,0.2604951250162053,-0.4671490856194077,0.9736840427137932,0.2004386657509863,-0.4392570872463724,0.8455401632159604,11.439475500687877,-0.8911898324330565,0.1583269119486864,-1.0172208512769827
1.62,0.1648015681294567,-0.1558779933874493,1.7974484613527693,0.0535242325732642,0.0994732747242712,0.0396841255217053,-0.2175391582241465,0.252685063855237,-0.4741806344360195,0.1624637406915591,-0.1528892977275323,1.791548910349389,-0.2071537945567184,0.2604951250162053,-0.4671490856194077,1.1891975137967126,0.0107001094874284,-0.2672701466471305,1.1587246882622553,11.852915950256827,-0.8877395376699161,0.1621008898042901,-1.0185752576997964
1.64,0.1606973503670187,-0.1511399684297864,1.78865592736573,0.0514847294256888,0.1060125000077076,0.039415828360124,-0.2142432739395192,0.2462572283938467,-0.4525388885700481,0.1624637406915591,-0.1528892977275323,1.791548910349389,-0.2071537945567184,0.2604951250162053,-0.4671490856194077,1.1407728587055042,0.1647942142313618,-0.3213917730695126,1.0820872932985726,11.852915950256827,-0.8833646836774973,0.1654657547909743,-1.019837884154423
1.66,0.1564756442285463,-0.1462878061475885,1.77983962692085,0.0497515349127956,0.1129405642298034,0.0391552179397011,-0.2078871737221994,0.2393278753975775,-0.430262474546929,0.1603922027459919,-0.1502843464773703,1.786877419493195,-0.2042321667222791,0.259231028312825,-0.4577257164501724,1.2089815596700957,0.3178050108659902,-0.3464676498134617,1.1138207011559542,11.770594959248228,-0.8781120614116712,0.1683249487833663,-1.0220501126467227
1.68,0.1524090698842325,-0.141571723643235,1.7714616372203815,0.048166236251855,0.1191655717269644,0.0388630426106321,-0.199018168059048,0.2326795084760159,-0.408664989219608,0.1562491268548575,-0.1450744439770462,1.7775344377808064,-0.1983889110534006,0.2567028349060643,-0.438878978111702,1.213786860038217,0.4434502831575704,-0.3324183460780811,1.0798742663660514,11.770594959248228,-0.8730888951672077,0.1707661203244245,-1.0243727301076202
1.7,0.1485408348973495,-0.1369841024731736,1.7635099451937837,0.0466481992872017,0.124195235279467,0.0385137514973931,-0.1882632926934421,0.2264719211567724,-0.3875942566462511,0.1521060509637231,-0.1398645414767221,1.7681914560684182,-0.192545655384522,0.2541746414993036,-0.4200322397732315,1.222883125684619,0.5377437682802979,-0.3103793659621739,1.053536628667845,11.73443213504288,-0.8685288304489361,0.1733626398176559,-1.0260779424407107
1.72,0.1450781665102936,-0.1327359992176069,1.7563427136325314,0.045284500778176,0.1276117582556101,0.0381226647236983,-0.1768439069309824,0.2210474880716152,-0.367907204863151,0.1482551378560327,-0.134781048646736,1.7597908112729537,-0.1867023997156434,0.2516464480925429,-0.4011855014347611,1.169836370392971,0.5709692881229841,-0.2712216542578624,0.9843525891550048,11.70904173387862,-0.8656497816274887,0.1761429506920462,-1.0260220836903964
1.74,0.1416743492964931,-0.1283705892551966,1.7492039235246837,0.0439953783881481,0.12970627685004,0.037655033056627,-0.1642107478994613,0.2158154393567192,-0.3469939559203718,0.1444042247483422,-0.1296975558167499,1.751390166477489,-0.1808591440467649,0.2491182546857822,-0.3823387630962906,1.2493348452410593,0.6316579515760562,-0.2616024357447982,1.0456624471389564,11.692644098560775,-0.8644752651328399,0.1788783328899059,-1.0244190009629213
1.76,0.1385268573261488,-0.1241054770461041,1.7424836547407383,0.0429219054921975,0.1302703102552582,0.0371398158719795,-0.1513486707951373,0.2109785638598374,-0.3260705488445987,0.1406993930323738,-0.1246772678219329,1.743460690140486,-0.1750158883778863,0.2465900612790215,-0.3634920247578201,1.251616310684332,0.6431038552161996,-0.2418437748440902,1.0461703537886555,11.70680459871619,-0.8647165761100497,0.181354294545604,-1.0216938448243584
1.78,0.1357738678910579,-0.1201401334964406,1.7364870973803863,0.0421443638227556,0.1294605325589194,0.0366158226130957,-0.1392017229401655,0.2066786782929212,-0.3061793162958963,0.1371406427081272,-0.1197201846622848,1.736002382261945,-0.1691726327090078,0.2440618678722608,-0.3446452864193497,1.1850089560700985,0.607347392748589,-0.2149942783458119,0.9945616274351228,11.70680459871619,-0.8667363172775033,0.1838286288545655,-1.0172165531360653
1.8,0.1331221387970155,-0.1160520254257247,1.730585013299677,0.0416168764346232,0.1271633375645595,0.0360315093426032,-0.1267194719182796,0.2023665670301861,-0.2850515695905639,0.1288137817440496,-0.1098061995817945,1.7211781315655914,-0.1498464689531512,0.2094189494495749,-0.285029757349406,1.2457754361844862,0.6241125510942926,-0.2156055631367504,1.0563873352666175,11.702213424057843,-0.8705002607728162,0.1861759492459641,-1.011075727904518
1.82,0.1307397000784838,-0.1120702956022497,1.7250121397309477,0.040562156633132,0.1221394199437097,0.0353078776985487,-0.1124269751031501,0.1962499334891026,-0.2737460876347337,0.1288137817440496,-0.1098061995817945,1.7211781315655914,-0.1498464689531512,0.2094189494495749,-0.285029757349406,0.9611225121440023,0.7146248407564754,-0.3058316770541788,0.5652740977915127,11.028499317515523,-0.8738267780297875,0.1887191124869343,-1.00558321286006
1.84,0.1287138665646995,-0.1083939107235937,1.7199124959357623,0.0385422065679501,0.1141242605017332,0.0344395913971252,-0.1021060886045252,0.1912511915908678,-0.2635169554989939,0.1288137817440496,-0.1098061995817945,1.7211781315655914,-0.1498464689531512,0.2094189494495749,-0.285029757349406,0.7683476799813516,0.5160443249312446,-0.249937094911741,0.5114566067869891,11.039335899250544,-0.8799367788058498,0.1918415562182078,-0.9978592928743112
1.86,0.1267448703727676,-0.1046096419658348,1.7147638886123675,0.0359995624229957,0.1038923852432186,0.0334643333504205,-0.0958057098351124,0.1875433510302074,-0.2518113565137936,0.1273153170545181,-0.1077120100872987,1.718327833992097,-0.1519754181557484,0.2099670036809057,-0.2807998455601079,0.6900432991190993,0.3150189384706417,-0.1853920280330184,0.5852799492600147,11.039335899250544,-0.8900443456716036,0.1955115374377684,-0.9861959380894004
1.88,0.12485462722578,-0.1008882889654121,1.7098567959930353,0.0335667195261863,0.0932095212656828,0.0325235730117752,-0.0938909082716388,0.1847928553679357,-0.2394392824329308,0.1243183876754551,-0.1035236310983072,1.7126272388451094,-0.1562333165609426,0.2110631121435672,-0.2723400219815118,0.6408976292630784,0.0957400781736818,-0.1375247831135864,0.6186037040431399,11.07536943339892,-0.9016938592800016,0.1990906068077086,-0.972824445638574
1.9,0.1229597881358695,-0.0972152397565404,1.705201319146045,0.0314372553158242,0.0831762196825936,0.0316665841304207,-0.0958742080194172,0.1826186859612998,-0.226698640002347,0.1213214582963921,-0.0993352521093157,1.7069266436981212,-0.1604912149661369,0.2121592206062287,-0.2638801984029157,0.653805131599395,-0.0991649873889201,-0.1087084703317906,0.6370321215291893,11.097228458415884,-0.9132550551796406,0.202385252867622,-0.9591713368285087
1.92,0.121091694225451,-0.0937622120521658,1.7010163621367531,0.0297278534073014,0.0749218793827913,0.030947204925695,-0.1007264836357389,0.1809288186159436,-0.2144359334830517,0.1181116339970693,-0.0950920676971912,1.701649039730063,-0.1647491133713312,0.2132553290688902,-0.2554203748243196,0.6647822979743433,-0.2426137808160852,-0.0844933672678141,0.6131353259647656,11.106416505666855,-0.9250773477069943,0.2057532689697866,-0.9445749684384442
1.94,0.1189994732678297,-0.0901586672798254,1.6968607229888304,0.0282580361890146,0.0680446797135527,0.0302952147208828,-0.1084071906279942,0.1795198410141237,-0.2017734477423634,0.1149018096977466,-0.0908488832850666,1.6963714357620046,-0.1690070117765255,0.2143514375315517,-0.2469605512457234,0.7438363780369374,-0.3840353496127678,-0.0704488800909924,0.633124287034413,11.106666633717396,-0.9352317987807311,0.2090163195461463,-0.9311145869928102
1.96,0.1167248429637521,-0.0865781382809166,1.6929533948927973,0.0272181553383035,0.0636803333838157,0.0297673013732472,-0.1188120032190005,0.1785982213079531,-0.189604952665455,0.111585537938294,-0.0865782961613755,1.691305327383411,-0.1732649101817198,0.2154475459942132,-0.2385007276671273,0.8018444056883915,-0.5202406295503121,-0.0460809853085303,0.6084247538454198,11.084461818475576,-0.9424850617928858,0.211662705624037,-0.9207751715246246
1.98,0.1143524061229462,-0.083189581558351,1.6894615639187176,0.0267631087007416,0.0625718122813861,0.0294018279916002,-0.1300263848688577,0.1781027529364022,-0.1785352896072664,0.1081628187187115,-0.0822803063261179,1.6864507145942826,-0.177522808586914,0.2165436544568747,-0.2300409040885312,0.7882659527686192,-0.5607190824928623,-0.0247734185775463,0.55348315290943,11.058653998256888,-0.9484729750101162,0.2130874685517633,-0.9128364495068594
2.0,0.1116388538611092,-0.0796308566263891,1.6860104131495228,0.0269232915801185,0.064153381660683,0.0291491336265772,-0.1404541789141876,0.1777671418159659,-0.1671597757615752,0.1078510868795033,-0.0742844439115309,1.6805347994383544,-0.1212362727683161,0.1658395480339917,-0.1672546030127206,0.7717736694288835,-0.5213897022664948,-0.0167805560218128,0.5687756922845579,11.015553614078271,-0.9517577046841184,0.2137368601446459,-0.9081505427987786
2.02,0.1086944078158056,-0.0760250163233654,1.6827805923024357,0.029515970812833,0.0689427580458607,0.029169867273332,-0.1529951640016155,0.1821801898635195,-0.156415167232767,0.1078510868795033,-0.0742844439115309,1.6805347994383544,-0.1212362727683161,0.1658395480339917,-0.1672546030127206,0.8546898742679191,-0.6270492543713951,0.2206524023776773,0.5372304264404132,10.97736156323208,-0.9507508934496304,0.2136941404036997,-0.9066325297787466
2.04,0.1055353503138737,-0.0723780387111098,1.6797540497630472,0.0346726728980012,0.0770212689456982,0.029503171738995,-0.1616990015081612,0.1817359949266192,-0.1467760546971224,0.1078510868795033,-0.0742844439115309,1.6805347994383544,-0.1212362727683161,0.1658395480339917,-0.1672546030127206,0.6497433858015389,-0.4351918753272829,-0.0222097468450144,0.4819556267822281,10.9433038854404,-0.9473089811760886,0.2095884687594262,-0.9111015569728714
2.06,0.1024153591388628,-0.0689592621317014,1.677047807346962,0.0398371862391967,0.0862251799263046,0.0299428628712702,-0.1659304682015077,0.1781251874540332,-0.1385813142034509,0.1066387241518202,-0.072626048431191,1.6788622534082271,-0.1194782503482078,0.1633869070535096,-0.1649984656938114,0.4952196803934688,-0.2115733346673254,-0.1805403736292982,0.4097370246835777,10.856292924667288,-0.9414613896332916,0.204800239719136,-0.9183566882566154
2.08,0.0990855622847628,-0.0654541730877823,1.6743592857746403,0.0447508743389882,0.0962659041431838,0.0304407975007979,-0.1665050539127025,0.1726024189727986,-0.1307520689666874,0.1042139986964538,-0.0693092574705112,1.675517161347973,-0.1159622055079912,0.1584816250925454,-0.1604861910559931,0.4799171840385876,-0.0287292855597393,-0.2761384240617309,0.3914622618381727,10.79002475519519,-0.934162344222051,0.2003742944904042,-0.9268985229083236
2.1,0.0957819632061162,-0.0620721586569018,1.671818683532002,0.0488565501756209,0.1057000667132933,0.0309063691122156,-0.1636139680718598,0.165966491569252,-0.1237475964746901,0.1017892732410875,-0.0659924665098313,1.6721720692877184,-0.1124461606677745,0.1535763431315812,-0.1559739164181747,0.5036281980176672,0.1445542920421344,-0.3317963701773313,0.350223624599865,10.712659673484268,-0.9265690135467156,0.1968014748851935,-0.9351509693806526
2.12,0.092567760027766,-0.0588311554866344,1.6694107117596293,0.0520738495242333,0.1138091247113051,0.0312836937616553,-0.1579070717817315,0.1586459200376232,-0.1174152888966135,0.099540350027732,-0.0629209396471997,1.669052590959355,-0.1089301158275579,0.1486710611706169,-0.1514616417803564,0.5618219292608208,0.2853448145064149,-0.3660285765814369,0.3166153789038325,10.712659673484268,-0.9200602917141268,0.1943817111330785,-0.9416503579249916
2.14,0.0896401211888504,-0.0558915112824538,1.667236012723368,0.0543795685224766,0.1199339472798114,0.0315318718122836,-0.1505865852557881,0.1513149433450411,-0.111825739301847,0.0972914268143765,-0.0598494127845681,1.6659331126309915,-0.1054140709873413,0.1437657792096527,-0.1469493671425381,0.588591129129667,0.3660243262971693,-0.3665488346291046,0.2794774797383235,10.691261162007322,-0.9141972574601912,0.1926898560550739,-0.9470272720489948
2.16,0.0867215452782013,-0.0529499678708162,1.6650588778600195,0.0560969406773242,0.1246017847820772,0.0316629509968477,-0.1416799822964319,0.1433118431826369,-0.1061928113810926,0.0951304047220265,-0.0569005179709606,1.6629264411685736,-0.1018980261471246,0.1388604972486886,-0.1424370925047197,0.6616401315018292,0.4453301479678123,-0.4001550081202135,0.2816463960377199,10.6799467736937,-0.9097124058889142,0.1918017197328002,-0.9506517126108488
2.18,0.0839902867077926,-0.050174286524906,1.6629920200888073,0.0569930495257944,0.1274509578893255,0.0316448795910858,-0.132031612590096,0.1347755672576108,-0.1007703171861391,0.0930572837506818,-0.0540742552063771,1.660032576572101,-0.098381981306908,0.1339552152877244,-0.1379248178669014,0.698860658415938,0.4824184853167934,-0.4268137962513033,0.2711247097476735,10.67721381958745,-0.9068325424686876,0.1918295335640628,-0.9523176587750308
2.2,0.0814536224569647,-0.0475735902131708,1.661032727148453,0.0568782699769974,0.1286567602737599,0.0314696233321135,-0.1222763600252177,0.1258540007433619,-0.0954174331441037,0.0773887060782878,-0.0434355081620255,1.6579535042295004,-0.1104851258249497,0.1207957225086369,-0.1046641775690984,0.7131140673836974,0.4877626282439116,-0.4460783257124442,0.267644202101773,10.674306188838273,-0.9055698510613416,0.1927133441868362,-0.9522831325509058
2.22,0.0792132494938566,-0.045274031723535,1.659247397784244,0.05548428890658,0.1286997905316931,0.0311579461281956,-0.1141311379585982,0.1168704563941045,-0.0927635969592622,0.0773887060782878,-0.0434355081620255,1.6579535042295004,-0.1104851258249497,0.1207957225086369,-0.1046641775690984,0.6206681039122148,0.4072611033309747,-0.4491772174628698,0.1326918092420734,10.6749221970058,-0.9043752979267244,0.1949897568952588,-0.951579966334707
2.24,0.0770143036987738,-0.0430253789076641,1.6574190298198157,0.0526871479720989,0.1280765730647593,0.0307115908603953,-0.1062744417514907,0.1087833208716962,-0.0901914526957484,0.0773887060782878,-0.0434355081620255,1.6579535042295004,-0.1104851258249497,0.1207957225086369,-0.1046641775690984,0.5782416500929836,0.3928348103553761,-0.4043567761204146,0.1286072131756889,10.50833449046877,-0.9045062013427618,0.1979484595072011,-0.950063509795722
2.26,0.0749656733156338,-0.0409126276660787,1.6556421684719054,0.049447963245786,0.1270539656351326,0.0302294140478452,-0.0990488634999448,0.1029875531893961,-0.0876117731159008,0.0762838548200383,-0.0422275509369391,1.6569068624538097,-0.1061758284719205,0.1179997535588422,-0.1054429496456902,0.48076670753883,0.3612789125772987,-0.2897883841150042,0.128983978992378,10.50833449046877,-0.9052041446014752,0.201248145826265,-0.9478650187808542
2.28,0.0731473585147786,-0.038998220632985,1.6540015664713656,0.0466198400462208,0.1259087374481404,0.029796531345818,-0.092753059935995,0.0987681458436506,-0.0852099957671535,0.0740741523035393,-0.0398116364867663,1.6548135789024274,-0.097557233765862,0.1124078156592526,-0.1070004937988739,0.3975206765003833,0.3147901781974861,-0.2109703672872741,0.1200888674373693,10.490905630535051,-0.9061968741460796,0.2045551195550541,-0.9452792587941556
2.3000000000000003,0.0713567811263332,-0.0370615404561141,1.652323081412456,0.0441219169542463,0.124690899088865,0.029390617565268,-0.0866710782891112,0.0950719769169223,-0.0827701206906229,0.0718644497870403,-0.0373957220365936,1.6527202953510454,-0.0889386390598035,0.1068158777596631,-0.1085580379520576,0.376181990122529,0.3040990823441891,-0.184808446336418,0.1219937538265297,10.490905630535051,-0.9072664289763032,0.2074370369340116,-0.9427027602469098
2.32,0.0696829378204726,-0.0351934511664867,1.650691997109737,0.0421548772094437,0.123587712055281,0.0290428460333143,-0.0810370940717708,0.0918560916548265,-0.0804674411988579,0.0700856770058442,-0.0352594044814003,1.6505491345920045,-0.080320044353745,0.1012239398600736,-0.1101155821052413,0.3441875543290377,0.281699210867023,-0.1607942631047916,0.1151339745882502,10.46929876192371,-0.90827322808123,0.2098213179229756,-0.9403307653585272
