t,x,y,z,roll,pitch,yaw,v_x,v_y,v_z,ref_x,ref_y,ref_z,ref_v_x,ref_v_y,ref_v_z,a_com,a_x,a_y,a_z,thrust,wind_x,wind_y,wind_z
0.0,2.037181036715784,-0.2776454844677666,2.8412930315026514,0.0339785793600225,0.1002896668700376,0.043977354752445,0.0059989008646509,0.0025556039501924,0.0253462144584617,2.037357062962021,-0.2774813444934098,2.842063450275059,-0.0940986713479023,0.1047151759872423,-0.0744058170758357,1.308576049097341,0.2999450432325465,0.1277801975096224,1.2673107229230858,10.226582524944206,-0.9466261388993334,0.2585252054022053,-0.8651814699918499
0.02,2.037453206910988,-0.277884673470284,2.8415684237111862,0.0253927172971799,0.0951319957519523,0.0432097280565157,0.020513734479248,-0.0217014862011885,0.0012907764787547,2.037357062962021,-0.2774813444934098,2.842063450275059,-0.0940986713479023,0.1047151759872423,-0.0744058170758357,1.855903360810573,0.7257416807298536,-1.212854507569051,-1.2027718989853486,10.227723158701338,-0.9476998742848328,0.2595309722140737,-0.8691058842058185
0.04,2.037968337307656,-0.2783497754193053,2.841275526231804,0.0085418459206048,0.0801175779421764,0.0418184283148388,0.0287149273950429,-0.0227562739589095,-0.0291859156843313,2.037357062962021,-0.2774813444934098,2.842063450275059,-0.0940986713479023,0.1047151759872423,-0.0744058170758357,1.578924402607228,0.4100596457897466,-0.0527393878860494,-1.523834608154305,8.893629881716151,-0.9492188308403762,0.2706580971127376,-0.8643074168562355
0.06,2.038505770429376,-0.2787305565818624,2.840434538076844,-0.0080139185535483,0.0603836322676255,0.0407577594324146,0.0266000348534333,-0.0169873848905594,-0.057802498968734,2.036416076248542,-0.2764341927335374,2.8413193921043005,-0.1140986716459255,0.1247151762852656,-0.0944058173738589,1.4634391774332842,-0.105744627080481,0.2884444534175058,-1.4308291642201365,8.583002802929514,-0.9564942589819152,0.280871064482005,-0.8561846917710116
0.08,2.038930830740605,-0.2789765791196694,2.8389680547372,-0.0247825745501103,0.037662064490441,0.040137590242198,0.015287177301689,-0.0076023020154318,-0.0873464742051902,2.034534102821584,-0.2743398892137925,2.839831275762784,-0.1540986722419719,0.164715176881312,-0.1344058179699054,1.649929543443752,-0.5656428775872133,0.4692541437563801,-1.477198761822806,8.583002802929514,-0.9683359415095932,0.2898240536715216,-0.8447170265590471
0.1,2.039040862523929,-0.2790063984165152,2.8369172267228078,-0.0407268472170143,0.0158322764098077,0.0399900541216587,-0.0040381557186811,0.0044551836476898,-0.1163183055777896,2.032652129394626,-0.2722455856940477,2.838343159421268,-0.1940986728380184,0.2047151774773585,-0.1744058185659519,1.842700782782526,-0.9662666510185104,0.6028742831560858,-1.448591568629972,8.625032069706776,-0.9815963583095616,0.2975821409004064,-0.8319633092103648
0.12,2.0387263463285783,-0.2787875628329281,2.834437233192838,-0.0551371077790311,-0.0023357209075594,0.0401558136712012,-0.0281638905418122,0.0182350035830432,-0.1433376119836758,2.028770155937865,-0.2681512821445005,2.834855043049948,-0.2340986734340648,0.2447151780734049,-0.2144058191619983,1.9377676827099048,-1.2062867411565554,0.6889909967676704,-1.3509653202943082,8.68689182868411,-0.994879297404478,0.3045262654591806,-0.8203730573869478
0.14,2.037857554708664,-0.2782501069344327,2.831266326843286,-0.0695743055420585,-0.0178398191287317,0.0404895660029592,-0.0575259224728869,0.0350676761295716,-0.1723929886337022,2.024888182481105,-0.2640569785949534,2.831366926678629,-0.2740986740301113,0.2847151786694514,-0.2544058197580448,2.230292972041452,-1.4681015965537327,0.8416336273264183,-1.4527688325013208,8.759366709453388,-1.0059245058077175,0.3104988571666437,-0.8123304072435883
0.16,2.036364648707621,-0.2773501299098597,2.8275102909041685,-0.0832452799687935,-0.0291312739649539,0.0408225003597986,-0.0902551028856596,0.0543306308236312,-0.2017842214455489,2.0200062090094435,-0.2589626750305051,2.826878810292409,-0.3140986746261577,0.3247151792654978,-0.2944058203540912,2.40109622893242,-1.636459020638635,0.9631477347029814,-1.4695616405923373,8.767746417401213,-1.013877645545719,0.3158461374770721,-0.808597478991464
0.18,2.0341837987772853,-0.2760135923802447,2.823163080978901,-0.0952456805082443,-0.0355697540345993,0.0410220007287694,-0.126062495651825,0.0779481278091637,-0.2314730945980427,2.014124235522881,-0.2528683714511556,2.821390693891288,-0.3540986752222042,0.3647151798615443,-0.3344058209501376,2.6083446520911173,-1.790369638308272,1.1808748492766217,-1.4844436576246858,8.800609721718956,-1.017521575127366,0.3204275520123746,-0.8095489861297942
0.2,2.0314332039854435,-0.274282790178779,2.8184831183536017,-0.1044722018923111,-0.036618363865037,0.0409438119006579,-0.1610279060780498,0.102600153145576,-0.2595664675674441,2.027880673994694,-0.2721161859897866,2.811589426248999,-0.2260624971419411,0.1779481292992798,-0.3314730960881588,2.5590720409258534,-1.7482705213112404,1.232601266820618,-1.404668648470074,8.885612059727919,-1.019222229120237,0.3236856424831102,-0.8135008894885085
0.22,2.0277941228969696,-0.2718012979019867,2.813111314070288,-0.1078542205344996,-0.0319620010268952,0.0407067277975163,-0.2003312137109239,0.1423459307907143,-0.2750654577410399,2.027880673994694,-0.2721161859897866,2.811589426248999,-0.2260624971419411,0.1779481292992798,-0.3314730960881588,2.900299781015028,-1.9651653816437036,1.9872888822569128,-0.7749495086797897,8.885612059727919,-1.021639540377315,0.3241226225561661,-0.8129138585869535
0.24,2.023421399640864,-0.2686045565131303,2.8074609634160166,-0.1045135929793982,-0.022054467075614,0.0403824767468017,-0.2342155087571693,0.1743449419662844,-0.2891607109876829,2.027880673994694,-0.2721161859897866,2.811589426248999,-0.2260624971419411,0.1779481292992798,-0.3314730960881588,2.4345216835562757,-1.69421475231227,1.5999505587785068,-0.7047626623321479,9.835305544916082,-1.0189286744158037,0.3206097710637399,-0.8192029398798801
0.26,2.0186937161621925,-0.2650391024021789,2.8018144177163755,-0.0989975643475118,-0.0099071934478742,0.0399993464514564,-0.2612025994940196,0.1989537674855317,-0.3044008052982919,2.0256200490232747,-0.2703367046967938,2.808274695288117,-0.2460624974399644,0.197948129597303,-0.351473096386182,1.9787356028989815,-1.349354536842512,1.2304412759623629,-0.7620047155304482,9.4986934650924,-1.0120709227341682,0.3152840081640805,-0.8312109908341319
0.28,2.013218662785407,-0.2608234935305633,2.7955361349136933,-0.0929650195000995,0.0040287735765034,0.0395725048165763,-0.2844094993559024,0.2212303647271087,-0.3227378086947368,2.021098799080436,-0.2667777421108082,2.8016452333663544,-0.2860624980360108,0.2379481301933495,-0.3914730969822284,1.851386426049492,-1.1603449930941394,1.113829862078851,-0.9168501698222448,9.32268567797837,-1.0024807967731753,0.309957590222258,-0.8461176272195282
0.3,2.0073295516231218,-0.2561851417091286,2.7888618977994866,-0.0875342457667406,0.0177904549180047,0.0391957066546467,-0.3030499371795961,0.2415765612641763,-0.3437744282772939,2.016577549137597,-0.2632187795248226,2.795015771444591,-0.3260624986320573,0.2779481307893959,-0.4314730975782749,1.7349157034602576,-0.9320218911846868,1.0173098268533798,-1.0518309791278573,9.32268567797837,-0.9917251800265692,0.3053764704771646,-0.8613455271901839
0.32,2.001108507855592,-0.2511532336345606,2.781742218359002,-0.0829064222371013,0.0304629187532148,0.0389206772543755,-0.3179521920860623,0.2607229009199484,-0.3671761454741757,2.010056299164956,-0.2576598169090346,2.7863863094930257,-0.3660624992281037,0.3179481313854423,-0.4714730981743213,1.6854523808716164,-0.745112745323312,0.9573169827886044,-1.1700858598440889,9.04612677476598,-0.9812118055981668,0.3017057441947521,-0.8754257723415987
0.34,1.994951949618437,-0.2460262646778873,2.774530437538379,-0.0792741782496108,0.0409591604198076,0.0387762661818799,-0.3293058761717691,0.2781350491001264,-0.3908281218211505,2.0035350491923145,-0.2521008542932467,2.77775684754146,-0.4060624998241502,0.3579481319814889,-0.5114730987703678,1.5744086442886769,-0.5676842042853403,0.8706074090089,-1.18259881734874,9.04612677476598,-0.9706497665225132,0.2982674037505786,-0.8894868221925047
0.36,1.9882566566049775,-0.2402699393214806,2.766439621347141,-0.075955613625703,0.0502266247805832,0.0387598540238892,-0.3395342258737742,0.2965352760193092,-0.4170871264656383,1.996013799204772,-0.2455418916625576,2.768127385574993,-0.4460625004201966,0.3979481325775353,-0.5514730993664142,1.6827973832454988,-0.5114174851002518,0.9200113459591402,-1.3129502322243911,8.975286601010339,-0.960719481320033,0.2951763725702053,-0.9025692749172906
0.38,1.981371694778336,-0.2341473000039685,2.757811555742977,-0.0728059992344556,0.0577776512391558,0.0388827928042523,-0.3484286030914359,0.3146951577494502,-0.4444241177272644,1.9874925492023288,-0.2379829290169674,2.757497923593625,-0.486062501016243,0.4379481331735817,-0.5914730999624607,1.7001487742113846,-0.4447188608830865,0.9079940865070496,-1.3668495630813042,8.915017075879405,-0.9521279157140632,0.2922238338391876,-0.914059619720953
0.4,1.974675418163296,-0.2279989612214786,2.7491001259421504,-0.0698394767044508,0.0635510137359575,0.039112908670366,-0.3559905179960847,0.3314759065419864,-0.4712157822454347,1.963950264623764,-0.218412542116496,2.735590349856614,-0.448428604581552,0.3855783424208522,-0.5444241192173805,1.6252456542916371,-0.3780957452324401,0.839037439626808,-1.3395832259085163,8.874662266362066,-0.9440505070265583,0.2890168749412356,-0.9251111928958428
0.42,1.967502109474767,-0.2211005045779932,2.739572728153801,-0.0643596900897991,0.0678870858436345,0.0396501884736969,-0.3608595311758878,0.356157746402733,-0.478978980629806,1.963950264623764,-0.218412542116496,2.735590349856614,-0.448428604581552,0.3855783424208522,-0.5444241192173805,1.3164039628964024,-0.2434506589901547,1.234091993037331,-0.3881599192185614,8.839661240921487,-0.9453762598770048,0.284008984058958,-0.925622572321748
0.44,1.9602433745244892,-0.2137801315610666,2.729898358660698,-0.0567957803305798,0.0700593404764196,0.040477330619953,-0.3649116177255335,0.3742444665084505,-0.4883959826023602,1.963950264623764,-0.218412542116496,2.735590349856614,-0.448428604581552,0.3855783424208522,-0.5444241192173805,1.039505622567138,-0.2026043274822836,0.9043360052858772,-0.470850098627712,10.062445052651128,-0.941415870981738,0.2784669017308911,-0.9308103107573744
0.46,1.9529002356690572,-0.2061386829316976,2.719982170234851,-0.0492054104178004,0.0702487077908775,0.0414083572501964,-0.3693230290352133,0.3888628430947074,-0.5027312638645222,1.9594659785779485,-0.2145567586922875,2.73014610866444,-0.4684286048795752,0.3997549793551326,-0.5644241195154037,1.0472079218403638,-0.2205705654839934,0.7309188293128432,-0.7167640631080968,9.796854432420332,-0.9389955349510264,0.2727747204697722,-0.9349458766138784
0.48,1.945838486644387,-0.1986318842134337,2.7102599500524405,-0.0425437724178698,0.0687687546815179,0.0423118502373415,-0.3739026718105855,0.4006037587343079,-0.5199377161262839,1.9504974064863172,-0.2068451918438704,2.7192576262800925,-0.5084286054756216,0.4281082532236934,-0.6044241201114502,1.0664007542224927,-0.2289821387686075,0.5870457819800251,-0.8603226130880881,9.540728039189162,-0.9381248918361438,0.2667452075147946,-0.938193902279784
0.5,1.9383050316442028,-0.1905066604956834,2.69964250283955,-0.0363416330538508,0.0655124157527629,0.0432409794695096,-0.3793247682119254,0.4113117982207344,-0.5410355208657697,1.9415288343946864,-0.1991336249954534,2.708369143895745,-0.5484286060716681,0.4564615270922542,-0.6444241207074967,1.2136500770957008,-0.2711048200669974,0.5354019743213256,-1.0548902369742874,9.34108115960953,-0.9389514043386638,0.2610893503295084,-0.93998499283333
0.52,1.930651814520624,-0.1821805971594856,2.688578080367291,-0.0310247317812397,0.0606058508813615,0.0441222468349024,-0.3860218311129502,0.4207894276067134,-0.5644422330464525,1.930560262273253,-0.1900043944536083,2.695480661481595,-0.5884286066677146,0.484814800960815,-0.6844241213035431,1.3062831674139217,-0.3348531450512365,0.4738814692989507,-1.17033560903414,9.061176694556709,-0.9417338317364938,0.2564574467696312,-0.9393298985858696
0.54,1.9232357417960004,-0.1741053407377443,2.677623564601295,-0.0267702552593318,0.0549586241739879,0.0448893803281408,-0.3945009877803095,0.42881309657183,-0.5875195080413754,1.91959169015182,-0.1808751639117632,2.682592179067445,-0.628428607263761,0.5131680748293758,-0.7244241218995896,1.2930931739850522,-0.4239578333679661,0.4011834482558263,-1.153863749746148,9.061176694556709,-0.9462378527267206,0.2519881789939145,-0.9372461043436384
0.56,1.915229440582616,-0.1654438478213849,2.665611961834335,-0.0229334574898259,0.0487791139058637,0.0456129126429217,-0.4058622067777865,0.436894357262425,-0.6124477971285769,1.9076231180154848,-0.1710371015232041,2.668703696638394,-0.6684286078598074,0.5415213486979366,-0.764424122495636,1.428113850742541,-0.5680609498738498,0.4040630345297502,-1.246414454360073,8.994857946549018,-0.9515355311729116,0.2478393268497639,-0.934488026353072
0.58,1.9073919790868616,-0.1570704493985086,2.6537355332882178,-0.0196623083880227,0.0433423176380442,0.046224500090652,-0.4186730838498586,0.4440704395935272,-0.6364648362622214,1.8946545458642492,-0.1604902072879309,2.653815214194442,-0.7084286084558539,0.5698746225664973,-0.8044241230916824,1.4075092341841964,-0.6405438536036062,0.3588041165551142,-1.200851956682225,8.994857946549018,-0.956628304366906,0.2440935585403778,-0.9318120280579112
0.6,1.8988602936927872,-0.1481160138472046,2.6407351381496413,-0.0165264008150613,0.0386315809625111,0.0467898856818385,-0.4340003492675974,0.4509400019979854,-0.6623697746073773,1.8864583248943687,-0.1348669274188322,2.6219122914751067,-0.5186730853399748,0.469672912539575,-0.7364648377523375,1.5436821106374898,-0.7663632708869383,0.3434781202229064,-1.2952469172577974,8.981375174225832,-0.9609888477430966,0.2404930144734611,-0.9299074411066977
0.62,1.890415724300135,-0.1393715698405573,2.6280939120350024,-0.0101236087250693,0.0369561538315593,0.0474880870038554,-0.4540754377103493,0.4672019738504105,-0.6657717247523521,1.8864583248943687,-0.1348669274188322,2.6219122914751067,-0.5186730853399748,0.469672912539575,-0.7364648377523375,1.3029142041038926,-1.0037544221375954,0.8130985926212558,-0.1700975072487398,8.950497017963698,-0.9680124930416152,0.2331893210620956,-0.926602562178889
0.64,1.8811303294606647,-0.1299331320920779,2.614728280550183,0.00049467348049,0.0394390243920735,0.0484258454090997,-0.4728686284714875,0.475006204674666,-0.6709311757512857,1.8864583248943687,-0.1348669274188322,2.6219122914751067,-0.5186730853399748,0.469672912539575,-0.7364648377523375,1.0496546722055624,-0.9396595380569112,0.3902115412127732,-0.2579725499466778,10.034238622053635,-0.9694742277899672,0.2249951848790653,-0.9260403518074748
0.66,1.8715025680812996,-0.1204036177540177,2.601201562710347,0.0116558300145376,0.0445930770819896,0.0494121263875955,-0.4886081992170132,0.4773062893055116,-0.6817128535438323,1.881271594040969,-0.1301701982934364,2.614547643097583,-0.538673085637998,0.4747934071287846,-0.7564648380503607,0.9608187297622172,-0.7869785372762839,0.1150042315422844,-0.5390838896273287,9.700313096641366,-0.966612309290528,0.216103326167177,-0.93103839155421
0.68,1.8620916147701387,-0.1113421495777337,2.58809812985568,0.0215621315152579,0.0508444012115854,0.0503458115161697,-0.5009698464876431,0.4764397298220817,-0.6970315217017004,1.8708981323341691,-0.1207767400426449,2.5998183463425364,-0.5786730862340445,0.4850343963072037,-0.7964648386464072,0.9851685676987914,-0.6180823635314941,-0.0433279741714948,-0.7659334078934044,9.700313096641366,-0.9611558172902344,0.2065607125067418,-0.9396079698905296
0.7000000000000001,1.851958572662556,-0.101843336396618,2.573949124372936,0.0308580447268999,0.0579326949760123,0.0512971447307311,-0.5114612937316009,0.4735106359386005,-0.7172536369931387,1.86052467062737,-0.1113832817918534,2.5850890495874896,-0.6186730868300909,0.4952753854856228,-0.8364648392424536,1.148459841604422,-0.5245723621978893,-0.1464546941740613,-1.011105764571918,9.42625882980883,-0.9541578322248472,0.1973399325023402,-0.9501247108140874
0.72,1.8416390822436528,-0.0924200496614257,2.559357978109325,0.038886334409861,0.0648680068337273,0.0521864345391697,-0.5198078972877516,0.4690393667181527,-0.7409969364443643,1.848151208890768,-0.101477774082141,2.5683597528026407,-0.6586730874261374,0.505516374664042,-0.8764648398385001,1.278086761722223,-0.4173301778075344,-0.2235634610223913,-1.1871649725612776,9.206126845178003,-0.9464706094329624,0.188605564653631,-0.9615391019836778
0.74,1.831173498961133,-0.0831004526549893,2.5442690891611672,0.0456201852009158,0.071169498837273,0.0529798115281716,-0.5262677928008537,0.4633332264370558,-0.766709229965342,1.8357777471541663,-0.0915722663724285,2.551630456017792,-0.6986730880221839,0.5157573638424611,-0.9164648404345466,1.355924338833721,-0.3229947756551055,-0.2853070140548447,-1.2856146760488851,9.037141886670724,-0.939319474433118,0.1808658631432332,-0.9723358311016804
0.76,1.8211220809643445,-0.0743594837827265,2.529447240934589,0.050974048552131,0.0764233242315324,0.0536334108668472,-0.5314048031750426,0.4571882372442902,-0.7922079026976679,1.8224042854026632,-0.0814107339332556,2.533901159218041,-0.7386730886182302,0.5259983530208803,-0.9564648410305928,1.3363495789594082,-0.256850518709445,-0.3072494596382813,-1.2749336366162989,8.960022056057824,-0.9329109064640442,0.1737045701336649,-0.9821135282675484
0.78,1.81044537658603,-0.0652905059799627,2.5133103115540387,0.0556885399416491,0.0812195962463687,0.0542159328072836,-0.5359369765321506,0.4501032747266251,-0.8202026895712918,1.8080308236362592,-0.0709931767646222,2.51517186240339,-0.7786730892142767,0.5362393421992994,-0.9964648416266394,1.461544885827342,-0.2266086678553991,-0.3542481258832552,-1.3997393436811945,8.915320710287688,-0.9269996949957746,0.1672247669352258,-0.9912351575349468
0.8,1.7996861427434667,-0.0563701764104281,2.496603918573285,0.0595514402455463,0.0853019713322267,0.0546877042473959,-0.5397177269907628,0.442368712691234,-0.8490745582610868,1.7836485277594225,-0.0427853422436314,2.472300177075474,-0.6359369780222667,0.4401892118093926,-0.9010674990247792,1.5064049302481486,-0.1890375229306129,-0.3867281017695512,-1.4435934344897483,8.863568137430775,-0.9214810207206172,0.1612927355707163,-0.9999302719567168
0.8200000000000001,1.7888792741398194,-0.0475370348627621,2.4796183119064947,0.0655479947769343,0.0887407880620847,0.0552538310350367,-0.5406411348013299,0.4394015405901719,-0.8481471130132098,1.7836485277594225,-0.0427853422436314,2.472300177075474,-0.6359369780222667,0.4401892118093926,-0.9010674990247792,0.1621492133017281,-0.046170390528355,-0.1483586050531088,0.0463722623938511,8.830810439947527,-0.9200272217280626,0.1525762600655766,-1.00647765511015
0.84,1.7786107022554607,-0.0392676984116671,2.463481128139372,0.0730678584815402,0.0912605199720342,0.0558546990913373,-0.5402216819380159,0.4308827847800716,-0.8509122078641711,1.7836485277594225,-0.0427853422436314,2.472300177075474,-0.6359369780222667,0.4401892118093926,-0.9010674990247792,0.4483048371127422,0.0209726431657009,-0.4259377905050154,-0.1382547425480662,10.510198423811744,-0.9161573743300848,0.1447206446817174,-1.0115215803222342
0.86,1.7678169128876702,-0.0307777688154366,2.446379575316881,0.0809037815885876,0.0927712797171796,0.0563747833842082,-0.5392594946979767,0.4184796243342188,-0.8593203890696606,1.7772891579791998,-0.0383834501255375,2.4632895020852263,-0.6559369783202899,0.438206399225946,-0.9172404609154768,0.7507691131679687,0.0481093620019579,-0.6201580222926384,-0.4204090602744736,10.191801785993448,-0.9127102233709276,0.1364464582636244,-1.0169172290822788
0.88,1.757583131858831,-0.0229643616467268,2.4299327172369813,0.0874454204215013,0.0929688748909413,0.0566736843619389,-0.5381503324101536,0.4047484957456496,-0.8714841914354733,1.7645704184187545,-0.0295796658893496,2.4452681521047306,-0.6959369789163363,0.4342407740590531,-0.9495863846968716,0.91887461235348,0.0554581143911547,-0.6865564294284615,-0.6081901182906357,9.912055832803162,-0.9102927849214126,0.1279487660652556,-1.0219904591708084
0.9,1.7468339244285809,-0.0150330347087967,2.412340090693479,0.0931784057106251,0.0917195963590738,0.0567369038751055,-0.5369004092697818,0.3892207110478495,-0.8872530887486628,1.7518516788583092,-0.0207758816531618,2.427246802124235,-0.7359369795123828,0.43027514889216,-0.9819323084782666,1.108301096218879,0.0624961570185933,-0.7763892348900042,-0.7884448656594767,9.706169610315555,-0.9106131903705356,0.1211137461957245,-1.024007149203626
0.92,1.7366470889611558,-0.0077959585608902,2.39531211633724,0.0974530966987915,0.0888175175733004,0.0565080404074244,-0.535598851827591,0.3735864620989036,-0.9043399012364092,1.7371329392680614,-0.0121703786753186,2.4076081559546694,-0.7759369801084293,0.426309523725267,-1.0142782322596615,1.1598307559341798,0.0650778721095368,-0.7817124474472914,-0.8543406243873175,9.551708440932998,-0.9131154534752788,0.1149780492750948,-1.0240881602978875
0.94,1.725946890409801,-0.0005041599175452,2.3770329985554537,0.1008198763413782,0.0836548726305844,0.0559290860320178,-0.5348588969465835,0.3565601757833991,-0.9226573669627608,1.7224141996778135,-0.0035648756974754,2.3879695097851044,-0.8159369807044757,0.422343898558374,-1.0466241560410563,1.2509711323203418,0.0369977440503765,-0.8513143157752284,-0.9158732863175868,9.448842925710778,-0.917407203311904,0.1097891651157911,-1.0225264366597848
0.96,1.7152344463495142,0.0064385781319253,2.358390738896594,0.103077539807749,0.0768509606632647,0.0550542555589877,-0.536761884432273,0.3387538696096871,-0.9406039496200446,1.706695460072665,0.0049414866511954,2.3675222155210043,-0.8559369813005221,0.418378273391481,-1.0789700798224513,1.267641244593062,-0.0951493742844755,-0.8903153086855992,-0.897329132864183,9.435573699133784,-0.9229799297539302,0.1055555635384162,-1.0198426726267318
0.98,1.7049975355370632,0.0126949570258682,2.3403524124677024,0.1040941728394691,0.0696841249433943,0.0540302871059763,-0.5409591588571228,0.320915107281969,-0.9572432365842548,1.689976720452615,0.0133487083706939,2.346266273162369,-0.8959369818965686,0.414412648224588,-1.1113160036038463,1.2376433499393638,-0.2098637212424869,-0.8919381163859041,-0.8319643482105177,9.46052172709733,-0.9303427633690396,0.1023005446442844,-1.0153789936482212
1.0,1.6941115322204474,0.0189068970035811,2.3210243756160205,0.1037051475669467,0.0620109900160557,0.0528068612192047,-0.5476546187623905,0.3013586440810001,-0.9746579660029188,1.677949577594207,0.0287407123899667,2.29249025063849,-0.6409591603472389,0.3103885125760893,-0.9767912857808558,1.351441116918508,-0.3347729952633882,-0.9778231600484438,-0.8707364709331977,9.48535431244909,-0.9385245956800676,0.1005943335159111,-1.009780464754013
1.02,1.6830453955142328,0.0246876984374855,2.3016712499816268,0.1014812115045609,0.0560544029104318,0.0516186287663505,-0.558827415984004,0.2777230634469262,-0.9580559843343368,1.677949577594207,0.0287407123899667,2.29249025063849,-0.6409591603472389,0.3103885125760893,-0.9767912857808558,1.548465260337668,-0.5586398610806731,-1.1817790317036947,0.8300990834291089,9.492279342075562,-0.9466169824338628,0.0968253902884161,-1.0086021557666642
1.04,1.6717393033091583,0.0299992209108045,2.2826972590449475,0.0973554550701125,0.0536859000469841,0.0506573579339506,-0.5710518955861463,0.2553349785052436,-0.9404235573855856,1.677949577594207,0.0287407123899667,2.29249025063849,-0.6409591603472389,0.3103885125760893,-0.9767912857808558,1.5504569721554966,-0.6112239801071173,-1.1194042470841326,0.8816213474375556,11.52722137847104,-0.9518938454653032,0.1003921254334845,-1.0029719983976468
1.06,1.660784159256627,0.0346525343013559,2.2649623089182973,0.0922368288289656,0.0539506536953583,0.0498989479792319,-0.5813144244113283,0.2361701922455397,-0.9272092241835688,1.6715399859907347,0.0318445975157276,2.2827223377806813,-0.6609591606452621,0.3082831936349134,-0.980700895620176,1.272032951854774,-0.5131264412590986,-0.9582393129851956,0.6607166601008352,11.52722137847104,-0.9550997386299748,0.1055549512152749,-0.9987908379466488
1.08,1.6490591748567398,0.039182890445815,2.2465366298680074,0.0860194058945377,0.0556441647156191,0.0491587665717528,-0.5905103479149144,0.2183182005795239,-0.9161446151106378,1.65872080278379,0.0380523677672494,2.2631865120650643,-0.7009591612413085,0.3040725557525615,-0.9885201152988164,1.1463901925872475,-0.4597961751793056,-0.8925995833007863,0.5532304536465527,11.263390749123571,-0.9564121698839771,0.1114161086202761,-0.9963717460110024
1.1,1.637164168626598,0.0433792452786161,2.228304094580345,0.0792306678764087,0.0579176865455509,0.0484091939802704,-0.5984510207253859,0.2026109339424815,-0.9077394869248342,1.645901619576845,0.0442601380187712,2.243650686349447,-0.740959161837355,0.2998619178702096,-0.9963393349774567,0.9752162448784112,-0.3970336405235752,-0.7853633318521236,0.4202564092901817,11.053625360493244,-0.9565936374788856,0.1176688715744614,-0.9950604841097404
1.12,1.6251212891599702,0.0472840086560448,2.210213603382583,0.0720743868655546,0.0601901244025757,0.0476139829693813,-0.6054241893150939,0.1890469367108549,-0.9016881104440072,1.631082436340098,0.0502573763761753,2.2237238996498983,-0.7809591624334015,0.2956512799878578,-1.0041585546560972,0.8204057812947964,-0.3486584294853989,-0.67819986158133,0.3025688240413493,10.877856453399543,-0.9563650755956034,0.1237605547026838,-0.994299273489648
1.14,1.6135593653625862,0.050762543561464,2.1931350392747846,0.0651734177796363,0.0620015300761439,0.0468107069274438,-0.6112986564922137,0.1780634738997319,-0.8963378887012428,1.616263253103351,0.0562546147335795,2.203797112950349,-0.8209591630294479,0.2914406421055059,-1.0119777743347376,0.6778102474792047,-0.2937233588559906,-0.5491731405561473,0.2675110871382224,10.734915468270628,-0.956360593027768,0.1300372148738668,-0.9934904576318776
1.16,1.601269243986288,0.0542189202244484,2.175265172180308,0.0580059610297528,0.0634538595372093,0.0459306217632792,-0.6174151068990005,0.1683801291793807,-0.8909329906221215,1.6004440698517026,0.0621465871439249,2.183674845758834,-0.8609591636254943,0.287230004223154,-1.0197969940133778,0.6332279482886185,-0.3058225203393383,-0.484167236017563,0.2702449039560628,10.705159440365604,-0.9565029920207012,0.136172202711466,-0.9925555161956578
1.18,1.5888563404014953,0.0575004564379093,2.1574992893303246,0.0510735260322916,0.0645532839731402,0.0450392948094657,-0.623580081864695,0.1604501019326644,-0.8859147281453447,1.5836248865851532,0.0679332936072115,2.1633570980753527,-0.9009591642215408,0.2830193663408021,-1.0276162136920182,0.5614160817680812,-0.3082487482847285,-0.3965013623358146,0.2509131238388418,10.68568084153776,-0.9569431085677604,0.1418566300824723,-0.9912743992265736
1.2,1.5769490437436124,0.060487323416624,2.1407103140126087,0.0448085380774497,0.0653725006524055,0.0442002149188284,-0.6295145779980699,0.1544738354509904,-0.8815897080794697,1.5576773363082606,0.0655229615345425,2.113203552923057,-0.7235800833548112,0.1518087593001919,-0.8626842686042623,0.4733914975663429,-0.2967248066687411,-0.2988133240836993,0.2162510032937492,10.627602236080747,-0.9577324626177997,0.1476564142360324,-0.9894337517824924
1.22,1.5642963559395493,0.0635660946762851,2.123335295118536,0.0402577116515973,0.0663274461149523,0.04346095693577,-0.635297458251105,0.1529162027768232,-0.8550804882831828,1.5576773363082606,0.0655229615345425,2.113203552923057,-0.7235800833548112,0.1518087593001919,-0.8626842686042623,1.3588659405699506,-0.2891440126517541,-0.0778816337083598,1.325460989814342,10.627602236080747,-0.962114726331116,0.1508231293520961,-0.985335729372627
1.24,1.5515390638786324,0.0665854698331607,2.10651216161108,0.0376993508341788,0.0674319867568017,0.0428629405831588,-0.6401122107126868,0.148976304188112,-0.8288091570715902,1.5576773363082606,0.0655229615345425,2.113203552923057,-0.7235800833548112,0.1518087593001919,-0.8626842686042623,1.3498958161510446,-0.2407376230790903,-0.196994929435558,1.313566560579632,11.9332919916842,-0.9640017462098291,0.1544223683090365,-0.9808754836856584
1.26,1.538693048669107,0.0695193902339997,2.090180651798039,0.0357891229588446,0.0682219684814503,0.0422952174642533,-0.6442989721306412,0.144597665310943,-0.8056391782402146,1.5504415354747123,0.0670410491275444,2.1045767102370148,-0.7435800836528343,0.1500804907736974,-0.8580381766960458,1.1974445379994874,-0.2093380708977243,-0.2189319438584497,1.1584989415687807,11.736576262425842,-0.965648195244553,0.1570861045395022,-0.977111484332317
1.28,1.5264146609198106,0.0722265967579312,2.075072113974454,0.0341995924400543,0.0684171485781332,0.0417503890247935,-0.6480385908628862,0.1406121423602332,-0.7858816315626558,1.5359699338076165,0.0700772243135482,2.0873230248649297,-0.7835800842488808,0.1466239537207083,-0.8487459928796128,1.0249753560075323,-0.1869809366122465,-0.1992761475354931,0.98787733387794,11.581914259996664,-0.9678732315316158,0.1594602024243422,-0.972960553132366
1.3,1.513412903872858,0.0749982825804205,2.0595571344469845,0.0326634745786635,0.0678975423543314,0.0411620999403229,-0.6520372274043232,0.1368044680958023,-0.7667238105183276,1.52149833214052,0.0731133994995521,2.070069339492844,-0.8235800848449273,0.1431674166677193,-0.8394538090631799,0.9968821202391842,-0.199931827071853,-0.1903837132215452,0.9578910522164086,11.470818198707091,-0.9705059708916088,0.1614896511095754,-0.9686863391861904
1.32,1.5003289672007691,0.077698919590962,2.044408062661061,0.0312887602044777,0.0665434624626115,0.0405600552502811,-0.6562635833695591,0.1334760386863438,-0.7491253735406058,1.5050267304436211,0.0759767478329064,2.0532802633115805,-0.8635800854409738,0.1397108796147303,-0.830161625246747,0.9201161762754186,-0.2113177982617953,-0.1664214704729244,0.8799218488860894,11.470818198707091,-0.9736468758375868,0.1631943136705242,-0.9640955744533636
1.34,1.487818737192025,0.0802072212284352,2.0303399549680243,0.0302011552524348,0.0643721187049834,0.0399790437792176,-0.660495294415773,0.1307306805503362,-0.7325957507858621,1.488555128746723,0.0788400961662608,2.036491187130317,-0.9035800860370202,0.1362543425617413,-0.820869441430314,0.8641076294185404,-0.2115855523106946,-0.1372679068003798,0.8264811377371839,11.357860199736932,-0.978003414700512,0.1646659660845262,-0.9583587371431406
1.36,1.4745532101980623,0.0827946026531801,2.0158711309134514,0.0293689183226269,0.0611797498776289,0.039366045161875,-0.6659728698161509,0.1281585457412043,-0.715145176230643,1.4710835270349232,0.0816170310732905,2.0199344155444643,-0.9435800866330666,0.1327978055087523,-0.811577257613881,0.9235018435964736,-0.2738787700188927,-0.1286067404565924,0.8725287277609572,11.357860199736932,-0.9831745517612483,0.1658396892930189,-0.951796413830727
1.38,1.4611630403480806,0.0853329659788816,2.001750929329831,0.0289309404066834,0.0573649773654919,0.0387659701502893,-0.6729291232997193,0.1257981458992574,-0.6977408682546451,1.452611925308222,0.0843075525539954,2.0036099485540224,-0.983580087229113,0.1293412684557633,-0.8022850737974481,0.94455133008337,-0.3478126741784215,-0.1180199920973484,0.8702153987998951,11.356943669924476,-0.9892916215866612,0.1668548671726923,-0.9439918289099783
1.4,1.4476146400536491,0.0878249897799156,1.9879771391622072,0.0289380853845988,0.0533973613769342,0.0381945910011058,-0.681701439338864,0.1234932246968719,-0.6804941408773669,1.4275165841830946,0.0916228732738444,1.9668638859170984,-0.7729291247898354,0.1127341199979994,-0.6611183775207832,0.974314881937555,-0.4386158019572317,-0.1152460601192735,0.8623363688639085,11.348999983419162,-0.9952721158369522,0.1674201324349237,-0.9364410679932008
1.42,1.4345311769386306,0.0901493904202282,1.9752847927519677,0.0294954801134094,0.0511524675111619,0.0377343182463168,-0.6950279796253322,0.1212163864961367,-0.6563854213787889,1.4275165841830946,0.0916228732738444,1.9668638859170984,-0.7729291247898354,0.1127341199979994,-0.6611183775207832,1.3820374669851645,-0.6663270143234146,-0.113841910036757,1.2054359749289034,11.337709916898348,-1.0016408524235396,0.1674993309876676,-0.9285350453820188
1.44,1.4204919454173115,0.0925465444958333,1.962419940763044,0.0307206616555328,0.0515396781126929,0.0373749626317054,-0.7078948386324716,0.1185725213168652,-0.6314156039383786,1.4275165841830946,0.0916228732738444,1.9668638859170984,-0.7729291247898354,0.1127341199979994,-0.6611183775207832,1.4107071513988867,-0.6433429503569676,-0.1321932589635768,1.2484908720205137,11.927030643465514,-1.0062412251859008,0.168275814623391,-0.9209335568931504
1.46,1.4062147768503954,0.0948864733636397,1.9500390826636245,0.0324861407691781,0.0535582121485483,0.0371051960152752,-0.7189943812756672,0.1155003674174591,-0.6079759376674584,1.4197872929351962,0.0927502144738244,1.9602527021418907,-0.7929291250878586,0.1101213148177478,-0.6537938793740108,1.3058100276857536,-0.5549771321597785,-0.1536076949703063,1.17198331354601,11.827233846059244,-1.0082058516906465,0.1683484775451605,-0.9166094493058896
1.48,1.3917332883546143,0.0971570696922129,1.9381089794934043,0.0345740116967925,0.056346236485245,0.0368874092871453,-0.7284648017601242,0.1115881360054381,-0.5861911760647304,1.4043287104393996,0.0950048968737844,1.9470303345914752,-0.8329291256839051,0.1048957044572446,-0.639144883080466,1.2037132724005746,-0.4735210242228505,-0.1956115706010501,1.089238080136401,11.703706039068493,-1.0089321670283689,0.1679340043215439,-0.9141329239039732
1.5,1.3778145594529962,0.0992314166455459,1.9271654628415849,0.0364685956682442,0.0591312670407528,0.0366845119322481,-0.7361316028785323,0.1069823002227539,-0.5668387264175605,1.3888701279436029,0.0972595792737444,1.9338079670410595,-0.8729291262799516,0.0996700940967414,-0.6244958867869213,1.0659630270235962,-0.3833400559204059,-0.2302917891342099,0.9676224823584934,11.591098760450222,-1.0091306047171291,0.1673876111033003,-0.9123985278162208
1.52,1.363018251385937,0.1013152160488174,1.9160331877423595,0.038178633010811,0.0617716787155129,0.0364460637553564,-0.743052058925523,0.1016671546550792,-0.5474475284707817,1.3714115454180038,0.0992529811556792,1.921318049305321,-0.912929126875998,0.0944444837362382,-0.6098468904933765,1.0632051096978643,-0.3460228023495326,-0.2657572783837332,0.9695598973389395,11.495414213992262,-1.0093285912977068,0.1669433433267768,-0.9108262106641278
1.54,1.3480931620089591,0.103287156674301,1.9052801241512527,0.0394810046983253,0.0638064501602329,0.0361608403059242,-0.7491437393201245,0.0958335955713986,-0.5288220742245527,1.3539529628924047,0.1012463830376141,1.9088281315695828,-0.9529291274720444,0.089218873375735,-0.5951978941998317,1.022309306779428,-0.3045840197300753,-0.2916779541840317,0.9312727123114484,11.427584001983632,-1.009705065889713,0.1666912985724459,-0.9092541930319816
1.56,1.3330464977574883,0.1051362583224396,1.894893386675985,0.0401808323600222,0.0652691393416227,0.0358150004337278,-0.7552305297278411,0.0894400445823337,-0.5107754181366162,1.3354943803519046,0.1031091446605363,1.8967044387411829,-0.9929291280680907,0.0839932630152318,-0.5805488979062869,1.0045002584289118,-0.3043395203858323,-0.3196775494532414,0.9023328043968272,11.381903654805685,-1.0102390230493812,0.1667808075936863,-0.9075043704784674
1.58,1.318638958068896,0.1067708272198289,1.8853560356553447,0.0400965749620781,0.06631589831608,0.0354241500239432,-0.7610507881946142,0.0830305887450325,-0.4940500730031045,1.3160357977965034,0.104841266024446,1.8849469708201216,-1.032929128664137,0.0787676526547286,-0.5658999016127422,0.9416656818975664,-0.2910129233386571,-0.3204727918650639,0.8362672566755852,11.321715258165568,-1.0110531877243014,0.1674110152827176,-0.905493801188882
1.6,1.303353704773476,0.1083600344231134,1.8756576647597385,0.0390971817507716,0.06718824045519,0.0349447985442554,-0.7671672984660863,0.0763130478320588,-0.4766695688217632,1.2805864186591651,0.1109223566570805,1.86065353200519,-0.8610507896847304,0.0570459736575233,-0.4769139201694043,0.9805852581699886,-0.3058255135736043,-0.3358770456486852,0.8690252090670647,11.321715258165568,-1.0120952880592502,0.168765581373895,-0.903162363388348
1.62,1.2879249207589138,0.1098559957325372,1.866272452772504,0.0383137448215475,0.0684819047732093,0.0345022910339668,-0.775317128630315,0.0734269444597705,-0.4629048520185551,1.2805864186591651,0.1109223566570805,1.86065353200519,-0.8610507896847304,0.0570459736575233,-0.4769139201694043,0.8127372777438985,-0.4074915082114327,-0.1443051686144142,0.6882358401604061,11.306044104310786,-1.011552540023031,0.1700113842075666,-0.9023956417411968
1.64,1.2731300762921594,0.1112234356276788,1.857597682721192,0.0386427301425301,0.0702574245066326,0.0341824479808162,-0.7815666869983993,0.0705150509517773,-0.4508977462527531,1.2805864186591651,0.1109223566570805,1.86065353200519,-0.8610507896847304,0.0570459736575233,-0.4769139201694043,0.6922909295757467,-0.3124779184042137,-0.1455946753996594,0.6003552882900998,11.063986765499068,-1.012375702229626,0.1703114717116944,-0.9005856118571814
1.66,1.2574394253412438,0.1125988047841002,1.8487064748980344,0.0398709451945054,0.0720269014045891,0.0339086657676844,-0.7871342000664853,0.0670919109857192,-0.4388842306935208,1.271975910762318,0.1114928163936557,1.855884392803496,-0.8810507899827535,0.0518490506400215,-0.4734866896026642,0.6838121911066809,-0.2783756534043002,-0.171156998302905,0.6006757779616123,10.963836855320553,-1.0128663119694803,0.1697878962305997,-0.8993520946690442
1.68,1.2416449731443933,0.1139005002453529,1.8400484525987768,0.0418815841944571,0.0733764998638625,0.0336778112176053,-0.7920365688233638,0.0631503276260904,-0.4275484594396532,1.2547548949686234,0.1126337358668062,1.846346114400108,-0.9210507905788,0.0414552046050178,-0.4666322284691842,0.6482071596513961,-0.2451184378439275,-0.1970791679814391,0.5667885626933794,10.963836855320553,-1.013447664092146,0.1685089922667326,-0.8982623653053817
1.7,1.2257574924956631,0.1151097551467555,1.831610340477128,0.0443276502381831,0.0741235494455854,0.0334558876216625,-0.7965290126609355,0.0578274821948453,-0.416831837250012,1.2375338791749289,0.1137746553399566,1.83680783599672,-0.9610507911748464,0.0310613585700142,-0.4597777673357041,0.6390632329319481,-0.2246221918785818,-0.266142271562254,0.5358311094820628,10.920950498655657,-1.014319238659404,0.1668057982320112,-0.8971122057495056
1.72,1.210582610735195,0.1161478056587907,1.8237886562815768,0.0465481350252959,0.0742219916564578,0.0332127506067634,-0.8006808888799575,0.0517166757491894,-0.4070367265223793,1.218312863351432,0.1143958825113569,1.8276122806500057,-1.0010507917708928,0.0206675125350105,-0.452923306202224,0.6134415736664243,-0.207593810951101,-0.3055403222827976,0.4897555363816336,10.887299729939514,-1.0156422501162814,0.1649971224724742,-0.8955375649117243
1.74,1.1945227789703745,0.1171084099619191,1.815753356403168,0.0485890239982095,0.0736861132542354,0.0329071309735283,-0.8051643806234415,0.0446772617779445,-0.3970182131036356,1.199091847527935,0.1150171096827572,1.8184167253032917,-1.0410507923669394,0.0102736665000068,-0.446068845068744,0.6519694363886911,-0.2241745871742029,-0.3519706985622435,0.5009256709371857,10.864662318206683,-1.017489954812904,0.1633728737013033,-0.8933989406808054
1.76,1.1783649133308238,0.1179204970912148,1.807915359059468,0.0501944695517622,0.0727076554248205,0.0325500869989822,-0.8104685832417391,0.0369319984101415,-0.387286451593719,1.1788708316895369,0.1153784907032824,1.8093925314849144,-1.0810507929629858,-0.0001201795349967,-0.4392143839352639,0.6760747964139737,-0.265210130914878,-0.3872631683901475,0.4865880754958279,10.846351656984552,-1.0194696982915348,0.1619454088781824,-0.891205517241787
1.78,1.1620924879386532,0.1185701895214648,1.800269678316022,0.0511589291928679,0.0716638298971444,0.0321465802452447,-0.8165315016765328,0.0285148760774946,-0.3777563325230976,1.1576498158362376,0.1154800255729325,1.8005396991948743,-1.121050793559032,-0.0105140255700004,-0.4323599228017838,0.7043260924634395,-0.3031459217396837,-0.4208561166323451,0.4765059535310728,10.83219971267954,-1.0215285562775525,0.1610114680152015,-0.8889301209922122
1.8,1.1465155462959382,0.1190263080343445,1.7931813164883263,0.0512744005286382,0.0708487857144061,0.0317200068315823,-0.8228359770145621,0.0200246871263292,-0.3688517969783866,1.1212659128548266,0.1199959333253396,1.7813818616898671,-0.9148755594749184,-0.0081690856715821,-0.3722504400749703,0.6912316380587152,-0.3152237669014679,-0.4245094475582729,0.4452267772355495,10.823259337810669,-1.0236271438422109,0.1606628734751304,-0.886562907816339
1.82,1.1299586836463755,0.1193495559046957,1.7858985619847103,0.0510055425810763,0.0711671972802375,0.0313097749088136,-0.8323776935165855,0.0126849130715598,-0.3599061230454021,1.1212659128548266,0.1199959333253396,1.7813818616898671,-0.9148755594749184,-0.0081690856715821,-0.3722504400749703,0.7499028588679503,-0.47708582510117,-0.3669887027384692,0.4472836966492255,10.814991931269104,-1.0236179058077657,0.1604513295435758,-0.8866348695831145
1.84,1.113227034377691,0.1195275555540809,1.778787609853245,0.0507900802608168,0.0730190141600533,0.0309874906246323,-0.840123833518815,0.0054603029184476,-0.3516669467017548,1.1212659128548266,0.1199959333253396,1.7813818616898671,-0.9148755594749184,-0.0081690856715821,-0.3722504400749703,0.6709726216849472,-0.3873070001114753,-0.3612305076556108,0.4119588171823618,10.798964421232997,-1.0242355528108211,0.1606895877384735,-0.8857452099105414
1.86,1.0963568793198282,0.1195615247999625,1.7718303153077908,0.0505674712080434,0.0754336169903398,0.0306993693847638,-0.8464102598126733,-0.001709599857554,-0.3444714323041026,1.1121171572600774,0.1199142424686238,1.7776593572891175,-0.9345443710345956,-0.0155058780213975,-0.3711492615853449,0.5972898978139718,-0.3143213146929113,-0.3584951388000851,0.3597757198826129,10.67576859349083,-1.0235730102896785,0.1607162441936611,-0.8864717266170783
1.88,1.0802256471908878,0.1194624430500313,1.76534545543956,0.0503344012129919,0.0777391614671298,0.0304304526220148,-0.8512664283112595,-0.0083667549983118,-0.3385064585788368,1.093819646070579,0.1197508607551921,1.770214348487618,-0.9738819941539496,-0.0301794627210282,-0.368946904606094,0.5086280531928293,-0.2428084249293138,-0.3328577570378909,0.2982486862632888,10.67576859349083,-1.022527346532626,0.1606662831702421,-0.8877053231658546
1.9,1.0631555359476497,0.1192238952745296,1.758634668235017,0.0501183384883098,0.0798026347869789,0.0301372762601539,-0.8554686325649841,-0.0151425843999908,-0.3329206449276105,1.0755221348810806,0.1195874790417605,1.7627693396861186,-1.013219617273304,-0.0448530474206589,-0.366744547626843,0.4867537848258215,-0.2101102126862264,-0.3387914700839506,0.2792906825613173,10.62003012715104,-1.0215733725513565,0.1605321639418165,-0.888875412070413
1.92,1.0460079848763566,0.1188515313961995,1.752028843465278,0.0499942164695225,0.0812577784094607,0.0298264961523618,-0.8590946614415014,-0.02176414334223,-0.3279695546993764,1.0552577425356149,0.1186904180933473,1.7554344487335818,-1.0525572403926582,-0.0595266321202897,-0.3645421906475921,0.4514045377679525,-0.1813014438258653,-0.3310779471119589,0.2475545114117017,10.577510152132165,-1.0209406859988297,0.1602571872445539,-0.8897366725000241
1.94,1.0287916677727222,0.1183480793714294,1.745516689513386,0.050010075992733,0.0819902822899304,0.0294959193488907,-0.8624315956366312,-0.028275462161231,-0.3234949884232662,1.0349933501901485,0.1177933571449341,1.7480995577810448,-1.0918948635120125,-0.0742002168199204,-0.3623398336683412,0.4288185686995314,-0.1668467097564907,-0.3255659409500497,0.2237283138055101,10.541742819505089,-1.020840183687663,0.1598589072774093,-0.8900260586165897
1.96,1.0123700088759298,0.1177462406291493,1.7394101806266131,0.0500849397863423,0.0821696601169683,0.0291662342510917,-0.8660316309815984,-0.0347324401411582,-0.3195175030077141,1.0137455172666987,0.1165294565790302,1.7408197257529892,-1.1312324866313666,-0.0888738015195512,-0.3601374766890903,0.4197416150121648,-0.1800017672483611,-0.3228488989963602,0.1988742707776075,10.50407809906028,-1.0209879245109847,0.1592630176707789,-0.8901650038311304
1.98,0.9950061146642164,0.1169784711418523,1.7330624492318676,0.050110498089095,0.0820943737059968,0.0288086173007191,-0.8701933151921518,-0.0416907432255804,-0.3154685959634775,0.9915142437652648,0.1148987163956355,1.733594952649415,-1.1705701097507208,-0.1035473862191819,-0.3579351197098394,0.4531314531565807,-0.2080842105276703,-0.3479151542211098,0.2024453522118302,10.50407809906028,-1.0215066572741982,0.1587207609020863,-0.8898889176119412
2.0,0.9775550601754996,0.1160694841938261,1.7267942821129467,0.0499805843323272,0.0819588838751727,0.0284439204094449,-0.87471220032193,-0.0488333930322448,-0.3115529963181222,0.9514964489046088,0.1148939339805732,1.7172890194336936,-0.8772852355493493,-0.0607198594836056,-0.2923321254966253,0.4657512470715413,-0.225944256488908,-0.3571324903332163,0.195779982267763,10.497827559145662,-1.022115145179146,0.1582872732340534,-0.8895240327365669
2.02,0.9599207038183812,0.1149299463107502,1.720676752554546,0.0470306361915514,0.0851140940487692,0.0280508359677961,-0.8875045236389604,-0.0632049730030858,-0.3002714307168547,0.9514964489046088,0.1148939339805732,1.7172890194336936,-0.8772852355493493,-0.0607198594836056,-0.2923321254966253,1.115190083709297,-0.6396161658515198,-0.7185789985420503,0.5640782800633737,11.043274010403366,-1.018668263363329,0.159024987412282,-0.8943923788947705
2.04,0.9429781342837386,0.1136465324553466,1.7150706571500098,0.0417740237545053,0.0923479227867774,0.0276934935443963,-0.8947599592022322,-0.0707202993649002,-0.2904014901932786,0.9514964489046088,0.1148939339805732,1.7172890194336936,-0.8772852355493493,-0.0607198594836056,-0.2923321254966253,0.718570110490796,-0.3627717781635897,-0.3757663180907228,0.4934970261788046,11.043274010403366,-1.015250882670435,0.1640953631304963,-0.8969660268327648
2.06,0.925042392520485,0.11218504664357,1.709361095941008,0.0359936367426588,0.10210570046742,0.0273537065421622,-0.897969930813544,-0.0749119422652889,-0.2811402807464138,0.9427235965491152,0.1142867353857372,1.7143656981787274,-0.8787036196207888,-0.0645256827352106,-0.2877048314032548,0.5330192031449366,-0.1604985805655934,-0.2095821450194351,0.4630604723432407,10.886558589046215,-1.008476414371667,0.169138769495922,-0.903339458317848
2.08,0.9070815294593656,0.1106658538156226,1.7038205280994618,0.0308262420598833,0.1127491312081517,0.0270452525505346,-0.8975668691897953,-0.0768827975113832,-0.2734058091193768,0.9251778918381284,0.1130723381960651,1.7085190556687948,-0.8815403877636678,-0.0721373292384207,-0.2784502432165139,0.3995897284185289,0.020153081187435,-0.0985427623047138,0.3867235813518527,10.79462648828121,-1.0002536834270108,0.1733618169990508,-0.9113347244184512
2.1,0.89005559984286,0.1092004672263739,1.69868796381045,0.0267412452032045,0.1230117382096786,0.0267786856516772,-0.8943619408648493,-0.0774191047186678,-0.2672838941113177,0.9076321871271412,0.1118579410063929,1.7026724131588624,-0.8843771559065469,-0.0797489757416308,-0.2691956550297731,0.3465437719629551,0.1602464162473005,-0.0268153603642302,0.3060957504029515,10.708870845696763,-0.9907085429626774,0.177054063165595,-0.9206610035816188
2.12,0.8722270453426021,0.1076556671700469,1.6934015422440971,0.023337678148437,0.1335960766932365,0.0265265416395436,-0.8883616530161724,-0.0771377132102434,-0.2617487625164227,0.8899446440090104,0.1102629614915603,1.697288500058267,-0.8872139240494259,-0.0873606222448408,-0.2599410668430322,0.408412528030172,0.300014392433845,0.0140695754212195,0.2767565797447524,10.644851624361763,-0.9808236985289696,0.1799857362478694,-0.9302436514711978
2.14,0.8545445671276285,0.1061234633672757,1.6882193124652929,0.0208134446537294,0.1437556226290138,0.0263071603949472,-0.8799153638502563,-0.0762228673696848,-0.2568015903575782,0.8722571008908795,0.1086679819767277,1.6919045869576714,-0.8900506921923049,-0.0949722687480509,-0.2506864786562913,0.4915568531602061,0.4223144582958082,0.0457422920279317,0.2473586079422218,10.607412998304426,-0.970934247933483,0.1822200902421525,-0.9396940358129356
2.16,0.837054863583371,0.1046134710477075,1.6831313670160877,0.0190810109804261,0.153392905804794,0.0261230745441772,-0.8692278955708491,-0.0749676080331557,-0.2522834565821391,0.8544986385691766,0.1068827112993148,1.6867520385617445,-0.8928874603351838,-0.102583915251261,-0.2414318904695505,0.5835477423442783,0.5343734139703571,0.0627629668264545,0.2259066887719596,10.594260292100444,-0.9616514369579268,0.1837583325826314,-0.948421945180536
2.18,0.8206574688955983,0.1032062540983457,1.6783790935164091,0.018127806908539,0.1620305093614489,0.025985395503501,-0.857148717090466,-0.0733083778669974,-0.2482187908582835,0.8366692570439017,0.1049071494593217,1.681830854870486,-0.8957242284780629,-0.110195561754471,-0.2321773022828096,0.6426140073012829,0.6039589240191545,0.0829615083079139,0.2032332861927749,10.596458155660912,-0.9521102705157496,0.1848375157558839,-0.9572011162219136
2.2,0.8036648596649326,0.1017630874413373,1.673459090129157,0.0179896504079573,0.1705729758590068,0.0258966841620448,-0.8425313909961324,-0.0711548766775154,-0.2440249284708327,0.777800033041075,0.0995408352049958,1.6659681539734952,-0.8233589333742642,-0.0804023573784074,-0.2248732217096238,0.767939241161145,0.7308663047166819,0.1076750594740993,0.2096931193725407,10.596458155660912,-0.9428886902984464,0.1852147856640401,-0.9655440277862236
2.22,0.7869712785347837,0.1003182022027259,1.6685476854031915,0.0173426068315626,0.1786020698772407,0.0257726280576787,-0.8273683251714651,-0.0729213206619561,-0.2473618965185788,0.777800033041075,0.0995408352049958,1.6659681539734952,-0.8233589333742642,-0.0804023573784074,-0.2248732217096238,0.781303790636265,0.7581532912333655,-0.0883221992220358,-0.1668484023873026,10.61229938931956,-0.9319087750895166,0.1850057314699846,-0.9762436767264784
2.24,0.7714103572293595,0.0989314073144161,1.663824237719988,0.0157258972363413,0.1857829096534096,0.0255786860516366,-0.811220480246426,-0.072898840665654,-0.2496918488317644,0.777800033041075,0.0995408352049958,1.6659681539734952,-0.8233589333742642,-0.0804023573784074,-0.2248732217096238,0.8157543730423126,0.8073922462519534,0.0011239998151071,-0.1164976156592792,10.18314409279992,-0.922423309775399,0.1861977177625664,-0.984843735726846
2.26,0.7553810137460594,0.0974864434453335,1.6588192361061889,0.0136949251823364,0.1928615366438649,0.0253421846763517,-0.7923780137118523,-0.0714933883587453,-0.250641566004366,0.7695664437073324,0.0987368116312118,1.6637194217563989,-0.8166009766310239,-0.0818211532806894,-0.2202041078798919,0.9459331424596796,0.9421233267286832,0.0702726153454368,-0.0474858586300794,10.277264793599898,-0.9135252932128262,0.1879980311522426,-0.9923740597805988
2.28,0.7397472503111575,0.0960835875040187,1.6538102620047117,0.0119094724164572,0.1994563106972084,0.0251153237832236,-0.7717676884219885,-0.068918180488541,-0.2501795817260897,0.753099265039847,0.0971287644836436,1.6592219573222065,-0.8030850631445432,-0.0846587450852534,-0.210865880220428,1.038786110806909,1.030516264493192,0.1287603935102133,0.023099213913813,10.38712407067851,-0.9054782715463752,0.1897165960730499,-0.9988398284951956
2.3000000000000003,0.724543481191198,0.0947415423318639,1.6488252275733846,0.0107118516349391,0.205587369233738,0.0249266732130984,-0.7494931796750467,-0.0655066771078857,-0.248392112667397,0.7366320863723618,0.0955207173360755,1.654724492888014,-0.7895691496580625,-0.0874963368898174,-0.2015276525609641,1.1302512340953157,1.1137254373470906,0.1705751690327654,0.0893734529346323,10.575882332443143,-0.8974440749928181,0.1912384916778489,-1.0049854868576598
2.32,0.7105359057765823,0.0935366833822035,1.6441323833303565,0.010385988360102,0.2107223925756852,0.0248034217526978,-0.7260703290066726,-0.0616035968971315,-0.2457075395093793,0.7208407033792005,0.0937707905982791,1.6506939398367948,-0.7760532361715817,-0.0903339286943814,-0.1921894249015003,1.1948544907281438,1.1711425334187064,0.1951540105377094,0.1342286579008866,10.575882332443143,-0.8905698632750421,0.1922540454692136,-1.0098659704773498
2.34,0.6962927517352735,0.0923515835149014,1.6392546775126304,0.0111226984032712,0.2149141130170643,0.0247476453509441,-0.6994534599722686,-0.0572091070332957,-0.2421793386259209,0.7050493203860393,0.0920208638604828,1.6466633867855756,-0.762537322685101,-0.0931715204989454,-0.1828511972420363,1.3603468857537824,1.3308434517201984,0.2197244931917912,0.1764100441729227,10.719098472809492,-0.8847558155111956,0.1923837049435897,-1.01376273184737
2.36,0.6825998218575536,0.0912530738097069,1.6344561457657338,0.0130829248475209,0.2174458814318453,0.0247719300785571,-0.671235120214458,-0.0529868757967026,-0.2378085411486284,0.6895958352300401,0.0901999973275723,1.6428662894258428,-0.7490214091986204,-0.0960091123035094,-0.1735129695825725,1.4432652267428228,1.4109169878905314,0.2111115618296553,0.2185398738646232,10.719098472809492,-0.8805621830318492,0.1914825005794889,-1.0162867428702969
2.38,0.669484831799535,0.0902270645073743,1.629757114049563,0.0160663015887824,0.2179778830033835,0.0248511482894178,-0.6418558615350833,-0.0502027480166675,-0.2323065801189504,0.6744802479112029,0.0883081909995478,1.6393026477575967,-0.7355054957121396,-0.0988467041080734,-0.1641747419231086,1.50096950603374,1.4689629339687316,0.1392063890017537,0.2750980514838991,10.784311283777242,-0.8787430748106041,0.1895697881158237,-1.0171812889559946
2.4,0.6575778753592234,0.0892836180263073,1.6254065280594283,0.0190607577472759,0.2163624182382264,0.0249050976581469,-0.6131245623284014,-0.049301319191649,-0.2259074752270513,0.6373920387227808,0.0877169271065409,1.6181417850436155,-0.6359588797295204,-0.0701228419553758,-0.1967248907909952,1.472454304425084,1.4365649603340969,0.0450714412509267,0.3199552445949535,10.857727096755298,-0.8793292091149281,0.1872798372343206,-1.016139764988986
2.42,0.6456660696966213,0.0883127257143523,1.6208774379018958,0.0223754733977564,0.2104621796004366,0.0248812082170824,-0.5801999761072084,-0.048085857765531,-0.2276696521759603,0.6373920387227808,0.0877169271065409,1.6181417850436155,-0.6359588797295204,-0.0701228419553758,-0.1967248907909952,1.6497052705820046,1.646229311059649,0.060773071305897,-0.0881088474454505,10.937063546075478,-0.8827362732694501,0.1848404556053674,-1.0125006145748132
2.44,0.6343734061773703,0.0873488554285319,1.6163343905020042,0.025772076888206,0.1995992206551972,0.0247220595257603,-0.5514343032994895,-0.0484830796774149,-0.2262108889549221,0.6373920387227808,0.0877169271065409,1.6181417850436155,-0.6359588797295204,-0.0701228419553758,-0.1967248907909952,1.440268818192522,1.4382836403859456,-0.0198610955941948,0.0729381610519122,10.403747584138728,-0.8898672231201333,0.1814510333448008,-1.0064804498392788
2.46,0.6236042662604285,0.0863620241473046,1.6118728370559652,0.0289151251611281,0.185931781874477,0.0244300210232118,-0.5275745169200114,-0.0502065758557273,-0.2199322732333975,0.6310324499254856,0.0870156986869871,1.6161745361357056,-0.6347794833684077,-0.0741068607431175,-0.1896085529254041,1.2366091344171366,1.1929893189739027,-0.0861748089156209,0.3139307860762302,10.614863255794262,-0.900760425871782,0.1788194221525086,-0.9966482445767472
2.48,0.6137668683416379,0.0853823630747452,1.6077875822122496,0.0315444780371656,0.1719710121386641,0.0240586004914435,-0.509569161103428,-0.0528083257430096,-0.2103513886993999,0.6183132723308952,0.0856132418478796,1.6122400383198856,-0.6324206906461826,-0.0820748983186008,-0.175375877194222,1.0280506906416924,0.9002677908291734,-0.1300874943641117,0.4790442266998818,10.835753539364305,-0.9137087348579036,0.1765992236120545,-0.9844523032268152
2.5,0.6037329026245083,0.0842899860992004,1.6037130508567232,0.0339154752491316,0.1575294341874828,0.0236107362363156,-0.4951780223512765,-0.0562884501064989,-0.1974523723329886,0.6055940947363048,0.0842107850087721,1.6083055405040658,-0.6300618979239574,-0.0900429358940841,-0.1611432014630399,0.9818359885820704,0.7195569376075739,-0.1740062181744665,0.644950818320561,11.020507177806394,-0.9274266818031754,0.1751892766072748,-0.9707519318706638
2.52,0.593941779683708,0.0831206476883967,1.5999200188326312,0.0358735551138142,0.144288051882409,0.0231457528522782,-0.4849431622353641,-0.0604398260324299,-0.1823895893820508,0.5929928567778256,0.0824099262908904,1.605082676474805,-0.6277031052017322,-0.0980109734695674,-0.1469105257318578,0.9339080708208872,0.5117430057956202,-0.2075687962965522,0.7531391475468898,11.16424667019328,-0.940806493452714,0.174462312259361,-0.956699482477213
2.54,0.5843159369565362,0.0818619830076322,1.5964412093924203,0.0373911423487753,0.1329182822233643,0.0226987003944849,-0.478263803396143,-0.0651506017958828,-0.1662181399424772,0.5803916188193465,0.0806090675730088,1.601859812445544,-0.6253443124795071,-0.1059790110450508,-0.1326778500006757,0.9059815392342468,0.3339679419610553,-0.2355387881726411,0.8085724719786815,11.268726086696006,-0.9522186489082524,0.1743063809963141,-0.9441222373958296
2.56,0.5752682017622651,0.0805720472031066,1.5934408590467397,0.038303203608961,0.1241583624488617,0.0223058826030507,-0.4744749165534286,-0.0703183715937897,-0.1503930108667295,0.567849350678923,0.07860900791574,1.598992765309563,-0.6229855197572818,-0.1139470486205341,-0.1184451742694936,0.8536630167330802,0.1894443421357194,-0.2583884898953448,0.7912564537873867,11.326111019017844,-0.9626491647966384,0.1747029111889689,-0.9321184730731046
2.58,0.5657999932240101,0.0791034511459859,1.590610856330311,0.038494469378011,0.1172655781380524,0.0219304895143987,-0.4727050880078121,-0.076212222691665,-0.1334115006069883,0.5553660523565551,0.0764097473190841,1.5964815350668613,-0.6206267270350566,-0.1219150861960174,-0.1042124985383115,0.903107779484956,0.0884914272808234,-0.2946925548937669,0.8490755129870575,11.326111019017844,-0.9704149577518,0.1756524947121883,-0.9226761259454822
2.6,0.5563426437640221,0.0775141727942726,1.588120979534219,0.037716644356473,0.1132368072038838,0.0216090030707522,-0.4732280816461401,-0.0823299464864092,-0.1164151790521356,0.5421647388236195,0.0752928400114027,1.5839402812999617,-0.4878572471547767,-0.0676894225217798,-0.116443848241423,0.9035693293412256,-0.0261496819163986,-0.3058861897372117,0.8498160777426336,11.343842913277513,-0.9753829689374164,0.1773487779787133,-0.9160125747563016
2.62,0.5468534992248445,0.0757068541047414,1.5858368701354233,0.0325771205252351,0.1124236611780247,0.0211229288810734,-0.4752986376755433,-0.0954952150717089,-0.112724445656878,0.5421647388236195,0.0752928400114027,1.5839402812999617,-0.4878572471547767,-0.0676894225217798,-0.116443848241423,0.6914351238345605,-0.1035278014701601,-0.6582634292649818,0.184536669762883,11.343842913277513,-0.9752914052535282,0.1815800522895799,-0.9147923403537436
2.64,0.5378173016424954,0.0738432470373833,1.5837343016227798,0.0246289632100712,0.1137578472321955,0.0205358533886906,-0.4755738333752212,-0.0994821235059822,-0.1087323187799043,0.5421647388236195,0.0752928400114027,1.5839402812999617,-0.4878572471547767,-0.0676894225217798,-0.116443848241423,0.2824369333951249,-0.0137597849838966,-0.1993454217136654,0.1996063438486864,10.506710378025671,-0.9758160083039268,0.1889036481462036,-0.9125156069281596
