t,x,y,z,roll,pitch,yaw,v_x,v_y,v_z,ref_x,ref_y,ref_z,ref_v_x,ref_v_y,ref_v_z,a_com,a_x,a_y,a_z,thrust,wind_x,wind_y,wind_z
0.0,1.7924855644546698,-1.2266370062124488,2.770654886144474,0.0256499453641339,0.0997346593288064,0.0425139446832096,0.0046204586263715,-0.0066845591414245,0.0106902106369432,1.792630384950177,-1.226867933553855,2.770987937152954,-0.095339512178846,0.0927263469521567,-0.0892696020512247,0.6714025846975675,0.2310229313185776,-0.3342279570712285,0.5345105318471649,10.247029625083997,-0.9428990920674352,0.2590775564035104,-0.87367413907525
0.02,1.792721563607548,-1.226998663340028,2.770637588550691,0.0156455224315777,0.0946377303870796,0.0417179189716099,0.0183267674847282,-0.0251818602990054,-0.0134092659519781,1.792630384950177,-1.226867933553855,2.770987937152954,-0.095339512178846,0.0927263469521567,-0.0892696020512247,1.6664316851396006,0.6853154429178329,-0.9248650578790444,-1.2049738294460737,10.247029625083997,-0.9441809522357226,0.2626227515248006,-0.8755198245170465
0.04,1.7931851254882685,-1.2275032626207578,2.7700570968583382,-0.0010191893593871,0.0800561014479309,0.0405095947523863,0.0260251616394801,-0.0236334773895674,-0.043473188480921,1.792630384950177,-1.226867933553855,2.770987937152954,-0.095339512178846,0.0927263469521567,-0.0892696020512247,1.5536265639001208,0.3849197077375946,0.0774191454718992,-1.5031961264471452,8.866277399933551,-0.9458540381748876,0.2743176580217814,-0.8708482300055692
0.06,1.7936712514140525,-1.227883563651654,2.76894457460091,-0.0171558881149558,0.0608077438631244,0.0396771987439435,0.0239075877362349,-0.0161994914154789,-0.07210456596725,1.7916769898283886,-1.2259406700843334,2.770095241132442,-0.1153395124768692,0.1127263472501799,-0.109269602349248,1.4828216712262758,-0.1058786951622564,0.3716992987044252,-1.431568874316448,8.597123675018793,-0.9528506799705644,0.2842232362417201,-0.8630044458359379
0.08,1.7940442478759453,-1.2280972620187525,2.7671902630609955,-0.033465390001794,0.0385979601427603,0.0392967633074189,0.0127859909319352,-0.0052548066352364,-0.1018342675986549,1.7897701995848116,-1.2240861431452903,2.768309849091417,-0.1553395130729157,0.1527263478462264,-0.1492696029452944,1.6787876574396163,-0.5560798402149849,0.5472342390121252,-1.4864850815702428,8.595668263940752,-0.96456581609784,0.2934116124494176,-0.8515233017614208
0.1,1.7941102386631054,-1.2280643696959588,2.764847312741547,-0.0489710668345808,0.0171418578343729,0.0393658676546825,-0.006088481256885,0.0082886257009795,-0.1309898254093671,1.7878634093412349,-1.2222316162062472,2.766524457050393,-0.1953395136689621,0.1927263484422728,-0.1892696035413409,1.863945285614626,-0.9437236094410152,0.6771716168107986,-1.457777890535613,8.629323370783368,-0.9775956924070536,0.3013051473763962,-0.8389695648174254
0.12,1.7937608849861966,-1.2277590632439794,2.762087669434806,-0.0629875260344237,-0.0007419541175634,0.0397041809177195,-0.029800017040872,0.0234225055187353,-0.1580966360897487,1.7839566190678553,-1.2183770892374015,2.762739064979566,-0.2353395142650086,0.2327263490383193,-0.2292696041373873,1.9532347739299185,-1.1855767891993496,0.7566939908877914,-1.355340534019081,8.694149509066392,-0.990684171930568,0.3082906177252578,-0.8276894769170551
0.14,1.7928643797653765,-1.2271012246720656,2.758620286673788,-0.0769607322138517,-0.016041596490084,0.040188843320567,-0.0586846334284088,0.0417999852604071,-0.18727753756461,1.7800498287944762,-1.2145225622685565,2.7589536729087394,-0.2753395148610551,0.2727263496343658,-0.2692696047334338,2.249209770339504,-1.4442308193768398,0.9188739870835884,-1.4590450737430607,8.767988370622788,-1.0015879610637133,0.3143435830402907,-0.8197119425815785
0.16,1.7916207289580637,-1.226216907603613,2.755209605808923,-0.087576703823109,-0.0258148775000436,0.0406229785044447,-0.0861784432065198,0.0611564303365073,-0.2125187997992927,1.7751430385061957,-1.2096680352848097,2.7541682808230115,-0.3153395154571015,0.3127263502304122,-0.3092696053294803,2.102202928655472,-1.374690488905552,0.9678222538050107,-1.2620631117341352,8.774641480521495,-1.0083789084819017,0.3188800026376538,-0.8157548435378933
0.18,1.7895368010222417,-1.224738332640496,2.7506391742505625,-0.0979497921548481,-0.0330117279285688,0.0410340710691322,-0.1206011973188503,0.085318792709087,-0.2430809576979135,1.7692362482030142,-1.2038135082861618,2.7483828887223822,-0.3553395160531479,0.3527263508264586,-0.3492696059255267,2.59941880596512,-1.7211377056165251,1.208118118628984,-1.5281078949310412,8.801734186187787,-1.0127700959417525,0.3224051960721237,-0.8169539493943451
0.2,1.7868995957728628,-1.2228693942557065,2.745729573352736,-0.105794472760037,-0.0351322800883306,0.0411662673391025,-0.1549246891296898,0.1099327294080546,-0.2721054018279969,1.783506741156299,-1.2204723930050418,2.7384851263656667,-0.2206011988089665,0.1853187941992031,-0.3430809591880296,2.562404304052095,-1.7161745905419723,1.2306968349483811,-1.45122220650417,8.801734186187787,-1.014569174079476,0.3249162621282158,-0.8201923603082688
0.22,1.7833811665487675,-1.2202544408660965,2.740102426624215,-0.1082036614032573,-0.0314080464949334,0.0410949298771286,-0.1943984853578203,0.1486170951557243,-0.2880011199654256,1.783506741156299,-1.2204723930050418,2.7384851263656667,-0.2206011988089665,0.1853187941992031,-0.3430809591880296,2.875471525273741,-1.9736898114065276,1.934218287383488,-0.7947859068714341,8.842947818256562,-1.018513883867861,0.3249358399923185,-0.8172181038779442
0.24,1.779351311614645,-1.2171177534885975,2.734490070575948,-0.1045830779474317,-0.0226606805062406,0.0408869985267064,-0.2270759687952581,0.1785687202118838,-0.3018496201320911,1.783506741156299,-1.2204723930050418,2.7384851263656667,-0.2206011988089665,0.1853187941992031,-0.3430809591880296,2.32201352503324,-1.633874171871888,1.497581252807975,-0.6924250083332778,9.826591633896442,-1.015935873484901,0.3206294428296662,-0.8241727014396569
0.26,1.7744985858179474,-1.2132734616196703,2.7282838213460074,-0.0986982701412496,-0.0103309000750371,0.0405354499319757,-0.2558658734780513,0.2039318384825874,-0.3180879846625777,1.7813007291682097,-1.2186192050630498,2.735054316773786,-0.2406011991069897,0.2053187944972263,-0.3630809594860528,2.083165177490119,-1.4394952341396607,1.2681559135351752,-0.8119182265243274,9.67331342525904,-1.0094631463070074,0.315121097854999,-0.8357363453731693
0.28,1.7691262616522911,-1.2089599174461867,2.721729136670691,-0.0926837492871428,0.0033998349776168,0.0401281303035427,-0.2794496005041008,0.2260739247902179,-0.3366621055771914,1.77688870519203,-1.2149128291790658,2.7281926975900257,-0.2806011997030361,0.2453187950932727,-0.4030809600820992,1.865115367909224,-1.1791863513024718,1.1071043153815268,-0.9287060457306844,9.318454741436652,-1.0002866197305724,0.3097487152192391,-0.8500364118308908
0.3,1.7636301483561088,-1.2044707972077495,2.7151350641688614,-0.087497054213367,0.0164955343479669,0.0397688644565686,-0.2975958014806978,0.2453725200851205,-0.3566387715127374,1.7724766812158508,-1.2112064532950817,2.721331078406265,-0.3206012002990826,0.2853187956893192,-0.4430809606781457,1.6589059437923943,-0.907310048829854,0.9649297647451316,-0.9988332967772988,9.170483883656743,-0.9901412814449294,0.305333829746136,-0.8643596475025128
0.32,1.757513322901607,-1.1993640947161497,2.707757377797945,-0.0828602713063424,0.0293692666482629,0.0394741648708867,-0.3128819580890706,0.2643654826195791,-0.3802141032733462,1.766064657209869,-1.2055000773812954,2.7124694591927025,-0.360601200895129,0.3253187962853656,-0.4830809612741921,1.6957265974456324,-0.7643078304186368,0.9496481267229296,-1.1787665880304414,9.170483883656743,-0.9795024245085032,0.3016203153229179,-0.8785418389522858
0.34,1.751450588186463,-1.194168485764388,2.7002950445596445,-0.0792660543050018,0.0401221805643632,0.0393026790066171,-0.3244710520880632,0.2817271557313862,-0.4041481641671664,1.7596526332038875,-1.1997937014675089,2.7036078399791394,-0.4006012014911755,0.3653187968814121,-0.5230809618702387,1.5879027550733589,-0.5794546999496331,0.8680836555903515,-1.196703044691011,8.963705896670945,-0.9687067586383906,0.2981714671272858,-0.8928320124719097
0.36,1.7448502525763965,-1.188340348858754,2.691935197875137,-0.0759783543612695,0.0497046438910223,0.0392551934959961,-0.3348482429546556,0.3001232944951313,-0.4306528449065684,1.7522406091830047,-1.1930873255388212,2.6937462207506755,-0.440601202087222,0.4053187974774586,-0.563080962466285,1.6945516463022647,-0.5188595433296195,0.9198069381872592,-1.325234036970102,8.963705896670945,-0.9584547520055592,0.295046946863374,-0.9062740876270926
0.38,1.738057819240569,-1.1821459788204098,2.683034340127337,-0.0728481282089233,0.0576090588729302,0.0393455715264558,-0.3438059449913251,0.3182898226731569,-0.4581583336851308,1.7438285851472206,-1.1853809495952323,2.6828846015073102,-0.4806012026832683,0.445318798073505,-0.6030809630623315,1.7079337551324765,-0.4478851018334756,0.9083264089012776,-1.3752744389281173,8.906370385344417,-0.949556970425666,0.2920724858485913,-0.918065876229561
0.4,1.73109772649382,-1.17559323550796,2.6735743280103823,-0.0697278025617066,0.0640093359472239,0.0395596921908146,-0.3517083277831557,0.3359572178214515,-0.4865119372798672,1.7208675219910026,-1.166231487686752,2.6601264234430806,-0.4438059464814413,0.418289824163273,-0.5581583351752469,1.716472649011669,-0.3951191395915265,0.8833697574147314,-1.4176801797368217,8.868024909744236,-0.9411154658798014,0.2888311534035096,-0.929475711961064
0.42,1.724372497579925,-1.1690402731706744,2.664259294785447,-0.0670166325985832,0.0684470874265578,0.0398677432219852,-0.355942096305598,0.3530138465559359,-0.4926183682376043,1.7208675219910026,-1.166231487686752,2.6601264234430806,-0.4438059464814413,0.418289824163273,-0.5581583351752469,0.930244428536486,-0.2116884261221169,0.8528314367242162,-0.3053215478868526,8.834609449833806,-0.9415542907112244,0.2854780146849434,-0.9311830351628038
0.44,1.7172143878554462,-1.1618100371185385,2.6543077987476917,-0.0649725734380632,0.0710827719946063,0.0402726859626483,-0.3597864573296707,0.3692944524761772,-0.5025360459589688,1.7208675219910026,-1.166231487686752,2.6601264234430806,-0.4438059464814413,0.418289824163273,-0.5581583351752469,0.9723651220072356,-0.1922180512036325,0.8140302960120693,-0.4958838860682268,9.773275640671272,-0.9373641727945528,0.2846051919646674,-0.9352369010188992
0.46,1.7099751395729132,-1.1542534620580285,2.6441092821092504,-0.0637663591609592,0.0717976635079116,0.0407392090857211,-0.364054523421183,0.3855680811221463,-0.5170007904503169,1.7164294625261882,-1.1620485894451191,2.654544840091328,-0.4638059467794644,0.4382898244612963,-0.5781583354732701,1.1093649204256535,-0.2134033045756156,0.8136814322984548,-0.7232372245674024,9.773275640671272,-0.9345828688703663,0.284165400551512,-0.938189088569486
0.48,1.703015055051294,-1.1467767302454812,2.6341163493692936,-0.0632319315227983,0.0708842095196082,0.0412349046437907,-0.3684748369516981,0.4006812410261444,-0.5341490121114588,1.7075533435965593,-1.1536827929618538,2.6433816733878235,-0.5038059473755109,0.4782898250573427,-0.6181583360693166,1.164053564200901,-0.221015676525757,0.7556579951999043,-0.8574110830570969,9.540214581452346,-0.9333537648164948,0.2839367227795274,-0.9399503178250932
0.5,1.6955927489543423,-1.1386008770663354,2.623219321957146,-0.0633746970839406,0.0683096052606808,0.0418034157679283,-0.3736312966308696,0.4161460128383191,-0.5547631764609497,1.6986772246669306,-1.1453169964785883,2.6322185066843184,-0.5438059479715573,0.5182898256533892,-0.658158336665363,1.3140510030563668,-0.2578229839585749,0.7732385906087352,-1.0307082174745463,9.227171460109275,-0.934021618202646,0.284210048399283,-0.9397294576704032
0.52,1.688437429415742,-1.1305466673699485,2.61247355789636,-0.064210395158316,0.0644004433745218,0.0423849686860569,-0.3793825446701033,0.4308498294967737,-0.5756603417933563,1.6878011057074995,-1.1349511999655206,2.6190553399510117,-0.5838059485676038,0.5582898262494357,-0.6981583372614095,1.3095520200283877,-0.2875624019616829,0.7351908329227302,-1.04485826662033,9.227171460109275,-0.936827103069378,0.2851694494293894,-0.9370703136607872
0.54,1.6811598041716485,-1.1222153251787106,2.601315606213668,-0.0658197904060075,0.0592380542827445,0.0429961052727423,-0.386661686454469,0.4454315850539599,-0.5977640935829533,1.6769249867480684,-1.1245854034524527,2.605892173217704,-0.6238059491636503,0.5982898268454822,-0.738158337857456,1.3731253979722162,-0.3639570892182864,0.7290877778593108,-1.1051875894798502,9.132817220880495,-0.940581930581199,0.2866021818723791,-0.933521733933938
0.56,1.6733221297428484,-1.1131324652194872,2.5891125420539525,-0.0680217277359455,0.05321886597465,0.043652646675035,-0.3969358725482331,0.4622002046297965,-0.6213884826411319,1.665048867773736,-1.1132196069244835,2.591729006469496,-0.6638059497596966,0.6382898274415285,-0.7781583384535024,1.5369265277987512,-0.5137093046882063,0.8384309787918265,-1.181219452908927,9.096523747421088,-0.9456811620416662,0.2884949209014312,-0.92844547622573
0.58,1.6660712093983083,-1.104655623967588,2.5777254527347653,-0.0697143024527684,0.0479836978869891,0.0442609299675727,-0.4082598622519117,0.4786587095204888,-0.6426428350682204,1.6521727487845026,-1.1008538103816137,2.5765658397063858,-0.7038059503557431,0.678289828037575,-0.8181583390495488,1.4584774793777633,-0.5661994851839297,0.8229252445346169,-1.0627176213544254,9.087337396038492,-0.9505989265701013,0.2898605952047032,-0.9234513862213504
0.6,1.6577572584946745,-1.0948861300510604,2.56461951325763,-0.0709403515961632,0.0429067324495085,0.0449361279426411,-0.4226484644262717,0.4973051088057464,-0.6667887293660985,1.6456582162857127,-1.0807226884915635,2.545593310981354,-0.5082598637420279,0.578658711010605,-0.7219839262838309,1.6865232656871,-0.7194301087179972,0.9323199642628816,-1.2072947148939028,9.096814090255066,-0.956184506871452,0.2910034240747086,-0.9176537605723012
0.62,1.6495353600517944,-1.0851996798522583,2.551985040132211,-0.0700372088490376,0.0408116206358756,0.0455247724304493,-0.4419548597601377,0.5207595322508013,-0.66186926978177,1.6456582162857127,-1.0807226884915635,2.545593310981354,-0.5082598637420279,0.578658711010605,-0.7219839262838309,1.538707219169149,-0.9653197666933012,1.1727211722527413,0.2459729792164244,9.069346821953332,-0.9645222947059048,0.2886540810056396,-0.9115611710015064
0.64,1.6404963350118011,-1.0745500760993316,2.5387795288402404,-0.066509157152971,0.0428843265766107,0.0460144412516899,-0.4604121968969527,0.542457130539906,-0.6591679309674636,1.6456582162857127,-1.0807226884915635,2.545593310981354,-0.5082598637420279,0.578658711010605,-0.7219839262838309,1.4306958945624022,-0.9228668568407484,1.0848799144552337,0.1350669407153171,10.859052161828004,-0.9671637119008124,0.2877209226617184,-0.9060285637499836
0.66,1.6311198306492458,-1.063503855952771,2.5255766333934253,-0.0619269928195269,0.0477155045935664,0.0463937468587222,-0.4759544627144886,0.5608222517388773,-0.6614363364960681,1.6405756176482924,-1.0749361013814571,2.538373471718516,-0.5282598640400511,0.5986587113086281,-0.737852144526953,1.208289459357791,-0.7771132908767964,0.918256059948569,-0.1134202764302261,10.525214903685082,-0.9657123516724972,0.2857482067575564,-0.9059987932315868
0.68,1.6219505253570907,-1.0526920255419636,2.5129436477751543,-0.0575056458592654,0.053717680460338,0.0466810801428897,-0.4881899619027915,0.576276300204605,-0.66819792103914,1.630410420373452,-1.0633629271612453,2.5239337931928394,-0.5682598646360976,0.6386587119046746,-0.7695885810131972,1.0419381938257275,-0.6117749594151456,0.7727024232863811,-0.3380792271535926,10.199781554661968,-0.9615921804277208,0.28296824594049,-0.9099786253738156
0.7000000000000001,1.6120742491449662,-1.0410103688942471,2.4994687283315407,-0.0531951358982653,0.0605857023837928,0.0469424009894728,-0.4985673818009877,0.5910551002306383,-0.6791130702174766,1.6202452230986113,-1.0517897529410332,2.5094941146671625,-0.608259865232144,0.6786587125007211,-0.8013250174994414,1.055040586350004,-0.5188709949098091,0.7389400013016689,-0.545757458916829,9.92548772560258,-0.955968376105227,0.2800426202680309,-0.9161925215907104
0.72,1.602013553568962,-1.0290436004371095,2.485738876573385,-0.0493752377493261,0.0673263444748953,0.0471894524975973,-0.5068237485643254,0.6048810408780589,-0.6934710218785737,1.6080800257939685,-1.038216578691019,2.493467614317173,-0.6482598658281905,0.7186587130967675,-0.8330614539856857,1.0787434852864075,-0.412818338166887,0.6912970323710299,-0.7178975830548551,9.700335810007346,-0.9499070327288408,0.2773139965227813,-0.9232102846102526
0.74,1.5923216495470078,-1.017426786784568,2.4724103484371955,-0.046230606276887,0.073155143022255,0.0474268332596668,-0.5129049177541931,0.6173074087509265,-0.7088158780273095,1.5959148284893254,-1.0246434044410044,2.477441113967185,-0.688259866424237,0.758658713692814,-0.8647978904719298,1.033029340644575,-0.3040584594933837,0.6213183936433775,-0.767242807436791,9.517990208985792,-0.9437145135250312,0.2745385026464666,-0.9306844293344106
0.76,1.5820057978675808,-1.0049419341885022,2.4580525520191467,-0.0431789135820148,0.0785089449017491,0.0476984259328327,-0.5182797750870995,0.6304293568555662,-0.7262140143255167,1.5827496311697815,-1.0100702301760889,2.46062120270504,-0.7282598670202833,0.7986587142888604,-0.896534326958174,1.1222407941936423,-0.2687428666453217,0.6560974052319868,-0.8699068149103595,9.438364733634444,-0.9379767924216366,0.2718850385451762,-0.9376757249530157
0.78,1.5715916296594683,-0.9921972493583254,2.4433354050348504,-0.0401145613923086,0.083093840246742,0.0480044032190785,-0.5228043455159401,0.6432441915675241,-0.7446734436628017,1.5685844338353363,-0.994497055896272,2.4430078805307387,-0.7682598676163298,0.8386587148849068,-0.9282707634444182,1.1461263648901892,-0.2262285214420289,0.6407417355978939,-0.922971466864253,9.327240562864972,-0.9331925370382164,0.2693017497082911,-0.943613574510186
0.8,1.561094520868109,-0.9792020286245068,2.428238644861372,-0.0369445149911136,0.0869633675272319,0.0483441283967494,-0.5266324420907522,0.6554911425862083,-0.7641189226519935,1.5454514123836711,-0.9600350397799492,2.4061017328517105,-0.6228043470060562,0.7432441930576402,-0.8108605422851238,1.1648699345412328,-0.1914048287406045,0.6123475509342113,-0.97227394945959,9.327240562864972,-0.9291966938642336,0.2665416970620287,-0.9486568454987304
0.8200000000000001,1.5510678575222885,-0.9666290618914042,2.413747293867553,-0.0338736491565287,0.0902640870036182,0.0486809003201698,-0.5284377274426265,0.6673065278376727,-0.7590606498569895,1.5454514123836711,-0.9600350397799492,2.4061017328517105,-0.6228043470060562,0.7432441930576402,-0.8108605422851238,0.6489385708811211,-0.0902642675937148,0.5907692625732208,0.2529136397502018,9.278972452532798,-0.9305028593741178,0.2624893405683499,-0.950115622924021
0.84,1.5404941491285364,-0.9531708748469554,2.398608843978532,-0.0310440483069639,0.0933388412357985,0.0490145451588839,-0.5288232841930702,0.6779828237347456,-0.7554427710851886,1.5454514123836711,-0.9600350397799492,2.4061017328517105,-0.6228043470060562,0.7432441930576402,-0.8108605422851238,0.5639614235413511,-0.0192778375221858,0.5338147948536431,0.1808939385900432,10.81835670307737,-0.9274179309267394,0.2614522914368398,-0.9518752945633772
0.86,1.529921011216331,-0.9395040214531843,2.3834847779651125,-0.0288397682650172,0.095501199161781,0.049323761609431,-0.5285511503811279,0.6882618636295014,-0.7571293232652486,1.5392233689136108,-0.9526025978493728,2.397993127428859,-0.6428043473040794,0.7632441933556634,-0.8240979620095883,0.5210018623422756,0.0136066905971177,0.513951994737788,-0.0843276090029987,10.513655650236617,-0.9246018654972226,0.2606642641967274,-0.9537790407255484
0.88,1.5198842199944715,-0.9263337367027492,2.3690478619382342,-0.02720276852788,0.096523211741486,0.049604418896141,-0.5280780514443321,0.6976376397707332,-0.7624561794824959,1.5267672819734897,-0.93773771398822,2.3817759165831567,-0.6828043479001259,0.8032441939517099,-0.8505728014585171,0.5396860152294939,0.0236549468397906,0.4687888070615931,-0.2663428108623633,10.22959274421646,-0.922622403128276,0.2599812341659453,-0.9551062767403612
0.9,1.5093285410685489,-0.9122838071942626,2.3537117148589584,-0.0260154976808125,0.0964306598225249,0.0498809069711537,-0.5275941082769097,0.7068831618066314,-0.7710065802792855,1.5143111950333683,-0.9228728301270672,2.3655587057374543,-0.7228043484961724,0.8432441945477563,-0.8770476409074459,0.6301254488022856,0.0241971583711197,0.4622761017949062,-0.4275200398394796,9.848010359187356,-0.9221036222465284,0.2596810570503528,-0.9550176426442744
0.92,1.4987830057137992,-0.8980548762431813,2.3381774888074403,-0.025580609763697,0.0949625076901425,0.0501269696730465,-0.5270968940023565,0.7156282361938496,-0.7819720748487601,1.499855108063445,-0.906007946236112,2.348017752919305,-0.7628043490922188,0.8832441951438028,-0.9035224803563748,0.7017222014906923,0.024860713727659,0.4372537193609138,-0.5482747284737299,9.724569075212456,-0.9231542022990696,0.2600585290084167,-0.953192522425083
0.94,1.4882474035635265,-0.8836542258429516,2.3224175253495645,-0.0260577083742054,0.0918613428464553,0.0503400631240118,-0.526631974253112,0.7241029603906313,-0.7934635924355248,1.4853990210935215,-0.8891430623451569,2.3304768001011564,-0.8028043496882653,0.9232441957398492,-0.9299973198053036,0.7143039917144451,0.0232459874622226,0.4237362098390818,-0.574575879338235,9.724569075212456,-0.9258176453423732,0.2608327480625827,-0.9501125940564384
0.96,1.4782384739121717,-0.8698069735173041,2.307232413658454,-0.0271514615717632,0.0873110855867353,0.0505342721456037,-0.5271769108866198,0.7330519682087111,-0.8043800667820346,1.469942934108697,-0.8712781784393007,2.312273976296784,-0.8428043502843117,0.9632441963358958,-0.9564721592542323,0.7063128007841122,-0.0272468316753871,0.4474503909039917,-0.5458237173254887,9.696389531440218,-0.929869905313469,0.2620965968302543,-0.9456941448699636
0.98,1.46766894809744,-0.8550408168296888,2.291023533209509,-0.028596188856358,0.0812887179288209,0.0507510429775487,-0.5300409134716135,0.7430838765369435,-0.8159270716610958,1.4534868471089712,-0.8524132945185432,2.293409281506189,-0.8828043508803581,1.003244196931942,-0.9829469987031612,0.7780986717473144,-0.1432001292496876,0.501595416411621,-0.577350243953062,9.693769963024351,-0.9353516445906336,0.2636231998997843,-0.9397233408619065
1.0,1.4570155944126952,-0.8400646847412221,2.2745845704126357,-0.029966916493613,0.0747756827258253,0.0509886966876126,-0.5353573955176518,0.7539453734778132,-0.8273749062169676,1.4411669024238594,-0.8178866230028417,2.250227179626455,-0.6300409149617296,0.8430838780270596,-0.8202000788192858,0.8326013649415043,-0.2658241023019148,0.5430748470434843,-0.5723917277935919,9.686431576997164,-0.941820580625166,0.2650825310149677,-0.9326652603049412
1.02,1.4462117556429106,-0.8248154121714144,2.258247735518635,-0.0296126146420689,0.0697000127156816,0.0512992055720112,-0.5449565157266816,0.7701029537436441,-0.8039587233826897,1.4411669024238594,-0.8178866230028417,2.250227179626455,-0.6300409149617296,0.8430838780270596,-0.8202000788192858,1.5012728993778115,-0.4799560104514877,0.8078790132915459,1.1708091417138966,9.68996881023486,-0.9521750836455972,0.2625705142592893,-0.9257185551872044
1.04,1.4357540339644252,-0.8100415962513142,2.243198616895589,-0.0268041918683921,0.068070440712486,0.0516542099517368,-0.5550759829390983,0.7838611129122475,-0.7814808817329771,1.4411669024238594,-0.8178866230028417,2.250227179626455,-0.6300409149617296,0.8430838780270596,-0.8202000788192858,1.4115097640481933,-0.5059733606208372,0.6879079584301673,1.123892082485628,12.044280321821134,-0.95758160316975,0.262937123258587,-0.9164813848522676
1.06,1.424557462875678,-0.7942464288002149,2.2277771440383427,-0.0226727985907218,0.0688296651988485,0.0520244524698482,-0.5638129544768052,0.7946817014423079,-0.7620281218963774,1.434866493274242,-0.809455784222571,2.242025178838262,-0.6500409152597528,0.8630838783250828,-0.8210546802509238,1.195648017863122,-0.4368485768853458,0.5410294265030202,0.9726379918299888,11.75927095406223,-0.960077477541794,0.261857136931451,-0.911257714250797
1.08,1.4132054707526305,-0.7782607948239629,2.212698809757046,-0.0186571354103595,0.07088946495926,0.0523444883591553,-0.5708027269294289,0.8033262237199148,-0.7469497829871107,1.422265674975007,-0.7925941066620299,2.225621177261876,-0.6900409158557993,0.9030838789211292,-0.8227638831141998,0.936670951575585,-0.3494886226311833,0.4322261138803462,0.7539169454633343,11.148877213315243,-0.960288355488978,0.2604035010578316,-0.9091919896405194
1.1,1.401729660484112,-0.7621169330269301,2.197878495093735,-0.015221310617026,0.0733725388483157,0.0526073650270617,-0.5763588442529098,0.8107403316207941,-0.7358128845439299,1.4096648566757728,-0.7757324291014887,2.2092171756854904,-0.7300409164518458,0.9430838795171758,-0.8244730859774758,0.7243444322487191,-0.2778058661740468,0.3707053950439631,0.5568449221590388,11.148877213315243,-0.9597226466152784,0.2593310402790744,-0.9081520050364142
1.12,1.3907358829744374,-0.746650435574476,2.183977321144847,-0.0126042659092309,0.0755818953968875,0.0528063274929391,-0.5806004742799432,0.8170785129784001,-0.7280201180068351,1.395064038346736,-0.7568707515111451,2.1927277139659407,-0.7700409170478922,0.983083880113222,-0.8261822888407518,0.5451861574494535,-0.2120815013516686,0.3169090678802999,0.389638326854741,10.917582198625496,-0.9591201097727884,0.2587189748878696,-0.9069937777461248
1.14,1.379086155856321,-0.7302449760768975,2.1694953574062183,-0.0105640734394805,0.0773656141304672,0.0529631102854552,-0.5841602088333607,0.8232587375750537,-0.7206154095875195,1.380463220017699,-0.7380090739208015,2.1762382522463914,-0.8100409176439387,1.0230838807092686,-0.8278914917040279,0.51404424160514,-0.1779867276708757,0.3090112298326841,0.370235420965781,10.740443780085116,-0.9589162735723183,0.2581967471745906,-0.906035634696347
1.16,1.3673665833832165,-0.7137098895299658,2.155155405842937,-0.0089515024342259,0.0784902195521263,0.0530858072873431,-0.5876471311956584,0.8299125222753932,-0.7137684153821382,1.364862401673761,-0.7181473963155569,2.15970606045526,-0.8500409182399851,1.063083881305315,-0.8296006945673038,0.5082145414283421,-0.174346118114882,0.3326892350169752,0.3423497102690631,10.69513416726204,-0.9589488767393388,0.2579163619643227,-0.904882548817284
1.18,1.3561681201941247,-0.6978779920126029,2.141654339462302,-0.007504969746053,0.079058305769772,0.0531896354113305,-0.5909992611463969,0.8362080730939868,-0.7077328246870073,1.348261583314922,-0.6972857186954111,2.1431311385925467,-0.8900409188360315,1.1030838819013613,-0.8313098974305798,0.4671699111546126,-0.1676064975369262,0.3147775409296782,0.3017795347565466,10.66390935049094,-0.9594780201808162,0.2576999034026113,-0.9032720812282852
1.2,1.3443103929754134,-0.6810869768342515,2.1275619991141914,-0.0060087275475692,0.0792327234789428,0.053287822887559,-0.5946306243234591,0.8425075702303932,-0.7018362638851547,1.3266181571368048,-0.6560675883579036,2.106267698227952,-0.690999262636513,0.9065607764268878,-0.7055638717339369,0.4680809010877824,-0.1815681588531126,0.3149748568203214,0.2948280400926262,10.635696928259676,-0.960446342886402,0.257445624229731,-0.9012045883034292
1.22,1.3323552598786783,-0.6640659469312666,2.1136888902415407,-0.0010662213625779,0.0798866471198733,0.0536091824298856,-0.6004692390712433,0.8573362458173038,-0.6851755942226224,1.3266181571368048,-0.6560675883579036,2.106267698227952,-0.690999262636513,0.9065607764268878,-0.7055638717339369,1.152775949001914,-0.2919307373892066,0.7414337793455295,0.8330334831266162,10.605635087332304,-0.9618481610575232,0.2529899213932269,-0.901515587544166
1.24,1.3203031803967178,-0.6468466380100799,2.1001498478477205,0.0069903807535752,0.0814107462836438,0.054130809113307,-0.6043366059067204,0.8633443772776367,-0.6696143786723293,1.3266181571368048,-0.6560675883579036,2.106267698227952,-0.690999262636513,0.9065607764268878,-0.7055638717339369,0.8561623667381586,-0.1933683417738585,0.3004065730166427,0.7780607775146553,11.165558415943453,-0.9631989685215236,0.2490067246370381,-0.8986403845628962
1.26,1.308795263391093,-0.6304250548697488,2.087544065386038,0.0146545873972854,0.0828964942885477,0.0546155842787295,-0.606826887337476,0.8649214057057467,-0.6580869502996586,1.3197081645104396,-0.6470019805936347,2.0992120595106125,-0.7109992629345362,0.920631317093468,-0.7051300811433228,0.5949162234182379,-0.124514071537779,0.0788514214055013,0.5763714186335367,11.165558415943453,-0.9631977101086716,0.2441078579303231,-0.8980281093530234
1.28,1.296639719411936,-0.613134615622476,2.074484093105222,0.021786231886657,0.0840235582248287,0.0550401268540876,-0.6086229681312945,0.8641005283493427,-0.6486368484353426,1.3058881792577095,-0.628870765065097,2.085100782075933,-0.7509992635305827,0.9487723984266284,-0.7042624999620947,0.4827115367849827,-0.0898040396909216,-0.0410438678202007,0.472505093215797,10.94896999798857,-0.963208184464721,0.2393844937171831,-0.8980001345691961
1.3,1.2844536187198832,-0.5958797229388008,2.0615857518354046,0.0275964716785125,0.0843813728058538,0.0553372954031167,-0.6100184479642176,0.861672793012185,-0.6416568262770563,1.2920681940049792,-0.6107395495365592,2.070989504641255,-0.7909992641266291,0.9769134797597888,-0.7033949187808665,0.3760384693138022,-0.0697739916461548,-0.1213867668578838,0.3490011079143151,10.78478846116286,-0.9636361739029986,0.2355371720340808,-0.8977239779789753
1.32,1.2728522573688408,-0.5795430946327544,2.0494459645210603,0.0318728567936961,0.0838740695838573,0.0554890269571715,-0.6112242325021248,0.8583550181044108,-0.636554501186986,1.2762482087224467,-0.5912012799413634,2.0569216062656377,-0.8309992647226756,1.005054561092949,-0.7025273375996383,0.3102227748541102,-0.0602892268953603,-0.1658887453887092,0.2551162545035179,10.56172432825133,-0.964730582521498,0.2320941698676157,-0.8970452706471896
1.34,1.2606160531803812,-0.5624210611330414,2.0367663464911594,0.0351326662940981,0.08229167862392,0.0555051510545859,-0.612408110971817,0.8542255749044481,-0.6316835376026055,1.260428223439914,-0.5716630103461676,2.0428537078900204,-0.8709992653187221,1.0331956424261095,-0.7016597564184102,0.3247312566303098,-0.0591939234846128,-0.2064721599981389,0.2435481792190219,10.56172432825133,-0.9669288872928948,0.2294077870387727,-0.8952989590911258
1.36,1.2483502506219724,-0.545380128392453,2.024182501816928,0.037413287918169,0.0795498329118551,0.0553882165636606,-0.61423469050731,0.8501799241288225,-0.62693736457437,1.2436082381424802,-0.5514212137176429,2.0288074990439338,-0.9109992659147684,1.06133672375927,-0.700792175237182,0.3249224577178081,-0.0913289767746516,-0.2022825387812787,0.2373086514117772,10.533755070156984,-0.970003418224899,0.227409295466588,-0.8924991010497649
1.38,1.2360379004699042,-0.5284229067349309,2.0116940774225225,0.0389797125597555,0.0758008669775428,0.0551609558636165,-0.6170584713979673,0.8458479009128916,-0.6221284468832574,1.2257882528301454,-0.5304758900557891,2.014782979727378,-0.9509992665108148,1.0894778050924303,-0.6999245940559539,0.3530787908587138,-0.1411890445328634,-0.2166011607965423,0.2404458845556289,10.525970800272262,-0.9739061920310044,0.2260023946568535,-0.8886863433928855
1.4,1.2242763742198572,-0.5123984068380244,1.9999206428539296,0.0398150174712126,0.0715304855480233,0.054853326377484,-0.620998495069455,0.8412298926503349,-0.6174091718291682,1.2051849769000058,-0.4861305116892863,1.98058765507836,-0.7170584728880834,0.869164382994901,-0.6108501519250832,0.3844520252290091,-0.1970011835743856,-0.230900413127838,0.23596375270446,10.527477204002937,-0.9788899829181112,0.2250009243516102,-0.8836491443433092
1.42,1.2117528219633722,-0.4954729373003015,1.987708086642059,0.0450772592883972,0.0679910420273436,0.0548483419349534,-0.6313303975984497,0.8489507973261141,-0.603757510198777,1.2051849769000058,-0.4861305116892863,1.98058765507836,-0.7170584728880834,0.869164382994901,-0.6108501519250832,0.9390533053983292,-0.5165951264497315,0.3860452337889619,0.682583081519561,10.534603607154168,-0.983200046164021,0.2201041515790921,-0.8807245768298203
1.44,1.1990162067514722,-0.478522788450952,1.975770224365794,0.0547115053652644,0.0672969209091386,0.0552322720371008,-0.6414438303951162,0.8450481676524112,-0.5908290035181654,1.2051849769000058,-0.4861305116892863,1.98058765507836,-0.7170584728880834,0.869164382994901,-0.6108501519250832,0.8435910239763349,-0.5056716398333272,-0.1951314836851458,0.6464253340305814,10.99869050862162,-0.987866357560041,0.2136726899582989,-0.8760988812406407
1.46,1.1860986883592095,-0.4617201168749538,1.9640603798884555,0.0644539673150518,0.0684793345092307,0.0556975301263834,-0.6496160327319369,0.8354088608801831,-0.5807934289268508,1.198014392171125,-0.4774388678593372,1.9744791535591089,-0.7370584731861066,0.8738276794113028,-0.6085944929334484,0.8068672187245229,-0.408610116841035,-0.4819653386114064,0.5017787295657272,10.99869050862162,-0.9892693662534916,0.2067772479571663,-0.8757787036951377
1.48,1.1736928923424248,-0.4459693559116905,1.95309835524152,0.0725148810917478,0.0704283247306976,0.0560962019123847,-0.6557684993091344,0.8233009289979036,-0.57359046112789,1.1836732227133633,-0.4600555801994392,1.962262150520607,-0.7770584737821531,0.8831542722441066,-0.6040831749501786,0.7686637830715014,-0.307623328859874,-0.6053965941139716,0.3601483899480395,10.827828117146057,-0.9892637492724288,0.1999008317829981,-0.8774631029462253
1.5,1.160523222190994,-0.4296557692495117,1.9416900774335588,0.0793676578427236,0.0726337425290602,0.0564035054487622,-0.6608209883403263,0.8089091481345945,-0.5676752188194396,1.1693320532556015,-0.4426722925395412,1.9500451474821052,-0.8170584743781996,0.8924808650769103,-0.599571856966909,0.817987000806719,-0.2526244515595965,-0.7195890431654584,0.2957621154225209,10.690287607834762,-0.9886462508432844,0.193908527354313,-0.8799342592099891
1.52,1.1472649429259918,-0.4136447936169301,1.930384624097396,0.0844218656333011,0.0744697840962583,0.0565441982633333,-0.6648011540067796,0.7933299731959548,-0.5631367822815193,1.1529908837680378,-0.424822675238003,1.9380537103427675,-0.857058474974246,0.901807457909714,-0.5950605389836393,0.8353888566258872,-0.1990082833226658,-0.7789587469319847,0.2269218268960149,10.597787955975946,-0.9880166231500868,0.1892387036899516,-0.8822863915920969
1.54,1.1346032629793967,-0.3987295780032155,1.9197245789077,0.087664377354292,0.0755869600584648,0.0565020792758893,-0.66789489072288,0.7778668365065655,-0.559173020001602,1.136649714280474,-0.4069730579364647,1.9260622732034287,-0.8970584755702925,0.9111340507425176,-0.5905492210003696,0.8130055574148605,-0.1546868358050179,-0.7731568344694628,0.1981881139958674,10.53172113468736,-0.9878901728123516,0.1854144359102308,-0.8840799577172724
1.56,1.121210889028204,-0.383345824711465,1.908585721129591,0.0897038339767559,0.0760791814554099,0.0562851922364157,-0.6712398733190773,0.7615376167508193,-0.5548985073464399,1.119308544778009,-0.3888902758141065,1.9141836190136727,-0.937058476166339,0.9204606435753214,-0.5860379030170999,0.8603833227687756,-0.1672491298098655,-0.8164609877873097,0.2137256327581049,10.518932444663731,-0.9883213832374248,0.1826362352132469,-0.8850742247512338
1.58,1.1077495645441573,-0.3682942055206459,1.8975344545357784,0.0903961920750706,0.0760410750299241,0.0559099340233529,-0.6747814179214245,0.7445745099192844,-0.5504197343958677,1.1009673752606424,-0.3705743288709281,1.902417747773498,-0.9770584767623854,0.9297872364081252,-0.5815265850338301,0.8949147147790929,-0.1770772301173617,-0.8481553415767451,0.2239386475286098,10.529936862464638,-0.989388594835291,0.1809869170952776,-0.8851212606891525
1.6,1.0948936218401204,-0.3543178675491039,1.8871217949172765,0.0894467844909442,0.0756553991758067,0.0553968540531082,-0.6783605217412199,0.7277279585352868,-0.5458516121709793,1.074010493648086,-0.3310654800246817,1.8700134678159848,-0.7747814194115407,0.7412464405732588,-0.5120535991860689,0.8909040609797213,-0.1789551909897657,-0.8423275691998799,0.2284061112444169,10.547756093848877,-0.9909548792202296,0.1805562718765244,-0.8844626288379287
1.62,1.0812673739035508,-0.3398644956611649,1.8763278846958331,0.0894782382628539,0.0755479567027963,0.0549442494631647,-0.6840780889072389,0.7183402497370883,-0.5330599916845887,1.074010493648086,-0.3310654800246817,1.8700134678159848,-0.7747814194115407,0.7412464405732588,-0.5120535991860689,0.8432751707562008,-0.2858783583009505,-0.4693854399099251,0.6395810243195299,10.571303397481644,-0.9933462455129624,0.1796854273966713,-0.8828587488964823
1.64,1.067538145814923,-0.3256272033626877,1.8658152529289325,0.0924773051550047,0.0760895172485188,0.0547413008022327,-0.6884617502430409,0.7053510090981135,-0.5189294165918924,1.074010493648086,-0.3310654800246817,1.8700134678159848,-0.7747814194115407,0.7412464405732588,-0.5120535991860689,0.984390689125168,-0.2191830667901018,-0.6494620319487387,0.7065287546348165,11.091780470808771,-0.9959581374074452,0.1776060919523187,-0.8802475953433656
1.66,1.053734051834706,-0.3116958846404367,1.8555770933915825,0.0959318120659792,0.0765782033956069,0.0545481804491771,-0.6917715122277814,0.6885025251800063,-0.5055891801196521,1.066262679453971,-0.3236530156189491,1.8648929318241243,-0.7947814197095638,0.7405808267040537,-0.5043803721441091,1.0871842574624142,-0.1654880992370266,-0.8424241959053613,0.6670118236120126,11.091780470808771,-0.997581629614214,0.1748513752004621,-0.8790910319251616
1.68,1.040565318871913,-0.2987931640291947,1.8460925724054944,0.0984770001403162,0.0766308187441685,0.0542578827721267,-0.6943387074791216,0.6707982984006648,-0.4934228959981,1.05076705106574,-0.3088280868074839,1.8546518598404031,-0.8347814203056103,0.7392495989656435,-0.4890339180601896,1.0817215522480668,-0.1283597625670096,-0.8852113389670735,0.6083142060776064,11.055178363111736,-0.999329118930124,0.1722728769218081,-0.8779407807083016
1.7,1.0266536047179418,-0.285582971686846,1.836357622120464,0.1000191525244205,0.0760120046621944,0.0537903111101142,-0.6967824069642473,0.651327842172459,-0.4806931817508436,1.035271422677509,-0.2940031579960188,1.8444107878566816,-0.8747814209016568,0.7379183712272332,-0.47368746397627,1.169525499641722,-0.1221849742562841,-0.9735228114102934,0.636485712362822,11.030989045924798,-1.001700108738896,0.1705015771042289,-0.8760282835283713
1.72,1.0126939070559553,-0.2727723281100157,1.8268780015588355,0.1000248909478733,0.0745161573837581,0.0531139391703692,-0.6991403449616186,0.6308829533306389,-0.4678756411518158,1.0177757942594758,-0.2792447905714741,1.8349370385771564,-0.9147814214977033,0.736587143488823,-0.4583410098923505,1.2122733791945914,-0.1178968998685636,-1.0222444420910026,0.6408770299513866,11.030208393314751,-1.004852221231172,0.1699024923725779,-0.8730416538991588
1.74,0.9986878796927172,-0.2603799595901888,1.8176621780351152,0.097926416775355,0.0718912246756333,0.0521717999367404,-0.7014964234825227,0.6097332362496253,-0.4542979029033349,1.0002801658414426,-0.2644864231469294,1.825463289297631,-0.9547814220937496,0.7352559157504128,-0.442994555808431,1.2621574926963828,-0.1178039260452068,-1.0574858540506826,0.6788869124240454,11.038768924312537,-1.0099205666478046,0.1712598126688386,-0.8672851165251951
1.76,0.9853286663182728,-0.2489873286320587,1.80917026581796,0.0940210190977107,0.0683283581144312,0.0510462848871287,-0.7047896791290943,0.5912346309131208,-0.4401839353960853,0.9817845374085084,-0.249761336415845,1.816373201370204,-0.994781422689796,0.7339246880120025,-0.4276481017245114,1.17499788398227,-0.1646627823285784,-0.9249302668252246,0.705698375362479,11.083571201272209,-1.016115099339244,0.174551846113416,-0.8594590500365278
1.78,0.9711827551070829,-0.2373440510868762,1.8005363498130649,0.0890844286376704,0.0637124196802649,0.0497446524004152,-0.7098253653389994,0.574339206678654,-0.4238582443449423,0.962288908960673,-0.2350695303782209,1.8076667747948745,-1.0347814232858423,0.7325934602735923,-0.4123016476405919,1.2013967745551497,-0.2517843104952566,-0.8447712117233386,0.8162845525571505,11.141554380556954,-1.0233426897495277,0.1786823519695583,-0.8499854320864312
1.8,0.9569142056584576,-0.2260206306688524,1.792242995522897,0.0839348984913376,0.0586556791463055,0.0484198357494788,-0.7169724578699177,0.5590692957382053,-0.4062618259175936,0.9356914868401328,-0.2086270907529435,1.7793434375958177,-0.7914005131465975,0.5429277451465381,-0.3880769092593119,1.218487846928605,-0.3573546265459137,-0.7634955470224358,0.8798209213674385,11.270529406410787,-1.030683725383885,0.1828372684806789,-0.8401217971098809
1.82,0.9431140230615912,-0.2154014267638971,1.7846407085546494,0.0832916409907164,0.0566096171164627,0.0477072864176018,-0.7349305385540941,0.5574195088699494,-0.3950195832362101,0.9356914868401328,-0.2086270907529435,1.7793434375958177,-0.7914005131465975,0.5429277451465381,-0.3880769092593119,1.0625470331674465,-0.8979040342088185,-0.0824893434127949,0.5621121340691704,11.270529406410787,-1.031129123262033,0.1839988274397899,-0.837760114263788
1.84,0.928244017021572,-0.204336538761085,1.7768674022365136,0.087950656054786,0.0596104633122544,0.0477590946438018,-0.7504578784066587,0.5480693489553049,-0.3828775225671029,0.9356914868401328,-0.2086270907529435,1.7793434375958177,-0.7914005131465975,0.5429277451465381,-0.3880769092593119,1.09081782463749,-0.7763669926282302,-0.4675079957322248,0.6071030334553612,10.957626619155237,-1.0342212560934667,0.1811379748209133,-0.8350111401788669
1.86,0.9131096055681904,-0.1935319814055036,1.769333022050562,0.0940105477261361,0.0657003446839666,0.0481958256681449,-0.7617739243021702,0.532693108272835,-0.3711888370741776,0.9277774817086668,-0.2031978133014781,1.7754626685032244,-0.8077155427081172,0.5366454528401149,-0.3809206422421858,1.119271013636875,-0.5658022947755748,-0.768812034123495,0.5844342746462644,10.957626619155237,-1.0332481695630622,0.176968726801052,-0.8374351361105393
1.88,0.8977913402737762,-0.1830703956306957,1.762024432146928,0.0995360749457743,0.0732366160172346,0.0487610442324456,-0.769180609236897,0.5144196506340543,-0.360240282669729,0.911949471445735,-0.1923392583985474,1.767701130318038,-0.8403456018311564,0.5240808682272685,-0.3666081082079336,1.1276624931088597,-0.3703342467363424,-0.9136728819390372,0.547427720222432,10.919061001883165,-1.0307727196258425,0.1733192741066351,-0.841522107080778
1.9,0.8831359928798369,-0.1734857480827042,1.755277984475225,0.1037081658008805,0.0805629462165399,0.0492661011964718,-0.7729714592486879,0.4956883228831975,-0.3504476443004952,0.896121461182803,-0.1814807034956166,1.7599395921328518,-0.8729756609541957,0.5115162836144221,-0.3522955741736815,1.0736956614335629,-0.1895425005895457,-0.9365663875428392,0.4896319184616887,10.843024941037584,-1.0268107701331008,0.1698775251987227,-0.8474016562143439
1.92,0.8676612838555566,-0.1637863050549526,1.7483746452503566,0.1068923100687224,0.0875635093542147,0.0496582213558924,-0.7741705706051223,0.4754488175660619,-0.3404058139498763,0.8786619479637191,-0.1712503778233282,1.7528936806493782,-0.9056057200772348,0.4989516990015757,-0.3379830401394293,1.1312756077964616,-0.0599555678217178,-1.011975265856779,0.5020915175309476,10.843024941037584,-1.022458718506081,0.1670049544790357,-0.8535894758745687
1.94,0.8521865034601196,-0.1544964154132069,1.7416676165014722,0.1088652359099271,0.0932326247037522,0.0498313359299208,-0.7732159350800215,0.4547600190188596,-0.3308102807195738,0.8612024347446351,-0.1610200521510397,1.745847769165905,-0.9382357792002742,0.4863871143887294,-0.3236705061051771,1.1412843338606973,0.0477317762550388,-1.0344399273601146,0.4797766615151216,10.83618547970309,-1.0185593113908105,0.1647998327941932,-0.8590412050975927
1.96,0.8367441205212044,-0.1456296935140375,1.735149935928706,0.1094026805362837,0.0973409811091885,0.049732897924019,-0.7711501846621753,0.4332160166019385,-0.3214240837599449,0.8429271700474753,-0.1511038410940725,1.7391596710332873,-0.9708658383233134,0.473822529775883,-0.309357972070925,1.1795253900341454,0.1032875208923089,-1.0772001208460558,0.4693098479814445,10.820229576194832,-1.0156774126460382,0.1634393284701416,-0.8631819033094584
1.98,0.8221182136950579,-0.1376118959991569,1.72913372361937,0.1082092126190929,0.0998965796750864,0.0493666930348173,-0.7686168399315166,0.4121145878476575,-0.3123096550576169,0.8238361538722394,-0.1415017446524263,1.7328293862515265,-1.0034958974463526,0.4612579451630366,-0.2950454380366729,1.1562449368172083,0.1266672365329346,-1.055071437714047,0.4557214351164018,10.84996091713856,-1.013609561536031,0.1630940552559112,-0.8663562347279363
2.0,0.8067764460998338,-0.1296013755712425,1.7229942315004545,0.104945268931386,0.1013274318616361,0.0486981814338888,-0.7657843050353685,0.3905839399389483,-0.3020329426625106,0.783687371698482,-0.117006166606774,1.713518240866489,-0.774188265358268,0.3814910568786338,-0.2859002879582126,1.201252337103274,0.1416267448074049,-1.0765323954354589,0.5138356197553151,10.891070443285573,-1.0128297111933346,0.1644959449547095,-0.8674781491881379
2.02,0.7913876896960059,-0.1219800491457717,1.7169881336380668,0.1007641061432843,0.104647858696881,0.0481535464502513,-0.7729207904167273,0.3728592672623329,-0.299470063923249,0.783687371698482,-0.117006166606774,1.713518240866489,-0.774188265358268,0.3814910568786338,-0.2859002879582126,0.9639265953946708,-0.3568242690679402,-0.8862336338307714,0.1281439369630793,10.891070443285573,-1.0039281504284197,0.1644870338104483,-0.8785001736316411
2.04,0.7758915221362893,-0.1146942417382761,1.711030766424591,0.096627825339726,0.1118966262529476,0.0479879906358815,-0.7757592124817726,0.3567355083076658,-0.2963519780594721,0.783687371698482,-0.117006166606774,1.713518240866489,-0.774188265358268,0.3814910568786338,-0.2859002879582126,0.8332987190999206,-0.1419211032522627,-0.8061879477333528,0.1559042931888465,10.41831500778062,-1.0003065717116242,0.1668631808013203,-0.8830827646417734
2.06,0.7611600239597803,-0.1080594972950109,1.7054402773213388,0.092929846885721,0.1205042627845161,0.047983639070193,-0.7744300524789579,0.3425236160201836,-0.2923003567212615,0.7759454890448994,-0.1131912560379877,1.710659237986907,-0.7753025504436183,0.3753663506848291,-0.2806184145383317,0.7418897899491607,0.0664580001407344,-0.7105946143741132,0.2025810669105315,10.472717486012698,-0.9934211780611044,0.1690033790115412,-0.8911408063116159
2.08,0.7457165918361466,-0.1013567088637122,1.6996462151928549,0.0893781431266084,0.1302539587062037,0.0480326083078118,-0.7696305115940225,0.3285488033513806,-0.2873148527203105,0.7604617237377339,-0.105561434900415,1.7049412322277426,-0.7775311206143188,0.3631169382972196,-0.27005466769857,0.7797214758774467,0.2399770442467697,-0.6987406334401508,0.2492752000475467,10.530379353557692,-0.9848898287096488,0.1708498391651281,-0.9007086115609542
2.1,0.7304007605723173,-0.0949248518858352,1.6939568271594077,0.0862002904298869,0.1400854965452212,0.0480816168333654,-0.761891525724959,0.3153696803281485,-0.2818866945782951,0.7449779584305686,-0.0979316137628423,1.6992232264685785,-0.7797596907850194,0.3508675259096101,-0.2594909208588082,0.8109347796798757,0.3869492934531759,-0.6589561511616049,0.2714079071007708,10.57925694793721,-0.9760234127633778,0.1723810230332006,-0.9102952702656854
2.12,0.7152672984746258,-0.0887488859318351,1.6883801804303529,0.0833879772827627,0.1496624919368325,0.0481045276291472,-0.7515764824444466,0.3028906645546334,-0.2760968953085932,0.7293827646148682,-0.0909142632446501,1.6940334080514023,-0.7819882609557199,0.3386181135220006,-0.2489271740190465,0.8597204896620788,0.515752164025618,-0.6239507886757534,0.2894899634850956,10.6527738820796,-0.9663941641190944,0.1737801111237018,-0.9203783467792844
2.14,0.7011032028049508,-0.0831068430551673,1.6831891547332225,0.0810303073583656,0.1583725826662444,0.0480921991701166,-0.739686703769262,0.2916279376720364,-0.2706576318833573,0.7137875707991678,-0.0838969127264579,1.6888435896342262,-0.7842168311264205,0.3263687011343911,-0.2383634271792847,0.8628462209251957,0.5944889337592296,-0.5631363441298498,0.2719631712617965,10.666273555193584,-0.9566363892014528,0.1749616804249626,-0.9302853238318712
2.16,0.6864597942040466,-0.077395168752954,1.677836178730181,0.0788022128127019,0.1670326510242474,0.048034674566117,-0.7250580409763744,0.2801706991266584,-0.264953365069012,0.6981366627291998,-0.077185797517956,1.683917864888044,-0.786445401297121,0.3141192887467817,-0.227799680339523,0.971860008029644,0.731433139644383,-0.5728619272689001,0.2852133407172635,10.666273555193584,-0.947054942644047,0.1759956203779908,-0.939739499494366
2.18,0.6721433008389704,-0.0719075525058031,1.6725966553886795,0.0767486815865235,0.1746677602668918,0.0478905341512026,-0.7071926540053389,0.2692051196759426,-0.2593091977944141,0.6824300404049645,-0.0707809176191442,1.679256233812856,-0.7886739714678216,0.3018698763591722,-0.2172359334997613,1.0854407037448517,0.8932693485517729,-0.5482789725357928,0.2822083637298966,10.686408606024996,-0.938815235428376,0.1770475042828891,-0.9476433334872169
2.2,0.6582133544341926,-0.0666340189258782,1.6674712344753235,0.0748266422129666,0.1804786825640608,0.0476014842150723,-0.6867897362898581,0.2587217185110498,-0.2535387383901077,0.6367836681387035,-0.058447296522006,1.6596311954989589,-0.6761868896252415,0.2438712084954463,-0.2291726237346892,1.1826653721842728,1.020145885774043,-0.5241700582446385,0.2885229702153186,10.70562611679088,-0.9320541786730548,0.1779016064764833,-0.953934197957328
2.22,0.6453184208729199,-0.0618176613460324,1.662640776299262,0.0729186831659862,0.1853285110946112,0.0472608205179734,-0.6715661794482285,0.2489493880763847,-0.2556330116321679,0.6367836681387035,-0.058447296522006,1.6596311954989589,-0.6761868896252415,0.2438712084954463,-0.2291726237346892,0.9105508023265604,0.7611778420814785,-0.4886165217332539,-0.1047136621030092,10.73483172009037,-0.9202970931051307,0.17776890791858,-0.9649703875580872
2.24,0.6320787155687428,-0.0569361064589693,1.6575151537850907,0.0709166493476401,0.190672084535095,0.0469106702406587,-0.6529819371902227,0.2397316558944303,-0.2566938616464024,0.6367836681387035,-0.058447296522006,1.6596311954989589,-0.6761868896252415,0.2438712084954463,-0.2291726237346892,1.0385880434936507,0.9292121129002906,-0.4608866090977187,-0.0530425007117252,10.228009858129552,-0.9135081880853216,0.178091203120752,-0.9718026719381202
2.26,0.6192403582141262,-0.0522331124987718,1.6523917113873463,0.0691608762429848,0.1953914169236313,0.0465247587485275,-0.6316875996649248,0.2310065123725428,-0.2555281903989705,0.630021799242451,-0.0560085844370515,1.657339469261612,-0.669985736749222,0.2388044262593471,-0.2231453089227443,1.1521021325992915,1.0647168762648929,-0.4362571760943776,0.0582835623715943,10.520702781277578,-0.9065720443791576,0.1782730288035174,-0.978505685037087
2.28,0.6068524271519417,-0.0477004517069742,1.6473145757004282,0.0677279494135368,0.1988860182953273,0.0460706816163902,-0.6082503333570498,0.2226733353672133,-0.2522736250020573,0.6164980614499462,-0.0511311602671426,1.6527560167869182,-0.6575834309971831,0.2286708617871486,-0.2110906792988544,1.2543319804892072,1.1718633153937508,-0.4166588502664756,0.1627282698456605,10.65185351866603,-0.9008159925181862,0.1783929179184179,-0.983798218592091
2.3000000000000003,0.5955320854256857,-0.0435453054119647,1.642568538416854,0.0667595993778531,0.2007835475892934,0.0455675907553139,-0.5846685856348555,0.2150959229474441,-0.2474814406714599,0.6029743236574414,-0.0462537360972337,1.6481725643122245,-0.6451811252451441,0.2185372973149501,-0.1990360496749644,1.2614287883892934,1.1790873861097173,-0.3788706209884557,0.239609216529868,10.76991504239686,-0.8960121203371844,0.1783392554690487,-0.9879918509630649
2.32,0.5841070818788937,-0.0393247360475256,1.6376874208583505,0.0662638851266876,0.2011848950272078,0.0449672611775128,-0.5591483808730249,0.2073305530199935,-0.2408074697554643,0.5900707011525386,-0.0418829901509346,1.6441918433187253,-0.6327788194931052,0.2084037328427516,-0.1869814200510745,1.374885185191359,1.2760102380915297,-0.3882684963725319,0.3336985457997821,10.76991504239686,-0.8927785026982901,0.1779735694430052,-0.9906169934356456
2.34,0.5731986903253118,-0.0352595866344756,1.632953354870032,0.0663617053622532,0.1998151893112379,0.0442906134681826,-0.5330300429997563,0.1995350769031349,-0.2328807603339395,0.5771670786476356,-0.0375122442046356,1.640211122325226,-0.6203765137410663,0.1982701683705531,-0.1749267904271846,1.419304181107786,1.305916893663428,-0.3897738058429301,0.3963354710762382,10.87878432620073,-0.8917021324437203,0.1773241825921806,-0.991160459609688
2.36,0.5628192987973433,-0.0313554444243531,1.6283911634432482,0.0669431884054524,0.1962789655342285,0.0435017323275322,-0.5064007930085896,0.1912523582411684,-0.2237154640124363,0.5645735137865338,-0.0333948373701416,1.6365317670723238,-0.6079742079890272,0.1881366038983546,-0.1628721608032947,1.4677559744268622,1.3314624995583335,-0.4141359330983252,0.4582648160751615,10.954556373066223,-0.8930140361013772,0.1764393072219076,-0.9895308411072218
2.38,0.5534474203718412,-0.0278066941895215,1.6242394228018295,0.0677340129219619,0.1906765108161094,0.0426140070651131,-0.4818978614909645,0.1827130493637529,-0.2137159238167096,0.5522900065692328,-0.0295307696474525,1.6331537775600191,-0.5955719022369883,0.1780030394261562,-0.1508175311794047,1.3904174311940338,1.2251465758812556,-0.4269654438707748,0.4999770097863329,11.09952804362092,-0.8954324104957558,0.1749898095452551,-0.98699550458391
2.4,0.5440570743528437,-0.0242545453833021,1.6200896773943398,0.0685971528654713,0.1830634203358177,0.0415586115592946,-0.458798571719503,0.1729374588497895,-0.2016814658363125,0.529352527297293,-0.0186710417213338,1.613553626610994,-0.4990631237430569,0.1572440647449699,-0.1671237106032659,1.3910136023100037,1.1549644885730763,-0.48877952569817,0.6017228990198533,11.09952804362092,-0.8998369631257698,0.1736493179481878,-0.9825181241786612
2.42,0.5351511215792744,-0.020921278201449,1.616114087084616,0.0685227023493491,0.1724311148956812,0.0402263662862236,-0.4336576641872163,0.1610784208448883,-0.1967349093603528,0.529352527297293,-0.0186710417213338,1.613553626610994,-0.4990631237430569,0.1572440647449699,-0.1671237106032659,1.4117103411452192,1.2570453766143352,-0.5929519002450603,0.2473278237979853,11.175593366665453,-0.9074791609346377,0.1737281199187337,-0.9743332550275968
2.44,0.527109146925764,-0.0179727989517056,1.612447853624731,0.0670359524881765,0.158836177052622,0.0386389853793493,-0.4148206996203314,0.1500070416160943,-0.1892970696336745,0.529352527297293,-0.0186710417213338,1.613553626610994,-0.4990631237430569,0.1572440647449699,-0.1671237106032659,1.154045202669289,0.9418482283442414,-0.5535689614396988,0.3718919863339179,10.700893819916018,-0.9165052717779776,0.1734045160951136,-0.9660088633323992
2.46,0.5189688827542075,-0.015092128847295,1.6087782235779091,0.0643296084738187,0.1429449898320935,0.0368277908508249,-0.4008030474352438,0.1388405535288826,-0.1778412309728023,0.5243618960598624,-0.0170986010738841,1.6118823895049614,-0.5024961761934754,0.1521502678212133,-0.1578052679605771,1.0635098358828976,0.700882609254383,-0.558324404360587,0.5727919330436065,10.877672086969142,-0.9297723852880396,0.1749531105256838,-0.9527190186132036
2.48,0.5110483181077895,-0.0124174331033831,1.6053718854078416,0.0611012462645202,0.1270667296944612,0.0350480011926909,-0.3924238836178298,0.1293247705640217,-0.1632086649060219,0.5143806335850013,-0.0139537197789847,1.608539915292896,-0.5093622810943124,0.1419626739737001,-0.1391683826751996,0.9680812225894208,0.4189581908706996,-0.4757891482430457,0.7316283033390214,11.060733471141248,-0.9451160143439542,0.1777664975543432,-0.9362730180256532
2.5,0.5032400876002591,-0.0099203890017094,1.6022848885871828,0.0580222334350891,0.1124724612933143,0.0334260975482189,-0.389074671868739,0.1208733704900907,-0.1461931875479617,0.5043993711101401,-0.0108088384840853,1.6051974410808307,-0.5162283859951493,0.1317750801261869,-0.1205314973898221,0.9645852117264548,0.1674605874545404,-0.4225700036965499,0.8507738679030097,11.21400892051406,-0.9600216037791498,0.1809068107904861,-0.9193646084918032
2.52,0.4958436441174251,-0.0076980302560654,1.5996821234865686,0.0554314489309379,0.1005432897212854,0.0320764149108436,-0.3897607067289169,0.1134626988128298,-0.1286088724206202,0.4940748033902371,-0.0081733368815616,1.6027868111330343,-0.5230944908959863,0.1215874862786737,-0.1018946121044446,0.9547209501147292,-0.0343017430088965,-0.3705335838630439,0.8792157563670772,11.32692062255046,-0.9749316476692756,0.1842883117560995,-0.9016264559667416
2.54,0.4880121544134298,-0.0055057759290835,1.5973108907722355,0.0530936467256842,0.090426333200424,0.0308649485829353,-0.3934576021515928,0.1061445933793333,-0.1093941124492694,0.4837502356703341,-0.0055378352790379,1.6003761811852375,-0.5299605957968232,0.1113998924311605,-0.0832577268190671,1.0445438043215292,-0.1848447711337936,-0.365905271674824,0.9607379985675396,11.428884619156634,-0.988311240657048,0.1875518213429507,-0.8849897877868043
2.56,0.4800768934031532,-0.0034574552605107,1.5953265664632312,0.0510790417331231,0.0831162223957267,0.029862562283486,-0.4000474644487891,0.0990697705065945,-0.0899806204299375,0.4732540153279102,-0.0031570235227019,1.5984314733695757,-0.5368267006976601,0.1012122985836473,-0.0646208415336896,1.0843927749682107,-0.3294931148598162,-0.3537411436369417,0.9706746009665964,11.428884619156634,-0.9984629178330604,0.1904282401476323,-0.8716886120300771
2.58,0.471978643664946,-0.0015475272417079,1.5937297887455282,0.0492963100806433,0.0793675600935488,0.0290868826182247,-0.4093912489956682,0.0922976178601404,-0.0706466925281023,0.4625861423629654,-0.0010309016125539,1.5969526876860485,-0.5436928055984971,0.0910247047361341,-0.0459839562483121,1.12579874893199,-0.4671892273439559,-0.338607632322703,0.9666963950917602,11.438087289313444,-1.0046764449001246,0.1929085010548906,-0.8628464948297371
2.6,0.4641096069070431,0.000145035327506,1.5925692401340446,0.0477723104072899,0.0793236428361832,0.0285549315320356,-0.4180532635055414,0.0862351879868671,-0.052451182384409,0.4515090812151626,0.003067353651299,1.590197454119123,-0.4215546375384992,0.0826738146618028,-0.0547324051099752,1.0522121230137675,-0.4331007254936597,-0.3031214936636654,0.9097755071846646,11.435550986177075,-1.0101865613440866,0.1957595770163722,-0.8546813213967928
2.62,0.4556228921057248,0.001776174675341,1.5915720752077491,0.0451725248556247,0.083175564604008,0.0281244919949787,-0.4297522253264448,0.0778910456949753,-0.0489438179084845,0.4515090812151626,0.003067353651299,1.590197454119123,-0.4215546375384992,0.0826738146618028,-0.0547324051099752,0.7395810027327466,-0.5849480910451704,-0.4172071145945907,0.1753682237962222,11.395467286415624,-1.004034725145515,0.1974631488727452,-0.8607419584435517
2.64,0.4469400380251987,0.003276247949461,1.5906207082752135,0.0416409820094955,0.0906494618175865,0.0277935601153308,-0.4374121338970388,0.0727179713569552,-0.0462368203837067,0.4515090812151626,0.003067353651299,1.590197454119123,-0.4215546375384992,0.0826738146618028,-0.0547324051099752,0.4815670592339524,-0.3829954285297005,-0.2586537169010042,0.1353498762388917,10.38273762947756,-1.001135845999687,0.2001080779839205,-0.8639271219574314
