t,x,y,z,roll,pitch,yaw,v_x,v_y,v_z,ref_x,ref_y,ref_z,ref_v_x,ref_v_y,ref_v_z,a_com,a_x,a_y,a_z,thrust,wind_x,wind_y,wind_z
0.0,-1.4384569899413364,1.3129027511979283,2.0175975437588125,0.0246134823104113,0.1000212894927461,0.0425407840816478,0.0038227650923546,0.0057515812579454,0.0150744087085338,-1.4383366532089072,1.312992303112759,2.0180520864805738,0.0468525462308274,-0.0962717223965631,-0.0848683884577712,0.8290537042767422,0.1911382546177309,0.2875790628972743,0.7537204354266911,10.23870718316357,-0.9447884836467856,0.2631497878711158,-0.8675476592653468
0.02,-1.4385029263632323,1.3132274713598382,2.017672935127069,0.033367521889745,0.1028633180044482,0.0432350263468496,-0.0075509449851493,0.0235930616811237,-0.0072804662696456,-1.4383366532089072,1.312992303112759,2.0180520864805738,0.0468525462308274,-0.0962717223965631,-0.0848683884577712,1.5390095353081843,-0.5686855038752006,0.8920740211589154,-1.117743748908973,8.894582926296152,-0.9330939224179752,0.262158634012216,-0.8728139039589287
0.04,-1.4387324904829752,1.3137240130994532,2.0172183307056564,0.0478987602861681,0.1101179594221665,0.0445306144227607,-0.0142111915202067,0.0245107453001508,-0.0372459680929802,-1.4383366532089072,1.312992303112759,2.0180520864805738,0.0468525462308274,-0.0962717223965631,-0.0848683884577712,1.5355229782199975,-0.3330123267528669,0.0458841809513518,-1.4982750911667313,8.894582926296152,-0.9171063770611864,0.240576801558338,-0.9040405964859848
0.06,-1.4390433049804887,1.3141682751083823,2.0161574765453176,0.06275466021194,0.1194776996179141,0.046055764937174,-0.0161016894523931,0.0195364055831619,-0.0674193888970161,-1.437868127746599,1.3120295858887934,2.017203402595996,0.0554309964635716,-0.1162717226945863,-0.1048683887557944,1.5319541124565703,-0.0945248966093224,-0.2487169858494463,-1.5086710402017935,8.62891291034748,-0.8997202915968078,0.2184199611645618,-0.9357989458612628
0.08,-1.4393364291382758,1.3144658456978808,2.014597952713937,0.0763656700818343,0.1291267112017622,0.0476329439135939,-0.0143526332741604,0.0117758047868028,-0.0953235349748311,-1.4369310768219823,1.3101041514408622,2.0155060348268408,0.0725878969290601,-0.1562717232906328,-0.1448683893518408,1.450799340507759,0.0874528089116365,-0.3880300398179505,-1.395207303890749,8.684212944629508,-0.8808425225637401,0.1966614573211036,-0.9663095488588554
0.1,-1.439576519418888,1.314592004607651,2.012387836141572,0.0900467669696868,0.1393978884757289,0.0493774390863726,-0.0094293156087763,0.0009547609993933,-0.1242742282793912,-1.4359940258973658,1.3081787169929309,2.013808667057685,0.0897447973945485,-0.1962717238866792,-0.1848683899478873,1.5648296139660227,0.2461658832692045,-0.5410521893704747,-1.4475346652280077,8.76894034775978,-0.8607361051383052,0.1752056601904411,-0.9961431806604464
0.12,-1.4396878988088522,1.3144743961584215,2.009605835722455,0.1030681563179768,0.1494154320001912,0.0511658859572874,-0.0016712249195825,-0.0124542104245717,-0.1525228568297648,-1.434199129949475,1.3042532825151971,2.010111299258728,0.1069016978600369,-0.2362717244827257,-0.2248683905439337,1.610879806788399,0.38790453445969,-0.6704485711982565,-1.4124314275186802,8.8381459519087,-0.8400105695641469,0.1538212803014274,-1.025140209914472
0.14,-1.4396179352425522,1.3140630448314548,2.00625888420354,0.1154530091811713,0.1589916815839689,0.0529620861565694,0.0085250526610814,-0.0282681517214189,-0.1808815149997404,-1.432404234001584,1.3003278480374636,2.006413931459769,0.1240585983255254,-0.2762717250787722,-0.2648683911399803,1.7016597111670118,0.5098138790332,-0.7906970648423597,-1.4179329084987755,8.925964927868336,-0.820385720935777,0.1344917765367312,-1.0505294244664916
0.16,-1.4393351596423811,1.3133579431409022,2.0025519034992683,0.1266481655283371,0.167406594896227,0.054623845278039,0.0208653614112912,-0.0453770424532985,-0.2080049850645053,-1.430180415542056,1.295402413544829,2.001716563645911,0.1412154987910138,-0.3162717256748186,-0.3048683917360267,1.7180512146616145,0.6170154375104883,-0.8554445365939798,-1.3561735032382476,8.964622194241201,-0.8008687348622469,0.1153463556401418,-1.0742535425870845
0.18,-1.4387544509833174,1.3122428680575533,1.998090366452265,0.1378428213589909,0.1750346148007392,0.056231774937439,0.0366778754848793,-0.06547393461754,-0.2367963357161569,-1.4275276745708905,1.289476979037293,1.9960191958171507,0.1583723992565022,-0.356271726270865,-0.3448683923320731,1.925397717573524,0.7906257036794093,-1.0048446082120746,-1.4395675325825794,9.046397610753957,-0.7820857535584503,0.0962947871697159,-1.0966242071009162
0.2,-1.437831253488027,1.3107034610541144,1.993054847362612,0.1484383499736934,0.180908985818019,0.0575859803950912,0.0548792988596531,-0.0876976102112285,-0.2653553807017567,-1.4369205572090735,1.3089691713266762,1.9862505496664569,0.1004496001858071,-0.1654739361076561,-0.336796337206273,2.025341094884256,0.9100711687386868,-1.1111837796844284,-1.42795224927999,9.046397610753957,-0.765805885516968,0.0782107093790183,-1.1157363585370317
0.22,-1.4364944328182143,1.30856238770067,1.9875549527057748,0.1546139995254126,0.1846775553617785,0.058311406111138,0.0778820053720734,-0.1235818145640752,-0.2822962740941118,-1.4369205572090735,1.3089691713266762,1.9862505496664569,0.1004496001858071,-0.1654739361076561,-0.336796337206273,2.2933569815145125,1.1501353256210167,-1.794210217642333,-0.8470446696177525,9.11269218515281,-0.7546789126783051,0.0621672295854993,-1.132982685020686
0.24,-1.4347959303653908,1.3059163626716783,1.9820389467667368,0.1560638858464045,0.186348573375598,0.0583601445666976,0.0995784848410732,-0.152705607474122,-0.2975065307645391,-1.4369205572090735,1.3089691713266762,1.9862505496664569,0.1004496001858071,-0.1654739361076561,-0.336796337206273,1.9686825815734612,1.0848239734499874,-1.456189645502341,-0.7605128335213651,9.964835087950632,-0.745682977634597,0.0565044396805231,-1.1426267017686351
0.26,-1.4325676254104018,1.302554880563792,1.9759060224313452,0.1552621218021675,0.1864687073604595,0.057950216668719,0.122026640859438,-0.181726471873516,-0.3150388308731672,-1.4359160612072157,1.3073144319655996,1.9828825862943944,0.1132039451259926,-0.1854739364056793,-0.3567963375042963,2.033169831944609,1.122407800918244,-1.4510432199697,-0.8766150054314081,9.897948765234103,-0.7407110712568723,0.0542650237509917,-1.1485770667637096
0.28,-1.429892674606458,1.2986210424940732,1.969408000588448,0.1524628806526626,0.1849165645482081,0.057103531423268,0.1442562792161799,-0.2099177104444512,-0.3338934528369016,-1.4339070692034992,1.3040049532434466,1.9761466595502688,0.1387126350063637,-0.2254739370017258,-0.3967963381003427,2.027559816029015,1.111481917837092,-1.4095619285467598,-0.9427310981867164,9.804619143654236,-0.7380026633540596,0.0540565435915588,-1.1530468775504243
0.3,-1.4267781867708726,1.2941502288543218,1.9625229108077635,0.1483845254087739,0.1815524453527759,0.0558676271973391,0.1659268217778885,-0.2354294067328837,-0.3536077062369035,-1.4318980771997831,1.3006954745212935,1.9694107328061432,0.1642213248867348,-0.2654739375977722,-0.4367963386963892,1.9423637980251869,1.0835271280854306,-1.2755848144216235,-0.9857126700000968,9.668696576809452,-0.7373468026916151,0.055281573224562,-1.155893545669176
0.32,-1.423430101555342,1.2894514808639674,1.9556097475445828,0.1443233406291421,0.1767044151157071,0.0544269014281696,0.1851025562901363,-0.2578407120837206,-0.3730723450169041,-1.4286136507020484,1.295385995769338,1.9606748060322157,0.1897300147671059,-0.3054739381938187,-0.4767963392924356,1.7669518700636455,0.9587867256123884,-1.1205652675418467,-0.97323193900003,9.668696576809452,-0.737695291229332,0.0561557907587276,-1.1589225330223378
0.34,-1.419540000424535,1.284059200390398,1.9479292625669336,0.1403290098455626,0.1705364337112192,0.0527772249866966,0.2026361356465309,-0.2802086825400269,-0.3939655413134988,-1.4253292242043138,1.290076517017383,1.951938879258288,0.215238704647477,-0.3454739387898652,-0.5167963398884821,1.7637163596148469,0.8766789678197314,-1.1183985228153142,-1.0446598148297377,9.60718098527559,-0.7397725743679637,0.0565940567529998,-1.1610471055440663
0.36,-1.4153213827084727,1.278217008827608,1.939825961988512,0.1364622800300818,0.163942749906593,0.0510819767017318,0.2181270016592766,-0.3027044631517045,-0.4152723156928357,-1.4214070804595698,1.2837670382505262,1.9422029524694584,0.2407473945278481,-0.3854739393859116,-0.5567963404845284,1.7320549281168396,0.7745433006372856,-1.124789030583878,-1.0653387189668406,9.566546764895977,-0.7432322932749124,0.0569310941437873,-1.1620782629011908
0.38,-1.4110454546136302,1.2722536411403038,1.9317296253190293,0.1326474423489458,0.1576405818763591,0.0494649571454022,0.2310367575168361,-0.3236870690672756,-0.4358682212617537,-1.4168472194678166,1.2764575594687684,1.9314670256657285,0.2662560844082192,-0.425473939981958,-0.5967963410805749,1.6055551014475806,0.6454877928779745,-1.049130295778555,-1.0297952784459024,9.540956416393785,-0.7472576783980679,0.057440256162069,-1.1629572462736022
0.4,-1.4062987036291894,1.2655549449390375,1.9227787039986175,0.1284932986074934,0.1512641871781047,0.0477996575636717,0.2427983243303789,-0.3449096016666201,-0.4581480377166287,-1.3994936167377885,1.25606928768694,1.9099362142559413,0.2858896864831199,-0.4236870705573917,-0.4973267567541739,1.6470584120657272,0.588078340677138,-1.061126629967224,-1.1139908227437516,9.511412185994232,-0.7512968609102451,0.0581554489564627,-1.163821060817477
0.42,-1.4012756990944903,1.258404631974093,1.9136600304571136,0.1242366318679434,0.1449433002782181,0.0461489910807749,0.2589270877450507,-0.369059449821662,-0.4510777234878689,-1.3994936167377885,1.25606928768694,1.9099362142559413,0.2858896864831199,-0.4236870705573917,-0.4973267567541739,1.49444096445079,0.8064381707335894,-1.2074924077520977,0.3535157114379933,11.35744395466736,-0.7555034642126855,0.0541049772889148,-1.1697682035802175
0.44,-1.3959500730543757,1.2507845992954274,1.9047078791977237,0.1201177834934248,0.1385845467986071,0.0445195236577835,0.2726181048115912,-0.3916674620639172,-0.4446237871568345,-1.3994936167377885,1.25606928768694,1.9099362142559413,0.2858896864831199,-0.4236870705573917,-0.4973267567541739,1.3603487236985494,0.6845508533270261,-1.1304006121127586,0.322696816551718,11.35744395466736,-0.7632565194427663,0.0589521817516911,-1.1632903965282582
0.46,-1.3906611189346447,1.243136816851344,1.8962829213099133,0.1163968599790182,0.132865109420713,0.0430389248930925,0.2833087579162748,-0.4121274775752615,-0.4424970291232374,-1.3966347198729572,1.251832416981366,1.9049629466884,0.2968602722763767,-0.443687070855415,-0.509618463852658,1.159121864023149,0.5345326552341795,-1.0230007755672148,0.1063379016798565,11.077430503245523,-0.7709200008747168,0.0633530865143453,-1.1571952950750342
0.48,-1.3848975054399204,1.2346798949056466,1.887424647559604,0.1126794886175896,0.1274191023719376,0.0415761052931419,0.2923030060688375,-0.4323999003049974,-0.4435759530012285,-1.3909169261432948,1.2433586755702182,1.8950164115533163,0.3188014438628902,-0.4836870714514614,-0.534201878049626,1.1102158572744871,0.4497124076281361,-1.0136211364867946,-0.0539461938995539,10.805573415053004,-0.77739791224712,0.0668932897106953,-1.1525520176673365
0.5,-1.3789777381571442,1.2258280664087498,1.878512615608305,0.1091881317931139,0.1229295482156711,0.0402493606774846,0.2990653716284017,-0.4516841647404845,-0.4476816361561833,-1.3851991324136324,1.2348849341590704,1.8850698764182328,0.3407426154494037,-0.5236870720475079,-0.5587852922465941,1.042196091131429,0.338118277978211,-0.9642132217743544,-0.2052841577477399,10.587564331130125,-0.7823825971695372,0.0696222731675954,-1.14954325792864
0.52,-1.372945070174964,1.2166009481842817,1.869489168807069,0.1059255894167846,0.119881116024725,0.0391042803958151,0.3037991554323185,-0.4700116678907509,-0.4544357352910881,-1.3783842801046442,1.2244111927181205,1.8738941705733008,0.3626837870359173,-0.5636870726435543,-0.5833687064435622,1.0048929494595074,0.2366891901958406,-0.9163751575133188,-0.3377049567452411,10.40674613417832,-0.7853190268746281,0.0716347897722424,-1.1483355801857769
0.54,-1.3671389170964534,1.2075030408549885,1.8607833584234876,0.1030712704850126,0.118730334532342,0.0382211298984344,0.3072654021509307,-0.4867203147999492,-0.4616231882733265,-1.3715694277956565,1.21393745127717,1.862718464728369,0.3846249586224308,-0.6036870732396008,-0.6079521206405303,0.9258148143965398,0.1733123359306088,-0.8354323454599161,-0.3593726491119192,10.261457240370872,-0.7867028507628754,0.0730685283768032,-1.1486704756331028
0.56,-1.3609474080380748,1.197583389835067,1.8514653739708469,0.1001199908635521,0.1191102766584734,0.0374567649991746,0.3118537829511931,-0.5042113749874424,-0.4698135968164051,-1.3642060461970054,1.202463709821319,1.8509281735285128,0.4065661302089443,-0.6436870738356472,-0.6325355348374984,0.9925638732006884,0.2294190400131179,-0.8745530093746595,-0.409520427153931,10.214634625901454,-0.7864973002955136,0.0745366743816537,-1.1499696040406593
0.58,-1.3546517589537084,1.1873179148115591,1.841977696129284,0.0969725887772595,0.1204053603338529,0.0367647076780362,0.3175815402568577,-0.5212649089736803,-0.4785543540226958,-1.3562941353086917,1.1899899683505664,1.8385232969737328,0.4285073017954578,-0.6836870744316936,-0.6571189490344664,1.000038826385867,0.286387865283233,-0.8526766993118939,-0.4370378603145375,10.1753113936511,-0.7848929338494068,0.0761898955080578,-1.1523068208416447
0.6,-1.3485549229335236,1.1772561065338585,1.8327966560455968,0.0937201604221698,0.1219629922415647,0.0361144500425556,0.3239473146370854,-0.5368028487642016,-0.4874189750148531,-1.3387726819408654,1.1612546693628754,1.8180499784281492,0.3694709411860703,-0.6212649104637964,-0.5039538638400577,0.9493842237582518,0.3182887190113836,-0.7768969895260658,-0.4432310496078617,10.143376285118393,-0.7826957500129715,0.0780531087651619,-1.1550097789511773
0.62,-1.3419398689445508,1.1663224249447692,1.823205682318028,0.0897615512788893,0.1227621712729277,0.0353094433857677,0.337321835044799,-0.5555007340776301,-0.4698111466108997,-1.3387726819408654,1.1612546693628754,1.8180499784281492,0.3694709411860703,-0.6212649104637964,-0.5039538638400577,1.4478642308876375,0.6687260203856793,-0.9348942656714264,0.8803914201976681,11.927075662633795,-0.7834092423340783,0.078031267686854,-1.1583806248196922
0.64,-1.3350569756519142,1.1550379602805387,1.8139934137010296,0.0855569893087356,0.1218808303037889,0.0343382648884363,0.3501237249120011,-0.5718680103069522,-0.4526079861853858,-1.3387726819408654,1.1612546693628754,1.8180499784281492,0.3694709411860703,-0.6212649104637964,-0.5039538638400577,1.3488187831996512,0.6400944933601077,-0.8183638114661052,0.8601580212756976,11.927075662633795,-0.786847625646991,0.0846404739224661,-1.152452198347284
0.66,-1.3279306522853078,1.143445193628516,1.80507885305545,0.0816062098881848,0.1195502264085118,0.0332715713801129,0.3617271898642809,-0.5865555409226605,-0.4396675555329041,-1.3350779725290047,1.1550420202582374,1.8130104397897489,0.3798488213719128,-0.6412649107618196,-0.5090337658035301,1.137781503582561,0.5801732476139854,-0.7343765307854133,0.6470215326240814,11.65935482990426,-0.7913926449902081,0.0903127949028308,-1.1463012361575644
0.68,-1.3209591775547636,1.1321730588487515,1.7968170099771674,0.078226366163476,0.1161132781944594,0.0322002153860063,0.3713965305422579,-0.5992717118199323,-0.4306205881158407,-1.3276885537052832,1.1426167220489614,1.802931362512948,0.4006045817435978,-0.681264911357866,-0.5191935697304748,0.9179389561414386,0.4834670338988545,-0.635808544863592,0.4523483708531728,11.386166885078636,-0.797161774301736,0.0956335432957856,-1.13939835887954
0.7000000000000001,-1.3134405068655142,1.1200579146052745,1.7882792221014014,0.0751626863891684,0.1114340470078544,0.0310442215658159,0.3797673679756139,-0.6116000370530517,-0.4237417495670668,-1.3202991348815618,1.1301914238396855,1.7928522852361466,0.4213603421152829,-0.7212649119539125,-0.5293533736574195,0.820635336445697,0.4185418716677963,-0.6164162616559665,0.3439419274386929,11.161337125869975,-0.8035019389085222,0.0997799904288188,-1.1328615816805665
0.72,-1.3057774514340494,1.1077038463757596,1.7798525170456765,0.0726264774092125,0.1060593991594748,0.0298943431743951,0.3858738698995703,-0.6232278828762606,-0.4193637477853257,-1.311871928039256,1.1157661256006073,1.7822652177629985,0.4421161024869679,-0.761264912549959,-0.5395131775843642,0.6922121492659052,0.3053250961978199,-0.5813922911604485,0.218900089087054,10.980524309613427,-0.8099485562811349,0.1028034433757525,-1.1269645492885507
0.74,-1.2980192938863329,1.095123006012538,1.7714995969536895,0.0706004814447081,0.1006339992072446,0.0287964545064541,0.3894887119432383,-0.6343681037884749,-0.4161255451925314,-1.3034447211969504,1.101340827361529,1.77167815028985,0.4628718628586529,-0.8012649131460055,-0.549672981511309,0.6075721377037979,0.180742102183401,-0.5570110456107114,0.1619101296397168,10.822741468766251,-0.8160465260400084,0.1046218611988312,-1.1220225476699872
0.76,-1.2906018776211914,1.082959895918084,1.7636162618567628,0.0688462258677157,0.0959716194248761,0.0278165473152012,0.390983048808501,-0.6453041216714386,-0.4138411773343144,-1.2944986203453526,1.0859155291075495,1.760837087718528,0.483627623230338,-0.8412649137420518,-0.5598327854382538,0.5635775596912995,0.0747168432631339,-0.5468008941481861,0.1142183929108475,10.76114156224594,-0.8219813823068831,0.1060993469293968,-1.1174031745446902
0.78,-1.2827835966351553,1.069934700393951,1.75535750049676,0.0669491124333637,0.0921054796317853,0.0268696566296051,0.3906167434638278,-0.6565409433433839,-0.4121784210937365,-1.2850336254844628,1.0694902308386691,1.7497420300490325,0.5043833836020231,-0.8812649143380983,-0.5699925893651985,0.5682541227483885,-0.0183152672336567,-0.5618410835972643,0.0831378120288967,10.665497668167518,-0.8267443512143777,0.1074294617000888,-1.1138460193574404
0.8,-1.2749921211556536,1.0566877702634747,1.7471222417259082,0.0649242806972437,0.0899046075118752,0.0260407681592167,0.3885007322163026,-0.6674436357027911,-0.4114127445303986,-1.2632527594619638,1.0371076532267818,1.734748579442073,0.4459998706465499,-0.7565409448335,-0.4357421320664033,0.5566247948195772,-0.1058005623762597,-0.5451346179703609,0.0382838281668934,10.665497668167518,-0.8295985721042637,0.1086817495174319,-1.111845806633168
0.8200000000000001,-1.2672352780006186,1.043193845120595,1.7390491563968364,0.061991923567926,0.0897199736345542,0.0252926157663733,0.387536261261273,-0.6806990906224509,-0.3958604557289398,-1.2632527594619638,1.0371076532267818,1.734748579442073,0.4459998706465499,-0.7565409448335,-0.4357421320664033,1.022877040892762,-0.048223547751483,-0.6627727459829924,0.7776144400729434,11.566345264869597,-0.833050307877128,0.1092588145501018,-1.1108616270151677
0.84,-1.259879781811869,1.0301661951600891,1.73165422589668,0.0588767307843025,0.0910859317827663,0.0246644059596134,0.3869714052051829,-0.6900037662181374,-0.3833638194223743,-1.2632527594619638,1.0371076532267818,1.734748579442073,0.4459998706465499,-0.7565409448335,-0.4357421320664033,0.779522240355647,-0.0282428028045012,-0.4652337797843242,0.6248318153282723,11.566345264869597,-0.8351994582212096,0.1143133233396085,-1.1057212241502874
0.86,-1.2521396470084545,1.01627895195789,1.724097919229762,0.0560878429331353,0.0937057462513304,0.0241136234963572,0.3872423559091527,-0.6982918531097391,-0.3730555418840103,-1.2587927607554985,1.0295422437784467,1.7303911581214089,0.4570764960830943,-0.7765409451315232,-0.4404548742609366,0.6614876877438115,0.0135475351984853,-0.4144043445800827,0.5154138769182026,11.329492274716358,-0.8352540735856183,0.1184680793293783,-1.102806875789181
0.88,-1.2443834570842476,1.0022362778435738,1.716718042070524,0.0539987804663724,0.0970931500704333,0.0236600895415754,0.3885442116045499,-0.7057246566095288,-0.3654433555222792,-1.2498727633425673,1.0144114248817768,1.721676315480081,0.4792297469561832,-0.8165409457275696,-0.4498803586500033,0.5359262480133096,0.0650927847698629,-0.3716401749894849,0.3806093180865555,11.13439580630802,-0.8337558866242315,0.1215309418998898,-1.1017266433460386
0.9,-1.2365890485734266,0.9880521175521388,1.7094696441888109,0.0526448938366844,0.1008508875916135,0.0232837004229016,0.39097701342864,-0.7124420239674396,-0.3597828794283072,-1.2409527659296362,0.9992806059851068,1.7129614728387528,0.5013829978292721,-0.8565409463236161,-0.45930584303907,0.4557481172392545,0.1216400912045029,-0.3358683678955421,0.2830238046985983,10.975965326913864,-0.8315427588455332,0.1235445982548651,-1.1016895193347076
0.92,-1.2291286592304176,0.9744597309106388,1.7026741621581172,0.0522213941033391,0.104474615267837,0.0229962250267514,0.3943040849648577,-0.7181232711378004,-0.3558229122792761,-1.2309251059730508,0.9821497870586344,1.7037753559779714,0.5235362487023609,-0.8965409469196626,-0.4687313274281367,0.3841461773831924,0.1663535768108848,-0.284062358518039,0.1979983574515537,10.858301710470188,-0.8286332447181287,0.1244780506609638,-1.1026031848322806
0.94,-1.2211966003658974,0.9600404596189912,1.695596709404953,0.0529591219218798,0.1081273087012688,0.0227776160165205,0.3988222675831409,-0.7236208178270599,-0.3521606634140304,-1.2208974460164652,0.965018968132162,1.69458923911719,0.5456894995754498,-0.936540947515709,-0.4781568118172034,0.4001532847664074,0.2259091309141619,-0.2748773344629751,0.1831124432622843,10.770389817495923,-0.825461848942896,0.123887516348432,-1.1042587413617253
0.96,-1.2131608027494198,0.945500975888514,1.688588293109954,0.0547946794677151,0.1113649113999654,0.0226259342393298,0.4045876921268005,-0.7301193636968306,-0.3488846473129893,-1.2103159547880529,0.9468881491907888,1.685167485146682,0.5678427504485386,-0.9765409481117556,-0.4875822962062701,0.4642292000844717,0.288271227182979,-0.3249272934885361,0.1638008050520584,10.727520047183134,-0.8225880687062915,0.1221673983889188,-1.1058261105190197
0.98,-1.2049985322749497,0.93081766421762,1.6816420669540793,0.0571998360581833,0.113908390548068,0.0224884010774287,0.4113296621821809,-0.7380207923182653,-0.3459151878017633,-1.199180632287813,0.927757330234514,1.6755100940664471,0.5899960013216274,-1.016540948707802,-0.4970077805953368,0.5401491096819576,0.3370985027690204,-0.3950714310717362,0.1484729755613006,10.727520047183134,-0.8202535278202371,0.1199206393124322,-1.1071887458304308
1.0,-1.19711325160519,0.9167048043668542,1.6750950050876958,0.0593208149118636,0.1155658083190488,0.0223127368836048,0.4183091780546975,-0.7470499900903644,-0.343396062499647,-1.1844320491658409,0.8939166246017067,1.664346307563991,0.4804257133387017,-0.8380207938083815,-0.3461295000273435,0.5843501658041862,0.3489757936258275,-0.4514598886049548,0.1259562651058116,10.717549727555706,-0.8186438080029633,0.1175941730749111,-1.108123143052036
1.02,-1.1886350386832707,0.9015857709556008,1.6684307006556178,0.0590902746541869,0.1161935729815559,0.0218983293078449,0.4291455390792899,-0.7638570415039981,-0.3221655493757153,-1.1844320491658409,0.8939166246017067,1.664346307563991,0.4804257133387017,-0.8380207938083815,-0.3461295000273435,1.45828528157325,0.5418180512296228,-0.840352570681685,1.0615256561965851,10.706958542684331,-0.819838191036091,0.115223033893156,-1.1096542893415808
1.04,-1.179946016500404,0.8861578170835247,1.6622070615740183,0.0554301461319532,0.1156254687785834,0.0211879338194318,0.4390559624112576,-0.7774093718073606,-0.3013007608652223,-1.1844320491658409,0.8939166246017067,1.664346307563991,0.4804257133387017,-0.8380207938083815,-0.3461295000273435,1.339049613399227,0.4955211665983866,-0.6776165151681224,1.0432394255246502,12.02850973788918,-0.8241986879379782,0.1214808350437325,-1.1018059019367843
1.06,-1.171074024983452,0.8705136499014796,1.65636791733839,0.0506412249043511,0.1143174659443729,0.020380876105191,0.4475482777738037,-0.7861519647811852,-0.2836229585889832,-1.1796277920324536,0.8855364166636229,1.6608850125637176,0.4942449235700059,-0.8580207941064046,-0.3461723624724595,1.0736119474008152,0.4246157681273038,-0.4371296486912313,0.8838901138119554,11.82810068780509,-0.8289259726777317,0.1291928993672704,-1.093388090269414
1.08,-1.1625020770222918,0.8555198715328699,1.6511193077274364,0.0464733909586645,0.1127278725577777,0.0196488203242255,0.4542706335417837,-0.7918311407002492,-0.2697321700135063,-1.1700192777656797,0.8687760007874553,1.6539624225631708,0.5218833440326143,-0.8980207947024511,-0.3462580873626916,0.8221878031197771,0.3361177883989985,-0.2839587959531986,0.6945394287738466,11.592267671670015,-0.8331898720899343,0.1360704203544758,-1.0859180793821035
1.1,-1.1533552516651535,0.8396368062004981,1.6458558125324343,0.0430068148231562,0.1110715461514279,0.0189696244695754,0.459969338190133,-0.7963270012885004,-0.2574530842893987,-1.1604107634989056,0.8520155849112877,1.647039832562624,0.5495217644952226,-0.9380207952984976,-0.3463438122529237,0.7132039387827499,0.2849352324174659,-0.2247930294125621,0.6139542862053787,11.384389529448526,-0.8368391162484538,0.1414587476028219,-1.07968469477662
1.12,-1.1441066695725344,0.8236738641030863,1.6408128513497289,0.0406403505099339,0.1097846791164642,0.0184066924042496,0.4646341974050827,-0.800025878915928,-0.2474467494860552,-1.1494203282090012,0.8332551690053177,1.6401129563175654,0.577160184957831,-0.978020795894544,-0.3464295371431558,0.5821712449842152,0.2332429607474845,-0.1849438813713799,0.500316740167174,11.225042271689745,-0.8399957639571384,0.1454370433235961,-1.0743058399710597
1.14,-1.1347704331056836,0.8076429695936986,1.6359607532111533,0.039359239759182,0.1089934358992422,0.0179593024516031,0.4688019431698374,-0.8030843251545714,-0.2382582918028178,-1.1384298929190968,0.8144947530993478,1.6331860800725069,0.6047986054204393,-1.0180207964905903,-0.3465152620333879,0.5271431322490788,0.2083872882377352,-0.1529223119321687,0.4594228841618725,11.087681932919622,-0.8423712496973654,0.1477202134361087,-1.0704233980617792
1.16,-1.1258230220650025,0.7923533375065144,1.6315163218928077,0.0390343719499329,0.1086346812686894,0.0176272740189817,0.4728444192192616,-0.8062531114652868,-0.2300299519356533,-1.1267484971176271,0.7947343371784766,1.6262570607051927,0.6324370258830476,-1.0580207970866369,-0.3466009869236199,0.4849958666388672,0.2021238024712102,-0.1584393155357688,0.4114169933582254,11.036445323707994,-0.844381574981341,0.1490133936915333,-1.0670671696373648
1.18,-1.1163204970824714,0.7761924734701434,1.6270037577597722,0.039462398274122,0.1085046654271497,0.0173553065037773,0.4772083881081206,-0.8097077953887927,-0.2216693841852308,-1.1143761408045922,0.7739739212427044,1.619325898215623,0.660075446345656,-1.0980207976826832,-0.3466867118138521,0.5021905977406965,0.2181984444429491,-0.1727341961752948,0.418028387521123,11.000748360510444,-0.8459654086599815,0.149420655565548,-1.0643094784824578
1.2,-1.1067292246590763,0.7599585203112679,1.6226546185145,0.040564534495196,0.1084945268988494,0.0171481792028351,0.4817051914682385,-0.8135553285251669,-0.21367496504609,-1.0924600776770654,0.7357070837007038,1.6159202885505106,0.5411415445388419,-0.9003088671041476,-0.2246918158140094,0.4973316023221474,0.2248401680058936,-0.1923766568187102,0.3997209569570406,10.978183758838895,-0.8473134075958968,0.1491272041796638,-1.0619015289288245
1.22,-1.0970030370951394,0.743546223522926,1.6185538741255678,0.0391982828554676,0.107465086574333,0.0167424524090664,0.490477870076352,-0.8262748240200426,-0.196724623077825,-1.0924600776770654,0.7357070837007038,1.6159202885505106,0.5411415445388419,-0.9003088671041476,-0.2246918158140094,1.1467994031723057,0.4386339304056769,-0.635974774743786,0.8475170984132502,10.952697539800283,-0.8516720210852523,0.150274319198295,-1.0575882137923562
1.24,-1.0876131233861348,0.727774744203879,1.6149636517292842,0.0350462871597461,0.1048339359531864,0.0161200692164109,0.49733775408533,-0.8326866072000292,-0.1820232376928662,-1.0924600776770654,0.7357070837007038,1.6159202885505106,0.5411415445388419,-0.9003088671041476,-0.2246918158140094,0.8722094135023861,0.3429942004489011,-0.3205891589993292,0.7350692692479385,11.553021678737425,-0.857238203884204,0.1561929379236231,-1.0497505724189524
1.26,-1.0776098708527049,0.71109224367411,1.6114613720969309,0.0304792459783469,0.1009105678724548,0.0154512917937959,0.5024290415983302,-0.8352376995225813,-0.1690916084242657,-1.087048662231677,0.7267039950296623,1.6136733703923705,0.5539281758249861,-0.9184290814472186,-0.2252963021397651,0.7064989669467714,0.2545643756500099,-0.1275546161276064,0.6465814634300265,11.387750561111716,-0.8629437183910741,0.1622754939981245,-1.0418607812800242
1.28,-1.0675311013517534,0.6943825007851444,1.6081888432837477,0.0267882981586,0.0964917035574576,0.0148717323297705,0.5049936265792984,-0.8357808539792345,-0.1589166840598442,-1.0762258313409,0.7086978176875794,1.6091795340760904,0.5795014383972746,-0.9546695101333604,-0.2265052747912765,0.5253598735868766,0.128229249048406,-0.0271577228326602,0.5087462182210747,11.026649515227293,-0.8684828265674428,0.167195668244602,-1.0345967245584218
1.3,-1.0574305744456116,0.6776743029368489,1.6050925934072588,0.0243209276122619,0.0924577752217748,0.0144248907792316,0.5048177929258413,-0.8353622566316096,-0.1512015212823642,-1.0654030004501234,0.6906916403454965,1.60468569775981,0.6050747009695632,-0.9909099388195024,-0.2277142474427879,0.3864255358285057,-0.008791682672854,0.0209298673812474,0.3857581388739983,11.026649515227293,-0.872839713410501,0.1703841806510557,-1.0291255002162745
1.32,-1.047862676829015,0.6618151945810699,1.6022773202182945,0.0231570906099336,0.0898564569406939,0.0141385929481243,0.5022867691744366,-0.8342775623419727,-0.1455238070307344,-1.053301506430732,0.6708734415691064,1.6001314128109545,0.6306479635418517,-1.0271503675056444,-0.2289232200942994,0.3155118145779381,-0.1265511875702341,0.0542347144818433,0.2838857125814886,10.79339281914872,-0.8759227270277816,0.1721535192886868,-1.0253656291518705
1.34,-1.0378578876183857,0.6451495582661199,1.5994228824372372,0.0234381531292235,0.0891627132268892,0.014008839412011,0.4985567000170725,-0.8325011324149628,-0.1402389573941925,-1.0412000124113407,0.6510552427927163,1.5955771278620985,0.6562212261141402,-1.0633907961917863,-0.2301321927458108,0.335405556323804,-0.1865034578682034,0.088821496350494,0.2642424818270955,10.79339281914872,-0.8781878425346745,0.1723388871607539,-1.0225164354610876
1.36,-1.0279173589482928,0.6285132631893903,1.5966706493101777,0.0253045051384058,0.0902930847286632,0.0140481631765552,0.4958723330064064,-0.8313460931452524,-0.1352549191070448,-1.0284591868276425,0.6303310332991728,1.590992618596955,0.6817944886864287,-1.0996312248779283,-0.2313411653973222,0.2888796445333267,-0.134218350533305,0.0577519634855194,0.2492019143573887,10.748519569012387,-0.878617945172702,0.1709941795504883,-1.021537336909992
1.38,-1.0180162875271888,0.6118861426395993,1.5940184981102048,0.0283554941628706,0.0925960402759567,0.0142166099233348,0.49455069171402,-0.8317998531670562,-0.1302157418483687,-1.0150790296796366,0.6087008130884757,1.5863778850155237,0.7073677512587172,-1.1358716535640705,-0.2325501380488337,0.2614667345356112,-0.0660820646193188,-0.0226880010901875,0.2519588629338043,10.72514774956926,-0.8775456580913413,0.1686414192978594,-1.0221426527997313
1.4,-1.008620520035933,0.596057990985583,1.59159420602304,0.0314155541789499,0.0953368966376859,0.0144212856593068,0.4946536932530145,-0.834305208835918,-0.1252280702641261,-0.9932887529414878,0.5702961499812464,1.5875077110177864,0.5492956692180351,-0.8960129949660293,-0.1469518413448525,0.2791249011499763,0.0051500769497225,-0.1252677834430893,0.2493835792121271,10.725339444379642,-0.87583977617541,0.165891127641052,-1.02343754484579
1.42,-0.9986689189810196,0.5791864412964317,1.5891927468725306,0.0295987233759615,0.097110063370706,0.014268880670202,0.5004652255616644,-0.8511426472491156,-0.1148514288041916,-0.9932887529414878,0.5702961499812464,1.5875077110177864,0.5492956692180351,-0.8960129949660293,-0.1469518413448525,1.030713257992659,0.2905766154324946,-0.8418719206598813,0.5188320729967263,10.73877269568493,-0.8778745330497437,0.167836718650015,-1.020640747733959
1.44,-0.9886079193099964,0.562085407117966,1.586997378442349,0.0219297068881781,0.0966307398465314,0.0136673616570024,0.5051436038695543,-0.8570890992626642,-0.1052832211625949,-0.9932887529414878,0.5702961499812464,1.5875077110177864,0.5492956692180351,-0.8960129949660293,-0.1469518413448525,0.6099141591524971,0.2339189153944931,-0.2973226006774299,0.4784103820798323,11.109323256726384,-0.8795182570638779,0.1759924504894514,-1.0166876505954696
1.46,-0.978981014408956,0.5458063002619389,1.5850581385235942,0.0139526549968142,0.0948126633534487,0.0130569948801464,0.5078644977820375,-0.856194806884872,-0.0993134132587492,-0.9877957962493076,0.5613360200315861,1.586038192604338,0.560244664718838,-0.908855623325824,-0.1502990612441492,0.3310650576124906,0.1360446956241601,0.0447146188896074,0.2984903951922885,10.971029151315632,-0.882233113733216,0.184778354340101,-1.011222852986832
1.48,-0.9688120204440174,0.5287285365509792,1.5831110267519852,0.00663471806209,0.092154191291228,0.012529518178101,0.508736040270165,-0.8517887678320222,-0.0958408660030511,-0.9768098828649469,0.5434157601322656,1.583099155777441,0.5821426557204441,-0.9345408800454132,-0.1569935010427428,0.2838633072752884,0.0435771244063742,0.2203019526424932,0.1736273627849047,10.762708586173176,-0.8850028184166472,0.1926470243665832,-1.0061861322554668
1.5,-0.9586480452794996,0.5117605918906348,1.5812057986704784,0.0010130068547761,0.0895032465052157,0.0121689092537668,0.5074840101205402,-0.8455082675221441,-0.0949593037051112,-0.965823969480586,0.525495500232945,1.580160118950544,0.60404064672205,-0.9602261367650023,-0.1636879408413363,0.323223667616932,-0.0626015074812358,0.3140250154939017,0.0440781148969927,10.589963290678496,-0.8872864933387472,0.1986923092655692,-1.0021755230695648
1.52,-0.948531577794181,0.4949302939244414,1.5792956184259483,-0.0027974080628534,0.0877136599303176,0.0119741054495542,0.5042031222380212,-0.8383060358697945,-0.0960929907406113,-0.953743156546145,0.506290977497645,1.576886360133717,0.625938637723656,-0.9859113934845916,-0.1703823806399298,0.3997549635909124,-0.1640443941259506,0.3601115826174839,-0.0566843517750055,10.44680208967202,-0.8884075109592525,0.2027212848192553,-0.9999889740223732
1.54,-0.9384900829526908,0.4782469102707393,1.5773523662978093,-0.0050169821029215,0.0873454183320436,0.011914286508473,0.5003157964479877,-0.8308125321105635,-0.0981681995417635,-0.941662343611704,0.4870864547623449,1.5736126013168903,0.647836628725262,-1.0115966502041809,-0.1770768204385233,0.4346561628340478,-0.194366289501674,0.3746751879615484,-0.1037604400576062,10.347585406389952,-0.8887327487835953,0.204874825519054,-0.9991786738904426
1.56,-0.9290166558585088,0.4625336157759211,1.5754640625934695,-0.0059367511218804,0.0881225934366695,0.0119543276877482,0.4972177222734952,-0.8237560467010617,-0.1004941828109469,-0.9290340809022228,0.4672398006090551,1.5701714815050989,0.669734619726868,-1.0372819069237702,-0.1837712602371168,0.4024992176815075,-0.1549037087246269,0.3528242704750883,-0.1162991634591721,10.296655813351208,-0.8879661269455728,0.2058941039471785,-0.9996759966405177
1.58,-0.9190993281159276,0.4461393264201396,1.5734272368267437,-0.0056893707648623,0.089747340945638,0.0120942097644471,0.4947977971878776,-0.8161489025063087,-0.1030718840550748,-0.9158583684177016,0.4467510150377756,1.5665630006983426,0.691632610728474,-1.0629671636433593,-0.1904657000357104,0.4194318297522995,-0.1209962542808806,0.3803572097376528,-0.1288850622063922,10.275228850173336,-0.8861960501534536,0.2057685064152185,-1.00131499066393
1.6,-0.9092203469994662,0.4298972077763021,1.5713391147898663,-0.0040883543221338,0.0918486644938068,0.0123432691153437,0.4933247457535827,-0.8085735213510147,-0.1056108344176469,-0.8943594382565337,0.4053318812948241,1.5682736426239898,0.5708312478509674,-0.8366418883509208,-0.0975553708043066,0.4062097645295676,-0.0736525717147412,0.3787690577646996,-0.1269475181286082,10.267578622295332,-0.8836572151723727,0.2043544189507957,-1.003971713320729
1.62,-0.8993520983336517,0.4136099852258488,1.5693615096715434,-0.0072769784979017,0.0944050036983789,0.0122736715802091,0.4936940424595258,-0.8174828737417555,-0.0920091768469869,-0.8943594382565337,0.4053318812948241,1.5682736426239898,0.5708312478509674,-0.8366418883509208,-0.0975553708043066,0.813200511480583,0.018464835297155,-0.4454676195370433,0.6800828785329998,10.271074503562886,-0.8821361273278866,0.2057236752291803,-1.0066349964002097
1.64,-0.8899651576734264,0.3980938667636647,1.5677316002059207,-0.0152211032958107,0.0972985235452769,0.0118698450905882,0.4945091049235693,-0.8145779480622731,-0.0802820701426743,-0.8943594382565337,0.4053318812948241,1.5682736426239898,0.5708312478509674,-0.8366418883509208,-0.0975553708043066,0.6054501459202553,0.0407531232021723,0.1452462839741208,0.5863553352156319,11.282911384826548,-0.8816335813507373,0.2150995258925618,-1.003027940559175
1.66,-0.8800613740367539,0.3818995314755691,1.5662307939048916,-0.0240253500645701,0.1006885124574476,0.0114106952571852,0.4959485506895771,-0.8049215314960348,-0.0705397392217906,-0.8886511257780241,0.396965462411315,1.567298088915947,0.5860379379835854,-0.8407404855198433,-0.0964520681541529,0.689621992083355,0.0719722883003898,0.482820828311914,0.4871165460441862,11.128173279506882,-0.879872494706109,0.225304394136991,-0.9999399877693934
1.68,-0.8701211765988764,0.3659398100372617,1.5648985700665363,-0.0315545382126264,0.1042794648177863,0.0110370861174483,0.4981189131879122,-0.7917295419782918,-0.0632673305688878,-0.8772345008210047,0.3802326246442965,1.5653469814998606,0.6164513182488213,-0.8489376798576881,-0.0942454628538457,0.7609648290578805,0.1085181249167566,0.6595994758871515,0.3636204326451356,10.964073147270028,-0.8778077987410616,0.2339619435457779,-0.9974301910546284
1.7,-0.8601289694179524,0.3502672598395409,1.563690746640699,-0.0371858548021774,0.10791256735933,0.010799333100273,0.5011165538539218,-0.776660299337477,-0.0578656216267879,-0.8658178758639854,0.3634997868772781,1.5633958740837746,0.6468646985140571,-0.8571348741955329,-0.0920388575535384,0.814319321312941,0.1498820333004802,0.7534621320407386,0.270085447104999,10.825539993470557,-0.8747263159892459,0.2411460452216395,-0.9963723723569275
1.72,-0.8505722514629197,0.3356661896586063,1.5626330380691915,-0.0408023745028335,0.1112686603333163,0.0107068499744813,0.5047926296166247,-0.7614942329447871,-0.0537321598127811,-0.8528805818937042,0.3463570893933674,1.561555096932704,0.677278078779293,-0.8653320685333777,-0.0898322522532311,0.8071688321046319,0.183803788135145,0.7583033196344957,0.2066730907003374,10.731351127147718,-0.8712957854767216,0.2465074054352076,-0.9962104961003496
1.74,-0.8404277888869863,0.3206091613867711,1.5616049061083757,-0.0430084008239262,0.1145964042824311,0.0107434109736653,0.5095502085848026,-0.7452935289609517,-0.0492816291189682,-0.8399432879234231,0.3292143919094568,1.559714319781633,0.707691459044529,-0.8735292628712226,-0.0876256469529238,0.8730758710829207,0.2378789484088928,0.810035199191772,0.2225265346906438,10.67765519734985,-0.8678117566869616,0.2502306110796294,-0.996659275862957
1.76,-0.8301750924860909,0.3058792617076695,1.5606684851593278,-0.0436963198225001,0.1175105307980859,0.0109213968510289,0.5155332767247247,-0.7286576553164854,-0.0445682600634943,-0.8262456594465111,0.3118667645671,1.55792870776307,0.7381048393097649,-0.8817264572090675,-0.0854190416526166,0.9148295526144448,0.2991534069961055,0.8317936822233141,0.2356684527736966,10.711777168233311,-0.8650098719764293,0.252656152706026,-0.9966656386197256
1.78,-0.819792475082632,0.2914875529321808,1.5598295620243663,-0.0426442573125011,0.1197472439294602,0.0112701351665911,0.5224367235951554,-0.7115258433338894,-0.0395377644921095,-0.8117876964629681,0.2943142073662971,1.5561982608770146,0.7685182195750008,-0.8899236515469123,-0.0832124363523093,0.9571604439612028,0.3451723435215326,0.8565905991298028,0.2515247785692405,10.711777168233311,-0.8629993820136829,0.2536072076912178,-0.9962919595938337
1.8,-0.8097946383329597,0.2781332882144329,1.5591296969724706,-0.0397889815359968,0.1211058330048349,0.0117814278469392,0.5295679072455252,-0.6954916122608058,-0.0343626885807094,-0.7936706389028743,0.2559112607654863,1.5578526737997611,0.5821590689175259,-0.6956686292257799,-0.0404026050121897,0.914783795561953,0.3565591825184899,0.8017115536541775,0.2587537955700054,10.733565161328444,-0.8616137728326868,0.2531453740553637,-0.9952668956304748
1.82,-0.799050507559817,0.2642457611922023,1.558515257235106,-0.0398094573623747,0.1195224181067328,0.0122448248980603,0.5445676341881212,-0.6929108188621524,-0.0273283263359572,-0.7936706389028743,0.2559112607654863,1.5578526737997611,0.5821590689175259,-0.6956686292257799,-0.0404026050121897,0.8383533788167261,0.7499863471297996,0.1290396699326679,0.3517181122376112,10.754065069727403,-0.8671854250356152,0.2552402621421171,-0.9872523925898268
1.84,-0.7880254085464191,0.2504711293842927,1.5580375427527118,-0.0449731112832036,0.1128866994639001,0.0125953246231154,0.5563729522908221,-0.6835396181712039,-0.0208207484020509,-0.7936706389028743,0.2559112607654863,1.5578526737997611,0.5821590689175259,-0.6956686292257799,-0.0404026050121897,0.8208737851549653,0.5902659051350456,0.4685600345474272,0.3253788966953134,10.845123072488605,-0.8726172597139477,0.262248605710272,-0.9780894805111204
1.86,-0.7768276749143166,0.236959502192353,1.5576698902141732,-0.0511422242860505,0.1035631495302983,0.0130787001820155,0.5623467162158465,-0.6680378801393756,-0.016232971097208,-0.787849048213699,0.2489545744732285,1.5574486477496392,0.594103537982,-0.692497186404158,-0.0405755731162057,0.8617387046520939,0.2986881962512233,0.7750869015914152,0.2293888652421452,10.772338864052472,-0.880708669475974,0.270634064133317,-0.9657775891637008
1.88,-0.7661313441761223,0.2244431265097631,1.5573872057326763,-0.0562259169737685,0.0941101514283772,0.0137073974303796,0.5630714134974283,-0.6505174714645044,-0.0137158878779562,-0.7762058668353485,0.2350412018887129,1.5566405956493954,0.6179924761109482,-0.6861543007609142,-0.0409215093242378,0.8857561941881511,0.0362348640790877,0.8760204337435573,0.1258541609625895,10.535968695226074,-0.8893720471494634,0.2782696435755952,-0.9528481509822384
1.9,-0.7549011689605039,0.2116402847245228,1.557126889632226,-0.0602695232909928,0.0849808465941862,0.0144894741767966,0.5597247607337682,-0.630923627408706,-0.0124865616908248,-0.764562685456998,0.2211278293041974,1.5558325435491516,0.6418814142398964,-0.6798114151176704,-0.0412674455322699,0.9957786557235356,-0.1673326381830042,0.9796922027899224,0.061466309356568,10.535968695226074,-0.8972746630672486,0.28414844706426,-0.9415114484255748
1.92,-0.7437770534567957,0.1992381329491107,1.5568769843481778,-0.0628561064400427,0.0778024052094439,0.015310267268205,0.5528499523866144,-0.6106835356396555,-0.012525672398589,-0.7517250571722001,0.2075316010018439,1.5550071946385062,0.6657703523688446,-0.6734685294744266,-0.0416133817403019,1.068791179647764,-0.3437404173576908,1.0120045884525253,-0.0019555353882066,10.453318150861378,-0.9026636519997644,0.2881349487963693,-0.9336333051609988
1.94,-0.733365017593293,0.1878343069925884,1.5566326898136489,-0.0640198658760379,0.0736853851574707,0.0160417382713337,0.5434942140264482,-0.5910048322252992,-0.0131646394598315,-0.7388874288874022,0.1939353726994905,1.5541818457278609,0.6896592904977928,-0.6671256438311828,-0.041959317948334,1.0899420709829457,-0.4677869180083116,0.9839351707178146,-0.0319483530621277,10.39426661482048,-0.9056048009508842,0.291018935798666,-0.9284894900758774
1.96,-0.722609184602192,0.1762377480058083,1.5563616676956773,-0.0637229500034497,0.0728908560307605,0.0167102657553547,0.5329783521224288,-0.5698400010850634,-0.0138718948087513,-0.7254525771493806,0.1804977165382182,1.553347848412015,0.713548228626741,-0.6607827581879391,-0.0423052541563661,1.1821946105735683,-0.525793095200966,1.058241557011791,-0.0353627674459905,10.377301046393768,-0.9073569767066584,0.2921819692051685,-0.9251029401968244
1.98,-0.7120459943198972,0.165070320191276,1.5560814599327606,-0.0614888105576863,0.0750738137384675,0.0173387569336094,0.5242439012282462,-0.5482649867950241,-0.0140757055463574,-0.7114205019581352,0.167218632518027,1.5525052026909676,0.7374371667556893,-0.6544398725446953,-0.0426511903643981,1.1638442903316697,-0.4367225447091338,1.0787507145019637,-0.0101905368803052,10.3854942347034,-0.9063768474541376,0.2918083431108479,-0.9248817267679634
2.0,-0.702150133160114,0.1548470848238805,1.555820437308578,-0.0577245128798811,0.0789353873159227,0.0179578996975607,0.5181361463629784,-0.5295073444752771,-0.0133498240651378,-0.685833799258485,0.1376570708515248,1.5553776746554426,0.5483386262559266,-0.5145456669448177,-0.0033620714651726,0.9870166143669284,-0.3053877432633856,0.9378821159873484,0.036294074060983,10.421276994017717,-0.9030207076958576,0.2901481019929256,-0.9271334232267538
2.02,-0.6917352948507841,0.1443889699955931,1.5556259869646438,-0.0550338359322553,0.0809823394169709,0.0186538218781806,0.5237725102574677,-0.5165596187849324,-0.0058803870414941,-0.685833799258485,0.1376570708515248,1.5553776746554426,0.5483386262559266,-0.5145456669448177,-0.0033620714651726,0.7987563582746862,0.2818181947244647,0.6473862845172373,0.3734718511821862,10.421276994017717,-0.9082400880300914,0.2886204988927409,-0.9212067152044392
2.04,-0.6812049174184308,0.1342119713414583,1.5555927166785175,-0.0544711836573281,0.0776342459699888,0.0195089461915007,0.5283406358032752,-0.5016475002866663,0.0021539872592231,-0.685833799258485,0.1376570708515248,1.5553776746554426,0.5483386262559266,-0.5145456669448177,-0.0033620714651726,0.877197554021633,0.2284062772903716,0.7456059249133062,0.4017187150358604,10.804114044019116,-0.911087785550131,0.291980621517832,-0.913244400286106
2.06,-0.6706325997969212,0.1243459072034661,1.555710235373816,-0.0549980428221565,0.0707236795904154,0.0204947110402203,0.5281468012948867,-0.4856733482683507,0.0092212597190995,-0.6803504129959257,0.1325116141820767,1.555344053940791,0.5531575712614626,-0.5078018029747765,-0.0012193446489356,0.8734378119577614,-0.009691725419425,0.7987076009157767,0.3533636229938228,10.78794228838342,-0.9167798508689132,0.2960104513523311,-0.9023872091280596
2.08,-0.6606402628992251,0.115277863955934,1.555941030788215,-0.0559945910036329,0.0627928318577768,0.0214899004706886,0.5234207554706773,-0.46968854798993,0.0147458295526198,-0.6693836404708072,0.1222207008431803,1.5552768125114875,0.5627954612725348,-0.4943140750346939,0.0030661089835382,0.8780236627206703,-0.2363022912104662,0.7992400139210376,0.2762284916760129,10.642020491131916,-0.9245629241438756,0.3003311192346226,-0.8893102479040741
2.1,-0.6502621168549423,0.1060682934834112,1.5562868757735857,-0.0571736871980343,0.0545577315367785,0.022544708828115,0.514412963541232,-0.4521260933858042,0.0195227853084771,-0.6584168679456887,0.1119297875042839,1.555209571082184,0.572433351283607,-0.4808263470946113,0.0073515626160122,1.0153810041796834,-0.450389596472267,0.8781227302062877,0.2388477877928654,10.642020491131916,-0.9336016958749894,0.304965641333045,-0.8740888816713056
2.12,-0.6401020570263546,0.0972194606048424,1.5567174919137547,-0.058074621556619,0.0476060807998369,0.0235667203238525,0.5018909279365383,-0.4336888344389283,0.0232769916917718,-0.6469682009200165,0.1023132605623917,1.5553566023345042,0.5820712412946791,-0.4673386191545288,0.0116370162484861,1.1300751730833454,-0.6261017802346835,0.9218629473437934,0.1877103191647361,10.57873499692414,-0.9413410876189264,0.3089476504627745,-0.860751734745737
2.14,-0.6302280932627414,0.0887487199441705,1.557216550143038,-0.0582217381938076,0.0430764067515236,0.0245148525600149,0.4860939205548647,-0.4144666692316576,0.0264739707363087,-0.6355195338943443,0.0926967336204995,1.5555036335868244,0.5917091313057513,-0.4538508912144463,0.0159224698809601,1.2542505256959924,-0.7898503690836806,0.9611082603635384,0.1598489522268438,10.525632158362896,-0.946892199550904,0.3125565848069456,-0.849412095964161
2.16,-0.6211611101171988,0.0810645318118036,1.5577489199956414,-0.0572559971233914,0.0419355040603043,0.0253152348171887,0.4694874836441726,-0.3955529378302774,0.0294548734932764,-0.6238299196183954,0.0834173998771093,1.5557578011799569,0.6013470213168234,-0.4403631632743637,0.020207923513434,1.267269469803928,-0.8303218455346068,0.9456865700690098,0.149045137848388,10.50628649617829,-0.9509888480711072,0.3145269649759761,-0.8411370913879884
2.18,-0.6119437419755579,0.0733637218290883,1.5583756435708258,-0.0547903461631907,0.0437619308432265,0.0260908855209472,0.4534528722132224,-0.375763743677701,0.0331248975018263,-0.6118993580921697,0.0744752593322212,1.5561191051139005,0.6109849113278956,-0.4268754353342812,0.024493377145908,1.2866526776613527,-0.801730571547507,0.9894597076288176,0.1835012004274945,10.50628649617829,-0.9525657923495516,0.3150948670320421,-0.8365972346575694
2.2,-0.6030253089772711,0.0660404789199286,1.55908427567467,-0.0512159779766358,0.0477672279798496,0.0268352047767594,0.43949974841284,-0.3578617437329737,0.0376187134789896,-0.5892710983648968,0.0545755346452032,1.5600318884459172,0.4825146851206798,-0.3355214628666296,0.0259055629031957,1.156898491491824,-0.6976561900191219,0.8950999972363649,0.2246907988581639,10.515259462885297,-0.952059123626202,0.3147829371303137,-0.8349098841642564
2.22,-0.5943573206968821,0.0590302478238073,1.5598417381950616,-0.0481135951721252,0.0529117117531247,0.0275043680506239,0.4282020658811561,-0.3436644376457884,0.037882031957417,-0.5892710983648968,0.0545755346452032,1.5600318884459172,0.4825146851206798,-0.3355214628666296,0.0259055629031957,0.9072905644569232,-0.5648841265841947,0.709865304359264,0.01316592392137,10.253099646135524,-0.948550760811234,0.3145749716512915,-0.8371669180473752
2.24,-0.5863159151080294,0.0526359560339276,1.5605648629231912,-0.0459775443698473,0.058192384521533,0.0280786687403814,0.419002626119348,-0.3299981233901329,0.0382312197375014,-0.5892710983648968,0.0545755346452032,1.5600318884459172,0.4825146851206798,-0.3355214628666296,0.0259055629031957,0.8238928470548053,-0.4599719880904046,0.6833157127827755,0.0174593890042217,10.253099646135524,-0.9447022681744476,0.3141919596084689,-0.8407887643311241
2.26,-0.5780219942772687,0.0461885171027986,1.561336235328128,-0.044212022979853,0.0638428935819382,0.0286574213824702,0.4110456539121933,-0.3154350185712617,0.0388985397226361,-0.5844459515136899,0.0512203200165369,1.5602909440749493,0.4883270477021713,-0.3274730067044153,0.0244616959834695,0.8304257110564182,-0.3978486103577344,0.7281552409435621,0.0333659992567316,10.27191787117863,-0.9407760675856928,0.3144371245837773,-0.8439448589855548
2.28,-0.5698697292644956,0.0400325597890046,1.5621236267258218,-0.042734383143616,0.0692738269182059,0.0292359731815081,0.4047157021374617,-0.3009075852433832,0.0398151932726894,-0.5747956578112764,0.0445098907592043,1.5608090553330132,0.4999517728651542,-0.3113760943799868,0.0215739621440173,0.7936543049357317,-0.3164975887365806,0.726371666393924,0.0458326775026683,10.287964848911544,-0.9369631028022066,0.3151737588766405,-0.8464522039820774
2.3000000000000003,-0.5618288531161133,0.034165592050879,1.5629311546725608,-0.0414778670952274,0.0742581586813671,0.029826353523801,0.3997931168509785,-0.2865398015028732,0.040896325157947,-0.5651453641088627,0.0377994615018717,1.561327166591077,0.5115764980281372,-0.2952791820555582,0.018686228304565,0.7613046395334875,-0.2461292643241602,0.7183891870255005,0.0540565942628794,10.3008320269455,-0.9336566350204832,0.3162455505903579,-0.8480872024388433
2.32,-0.5542696045520124,0.0288567879507751,1.5637193306943191,-0.0404725267232717,0.0784443488662766,0.0304026981104096,0.3962110454606971,-0.273023736861919,0.0420139110718262,-0.5549138341483,0.0318938778607606,1.5617008911571684,0.5232012231911202,-0.2791822697311297,0.0157984944651127,0.7013633813837611,-0.1791035695140691,0.6758032320477086,0.0558792956939602,10.309307264898052,-0.930626053733831,0.317737003003874,-0.8489354827855035
2.34,-0.5463772640065934,0.0235441988192457,1.5645704148603934,-0.0396195221076577,0.0822338695580598,0.031024616942837,0.3932672377798984,-0.2589639530552002,0.0430271833308789,-0.5446823041877372,0.0259882942196494,1.5620746157232597,0.5348259483541031,-0.2630853574067011,0.0129107606256605,0.7200177862806036,-0.147190384039933,0.7029891903359425,0.0506636129526307,10.31398775206253,-0.9280206721298804,0.3195632016883537,-0.8490024149345458
2.36,-0.5385347747663471,0.0185169439929837,1.5654393779331566,-0.0388201480224112,0.0853446644329728,0.0316730492213264,0.3911367734147044,-0.2445477588293201,0.0438232863569171,-0.5341601560981,0.0204851333866489,1.5623761469433646,0.546450673517086,-0.2469884450822725,0.0100230267862082,0.7297248015480342,-0.106523218259702,0.7208097112940043,0.0398051513019113,10.303343850968304,-0.9261675599258938,0.3214451136155531,-0.8482242182983928
2.38,-0.5311185849624888,0.0140107468718203,1.566277756959576,-0.0378763074156114,0.087649412280497,0.0323294865861617,0.3896119300119168,-0.2306093824792141,0.044393973949925,-0.523347389879388,0.0153843953617592,1.5626054848174833,0.558075398680069,-0.230891532757844,0.0071352929467559,0.7016572649966484,-0.0762421701393789,0.6969188175052973,0.0285343796503981,10.291453104382526,-0.9247553088530948,0.3233666559381706,-0.8467608626983222
2.4,-0.5233405208739494,0.0095531980241213,1.567170255039936,-0.0365344000223749,0.0894437268221054,0.0330702916335652,0.3882717056177208,-0.2159599324073984,0.0448242978287331,-0.5116379884618929,0.0024802777478596,1.5684974556570723,0.420859773068834,-0.2064273906636471,0.0428509925851608,0.7358460563767637,-0.0670112197098032,0.7324725035907892,0.0215161939404039,10.279671825321202,-0.9238737207008716,0.3249985541662601,-0.8448667550886476
2.42,-0.5155568063808144,0.0054456576593688,1.5681197273954293,-0.0329475278321254,0.0897592821930489,0.0340190619285759,0.3901970339835203,-0.1966688102438109,0.0504311779544726,-0.5116379884618929,0.0024802777478596,1.5684974556570723,0.420859773068834,-0.2064273906636471,0.0428509925851608,1.0090730751425032,0.096266418289978,0.964556108179372,0.2803440062869731,10.26767202663268,-0.9279510388812924,0.3248998346519289,-0.8384251173764977
2.44,-0.5077393825388185,0.0016675795008613,1.569188502574638,-0.0274298079627132,0.0878883695863125,0.0351601558351781,0.3912785950101646,-0.1824919889075653,0.0561738720232592,-0.5116379884618929,0.0024802777478596,1.5684974556570723,0.420859773068834,-0.2064273906636471,0.0428509925851608,0.7666983967341106,0.0540780513322153,0.7088410668122824,0.2871347034393287,10.59448264959792,-0.9309979923137344,0.3253582361150787,-0.8307326503733683
2.46,-0.5003085747265602,-0.0016904937164017,1.5703027289237748,-0.0220929086936942,0.0847265062375683,0.0362637150997501,0.3907184164591951,-0.1717571861174955,0.0608503703984262,-0.5074293907312045,0.0004160038412232,1.568925965582924,0.4271093416802174,-0.2015909923005337,0.0425423963122079,0.586130164732195,-0.0280089275484757,0.5367401395034888,0.2338249187583515,10.54339839556269,-0.9354803777712593,0.3251844311776274,-0.8221814315001053
2.48,-0.4925195014710667,-0.0050244092615679,1.5715638130943967,-0.0169826752549232,0.0806620561489867,0.0373740008966964,0.3880220323733219,-0.1622072069821963,0.0649878594978171,-0.4990121952698279,-0.0037125439720497,1.569782985434627,0.4396084789029844,-0.1919181955743069,0.0419252037663022,0.5375672159618247,-0.1348192042936624,0.4774989567649587,0.206874454969546,10.48030883023057,-0.9404840970225538,0.3247847196613002,-0.8138288592197168
2.5,-0.4848102837128497,-0.0081806216161946,1.572898221183959,-0.0125865014755208,0.0767255445435563,0.0384008220828056,0.3828505066085281,-0.1538586356978571,0.0682163446462553,-0.4905949998084512,-0.0078410917853226,1.5706400052863303,0.4521076161257512,-0.1822453988480801,0.0413080112203965,0.5168811216791175,-0.2585762882396897,0.4174285642169595,0.1614242574219104,10.42330436910288,-0.9447414843972392,0.3244672046043561,-0.8068693605378248
2.52,-0.4772320293612479,-0.0111800792245142,1.5742871526929003,-0.0089349238437877,0.0739668991011704,0.0393360292401774,0.3751607340442509,-0.1464003935834984,0.0705285673672344,-0.4815528474859362,-0.0114859997622842,1.5714661655107385,0.4646067533485181,-0.1725726021218533,0.0406908186744908,0.5479606542401473,-0.384488628213861,0.3729121057179346,0.1156111360489528,10.367878188229952,-0.9480686833191542,0.3240649388356849,-0.8015363926770177
2.54,-0.4701914318341363,-0.0138974157096196,1.5756446843582823,-0.0060863452826847,0.0732586368791817,0.0401490718103445,0.3665916287449078,-0.1399042937492844,0.0722661872249248,-0.4725106951634212,-0.0151309077392458,1.5722923257351462,0.477105890571285,-0.1628998053956265,0.0400736261285851,0.5446287759959636,-0.4284552649671508,0.3248049917107032,0.0868809928845207,10.322307579840526,-0.9499899280451952,0.3230636422203348,-0.7993091543320598
2.56,-0.4629470777238949,-0.0166263626997312,1.5771069175301309,-0.0036016261512865,0.0743925496626049,0.0409490639014487,0.3584928652295664,-0.1332993365761658,0.0738602552729399,-0.463156064410337,-0.0185339957980518,1.5731030561459065,0.4896050277940518,-0.1532270086693997,0.0394564335826794,0.5285746935813775,-0.4049381757670722,0.3302478586559285,0.0797034024007554,10.292704569204943,-0.9503198221111676,0.3220798121641764,-0.7993550460258028
2.58,-0.4558514034275664,-0.0192256305073519,1.5785992439365415,-0.0015079904646329,0.0768708902613781,0.0417122115622501,0.3516623048192815,-0.1269380043864448,0.0752880398541374,-0.4534889552266836,-0.021695263938702,1.5738983567430191,0.5021041650168188,-0.1435542119431729,0.0388392410367737,0.4721272909842114,-0.3415280205142423,0.3180666094860479,0.0713892290598754,10.271697014602069,-0.9493284701299196,0.3213439269504031,-0.8008655184413739
2.6,-0.4488773634079684,-0.0217001349869333,1.5801188653443747,0.0002806832931813,0.0801509388221578,0.0424497693189491,0.3462484053875354,-0.1208023741023649,0.0766029503078353,-0.4382682881866023,-0.0255725307266742,1.5823636459292485,0.3774217316961841,-0.1106344073683222,0.0530652769267244,0.4143828409249845,-0.2706949715873097,0.3067815142039957,0.0657455226848964,10.257783258804013,-0.947610353590474,0.3208829487530526,-0.8030508686387703
2.62,-0.4423143941437598,-0.0239251673953478,1.5815751101045226,0.0021718862455062,0.0827425241155497,0.0431600723426421,0.3447193413602851,-0.114002531746634,0.0766110072061532,-0.4382682881866023,-0.0255725307266742,1.5823636459292485,0.3774217316961841,-0.1106344073683222,0.0530652769267244,0.3484822727766536,-0.0764532013625113,0.3399921177865437,0.0004028449158942,10.249055234555271,-0.9466119648711177,0.3203702699051823,-0.8043599040066862
2.64,-0.4354405191302813,-0.0261429823446505,1.5830979124711488,0.0043054634231822,0.0842196486655846,0.0439094436890869,0.342677514703579,-0.1081789086073377,0.0756247860778286,-0.4382682881866023,-0.0255725307266742,1.5823636459292485,0.3774217316961841,-0.1106344073683222,0.0530652769267244,0.3124750977219536,-0.1020913328353079,0.2911811569648183,-0.0493110564162305,10.163066419575443,-0.9449335657522536,0.3201414534593472,-0.8056185373212613
