t,x,y,z,roll,pitch,yaw,v_x,v_y,v_z,ref_x,ref_y,ref_z,ref_v_x,ref_v_y,ref_v_z,a_com,a_x,a_y,a_z,thrust,wind_x,wind_y,wind_z
0.0,-0.678747889658706,1.8923812528208843,1.9260615534434224,0.0226850553969436,0.0999440221116086,0.0422535985979572,0.0041190285441002,-0.0051736072374116,0.0132742730529838,-0.6786206710812417,1.89216038144942,1.9264619416836772,-0.0066443385656771,-0.1067913101670356,-0.0866720569220536,0.7415169132920789,0.2059514272050149,-0.2586803618705813,0.6637136526491941,10.244103778716635,-0.943772357785112,0.2622129714848566,-0.871082679135645
0.02,-0.6786990562999663,1.8925703077907163,1.9260916048512304,0.030147311842556,0.099764557871789,0.0427675619393102,0.0009971757118108,0.0184295929216455,-0.0104169855451702,-0.6786206710812417,1.89216038144942,1.9264619416836772,-0.0066443385656771,-0.1067913101670356,-0.0866720569220536,1.679384378886804,-0.1560926416144746,1.180160007952861,-1.184562929907709,10.24329616691557,-0.9390770485189612,0.2634599299758048,-0.8681436458841423
0.04,-0.6787095001959894,1.892960845343946,1.925616160834673,0.0437911450745956,0.0995168924392077,0.0436871633952305,-0.0018862925097504,0.0209134436247955,-0.0384491924488991,-0.6786206710812417,1.89216038144942,1.9264619416836772,-0.0066443385656771,-0.1067913101670356,-0.0866720569220536,1.4144685638021015,-0.1441734110780616,0.1241925351574956,-1.40161034518644,8.871287136038518,-0.9279948652628816,0.2442979421844353,-0.8915723062907471
0.06,-0.6787775105084204,1.8933433305726444,1.924533754449584,0.058700774839566,0.099383151230275,0.0446673315379438,-0.0047146204208167,0.0168297894852439,-0.0683596632037113,-0.6786871144668984,1.8910924683477497,1.925595221114457,-0.0088151263173517,-0.1267913104650588,-0.1066720572200768,1.5160078583886634,-0.1414163955533149,-0.2041827069775781,-1.4955235377406129,8.65720103965532,-0.9180490796896812,0.2227374805285213,-0.9153046196833764
0.08,-0.6788988525197572,1.8936047795362931,1.9228571490704935,0.0730778340396573,0.0994759211919966,0.0455911245185218,-0.0072197429813532,0.0091993923462637,-0.0978265716860421,-0.6788200012382121,1.888956642144409,1.923861779976016,-0.013156701820701,-0.1667913110611053,-0.1466720578161232,1.5270865193628704,-0.1252561280268277,-0.3815198569490093,-1.4733454241165378,8.68398713167926,-0.9091530815647502,0.2015858687938523,-0.9368310170957136
0.1,-0.6790657934144844,1.893682989948018,1.920598241283142,0.0867632628377958,0.0998141434066238,0.0464535139675005,-0.0092819796366854,-0.001295593615112,-0.1266694418364096,-0.6789528880095256,1.8868208159410684,1.9221283388375747,-0.0174982773240503,-0.2067913116571517,-0.1866720584121697,1.5381065542274963,-0.1031118327666077,-0.5247492980687878,-1.4421435075183773,8.804626090024612,-0.9011004067518156,0.181790762921255,-0.956111996562062
0.12,-0.6792575045026542,1.89353760959743,1.9179224831524684,0.0991271374093764,0.1003201124570163,0.0472165631681966,-0.0107406762234137,-0.0137317097697204,-0.1536161321677081,-0.6793028535560066,1.8826849897079252,1.9183948976693312,-0.0218398528273996,-0.2467913122531982,-0.2266720590082161,1.4856891503221186,-0.072934829336414,-0.6218058077304243,-1.3473345165649255,8.861175462073334,-0.8925032758878769,0.1608687267357297,-0.9762067156955866
0.14,-0.6794846490120553,1.8931047208330816,1.9145451775733475,0.1114987430211347,0.1009811972482454,0.0479585744687525,-0.0118429735853396,-0.0291772562688825,-0.1827905204609929,-0.6796528191024876,1.8785491634747824,1.914661456501088,-0.0261814283307489,-0.2867913128492447,-0.2666720596042626,1.651457612549622,-0.0551148680962964,-0.7722773249581014,-1.4587194146642404,8.861175462073334,-0.883528967098415,0.1400431828292975,-0.996122089731849
0.16,-0.6797287315577956,1.89233834316016,1.9105790153271625,0.1232419482528777,0.1017058496997394,0.0486329860646156,-0.0124620107950208,-0.046945000357239,-0.2124253125662366,-0.6801113240365524,1.8734133372267383,1.9099280153179432,-0.0305230038340982,-0.3267913134452911,-0.306672060200309,1.7279300044976569,-0.0309518604840608,-0.8883872044178263,-1.481739605262182,8.848319478608119,-0.8756975816796874,0.1210635269901981,-1.0127171091543234
0.18,-0.679979644466416,1.8911928381470016,1.9060198971167115,0.1343872767624262,0.1024232430005184,0.049232071944593,-0.0125624173840922,-0.0669606928676365,-0.2420767582420953,-0.6806783683582008,1.867277510963793,1.9041945741198976,-0.0348645793374475,-0.3667913140413376,-0.3466720607963555,1.7887469488599528,-0.0050203294535688,-1.0007846255198771,-1.4825722837929378,8.860455185878436,-0.8684517666238131,0.1034461763119044,-1.0276887673346633
0.2,-0.6802271970156679,1.8896241669715328,1.9008686495027052,0.1449636050190987,0.1030686962049203,0.0497465124502057,-0.0121625311436648,-0.0891385524808698,-0.2716385537825602,-0.6806077653356206,1.88784480350362,1.8939160592046065,-0.0007412861621421,-0.1669606943577527,-0.3420767597322115,1.84791580003379,0.0199943120213696,-1.1088929806616603,-1.4780897770232406,8.928471180323868,-0.8609736223211386,0.0852030880819711,-1.0428508402432537
0.22,-0.6804693532657243,1.887553372740947,1.895550923508445,0.1503975039444871,0.1048550886043786,0.0500539492707644,-0.013058051308237,-0.1250685426176744,-0.2862812949536831,-0.6806077653356206,1.88784480350362,1.8939160592046065,-0.0007412861621421,-0.1669606943577527,-0.3420767597322115,1.94047417955028,-0.0447760082286108,-1.796499506840231,-0.7321370585561482,8.928471180323868,-0.8548320001287348,0.0684737387449685,-1.059272700294072
0.24,-0.6807273034125193,1.88471966000836,1.889660217155675,0.1514265554028017,0.1086868813468697,0.0503172837481187,-0.0124297774722414,-0.1560493205956604,-0.3021438119866257,-0.6806077653356206,1.88784480350362,1.8939160592046065,-0.0007412861621421,-0.1669606943577527,-0.3420767597322115,1.7405622502187723,0.0314136917997818,-1.549038898899301,-0.7931258516471307,9.877771188011138,-0.8482672920330442,0.0624476691615435,-1.0694336796985693
0.26,-0.680950009499169,1.8812862987781709,1.8834282082605336,0.1498200140320416,0.1135488156406955,0.0505223247817245,-0.0096750654574874,-0.1854899020048361,-0.3203444908970144,-0.680615178197242,1.8861751965600424,1.8904952916072844,0.0016229400822478,-0.1869606946557759,-0.3620767600302347,1.7360882644566198,0.137735600737697,-1.472029070458787,-0.9100339455194312,9.739987587629912,-0.8407472193161086,0.0599510283576873,-1.0791828591452874
0.28,-0.6810970912237144,1.8772834007636217,1.8768101622981608,0.146095210868589,0.1186021944733226,0.0505691353845664,-0.0050689285597866,-0.2126482749467777,-0.3404680197285785,-0.6806300039204849,1.8828359826728875,1.88365375641264,0.0063513925710278,-0.2269606952518224,-0.4020767606262811,1.7056891060570925,0.2303068448850433,-1.357918647097077,-1.0061764415782075,9.61214659862526,-0.8327975729953007,0.0596676608597484,-1.0888097264758003
0.3,-0.681137242869519,1.873011342570776,1.8701373096508032,0.1418800945874235,0.1230515402502111,0.0504751968608226,0.0006576644365335,-0.2355266234123256,-0.3609358504279861,-0.6806448296437277,1.879496768785732,1.876812221217996,0.0110798450598078,-0.2669606958478688,-0.4420767612223276,1.5613654195896578,0.2863296498160096,-1.1439174232773963,-1.0233915349703804,9.423882967250393,-0.8238137216525379,0.0596979378900001,-1.0997587149077657
0.32,-0.6810515921800663,1.8680671633565529,1.8626782617421909,0.1375621277009244,0.1270489604610673,0.0502477737181028,0.007645826023092,-0.257642062484596,-0.3839836757427435,-0.6804232327425316,1.8741575548687748,1.8679706859935488,0.0158082975485878,-0.3069606964439152,-0.482076761818374,1.6348771356425578,0.3494080793279245,-1.105771953613517,-1.1523912657378703,9.423882967250393,-0.8158056116710192,0.0600648169512418,-1.1094675465010702
0.34,-0.6808170504815548,1.8626925953964075,1.854750411554537,0.1336602880463695,0.1301778834748691,0.0498945068559688,0.0154668235770832,-0.2787065021682971,-0.4076858903964768,-0.6802016358413354,1.868818340951817,1.8591291507691023,0.0205367500373679,-0.3469606970399618,-0.5220767624144206,1.6329984701611526,0.391049877699559,-1.053221984185057,-1.1851107326866617,9.341210099866656,-0.8091967374170264,0.0603613964511631,-1.1177455762394255
0.36,-0.6804183564724776,1.856895980550556,1.8463436926503531,0.1299365938280149,0.1323287408797293,0.0493929117025994,0.0239398027164041,-0.2997435839433229,-0.4317947348228689,-0.6798618276279198,1.8624791270199588,1.8492876155297548,0.0252652025261479,-0.3869606976360082,-0.5620767630104669,1.6549822995129522,0.4236489569660446,-1.0518540887512915,-1.205442221319608,9.318739854224075,-0.8045556111351095,0.0608083633485602,-1.1240300546654614
0.38,-0.6798798778610613,1.8510036357734132,1.8379078368664277,0.1263193884329186,0.1334619020914148,0.0487693661484364,0.032234794326832,-0.3192792991806941,-0.4549727813280039,-0.6794038081022846,1.8551399130731991,1.838446080275506,0.0299936550149279,-0.4269606982320546,-0.6020767636065134,1.5713631784591722,0.414749580521396,-0.9767857618685566,-1.15890232525675,9.309798791677167,-0.8007135676952523,0.0614116454881236,-1.1298380740338554
0.4,-0.6791441432398202,1.8444091558801965,1.828547374166919,0.1224279670551017,0.1337820727689003,0.0479776813524085,0.0408291776433357,-0.3389987999441877,-0.4798694243561782,-0.6782681381447196,1.8350396708143788,1.8151591978000272,0.0465511715568206,-0.4192793006708102,-0.5129797720289642,1.645117753403052,0.4297191658251868,-0.98597503817468,-1.2448321514087146,9.299248936817094,-0.7978958718362424,0.0623332214260781,-1.1346868031864188
0.42,-0.6781874353968547,1.8373930335678204,1.8189725470116465,0.1184315217074579,0.1329500472973149,0.0470235584228672,0.0545685754214356,-0.3616184162787966,-0.4748426593507569,-0.6782681381447196,1.8350396708143788,1.8151591978000272,0.0465511715568206,-0.4192793006708102,-0.5129797720289642,1.3469284138823894,0.6869698889049918,-1.130980816730448,0.2513382502710659,9.27142420563814,-0.8009040307057519,0.0609982048707136,-1.1374808911091183
0.44,-0.6770201742319145,1.830321369687004,1.809996546148707,0.1147552101916429,0.1306533620183574,0.0459406477370447,0.0674647557435072,-0.38160975340499,-0.4704103865878364,-0.6782681381447196,1.8350396708143788,1.8151591978000272,0.0465511715568206,-0.4192793006708102,-0.5129797720289642,1.209969078982423,0.6448090161035792,-0.9995668563096666,0.2216136381460232,11.16041068415234,-0.8012126378636851,0.063973935752792,-1.1379043154314976
0.46,-0.6755369972960407,1.822478530377253,1.8006019160399973,0.1111682777884626,0.126533500695935,0.0446261696057113,0.0800125420879814,-0.4015532065534211,-0.4694366399406754,-0.6778026264291515,1.8308468778076707,1.8100294000797377,0.0494144470028183,-0.4392793009688334,-0.5245811701691562,1.1791272706573066,0.6273893172237109,-0.9971726574215578,0.0486873323580494,10.91275014783878,-0.8043520145990055,0.0669217490847085,-1.135943147033301
0.48,-0.673822091435663,1.81424676490769,1.7911886861667945,0.107814154566606,0.1206929443587377,0.0431447264442989,0.0904431719388859,-0.4205815481088805,-0.4718876952854777,-0.676871602998015,1.8224612917942544,1.7997698046391584,0.0551409978948137,-0.4792793015648798,-0.5477839664495403,1.0918831138692089,0.5215314925452269,-0.9514170777729702,-0.1225527672401138,10.477626694236278,-0.808364214427475,0.0690097504952508,-1.1339254108915875
0.5,-0.6719315551308508,1.805643233454256,1.7816990606074008,0.1046729871632311,0.1138569829356209,0.0415844326999022,0.0978056827546784,-0.4387804347897188,-0.4769192876980796,-0.6759405795668786,1.8140757057808383,1.789510209198579,0.0608675487868092,-0.5192793021609263,-0.5709867627299243,1.0133150597681932,0.3681255407896211,-0.909944334041915,-0.2515796206300935,10.477626694236278,-0.8146133705402457,0.0710286642776803,-1.1301997989567616
0.52,-0.6700269419890444,1.7971402255869209,1.7725702087405015,0.1019055765149598,0.1071220581642505,0.0401068700754163,0.102133038882984,-0.4553433178351085,-0.4837388703028969,-0.6747232285911424,1.80369011973762,1.7780904739439805,0.0665940996788046,-0.5592793027569728,-0.5941895590103083,0.9213601531708016,0.216367806415281,-0.828144152269486,-0.3409791302408649,10.32030848920931,-0.8219508705735706,0.072864692166834,-1.12549022030834
0.54,-0.6679578402027204,1.787857106198252,1.7628138591502789,0.099291098109092,0.1003230441696274,0.0386169457586796,0.1043762396865712,-0.4720986928037112,-0.4915548799522569,-0.6735058776154063,1.7933045336944011,1.766670738689382,0.0723206505708,-0.5992793033530193,-0.6173923552906925,0.9312149953455672,0.1121600401793591,-0.8377687484301316,-0.3908004824679983,10.189141500146434,-0.8291631840680225,0.0739721145728459,-1.1212638919660325
0.56,-0.6658647019084522,1.7782346718084046,1.752895442442817,0.0967269565260015,0.0942048855705224,0.0372115664777188,0.1046892825385276,-0.4891566069210299,-0.4998926624416103,-0.6721453628673701,1.7819189476362816,1.754670933527774,0.0780472014627955,-0.6392793039490656,-0.6405951515710765,0.9494591179992304,0.0156521425978245,-0.8528957058659359,-0.4168891244676703,10.117862602004609,-0.8358138235522823,0.0748953562209371,-1.1175315736278275
0.58,-0.6637857680659227,1.7682730974660952,1.7428040430952791,0.0939029158112097,0.0891187856316159,0.0359016179521705,0.1030741072747521,-0.505914570335388,-0.5087988456703362,-0.6706416843470342,1.769533361563261,1.7420910584591562,0.0837737523547909,-0.6792793045451121,-0.6637979478514605,0.9523106486768312,-0.0807587631887755,-0.8378981707179045,-0.4453091614362942,10.085772294891283,-0.8410937300031558,0.0759765009807696,-1.114770849163881
0.6,-0.6618586118951324,1.7585047360363777,1.7330462455425055,0.0909528837535928,0.0856711694868667,0.0347809766431998,0.0997949929708716,-0.5212862778188116,-0.5178694238405546,-0.6586320627021851,1.7429773689493258,1.7173641008117624,0.1194774675670676,-0.6059145718255041,-0.535758009738439,0.9073551811665302,-0.1639557151940258,-0.7685853741711823,-0.4535289085109195,10.085772294891283,-0.8450559402618268,0.0773728651311916,-1.1130760680012626
0.62,-0.6599028478850798,1.7478810696185347,1.7228134602857934,0.0872125304502354,0.0843482300304978,0.0337761066837267,0.0961342647602346,-0.5399565065228061,-0.5036862346744085,-0.6586320627021851,1.7429773689493258,1.7173641008117624,0.1194774675670676,-0.6059145718255041,-0.535758009738439,1.1865298414012764,-0.1830364105318498,-0.9335114351997242,0.7091594583073013,10.049813657644336,-0.8500940467931175,0.0768681973219155,-1.1130879747170408
0.64,-0.6580120028109315,1.7369101597109595,1.7128855663855247,0.0831560959228893,0.085577435611212,0.0329755434055614,0.0933777071408263,-0.5560535671044765,-0.4900999144581238,-0.6586320627021851,1.7429773689493258,1.7173641008117624,0.1194774675670676,-0.6059145718255041,-0.535758009738439,1.0621935632201305,-0.1378278809704182,-0.8048530290835187,0.6793160108142349,11.634875234042738,-0.8512850255307791,0.0815081727442187,-1.11024862514618
0.66,-0.6561619381691735,1.7256365520572805,1.703187375917849,0.0793554768338729,0.0884690325211212,0.0323273764205589,0.0920054436369438,-0.5704616827266337,-0.4803707483507798,-0.6574372880265145,1.7369182232310707,1.712006520714378,0.1227581396255307,-0.6259145721235273,-0.5411498425520596,0.8719712954705385,-0.0686131751941231,-0.7204057811078579,0.4864583053671989,11.375865332070134,-0.8509247169035532,0.0862848728292397,-1.1082921080553472
0.68,-0.6544153305090306,1.714672716346214,1.6941257520407915,0.0761195315854679,0.0920442536745317,0.0317966210924567,0.0920765353049498,-0.5829227637792053,-0.4739665484435253,-0.6550477386751731,1.7247999317945606,1.7012913605196092,0.1293194837424569,-0.6659145727195738,-0.5519335081793008,0.7005308192294206,0.0035545834003024,-0.6230540526285799,0.3202099953627246,11.131505476573691,-0.8488584337704986,0.0902689449505255,-1.1082087054618128
0.7000000000000001,-0.6525608357081814,1.7028874913518472,1.6846955689251464,0.0732053282264481,0.0961181380858418,0.0312882490884196,0.0935056109043189,-0.5949688439016149,-0.4694992053880559,-0.6526581893238317,1.7126816403580505,1.6905762003248404,0.1358808278593831,-0.7059145733156202,-0.5627171738065418,0.6463502482390535,0.0714537799684521,-0.6023040061204799,0.2233671527734709,10.942117811186108,-0.8460479500640451,0.0935280152439795,-1.1090170725989827
0.72,-0.6506643534178587,1.690869215864854,1.675332974956307,0.07081593699257,0.1000917432816713,0.0308030733825562,0.0961681591675159,-0.6062933977829994,-0.4670745171584273,-0.6499405727666441,1.698563348891738,1.6793218568487096,0.1424421719763093,-0.7459145739116667,-0.5735008394337829,0.5941670574786491,0.133127413159851,-0.5662276940692268,0.1212344114814301,10.797038927848009,-0.8429387003909642,0.0958812589147809,-1.1105046273155363
0.74,-0.6487019526190844,1.678630654406819,1.6660094575259516,0.0689342419639646,0.1036456125242158,0.0303201314267272,0.0999819579816448,-0.6170942845005325,-0.4654066987388681,-0.6472229562094564,1.6844450574254255,1.6680675133725786,0.1490035160932355,-0.7859145745077132,-0.5842845050610241,0.5787612494808521,0.1906899407064448,-0.5400443358766549,0.0833909209779604,10.646369275023062,-0.8397295147374851,0.0974529836571253,-1.1125740284194643
0.76,-0.6467572709318105,1.6667993692904677,1.6571782722781043,0.0673193527839157,0.1064323314631879,0.029831834699133,0.1045235415034893,-0.6276759915551807,-0.464275780896877,-0.6443413060493456,1.669326765944212,1.656543578255767,0.1555648602101617,-0.8259145751037595,-0.5950681706882652,0.5785271822516547,0.227079176092227,-0.5290853527324113,0.0565458920995548,10.646369275023062,-0.8369575894004198,0.0987181500662695,-1.1144650866278636
0.78,-0.644610805857818,1.6541308705243014,1.6479007930295646,0.0655751993090133,0.1086306846539502,0.0292662035951346,0.1098770489563446,-0.6385285841438304,-0.4635520356404448,-0.6412956222863115,1.6532084744480973,1.644750051498274,0.1621262043270879,-0.865914575699806,-0.6058518363155064,0.6061406914636215,0.267675372642763,-0.5426296294324839,0.0361872628216103,10.624309511173124,-0.834759154249651,0.1000001341994639,-1.1159850260313322
0.8,-0.6423532736002402,1.641248553329964,1.638631910762114,0.0637211635825065,0.1100400258128473,0.0286440918886678,0.1155732016576015,-0.6490530801893274,-0.4633924959354712,-0.6391169534100009,1.62220444131711,1.6247231912475424,0.1364615456779699,-0.7385285856339465,-0.4576357726636196,0.5984075231921405,0.284807635062844,-0.5262248022748495,0.0079769852486782,10.598327918627549,-0.8332405706866391,0.1013671844701882,-1.117045955458886
0.8200000000000001,-0.6399496259528265,1.6281135308948458,1.6295792352146163,0.0606652690964161,0.1104847990273811,0.0278826959633128,0.1243417136198625,-0.6630322874168829,-0.4418051972213399,-0.6391169534100009,1.62220444131711,1.6247231912475424,0.1364615456779699,-0.7385285856339465,-0.4576357726636196,1.358599004964668,0.438425598113052,-0.6989603613777762,1.0793649357065698,10.566772062153175,-0.8387052513802464,0.1022054788614625,-1.1139300822358074
0.84,-0.6375094256797786,1.6154162279996374,1.6213765152406765,0.0571115153286896,0.1100170041932974,0.0270704195421348,0.1319628150329216,-0.6727682787251528,-0.4227609354991878,-0.6391169534100009,1.62220444131711,1.6247231912475424,0.1364615456779699,-0.7385285856339465,-0.4576357726636196,1.1352913921595875,0.3810550706529553,-0.4867995654134927,0.9522130861076006,11.965682720272524,-0.8417240660647173,0.107871584177992,-1.1081956568687508
0.86,-0.6347942398571813,1.6018735219348674,1.6131069224427843,0.0537474981784276,0.1088257017871898,0.0262171560660205,0.1390594792999358,-0.6810351163231655,-0.4053147972363972,-0.6377523379532212,1.6148191554607705,1.6201468335209062,0.141778445022295,-0.7585285859319697,-0.4564525200682545,1.028434475155128,0.3548332133507081,-0.4133418799006361,0.8723069131395339,11.759759206967829,-0.8452126514980685,0.1128719410565232,-1.102450084182453
0.88,-0.6319467612476154,1.588178714243324,1.6051569454993826,0.0511211675069455,0.1070650114282634,0.0254020823748708,0.1452470086873505,-0.688206972579579,-0.3905364003932631,-0.6350231070396617,1.6000485837480916,1.610994118067634,0.1524122437109451,-0.7985285865280162,-0.4540860148775245,0.8776702902228339,0.3093764693707354,-0.3585928128206739,0.7389198421567045,11.40545953226956,-0.848743151933638,0.1166397232416897,-1.0972231195317312
0.9,-0.6289857051315573,1.5743477310867926,1.5974811904110482,0.0492757765964009,0.1048718408839949,0.0246363102656079,0.1504626730712793,-0.694711699033022,-0.377766768667669,-0.6322938761261023,1.5852780120354126,1.6018414026143617,0.1630460423995953,-0.8385285871240626,-0.4517195096867943,0.7625255989263616,0.2607832191964407,-0.3252363226721511,0.6384815862797016,11.40545953226956,-0.8527220286955542,0.1195308307408407,-1.0919448432066587
0.92,-0.6260862162383132,1.5610940925241965,1.590410668589204,0.0483301926566256,0.1025480644071098,0.0239672715264411,0.1544105087498314,-0.7002093661848784,-0.3671264259435225,-0.6290329552781104,1.568507440292931,1.5928070124206255,0.1736798410882454,-0.8785285877201091,-0.4493530044960642,0.6305288334896898,0.1973917839276015,-0.27488335759282,0.5320171362073273,11.274706678161238,-0.8568123999809867,0.1213109511052095,-1.0869435284903115
0.94,-0.6229637968833848,1.5470362421806003,1.583183158948854,0.0484584748984814,0.1000725709921881,0.0233510466991238,0.1575257612252871,-0.7053955058953927,-0.3561871072688841,-0.6257720344301185,1.55173686855045,1.5837726222268895,0.1843136397768955,-0.9185285883161556,-0.4469864993053342,0.6250390710749596,0.1557626237727857,-0.2593069855257146,0.5469659337319216,11.17238459238706,-0.8611517420512859,0.1217228544383522,-1.0820644052747737
0.96,-0.6197893740736595,1.5328665765891694,1.5761711672185266,0.0496805175353204,0.097815294186592,0.0228281938462357,0.1596866200911235,-0.7113725890352645,-0.3455467669082047,-0.6222452686149104,1.5339662967930676,1.574797394662922,0.1949474384655456,-0.958528588912202,-0.444619994114604,0.619700889321022,0.1080429432918195,-0.2988541569935887,0.5320170180339701,11.15359629563318,-0.865155848268536,0.1210639751531251,-1.0776318222856085
0.98,-0.6167421274650112,1.5192854299379823,1.5697048436862344,0.0514867754853294,0.0960784150143281,0.0223999031077654,0.1609195811308699,-0.717938208133871,-0.3356405419009557,-0.6184526578324859,1.515195725020784,1.5658813297287226,0.2055812371541958,-0.9985285895082484,-0.442253488923874,0.5974128408558089,0.0616480519873216,-0.3282809549303267,0.4953112503624457,11.133139322817442,-0.8690094162621299,0.1195981288933443,-1.0734138638729018
1.0,-0.6135141026962306,1.5048433715913618,1.5631001276680934,0.0536931716958483,0.0948107200465935,0.0220017153608851,0.1618395153291692,-0.7260511887612525,-0.3253554958465797,-0.6086961484084678,1.483388519531289,1.5529228165911866,0.1809357279546337,-0.8179382096239871,-0.3116476644473901,0.6565990137254708,0.0459967099149666,-0.4056490313690764,0.5142523027188012,11.118273407496416,-0.8726372112025303,0.1178155547571017,-1.0693669967491437
1.02,-0.6102357446129626,1.4901476223645538,1.5568178711522864,0.0533723601541243,0.0933696196319612,0.0214240295307107,0.1657881809703943,-0.7420407294142544,-0.3033042933108038,-0.6086961484084678,1.483388519531289,1.5529228165911866,0.1809357279546337,-0.8179382096239871,-0.3116476644473901,1.3761476155503818,0.1974332820612559,-0.7994770326500922,1.1025601267887957,11.106190314592824,-0.8815967703870685,0.1183953979814242,-1.0601814394509144
1.04,-0.606887883617357,1.4751713204175798,1.5509755762051367,0.0497935725780765,0.0912190869410587,0.0206012555173282,0.1686718899106388,-0.7541873703918581,-0.2820026776557083,-0.6086961484084678,1.483388519531289,1.5529228165911866,0.1809357279546337,-0.8179382096239871,-0.3116476644473901,1.234519637154729,0.1441854470122239,-0.6073320488801881,1.0650807827547737,11.771489140041922,-0.8874511539683964,0.1235135644444528,-1.0518798527784674
1.06,-0.6036675858754228,1.4607664482254392,1.5458020038739977,0.0454737737032098,0.0887976890718105,0.0197653224384603,0.1700691421918818,-0.7614094504451482,-0.2636223854343625,-0.6068867911289214,1.4752091374350491,1.5498063399467126,0.1849389573193865,-0.8379382099220103,-0.306849088956677,0.9898811751614855,0.069862614062148,-0.3611040026645029,0.9190146110672898,11.771489140041922,-0.8934000179201276,0.1298057690012854,-1.0431303046198044
1.08,-0.6002644336157029,1.4454848341390345,1.5407167273508071,0.0414236281422817,0.0861929791475301,0.0189501758452117,0.1700495448002093,-0.7664628926136872,-0.2459439191384645,-0.6032680765698287,1.4588503732425695,1.5435733866577648,0.1929454160488921,-0.8779382105180568,-0.2972519379752508,0.9193283314242684,-0.0009798695836227,-0.252672108426949,0.8839233147949029,11.49583826028811,-0.8993460828978294,0.1354313749375408,-1.0345394554019345
1.1,-0.5968789873217357,1.4301182782339703,1.535964992529668,0.0384094720185208,0.0839828770058044,0.0182535690056225,0.16842967201529,-0.7702161585094592,-0.2300990738467183,-0.599649362010736,1.4424916090500897,1.537340433368817,0.2009518747783976,-0.9179382111141032,-0.2876547869938246,0.818184140403397,-0.0809936392459673,-0.1876632947886036,0.7922422645873075,11.49583826028811,-0.904274518149393,0.1396335406802685,-1.0273246949221235
1.12,-0.5935391379951374,1.414684129397019,1.531516099093257,0.0364937143254593,0.0825965874560465,0.0176895268895352,0.1657213578623909,-0.7732842977688261,-0.2155699840874367,-0.5956303245151681,1.4241328448278077,1.5315873376289406,0.2089583335079031,-0.9579382117101496,-0.2780576360123983,0.7547232825660727,-0.1354157076449522,-0.1534069629683443,0.7264544879640802,11.380854904098667,-0.9090950075972308,0.1429040807386894,-1.0202548680131078
1.14,-0.5904188508151057,1.3999709930830715,1.527554216095314,0.0357807663118679,0.0820941226081522,0.0172785820041966,0.1629424938936579,-0.7755015219307311,-0.2021857333317054,-0.5916112870196002,1.4057740806055254,1.525834241889064,0.2169647922374087,-0.9979382123061962,-0.2684604850309721,0.6924166668869861,-0.1389431984366543,-0.1108612080952475,0.6692125377865676,11.292471078796552,-0.9131677798238812,0.1448548593368915,-1.0142195432264614
1.16,-0.5871893759225766,1.3844340100516983,1.523657143523309,0.0361901473386963,0.0822773053255801,0.016967908880042,0.1602140715447171,-0.778153063134376,-0.188222658572318,-0.5873920880557946,1.386415316368342,1.5203210749237233,0.2249712509669142,-1.0379382129022423,-0.2588633340495458,0.7236062741661823,-0.1364211174470372,-0.1325770601822484,0.6981537379693661,11.258564387670049,-0.916498389199433,0.1456474058855839,-1.0090589531210803
1.18,-0.5840111488379714,1.368838909414259,1.5200377931177238,0.0375904366353701,0.0830038243835247,0.016760421274406,0.1578077814168739,-0.7812917615663588,-0.1744094090753633,-0.5829727276237514,1.3660565521162578,1.515047836732918,0.2329777096964198,-1.0779382134982889,-0.2492661830681196,0.718414089664531,-0.1203145063921592,-0.1569349215991389,0.6906624748477364,11.243196212275508,-0.9191153705348304,0.1456164281329203,-1.0047079801594212
1.2,-0.5808767314008588,1.3531727713545956,1.5166937044211433,0.0397477312296033,0.0840972800062969,0.0166335426330235,0.1558200100924093,-0.7852397273326107,-0.1606794961003032,-0.5761207597671277,1.329774321335941,1.5113173226639556,0.1782978671229887,-0.8812917630564749,-0.1670074486391086,0.7211937652818841,-0.0993885662232324,-0.1973982883125946,0.686495648753005,11.226567119805622,-0.9214290885619558,0.1448667336651025,-1.0007109443128308
1.22,-0.5779229514186423,1.3381455326923588,1.513761486056411,0.0402241202206941,0.085066370982623,0.0164140842361192,0.1551527237735049,-0.7955332231762391,-0.1486232098482302,-0.5761207597671277,1.329774321335941,1.5113173226639556,0.1782978671229887,-0.8812917630564749,-0.1670074486391086,0.7933400372887351,-0.0333643159452168,-0.5146747921814188,0.6028143126036514,11.216305276259844,-0.9238480139066906,0.1456010019053518,-0.9963764735059112
1.24,-0.5748301558136544,1.3221550124758203,1.5109163913728874,0.0384490188424364,0.085803493385421,0.0160292861924527,0.1541496121596529,-0.8028721106122402,-0.1365429538914972,-0.5761207597671277,1.329774321335941,1.5113173226639556,0.1782978671229887,-0.8812917630564749,-0.1670074486391086,0.7085162060396409,-0.0501555806926012,-0.3669443718000542,0.6040127978366505,11.160517051812349,-0.9256800245924004,0.1481613370616416,-0.9928076100931228
1.26,-0.571760456693072,1.3060399340021986,1.508301185717205,0.0357227241674469,0.0864391041701723,0.0155926363247941,0.1528717879220864,-0.8080664653841313,-0.125623140977661,-0.5743377810958978,1.3209614037053763,1.5096472481775645,0.1823958842642117,-0.901291763354498,-0.1655270565518576,0.6079812298738396,-0.063891211878328,-0.2597177385945559,0.5459906456918059,11.107237488929968,-0.9273871844987164,0.1516252346168349,-0.9891985785043196
1.28,-0.5687190454958194,1.289849959954783,1.5058909854187628,0.0332042856933141,0.0871027704066785,0.0151905531850842,0.1513673983709439,-0.810844899979503,-0.1159356825211099,-0.570771823753438,1.3033355684442467,1.5063070992047825,0.1905919185466575,-0.9412917639505446,-0.1625662723773557,0.5094843914923933,-0.0752194775571243,-0.1389217297685874,0.4843729228275577,10.946905584633896,-0.9286985526285018,0.1547189540775829,-0.986127721074088
1.3,-0.565858623218575,1.274431238008116,1.5037712220380837,0.0316378656036443,0.0878361171072417,0.014886700964209,0.1498458716199309,-0.812275288907527,-0.1076810151093884,-0.5672058664109783,1.285709733183117,1.5029669502320002,0.1987879528291035,-0.9812917645465912,-0.1596054882028538,0.425736392083173,-0.0760763375506484,-0.071519446401197,0.4127333705860762,10.883361420322217,-0.929821376345326,0.1571001039545962,-0.9833938255996482
1.32,-0.5628784474007383,1.2581803418564603,1.5017029975691445,0.0312320759284758,0.0887562794783632,0.0146750772697304,0.1482908062409965,-0.8128747658385636,-0.0996029242270276,-0.5632301073543962,1.2660838978921856,1.4997748404679432,0.2069839871115494,-1.0212917651426374,-0.1566447040283519,0.4124110607976124,-0.0777532689467189,-0.0299738465518284,0.4039045441180361,10.883361420322217,-0.930705654448149,0.1582217463254693,-0.981216236905465
1.34,-0.5599278981996298,1.24192371792427,1.4997910575362523,0.0325203273984321,0.0898338544041438,0.0146023746435217,0.1468874341923219,-0.8129410350514978,-0.0920148707097375,-0.5592543482978142,1.2464580626012538,1.496582730703886,0.2151800213939953,-1.061291765738684,-0.15368391985385,0.385851010419965,-0.0701686024337316,-0.0033134606467144,0.3794026758645062,10.842960062249404,-0.9312864482441932,0.1578337469685337,-0.9796865067953808
1.36,-0.5570017740581448,1.225653948021691,1.4980279757358113,0.0354284869021177,0.0910163512052278,0.0146605971058532,0.1458430157802091,-0.8143915051472083,-0.0846757968031214,-0.5550736883841709,1.2258322272954207,1.4934646405441916,0.2233760556764412,-1.1012917663347304,-0.1507231356793481,0.3776793584672198,-0.0522209206056376,-0.072523504785521,0.3669536953308072,10.81192341865608,-0.9317915579453088,0.1559705823311669,-0.9784413249532
1.38,-0.5542373000493435,1.2101431426899771,1.4964887947472745,0.0386927498031971,0.0921532196609075,0.0147640446899763,0.1452343967743834,-0.8183196780257455,-0.0777096018170558,-0.5506881276134666,1.2042063919746866,1.4904205699888595,0.2315720899588871,-1.1412917669307767,-0.1477623515048463,0.4010262829348371,-0.030430950291288,-0.1964086439268597,0.3483097493032792,10.79741956395901,-0.9323489763191536,0.1534493259840128,-0.9774192161986832
1.4,-0.5513361107116954,1.1937185538632795,1.4950125053716303,0.0418307260397073,0.0932947982168565,0.0148627496637189,0.1449426731685591,-0.8239084553107069,-0.0702763511109452,-0.5469755802106243,1.1692271587886898,1.4926033146564217,0.1687327363528927,-0.9183196795158616,-0.078694778352379,0.4652223937618145,-0.0145861802912122,-0.2794388642480716,0.371662535305528,10.800217778516526,-0.9330111228751794,0.1511404704327766,-0.9763548903319598
1.42,-0.5484220066198244,1.1770907694535178,1.4937139918729072,0.0418074617700046,0.0939563274320543,0.014734378823109,0.1463584660294644,-0.8372884426982957,-0.0598889418765802,-0.5469755802106243,1.1692271587886898,1.4926033146564217,0.1687327363528927,-0.9183196795158616,-0.078694778352379,0.8498923498290799,0.0707896430452659,-0.6689993693794416,0.5193704617182503,10.808091132144,-0.9356622297064204,0.1514730686967251,-0.9731490415467536
1.44,-0.5454867150406693,1.1602498570997914,1.492617728104967,0.0383254546140946,0.094011327769447,0.0143575019803943,0.1470345576852772,-0.8456027494126549,-0.0502951290129869,-0.5469755802106243,1.1692271587886898,1.4926033146564217,0.1687327363528927,-0.9183196795158616,-0.078694778352379,0.6356611544863089,0.0338045827906377,-0.4157153357179588,0.4796906431796671,11.012887402154774,-0.9373333780317632,0.1552448363192096,-0.969976670265624
1.46,-0.5426935751149312,1.1441462855379283,1.4917368410879686,0.034298511089692,0.0938349490491358,0.0139611890695831,0.1469346726361519,-0.8491064705460286,-0.042898892174653,-0.5452882528470954,1.1600439619935312,1.4918163668728976,0.1734324042685946,-0.9383196798138848,-0.0788918136594437,0.4092381891155065,-0.0049942524562626,-0.1751860566686858,0.3698118419166944,10.925491364338995,-0.938809386658539,0.1599251220983321,-0.9666772038648936
1.48,-0.5397619188444482,1.1271507218686363,1.4909459958120066,0.0307900929540969,0.0936610668180649,0.0136175312310355,0.146228953849458,-0.8504486223467671,-0.0366498974321955,-0.5419135981200376,1.141677568403214,1.4902424713058502,0.1828317400999983,-0.9783196804099312,-0.079285884273573,0.3215172847351296,-0.0352859393346977,-0.0671075900369244,0.3124497371228763,10.806698196265645,-0.9398729980433432,0.163739652220412,-0.9641341288463022
1.5,-0.5368495645884634,1.110141696732458,1.4902635673979785,0.0285376630979603,0.0936936143075563,0.0133883568053518,0.1450861207902532,-0.8507707807896169,-0.0319046553635754,-0.5385389433929797,1.1233111748128968,1.4886685757388023,0.192231075931402,-1.0183196810059778,-0.0796799548877023,0.2445770622590792,-0.0571416529602408,-0.0161079221424886,0.2372621034310039,10.707415659956496,-0.9405111983991308,0.1662025860233201,-0.962407611477768
1.52,-0.5341060028501321,1.0939836474384288,1.4896938411300615,0.0276613375721908,0.0940091402313392,0.0132833341593705,0.1438193612189129,-0.8503016480930072,-0.0283040471473477,-0.5346943218743516,1.1029447811927773,1.4870749766410485,0.2016304117628058,-1.0583196816020242,-0.0800740255018316,0.1922832859700537,-0.0633379785670143,0.0234566348304821,0.1800304108113829,10.62354421705004,-0.9409105426765102,0.1674863130307209,-0.9612520648651984
1.54,-0.5312436041215927,1.07699120336933,1.4891639111638375,0.0284245132706885,0.0946674230312009,0.0133140425145129,0.142537318147317,-0.8491525470867474,-0.0248957147437909,-0.5308497003557237,1.0825783875726578,1.4854813775432945,0.2110297475942095,-1.0983196821980707,-0.0804680961159609,0.1909240512163805,-0.0641021535797967,0.0574550503129933,0.1704166201778413,10.568094190677584,-0.9410144587079212,0.1671744669759878,-0.960747858449848
1.56,-0.5284035388553243,1.060012911439939,1.488700271986486,0.030939340520149,0.0956015232390669,0.0134876198798272,0.1415862179662991,-0.8489219509729794,-0.0216442730300378,-0.5267700954413105,1.061211993937637,1.4838779266801871,0.2204290834256132,-1.138319682794117,-0.0808621667300902,0.1697766130828298,-0.0475550090508911,0.0115298056883983,0.1625720856876553,10.54530326530312,-0.9408997080331656,0.1653313268292703,-0.9607128499579384
1.58,-0.525577955633039,1.043013234867932,1.4883021319747138,0.0344068501666862,0.0966938824876795,0.0137441864706336,0.14106802435438,-0.8512895604416001,-0.0183384863210459,-0.5224555071311123,1.038845600287715,1.4822646240517263,0.229828419257017,-1.1783196833901637,-0.0812562373442195,0.2049531957587131,-0.0259096805959563,-0.1183804734310345,0.1652893354495959,10.536358203117745,-0.9406839429584508,0.1627131940513082,-0.9610192613729696
1.6,-0.5228989444518171,1.0267982255818005,1.487986559062666,0.0375564059130879,0.0977759895208861,0.0139896966672707,0.1409871828928905,-0.8553764185931805,-0.0150445014783347,-0.51852455441532,1.000448756845852,1.4873852076586616,0.17197334373216,-0.9512895619317162,-0.03145766421385,0.2624846711574112,-0.0040420730744727,-0.2043429075790193,0.1646992421355584,10.555587141780052,-0.9404640097590158,0.1599707410868614,-0.9614600820402402
1.62,-0.5200722356053618,1.0095686828308286,1.4877456443146957,0.0382220185136924,0.0988368578155873,0.0140716150457365,0.141712328595285,-0.866635897171668,-0.0090555463664399,-0.51852455441532,1.000448756845852,1.4873852076586616,0.17197334373216,-0.9512895619317162,-0.03145766421385,0.6386886516163636,0.0362572851197201,-0.5629739289243763,0.2994477555947404,10.555587141780052,-0.9414265463414352,0.1594417134928073,-0.9605857775732644
1.64,-0.5172324794312814,0.99215527756901,1.4876207360419271,0.0356806580825988,0.099829384008185,0.0139406867581631,0.1422407911007324,-0.8739087148110934,-0.0037975355954656,-0.51852455441532,1.000448756845852,1.4873852076586616,0.17197334373216,-0.9512895619317162,-0.03145766421385,0.4494992388861276,0.0264231252723734,-0.3636408819712722,0.2629005385487138,10.657821807616529,-0.941232441319188,0.1620142095430885,-0.9600314314771472
1.66,-0.5143840758269714,0.9746384611127152,1.4875819193684956,0.0321168787049798,0.1008863910931252,0.0137551848481445,0.1426208465917025,-0.8772829424227936,-0.0003370407968439,-0.5168048209779984,0.9909358612265348,1.4870706310165231,0.178154407607716,-0.9712895622297396,-0.0340814997924108,0.2424091500081207,0.019002774548503,-0.1687113805850071,0.1730247399310839,10.546354550679098,-0.9405778786836578,0.1653926736420918,-0.9597225674327629
1.68,-0.5116715310779072,0.9579627761840718,1.4875934039877623,0.029253349807068,0.1019951175446292,0.0136318495647129,0.1429440431126807,-0.8781384703160074,0.0013666468073347,-0.5133653541033552,0.9719100699879004,1.486441477732246,0.1905165353588279,-1.011289562825786,-0.0393291709495325,0.0966816350176127,0.0161598260489129,-0.0427763946606929,0.085184380208935,10.546354550679098,-0.9394509312087204,0.1684598765661077,-0.9599376480936628
1.7,-0.5088085725351996,0.9404034348384362,1.487627733849791,0.0273341810711495,0.1032970157869658,0.013595318901411,0.1433846571794176,-0.8779714488908427,0.0019128938045855,-0.509925887228712,0.9528842787492662,1.485812324447969,0.2028786631099399,-1.0512895634218324,-0.0445768421066542,0.036070164065193,0.0220307033368435,0.008351071258239,0.0273123498625392,10.447817143073737,-0.9379695013344886,0.1704135622547237,-0.9608318501895508
1.72,-0.5059345244840456,0.9228555880907616,1.4876625235125374,0.0268210039089574,0.1047324245866284,0.0136729293591921,0.1440523786039411,-0.8769769953121302,0.0014955504672704,-0.5058683139665132,0.9318584874808296,1.484920787605836,0.2152407908610519,-1.0912895640178788,-0.0498245132637758,0.0634224976286599,0.0333860712261768,0.0497226789356208,-0.0208671668657531,10.37506649947136,-0.9362068086036668,0.1710083027813232,-0.962372858276268
1.74,-0.5030436795938572,0.9053356418483336,1.487683480057859,0.0281546628074484,0.1062657732993413,0.0138935315504589,0.1450630446566178,-0.8753729005401899,0.0006142004468451,-0.5018107407043144,0.9108326962123928,1.484029250763703,0.2276029186121639,-1.1312895646139254,-0.0550721844208975,0.1045387938267794,0.0505333026338344,0.0802047385970172,-0.0440675010212665,10.324013235635904,-0.9343706048069612,0.1699882726847215,-0.9643483365359804
1.76,-0.5002729232909187,0.8887090197126398,1.4876863515115066,0.0310134068858084,0.1077140591462429,0.0142237957084216,0.1465808166484815,-0.875218943676968,-0.0002796867184981,-0.4974441142483378,0.888806904929055,1.4830065221426418,0.2399650463632759,-1.1712895652099715,-0.0603198555780191,0.0884077032755677,0.0758885995931824,0.0076978431610974,-0.0446943582671639,10.303547358197648,-0.9325107154497912,0.167434525976318,-0.9665863032046754
1.78,-0.497319613804372,0.8711805101839953,1.4876718856935625,0.0346395748051142,0.1091076104691642,0.0146198040881799,0.1487026006184125,-0.877778176528222,-0.0011198180175091,-0.4927684345985834,0.8657811136308161,1.4818526017426523,0.2523271741143879,-1.211289565806018,-0.0655675267351408,0.1714457684048518,0.106089198496552,-0.1279616425627017,-0.0420065649505483,10.303250156128342,-0.9307593076689484,0.1641429271242821,-0.9689917526304658
1.8,-0.4943188057642242,0.8535805541969149,1.4876425171014045,0.0379738536295133,0.1102797016725067,0.0149959687918248,0.1512876126825531,-0.8820545829851496,-0.0017680267208627,-0.4898844837734514,0.8272916013575843,1.487615894792687,0.1992862090669179,-0.977778178018338,-0.007479633149382,0.2519430197470656,0.1292506032070303,-0.2138203228463808,-0.0324104351676824,10.316268020276766,-0.9292408349917312,0.1610255783701919,-0.9712150842015432
1.82,-0.4912642178307637,0.8358036329790437,1.4876900172136978,0.0381985190543066,0.1115749055932343,0.0151679642803976,0.1541399222848406,-0.8941356591971882,0.0066002068665558,-0.4898844837734514,0.8272916013575843,1.487615894792687,0.1992862090669179,-0.977778178018338,-0.007479633149382,0.7485242245278168,0.1426154801143733,-0.6040538106019289,0.4184116793709339,10.333299828615054,-0.930484324357608,0.1601119904070991,-0.9710541266650567
1.84,-0.4883075700471235,0.818737728054088,1.487887292956041,0.0352189433766328,0.1132044996744162,0.0151318346825718,0.1570314288591262,-0.9012902804776682,0.0137399261698258,-0.4898844837734514,0.8272916013575843,1.487615894792687,0.1992862090669179,-0.977778178018338,-0.007479633149382,0.525654372343939,0.1445753287142789,-0.3577310640240028,0.3569859651634969,10.911450855503062,-0.9298497288401528,0.1635902573645161,-0.9704665532106364
1.86,-0.485132410763944,0.8006780993541959,1.4882242418575515,0.0311883831087813,0.1152321553429934,0.0150496816826211,0.1604099710408942,-0.9041972105143388,0.0194897390450822,-0.4878916216827822,0.8175138195774009,1.4875410984611932,0.209402930756619,-0.9977781783163612,-0.0087515961757566,0.3637483251251733,0.1689271090883987,-0.1453465018335265,0.2874906437628218,10.80914714464052,-0.9283068061090926,0.1680245993070281,-0.970462060446118
1.88,-0.4818855069878959,0.7825913625592058,1.4886544221161346,0.0279009391791092,0.1174446330496459,0.0150317406014887,0.1642021281356868,-0.9046328389875786,0.0232341654892134,-0.4839058975014438,0.7979582560170342,1.4873915057982054,0.2296363741360212,-1.037778178912408,-0.0112955222285057,0.2673525621431021,0.1896078547396318,-0.0217814236619928,0.1872213222065605,10.687561896844272,-0.9261320966783204,0.171571884533237,-0.9712850644935416
1.9,-0.4787258664879237,0.7654120800336949,1.489118355158677,0.0259085526777035,0.1195968730373201,0.015101356123659,0.1682696195489066,-0.9040334906934698,0.0254017285971915,-0.4799201733201055,0.7784026924566674,1.487241913135218,0.2498698175154233,-1.0777781795084542,-0.0138394482812549,0.2323899449273563,0.2033745706609913,0.0299674147054396,0.1083781553989056,10.575114208606465,-0.9234557774417425,0.1740998203634116,-0.9728915248001294
1.92,-0.4753112474456273,0.7473473932454101,1.4896417557388328,0.025185799000488,0.1218217769020068,0.0152769339729066,0.173040407713733,-0.9026206647998648,0.0267768148416038,-0.474922776969797,0.7568471288664983,1.4869651241695927,0.2701032608948255,-1.1177781801045006,-0.016383374334004,0.2581053994924381,0.23853940824132,0.0706412946802514,0.0687543122206148,10.493816407226404,-0.9206158825670132,0.1753047182453291,-0.9749404819961192
1.94,-0.4717949504371234,0.7293180225570883,1.4901893784163829,0.0262718611471631,0.1239215594189041,0.0155839078894429,0.1784057507278131,-0.9005844467380202,0.0279044222605556,-0.4699253806194886,0.7352915652763291,1.4866883352039677,0.2903367042742277,-1.1577781807005472,-0.0189273003867532,0.2924234435941968,0.2682671507040046,0.1018109030922309,0.0563803709475878,10.437616109265946,-0.9178583509535176,0.1748077549743776,-0.977287665777869
1.96,-0.4681622938725985,0.7113190708727207,1.4907605348013042,0.0291451396264122,0.1257262430120578,0.0160161678830225,0.184600789951335,-0.8997437163646325,0.0291420786411563,-0.464422148184695,0.712736001671259,1.486347948087024,0.3105701476536298,-1.1977781812965935,-0.0214712264395023,0.3186578567137211,0.309751961176094,0.042036518669386,0.0618828190300372,10.437616109265946,-0.9155618230225206,0.1729024522222453,-0.979375673899356
1.98,-0.4645899093616823,0.6942078253255298,1.4913288895603691,0.0325795031131211,0.1270083939512566,0.0164697810120934,0.1911077374345299,-0.901607058286563,0.030613654257653,-0.4584130796654164,0.6891804380512876,1.4859439628187612,0.330803591033032,-1.23777818189264,-0.0240151524922515,0.3463305626931734,0.325347374159747,-0.0931670960965247,0.0735787808248317,10.447964807384778,-0.9135881579475014,0.1700830763486248,-0.9814081123105616
2.0,-0.4606922519548286,0.6761383550809446,1.491960293159252,0.0359713339743812,0.1278392835475885,0.0169189794872152,0.1982959593557065,-0.9052337457317376,0.0324627849923714,-0.4550345224899558,0.6491274724112017,1.4928595722732518,0.2408570224172112,-0.960770010292426,0.0271697805374094,0.4130456412043067,0.3594110960588287,-0.181334372258729,0.0924565367359225,10.47291720989142,-0.9121892498689638,0.1673878758093864,-0.9829419877177488
2.02,-0.4566099680460715,0.6577827121459712,1.492678425174598,0.0323148629955133,0.1271893922280449,0.0168313310433176,0.209576708497746,-0.9273705509690356,0.0396712401912075,-0.4550345224899558,0.6491274724112017,1.4928595722732518,0.2408570224172112,-0.960770010292426,0.0271697805374094,1.293498428365222,0.5640374571019735,-1.1068402618649054,0.3604227599418027,10.496673863036447,-0.9172491990150182,0.1713946319886712,-0.9771349989003206
2.04,-0.4523094057594143,0.6391464460591599,1.4935495661481912,0.0213286817288298,0.1241258308717866,0.0161979161887563,0.2196943548696489,-0.9340068775689876,0.0470484262496012,-0.4550345224899558,0.6491274724112017,1.4928595722732518,0.2408570224172112,-0.960770010292426,0.0271697805374094,0.7085733430426748,0.5058823185951467,-0.3318163299975973,0.3688593029196854,10.89528821676322,-0.91956004003815,0.1812522120301908,-0.9728528926425668
2.06,-0.4480589593764495,0.6214174825568921,1.49448747681435,0.0102493267932675,0.1195093893051408,0.0155891491928926,0.2270050906368418,-0.9319010103279934,0.0513241844894592,-0.4526259522657836,0.6395197723082775,1.493131270078626,0.2508068794137474,-0.9726026006935988,0.0264810057933607,0.4363589199847962,0.3655367883596438,0.1052933620497076,0.2137879119928999,10.7942994463383,-0.9225537417031824,0.192921519146892,-0.9666914082783908
2.08,-0.4434688222349009,0.6028494705456606,1.4955371798653112,0.0001808718065374,0.1137827747776434,0.0151411860616254,0.2313652007760692,-0.9252439020920934,0.053307244535618,-0.4478088118174395,0.620304372102429,1.4936746656893742,0.27070659340682,-0.996267781495944,0.0251034563052633,0.4100615125726667,0.2180055069613717,0.3328554117950022,0.0991530023079386,10.447829158745662,-0.9260409727923848,0.202942733087641,-0.9604295563230092
2.1,-0.4388275916746602,0.5844449893066546,1.496599940627378,-0.0074562927713526,0.1083584523306782,0.0149436409648892,0.2324361713148689,-0.9161391627518516,0.0528857624656748,-0.4429916713690952,0.6010889718965804,1.4942180613001224,0.2906063073998925,-1.0199329622982891,0.0237259068171658,0.4588597375124756,0.0535485269399824,0.4552369670120904,-0.0210741034971585,10.447829158745662,-0.9292715045233092,0.2105501304304374,-0.9550880499894104
2.12,-0.434195961343698,0.5662339580251191,1.497638255427596,-0.0127289585638087,0.1043114700929406,0.0149572917205563,0.2305979301991952,-0.9060145688400512,0.0509770892694413,-0.4371795452210973,0.5806903126506147,1.4946925794364656,0.310506021392965,-1.0435981431006347,0.0223483573290684,0.5232818687099713,-0.0919120557836855,0.5062296955900214,-0.0954336598116754,10.324354841108288,-0.9310007150112304,0.2154980965811514,-0.9521585241456704
2.14,-0.4298526616754858,0.5491240283696863,1.498583494484626,-0.0158188555667584,0.1027199984856975,0.0151060636686686,0.2268108733115025,-0.8960364512666263,0.0486279004822312,-0.4313674190730995,0.5602916534046488,1.495167097572809,0.3304057353860375,-1.0672633239029798,0.020970807840971,0.5464048822477325,-0.1893528443846354,0.4989058786712408,-0.1174594393605028,10.229439000852835,-0.9318154912652974,0.2188634704615419,-0.950521341165978
2.16,-0.4253522381068574,0.5313114904991858,1.4995300383350505,-0.0175576402683582,0.1035635625166006,0.0153450062946071,0.2237105168346408,-0.8859368738782392,0.0461563282362295,-0.4250578000752749,0.5393013646386244,1.49560717697195,0.35030544937911,-1.0909285047053252,0.0195932583528735,0.5424996384211821,-0.1550178238430816,0.5049788694193591,-0.1235786123000841,10.229439000852835,-0.931447584719472,0.220900776068515,-0.95024266734011
2.18,-0.4208959423801738,0.5137037960851748,1.5004296693556134,-0.0179322198837701,0.1061745429015595,0.0156587578916128,0.2223223962124402,-0.8755432479126087,0.043929562010203,-0.4182506882276234,0.5177194463525414,1.4960128176338885,0.3702051633721825,-1.1145936855076704,0.0182157088647761,0.5359870040415584,-0.0694060311100322,0.5196812982815213,-0.1113383113013271,10.223897336900336,-0.9292623656028848,0.2217364769086308,-0.9520294696919908
2.2,-0.4166697474396787,0.4971708622175935,1.5012468342012264,-0.0169471062829932,0.1095529233069128,0.0160438663013926,0.2227680110694773,-0.8654656463914584,0.0421942256521789,-0.4097798225695518,0.4699266336895443,1.5026261474561236,0.2748202711578423,-0.8785484605511359,0.0485390783663434,0.5117812454930918,0.0222807428518559,0.5038800760575168,-0.0867668179012043,10.23519362751722,-0.925815746079008,0.2214256400580238,-0.95525212460413
2.22,-0.4121659378880035,0.4797716467727994,1.502125998750404,-0.0208907317165465,0.1127897154370416,0.0161173094560001,0.2276213565071212,-0.872440505170913,0.0460357317475054,-0.4097798225695518,0.4699266336895443,1.5026261474561236,0.2748202711578423,-0.8785484605511359,0.0485390783663434,0.4662638362849512,0.2426672718821951,-0.3487429389727292,0.1920753047663231,10.257749941981274,-0.9259384497616936,0.2256203932431651,-0.953697930659674
2.24,-0.4075623019996462,0.4623722690008567,1.503085265447999,-0.0306863099279059,0.1149564826205567,0.0158080525473691,0.2324430273737408,-0.8662637228174653,0.0496142090594338,-0.4097798225695518,0.4699266336895443,1.5026261474561236,0.2748202711578423,-0.8785484605511359,0.0485390783663434,0.4307164091947772,0.2410835433309818,0.3088391176723826,0.1789238655964194,10.59692845155223,-0.9227795370189597,0.2347805379598381,-0.9544940820722592
2.26,-0.4028662164350791,0.4451862503185674,1.5040954474152288,-0.0408150062373757,0.116401454404715,0.0155061751710009,0.2369043754775505,-0.8527060862963282,0.0512162873966902,-0.4070316198579733,0.461141149084033,1.503111538239787,0.2853198461469228,-0.8791495030788413,0.0494609816375715,0.7181221865764641,0.2230674051904829,0.6778818260568586,0.0801039168628201,10.54709228729007,-0.9202281965745404,0.2443831776171293,-0.9538183642901608
2.28,-0.3983258197568562,0.4291518139508959,1.5050694240166589,-0.0489565287756672,0.1173537918136503,0.015354058403554,0.2408143061485005,-0.836207886315824,0.051237685304383,-0.4015352144348165,0.4435701798730103,1.5040823198071138,0.3063189961250836,-0.8803515881342522,0.0513047881800276,0.8477597217354648,0.1954965335475011,0.8249099990252085,0.0010698953846418,10.374879258199144,-0.9178863557200942,0.2535051434050914,-0.9525229335736488
2.3000000000000003,-0.3934688411646871,0.4126299373701235,1.506086187006632,-0.0555132864925444,0.1181400167170156,0.0153629771808241,0.2446902065285187,-0.8171658941936772,0.0504174693040657,-0.3960388090116596,0.4259992106619875,1.5050531013744408,0.3273181461032445,-0.881553673189663,0.0531485947224838,0.9724875603611856,0.1937950190009085,0.9520996061073372,-0.0410108000158674,10.374879258199144,-0.9157135620021488,0.2608497979227419,-0.951423085345831
2.32,-0.3885353314518512,0.3965005341747596,1.5070817267981944,-0.0600195382221294,0.1188690944893005,0.0155364803100474,0.2484950301909133,-0.79709169997404,0.0491843929309205,-0.3894924460895947,0.4083681371981942,1.5061160732688903,0.3483172960814054,-0.8827557582450739,0.0549924012649399,1.0234383640596614,0.1902411831197312,1.003709710981865,-0.0616538186572604,10.337708948904035,-0.9136198850558778,0.2664001465184588,-0.9506944571419268
2.34,-0.3835248080588876,0.3807768480504158,1.5080545359411697,-0.0626832664798257,0.1196298783097658,0.0158534268034952,0.2524056903872083,-0.7766337126651851,0.0481944582158532,-0.3829460831675298,0.390737063734401,1.5071790451633402,0.3693164460595662,-0.8839578433004848,0.0568362078073961,1.042595893239858,0.1955330098147495,1.022899365442742,-0.0494967357533619,10.345753531474656,-0.9116800715766868,0.2701350334780265,-0.950406065640021
2.36,-0.3786881487569311,0.3662226624911428,1.5089654087971804,-0.0636353372466531,0.1203428938190259,0.0162790833999726,0.2565378037238001,-0.7567065251267848,0.0477526338118123,-0.3758747414960109,0.3730759381442224,1.5082881122213512,0.3903155960377271,-0.8851599283558956,0.0586800143498522,1.0177946411494578,0.2066056668295901,0.996359376920014,-0.022091220202048,10.345753531474656,-0.9099770673533356,0.2727631880986977,-0.9499355743229756
2.38,-0.3735084277806569,0.3513141354676437,1.509920998097518,-0.0628914698474641,0.1209764564052801,0.0168688371260928,0.2612318492789554,-0.7353725850148022,0.047870531949098,-0.368278421075038,0.3553847604276586,1.5094432744429238,0.4113147460158879,-0.8863620134113065,0.0605238208923084,1.0922281862622738,0.2347022777577645,1.066697005599132,0.0058949068642892,10.378278332082118,-0.908463886376141,0.2740233706552181,-0.9494134045658936
2.4,-0.3682313165204102,0.3368340941716665,1.5108862770160305,-0.0601045253212526,0.1214135955799453,0.0176231035714268,0.2662503441030366,-0.7140291637940973,0.0487062649211363,-0.3604468353167092,0.3145455062169036,1.5123145246949727,0.2891704480458784,-0.7258537027550757,0.0498746219471794,1.0970703820907717,0.2509247412040588,1.0671710610352436,0.0417866486019106,10.414964442606106,-0.9072059139444564,0.2736087186908022,-0.9489871304434808
2.42,-0.3627751622428311,0.3227107270688557,1.511847770189273,-0.0572514537259493,0.1190459398884815,0.0185515259089949,0.2788200629630709,-0.6988023631187824,0.0473739824275028,-0.3604468353167092,0.3145455062169036,1.5123145246949727,0.2891704480458784,-0.7258537027550757,0.0498746219471794,0.989479999379616,0.6284859430017137,0.761340033765745,-0.0666141246816749,10.454129238230053,-0.9142371804824704,0.2738871748156493,-0.9391403126638974
2.44,-0.357380414227629,0.3095881515348682,1.512742738778558,-0.0552988976457046,0.1123926523229539,0.0196281382369132,0.2877529820731341,-0.6832844359404677,0.0469383464897771,-0.3604468353167092,0.3145455062169036,1.5123145246949727,0.2891704480458784,-0.7258537027550757,0.0498746219471794,0.8955345978920194,0.446645955503161,0.7758963589157342,-0.0217817968862846,10.297594838426448,-0.9155360067711088,0.2738611636576626,-0.9368270817728966
2.46,-0.3515732323332242,0.2960954111633139,1.5136817606244075,-0.0534431539515586,0.1029311434370212,0.0208719003264429,0.2920230863190406,-0.6668708265200656,0.0470302278968378,-0.3575551308362504,0.3072869691893528,1.5128132709144446,0.2947581677992629,-0.7239499263031304,0.0502754399467956,0.8480106229720638,0.2135052122953284,0.8206804710201077,0.0045940703530394,10.341621052134542,-0.9206659925843184,0.2738812234675524,-0.93083080333005
2.48,-0.3457335541809082,0.2829294219264354,1.5146254079581174,-0.0515775698139436,0.0928939995999007,0.022131803937405,0.2914764118253937,-0.6506679107889257,0.0473584372780672,-0.3517717218753328,0.2927698951342513,1.5138107633533882,0.3059336073060321,-0.7201423733992397,0.0510770759460282,0.8107728605940607,-0.027333724682349,0.8101457865569928,0.0164104690614674,10.358684455636649,-0.927428759852802,0.2737455360910381,-0.9233199352937086
2.5,-0.339948520452384,0.2700829699570702,1.5155762694243573,-0.0496364667634696,0.0837113462937545,0.0233359982068305,0.2869674140283207,-0.6349073850894957,0.0477357265983248,-0.3459883129144153,0.2782528210791498,1.5148082557923317,0.3171090468128013,-0.7163348204953491,0.0518787119452607,0.8198591017479503,-0.2254498898536489,0.7880262849714992,0.0188644660128783,10.363466583976331,-0.9348729681370036,0.2733638130763752,-0.9151792106490408
2.52,-0.3345671429848463,0.2581658008847655,1.5164866524638048,-0.0477295601399942,0.0766762441278921,0.0243855440286297,0.2797065564438225,-0.6204183097429921,0.0480919727779971,-0.3396461319781592,0.2639261246692428,1.515845830031237,0.3282844863195705,-0.7125272675914586,0.0526803479444932,0.810524935766256,-0.3630428792249118,0.7244537673251839,0.0178123089836165,10.363361837009506,-0.9410732285981384,0.2727122216254076,-0.9085176353278877
2.54,-0.3290779450198395,0.245912396155411,1.5174516693627542,-0.0457054619290307,0.0718366388447139,0.0253565616624599,0.2694611332828178,-0.6057658756508797,0.0483915137234922,-0.3333039510419032,0.2495994282593358,1.5168834042701422,0.3394599258263397,-0.7087197146875679,0.0534819839437258,0.8940808763050674,-0.5122711580502315,0.7326217046056183,0.0149770472747539,10.365857240782134,-0.9447767242011044,0.2717799656089924,-0.9048066220838616
2.56,-0.3238152177770454,0.2339471604112607,1.5184226499301725,-0.0436783154989609,0.0704768282766534,0.0261613705525468,0.2577200400354416,-0.591571746699313,0.0487188866056816,-0.3266823841179779,0.2353679206720261,1.517941019409028,0.3506353653331088,-0.7049121617836773,0.0542836199429583,0.9211863822556232,-0.5870546623688133,0.7097064475783343,0.0163686441094702,10.371401035205054,-0.947118730842996,0.2708485440509751,-0.9024276305126384
2.58,-0.3187724021464227,0.2222614929703475,1.519403551048964,-0.0416535195324787,0.0721927080863835,0.0268303122194689,0.2475242425160836,-0.5777781788112814,0.0493759660126049,-0.3197814312063834,0.2212316019073136,1.5190186754478952,0.361810804839878,-0.7011046088797867,0.0550852559421908,0.8582665021490806,-0.5097898759678989,0.6896783944015827,0.032853970346167,10.370008954680998,-0.947421277627674,0.2699548572587294,-0.9020206230854249
2.6,-0.3141498350287215,0.2114119988308123,1.5203516981729002,-0.0397457449199229,0.0757378258394914,0.0273880168810681,0.2398404542030926,-0.565022787884141,0.0504050758930145,-0.3063961900206185,0.1933725840297835,1.521872349349594,0.2690117821501921,-0.5477339900883132,0.0512898975826208,0.74632376970218,-0.3841894156495495,0.6377695463570199,0.0514554940204768,10.37353490512578,-0.945547972214531,0.2691697411215322,-0.9037651785979992
2.62,-0.3093919871944897,0.2001641882757689,1.5213714100086717,-0.0405216292098804,0.0798233127660732,0.0277701296397105,0.2364479560842181,-0.5597292666856253,0.0514512587541949,-0.3063961900206185,0.1933725840297835,1.521872349349594,0.2690117821501921,-0.5477339900883132,0.0512898975826208,0.3186883616667279,-0.1696249059437229,0.2646760599257836,0.052309143059023,10.385662210728697,-0.94401535814037,0.2706519105302174,-0.9045201394695414
2.64,-0.3046914456185793,0.1890613560033861,1.522409941099068,-0.0453474226907398,0.0831131120873347,0.0278970461226491,0.2337609707833665,-0.5498212909550054,0.0523124611824296,-0.3063961900206185,0.1933725840297835,1.521872349349594,0.2690117821501921,-0.5477339900883132,0.0512898975826208,0.5150959685047581,-0.1343492650425798,0.4953987865309928,0.0430601214117341,10.349699822440016,-0.9411370602963324,0.2752576819897021,-0.9058187642069654
