t,x,y,z,roll,pitch,yaw,v_x,v_y,v_z,ref_x,ref_y,ref_z,ref_v_x,ref_v_y,ref_v_z,a_com,a_x,a_y,a_z,thrust,wind_x,wind_y,wind_z
0.0,-1.8174470792174748,-2.0147803939796147,2.7793704517865394,0.0334635907683647,0.1007520970538194,0.0440964641119426,0.0052941381433154,-0.0055247011046556,0.0319740752540041,-1.8172959782993183,-2.0148409671749974,2.780341647143469,0.1051044825168427,0.0970573103471457,-0.067730778059778,1.6438458788197066,0.2647069071657727,-0.2762350552327842,1.5987037627002083,10.222825665909111,-0.9479468067297636,0.259315116116341,-0.8635688800755655
0.02,-1.817447672371796,-2.015187517915246,2.779757119452658,0.0231270141448224,0.103855355474459,0.0434490937928939,-0.0046437194749923,-0.0285844244766858,0.006973087133295,-1.8172959782993183,-2.0148409671749974,2.780341647143469,0.1051044825168427,0.0970573103471457,-0.067730778059778,1.7716949956525754,-0.4968928809153916,-1.1529861686015077,-1.2500494060354563,10.22420773684462,-0.9314803083403256,0.2636179558224819,-0.8812364256634235
0.04,-1.8176052310925317,-2.01575068941265,2.779586013063021,0.0069339608405584,0.1108431208508137,0.0424275481626113,-0.0109612364946631,-0.029008530719238,-0.0237218413159943,-1.8172959782993183,-2.0148409671749974,2.780341647143469,0.1051044825168427,0.0970573103471457,-0.067730778059778,1.5670589649928608,-0.3158758509835405,-0.0212053121276131,-1.5347464224644705,8.518359335349942,-0.9191054028063742,0.2709493574971468,-0.8981781512658151
0.06,-1.8178575446951464,-2.0162708950272306,2.778775041080498,-0.0105298476028857,0.1202352054169023,0.0412120863065837,-0.0135231607598919,-0.0225851343838431,-0.0557675778683045,-1.81624493347415,-2.013870394071526,2.779664339362871,0.1251044828148659,0.1170573106451689,-0.0877307783578012,1.6391710615448305,-0.1280962132614381,0.3211698167697475,-1.6022868276155091,8.518359335349942,-0.9028554094823434,0.2781728008548221,-0.919901056548871
0.08,-1.8181226262706116,-2.0166210314102844,2.7773380639731062,-0.0273636607314566,0.1304334321780461,0.0398793949956561,-0.0125201006641995,-0.0123967794687525,-0.0863176778692806,-1.814142843823813,-2.011929247864583,2.778309723801676,0.1651044834109124,0.1570573112412153,-0.1277307789538476,1.6109913993416132,0.0501530047846217,0.5094177457545304,-1.5275050000488035,8.572715797644832,-0.8859715390491398,0.2859039362452343,-0.9404755083743048
0.1,-1.818334755595967,-2.016734036387345,2.7753091259373543,-0.0434164440792834,0.1407225072068201,0.038445110118544,-0.0084693161104935,0.0009213924676956,-0.1151512167132006,-1.812040754173476,-2.00998810165764,2.77695510824048,0.2051044840069588,0.1970573118372618,-0.1677307795498941,1.6009024966352428,0.2025392276852976,0.6659085968224099,-1.441676942195999,8.687101462098326,-0.8674009896221444,0.2950175851891018,-0.960933983617108
0.12,-1.8184362336299889,-2.01655767730948,2.7728603438072232,-0.057659523420721,0.150239506113754,0.0370320558980861,-0.0021958286675664,0.0170528751015721,-0.1412564590354759,-1.807938664493337,-2.006046955420895,2.773600492649482,0.2451044846030053,0.2370573124333082,-0.2077307801459405,1.5660979003308964,0.3136743721463548,0.8065741316938242,-1.305262116113766,8.919879436351039,-0.8486176562111677,0.3047859983122107,-0.9796400034744056
0.14,-1.818392432384575,-2.0160025831040844,2.76974628105603,-0.0710699921612317,0.1598166279348856,0.0355613414121771,0.00649049484065,0.0375579394939414,-0.1688320535698224,-1.803836574813198,-2.0021058091841497,2.770245877058484,0.2851044851990518,0.2770573130293547,-0.247730780741987,1.7722325579246687,0.4343161754108277,1.0252532196184636,-1.3787797267173243,8.919879436351039,-0.829588578154877,0.3145752507244962,-0.9968428435030424
0.16,-1.818153841490384,-2.0149966435602464,2.766081634506432,-0.0821471354812858,0.1688746244542331,0.0341949264598411,0.0171730898361264,0.0614873925455544,-0.1963027341421875,-1.7987344851181577,-1.997164662932503,2.765891261452585,0.3251044857950982,0.3170573136254012,-0.2877307813380335,1.8982721421701128,0.534129749773816,1.1964726525806522,-1.3735340286182534,8.958776647258674,-0.8122443390198727,0.322753894200067,-1.011760561723824
0.18,-1.817710993303163,-2.013578803384612,2.7620941740023883,-0.0903288559241064,0.1769814264438237,0.0330398865306641,0.0291076402233932,0.0860411204222453,-0.2220825351868612,-1.792632395408216,-1.9912235166659555,2.760536645831785,0.3651044863911447,0.3570573142214476,-0.3277307819340799,1.877443199867679,0.5967275193633397,1.2276863938345424,-1.2889900522336863,9.071957892763749,-0.7946610261099472,0.329758848776659,-1.026437814828124
0.2,-1.8169813318991657,-2.011575990209625,2.7573696005752164,-0.0967540135645394,0.1849957187142124,0.0319844062462564,0.0434430876515365,0.1126312543243031,-0.2490214973050306,-1.8162556112919932,-2.0092767473635,2.7509900472430453,0.1291076417135093,0.1860411219123614,-0.3220825366769773,2.02376379173719,0.7167723714071697,1.3295066951028909,-1.3469481059084714,9.071957892763749,-0.7775379388141798,0.3353173621278192,-1.0401800447878735
0.22,-1.8159314074604411,-2.008901648867224,2.752206239646978,-0.0973170260367026,0.1924699528588301,0.0313808605014189,0.061206515760356,0.1519891393729857,-0.2652762238703832,-1.8162556112919932,-2.0092767473635,2.7509900472430453,0.1291076417135093,0.1860411219123614,-0.3220825366769773,2.306945290528631,0.8881714054409733,1.9678942524341323,-0.812736328267627,9.118021352835967,-0.7637839266519821,0.3361131017973335,-1.050966730125725
0.24,-1.814503578550136,-2.0055213555944644,2.746736662933189,-0.0914525505316821,0.1994110050556625,0.0313182822816782,0.0809117635692545,0.1826448634842902,-0.2808374012252498,-1.8162556112919932,-2.0092767473635,2.7509900472430453,0.1291076417135093,0.1860411219123614,-0.3220825366769773,1.9813003638192543,0.9852623904449236,1.5327862055652215,-0.7780588677433309,9.78479922644965,-0.7504389956160702,0.3327602089742572,-1.0602955198341957
0.26,-1.812768851645846,-2.001812772799751,2.741241267980996,-0.0842724944218924,0.2055541878376725,0.0314662462193018,0.1008524185292362,0.2058974917621975,-0.2968493587970222,-1.8149645348748584,-2.0074163361443764,2.7477692218762755,0.1491076420115325,0.2060411222103846,-0.3420825369750006,1.7282196238787308,0.9970327479990854,1.162631413895364,-0.8005978785886214,9.78479922644965,-0.7389358174531636,0.3279151113266488,-1.0675316999716828
0.28,-1.8105220598476397,-1.9974712709870663,2.735113365652303,-0.0768164036481478,0.211591041573522,0.0317058460284257,0.1229069379360656,0.2269486235940253,-0.315193934830503,-1.812382382040588,-2.0036955137061288,2.7413275711427363,0.189107642607579,0.2460411228064311,-0.382082537571047,1.779097697932418,1.102725970341472,1.0525565915913928,-0.9172288016740416,9.695294991448463,-0.7284205354471142,0.3227254563897617,-1.0743885148261771
0.3,-1.8078235686679311,-1.9927309470736356,2.728604843282916,-0.0701143445249301,0.217226219763377,0.0319725084924274,0.145956976215987,0.2460415680549093,-0.3348157065757387,-1.809800229206318,-1.9999746912678815,2.7348859204091966,0.2291076432036254,0.2860411234024775,-0.4220825381670934,1.789454329756956,1.1525019139960673,0.9546472230441972,-0.981088587261783,9.610123707596358,-0.7197357764325598,0.3178899152141601,-1.080373189480602
0.32,-1.804654155292068,-1.9876242891204283,2.7216921183891745,-0.0643473395987975,0.2224912692334968,0.0322405522212487,0.1699476861598514,0.2637875966002845,-0.3555099374769014,-1.8052180763422452,-1.994253868799832,2.726444269645855,0.2691076437996719,0.326041123998524,-0.4620825387631398,1.8157139679300744,1.1995354971932228,0.8873014272687635,-1.0347115450581368,9.506935585231076,-0.7106668288602193,0.3134712348849565,-1.0866214030500658
0.34,-1.8011889212868757,-1.9824532692602197,2.714738810692975,-0.059712480331002,0.2271712218953443,0.032488117948881,0.193703294704429,0.2797664416912362,-0.3754079930716072,-1.800635923478173,-1.9885330463317823,2.718002618882513,0.3091076443957183,0.3660411245945705,-0.5020825393591863,1.7432620602005315,1.1877804272288794,0.7989422545475827,-0.9949027797352904,9.506935585231076,-0.7032191783171906,0.3101185246353258,-1.0910048838120208
0.36,-1.7970442816230776,-1.9766816916031364,2.707008922284526,-0.0554261637859367,0.2317777178467835,0.0327537697488493,0.2196165840561779,0.2965053252593884,-0.3965546421361067,-1.7950537705991991,-1.981812223848832,2.70856096810427,0.3491076449917648,0.4060411251906169,-0.5420825399552327,1.8700732303794336,1.2956644675874416,0.8369441784076087,-1.057332453224971,9.50602966293809,-0.6962337519647759,0.3073469833060219,-1.0948949508676489
0.38,-1.7923659405119157,-1.970578392576279,2.6988552923474014,-0.0514217858571001,0.2358950952137941,0.0330509001664962,0.2469985049413965,0.3128945612576632,-0.417756359451538,-1.7884716177053244,-1.97409140135098,2.698119317311125,0.3891076455878112,0.4460411257866633,-0.5820825405512792,1.915652281270649,1.36909604426093,0.8194617999137399,-1.060085865771565,9.517879196697322,-0.689593944095332,0.3044295310508058,-1.0990632945592531
0.4,-1.7871193093789297,-1.964152675156953,2.690276386714687,-0.0475446795953962,0.2389900219738938,0.0334113010767254,0.2762125514802379,0.3287375217586071,-0.4390650659257817,-1.780016015264846,-1.954933664513396,2.6779674743748245,0.3469985064315126,0.4128945627477793,-0.5177563609416541,1.9739053195464695,1.4607023269420718,0.7921480250471957,-1.0654353237121883,9.517879196697322,-0.6845685260330108,0.3018717051015219,-1.1019750009490683
0.42,-1.78153014833893,-1.957752608407499,2.681907359986674,-0.0439812269715592,0.2402776181309746,0.0338357023765544,0.3104618135999487,0.3440829036900134,-0.4407732508795952,-1.780016015264846,-1.954933664513396,2.6779674743748245,0.3469985064315126,0.4128945627477793,-0.5177563609416541,1.8784372482211256,1.71246310598554,0.7672690965703138,-0.0854092476906737,9.526668945901292,-0.6786848290207403,0.2976479673036664,-1.1080117101646858
0.44,-1.774952946237514,-1.950722012473336,2.6730523526022885,-0.0408198283129351,0.2397379717722902,0.0343290632186384,0.3452725807230055,0.3583127123585659,-0.4448455373174142,-1.780016015264846,-1.954933664513396,2.6779674743748245,0.3469985064315126,0.4128945627477793,-0.5177563609416541,1.891335823743995,1.7405383561528402,0.7114904334276279,-0.2036143218909492,10.725578330272583,-0.680700508883685,0.3000875040072392,-1.0998917713288006
0.46,-1.767687559315677,-1.9434085672469583,2.6640792963679827,-0.0383804380935191,0.2373560806884024,0.0348465220121088,0.3794070794017736,0.3723854868119186,-0.4523606055664247,-1.7765460302005307,-1.950804718885918,2.672789910765408,0.3669985067295359,0.4328945630458025,-0.5377563612396773,1.883934202442488,1.7067249339384054,0.7036387226676349,-0.3757534124505274,10.483171816583308,-0.6857588285870139,0.3026715271460323,-1.090422534972104
0.48,-1.7597478378143383,-1.9358164356046137,2.654923247081563,-0.0364386531079796,0.2327098614609908,0.0354124760101321,0.4125689608300716,0.3861993676025764,-0.4627805317452731,-1.7696060600719006,-1.9425468276309623,2.662434783546575,0.4069985073255823,0.472894563641849,-0.5777563618357238,1.870232969402239,1.6580940714148975,0.6906940395328881,-0.5209963089424202,10.10265087661992,-0.6919185031599755,0.3053010714355862,-1.0810001790411918
0.5,-1.7516159420379165,-1.928351777262573,2.646012011931897,-0.0349799926910857,0.2263915026186817,0.0359873637145502,0.4413943536361642,0.3988865740407535,-0.4746388015147794,-1.7626660899432702,-1.934288936376007,2.652079656327742,0.4469985079216287,0.5128945642378955,-0.6177563624317702,1.682622238915232,1.4412696403046292,0.6343603219088556,-0.5929134884753134,10.10265087661992,-0.6994565650140658,0.3081662067225968,-1.0708196781962145
0.52,-1.7425000530931396,-1.92024082354312,2.636370302119515,-0.0339861025433846,0.2186160073851507,0.0365891584915417,0.468340528368053,0.4115561431266652,-0.4889514471328685,-1.7537261197848375,-1.924031045091249,2.6397245290791065,0.4869985085176752,0.552894564833942,-0.6577563630278167,1.6518672299046775,1.3473087365944436,0.6334784542955857,-0.7156322809044546,9.953462185855642,-0.7077423720882678,0.3107506480748235,-1.061090074293226
0.54,-1.7328775643547571,-1.9118811521220211,2.6264302181189767,-0.0337213198367527,0.21045543519229,0.0371533117590781,0.4922927615164509,0.4238136570255179,-0.5043409580024831,-1.744786149626405,-1.913773153806491,2.627369401830471,0.5269985091137217,0.5928945654299884,-0.6977563636238632,1.549833188267176,1.1976116574198918,0.6128756949426328,-0.7694755434807299,9.808812759012651,-0.717200458996802,0.3134167841827063,-1.0509962800340786
0.56,-1.722799879259034,-1.903268316327863,2.61617078770584,-0.033961064869466,0.2022856117641224,0.0376896668667108,0.5140400217147687,0.4368018560874683,-0.5207690650265268,-1.7348461794530712,-1.902515262506832,2.6140142745669346,0.5669985097097681,0.6328945660260348,-0.7377563642199095,1.509568929694516,1.0873630099158895,0.6494099530975211,-0.8214053512021813,9.724069894791684,-0.7265546595676906,0.31607257088733,-1.0412738513806503
0.58,-1.712843850290014,-1.8948395412625865,2.6061107991909536,-0.0342586410113642,0.1946343572527153,0.0381998834996759,0.5326881380894977,0.4497042662956012,-0.5373077851301591,-1.7239062092648365,-1.890257371192272,2.599659147288497,0.6069985103058145,0.6728945666220812,-0.777756364815956,1.4033475123527477,0.932405818736448,0.6451205104066438,-0.8269360051816166,9.647462509487925,-0.7361257172410204,0.3187795913808977,-1.0312791116092983
0.6,-1.702003392227368,-1.885699120425623,2.595171005216793,-0.0343691016474151,0.1868591236460872,0.038750278597477,0.5501733414138286,0.4636019936586799,-0.5558257719193213,-1.6862094433855392,-1.8723543279478063,2.5792454099344457,0.6326881395796138,0.5497042677857173,-0.6373077866202752,1.4506851793852822,0.874260166216545,0.6948863681539352,-0.9258993394581084,9.486359782343245,-0.7451403220018795,0.3210278265464629,-1.021960823567304
0.62,-1.6908202181869527,-1.876216361454673,2.5841187026066974,-0.0323557742291186,0.1806325484179388,0.0393964202137812,0.5672961425394779,0.4835040986994434,-0.5470338066190666,-1.6862094433855392,-1.8723543279478063,2.5792454099344457,0.6326881395796138,0.5497042677857173,-0.6373077866202752,1.3843615471427668,0.8561400562824673,0.995105252038178,0.4395982650127306,9.486359782343245,-0.7475205349727587,0.3196320747618784,-1.020899620478625
0.64,-1.6793242686706271,-1.8663820340956845,2.573240077942476,-0.0279614681961829,0.1777101606189199,0.0400850138183526,0.5814829487481769,0.4984671044445753,-0.541384876090014,-1.6862094433855392,-1.8723543279478063,2.5792454099344457,0.6326881395796138,0.5497042677857173,-0.6373077866202752,1.068956766494901,0.7093403104349472,0.7481502872565965,0.2824465264526343,11.261278338143711,-0.756511472281765,0.3223205093740988,-1.0057599863255786
0.66,-1.6681431797615769,-1.8567954619228773,2.5629513256331635,-0.0235739205236169,0.1779028630960441,0.0406605436795793,0.5950803816256983,0.5098718946383071,-0.5419215946910878,-1.679882561989743,-1.8668572852699488,2.572872332068243,0.652688139877637,0.5697042680837405,-0.6573077869182984,0.8877605069477902,0.6798716438760732,0.5702395096865848,-0.0268359300536924,10.814682192640248,-0.7612951862754233,0.3222596430781072,-0.997386870673476
0.68,-1.6560820903271445,-1.8464885366507116,2.552061572863324,-0.0194205249489973,0.180062767620545,0.0411894336942975,0.6104981143032423,0.5202594324848355,-0.5472448240165848,-1.667228799198151,-1.8558631999142348,2.5601261763358374,0.6926881404736834,0.609704268679787,-0.6973077875143449,0.9668818359565712,0.7708866338771991,0.519376892326423,-0.2661614662748501,10.41964343645668,-0.7623198305407722,0.3215140136740725,-0.9935574923404304
0.7000000000000001,-1.6436996405130075,-1.8359837279396576,2.54102262323906,-0.0159538166211344,0.1832949854421233,0.0416575820722037,0.6271181403643562,0.5297744091160096,-0.5565469995595324,-1.6545750364065586,-1.8448691145585203,2.547380020603432,0.7326881410697299,0.6497042692758335,-0.7373077881103913,1.0645310192705817,0.8310013030556951,0.4757488315587033,-0.4651087771473772,10.130321113183529,-0.7610715300000006,0.320557261476072,-0.9925893396238524
0.72,-1.630972991271162,-1.8252955992442403,2.5297618088964344,-0.0132023100542902,0.1868768264647356,0.0420795727791571,0.6448188322795143,0.5387069408077315,-0.5690697677939776,-1.639921273585164,-1.831875029173004,2.532633864841224,0.7726881416657764,0.6897042698718799,-0.7773077887064378,1.1725232843664448,0.8850345957579053,0.4466265845860961,-0.6261384117222601,9.755028029120696,-0.758568079303745,0.319494369811476,-0.9936170634754828
0.74,-1.6185434096946123,-1.814979995939053,2.5188195632153603,-0.0112027746024865,0.1901568757298156,0.0424465063394962,0.6627150469494671,0.5468364151996383,-0.5821250388931394,-1.6252675107637693,-1.8188809437874875,2.5178877090790164,0.8126881422618228,0.7297042704679264,-0.8173077893024843,1.1798336290281712,0.8948107334976418,0.4064737195953405,-0.6527635549580912,9.755028029120696,-0.7549956942672836,0.3181863763011542,-0.99633226771373
0.76,-1.605079083769634,-1.8039493795520147,2.5070233217425795,-0.0094621552202984,0.1930439492035308,0.0428190246903914,0.6827918793543228,0.5557783902447054,-0.5968542132527599,-1.6096137479274737,-1.8048868583870692,2.502141553301908,0.8526881428578692,0.7697042710639728,-0.8573077898985306,1.3228630828957404,1.003841620242785,0.4470987522533554,-0.7364587179810256,9.701561534463508,-0.7519533252018854,0.3171698837208839,-0.9986009236330412
0.78,-1.5912027780688625,-1.792739037133797,2.49492288282788,-0.0078048382301213,0.1949136978415188,0.0431985770289696,0.7037840340765922,0.5647452306468193,-0.6124797569143822,-1.5929599850762766,-1.7898927729717504,2.485395397509897,0.8926881434539157,0.8097042716600192,-0.8973077904945771,1.3831417149030136,1.049607736113467,0.4483420201056909,-0.7812771830811138,9.655461749377537,-0.7498079491573207,0.3163090847386863,-1.000060306636331
0.8,-1.5776260309449035,-1.7819246141434406,2.4831280065437653,-0.006198412395909,0.1954622755679879,0.0435715222439713,0.7241706130611294,0.5730821304986176,-0.62828630574839,-1.556013576365033,-1.764501775601456,2.4642988949821603,0.8037840355667083,0.6647452321369354,-0.7124797584044983,1.3555105015026276,1.019328949226861,0.4168449925899153,-0.7903274417003892,9.61448913967979,-0.7489345740790815,0.3154833294723498,-1.0005529186760096
0.8200000000000001,-1.562853695820431,-1.7703353513070486,2.470676807607599,-0.0033363181752072,0.1944937050835466,0.0440511706836212,0.7522358062398523,0.5847405870846459,-0.6144136682764283,-1.556013576365033,-1.764501775601456,2.4642988949821603,0.8037840355667083,0.6647452321369354,-0.7124797584044983,1.6703478294623386,1.4032596589361457,0.5829228293014188,0.6936318735980829,9.564789212665346,-0.743715674739038,0.3105292009130757,-1.008838147688649
0.84,-1.5475236272056827,-1.7585560532290083,2.4585097920956107,0.0002781988881737,0.1918030096636027,0.0445754116130112,0.7791289889267438,0.592552740721274,-0.603438458530308,-1.556013576365033,-1.764501775601456,2.4642988949821603,0.8037840355667083,0.6647452321369354,-0.7124797584044983,1.503935045509058,1.3446591343445724,0.3906076818314008,0.5487604873060159,11.571748421147277,-0.7534896955437453,0.3146081773420869,-0.9927095631101857
0.86,-1.5316751141751326,-1.74663956438222,2.44648212158648,0.0034230044416116,0.1873128235406708,0.0450463893527464,0.8041900353443927,0.5988312202846188,-0.5997887164523781,-1.5479757360093658,-1.7578543232800867,2.457174097398115,0.8237840358647315,0.6847452324349586,-0.7324797587025215,1.304603359656016,1.2530523208824471,0.3139239781672409,0.1824871038964948,11.100719045482036,-0.7631033928133417,0.3173644612039336,-0.9790619822617296
0.88,-1.5161808496592433,-1.735211082156889,2.4350680754554976,0.0057395040376485,0.181374507443922,0.0454213093889836,0.8251549286812283,0.6040105091554306,-0.6017909922597865,-1.5319000552980315,-1.744559418637348,2.442924502230025,0.863784036460778,0.724745233031005,-0.7724797592985679,1.0843902598247812,1.04824466684178,0.2589644435405935,-0.1001137903704207,10.658411438540496,-0.7732769902840473,0.3198854705855258,-0.9657296840150724
0.9,-1.4994801336517978,-1.7230810715272094,2.422965256976704,0.0073843569415327,0.1741224391936669,0.0457364857751495,0.8434740896690157,0.6088125915080439,-0.6085605743926531,-1.5158243745866975,-1.7312645139946092,2.428674907061936,0.9037840370568244,0.7647452336270515,-0.8124797598946144,1.005583035446823,0.9159580493893704,0.2401041176306628,-0.3384791066433301,10.298491219466996,-0.7828488597521244,0.3217414693362875,-0.9543344587382344
0.92,-1.4824495867418763,-1.710861683660861,2.410680712700986,0.0080459261919126,0.1665922969997926,0.0459696323412824,0.8584014129741752,0.6129622606108802,-0.6197064154327523,-1.497748693845561,-1.7159696093220682,2.4124253118640437,0.9437840376528708,0.804745234223098,-0.8524797604906609,0.9542988358095044,0.7463661652579723,0.2074834551418158,-0.5572920520049596,9.994512089018826,-0.7911427217459531,0.3229550555105304,-0.9455264737959994
0.94,-1.4651512831960307,-1.6985666494981362,2.3981425808913506,0.0074193465352804,0.1593670422852638,0.0461153163237125,0.8705398609415148,0.616517277343947,-0.6335029443697553,-1.4796730131044245,-1.7006747046495272,2.396175716666151,0.9837840382489174,0.8447452348191444,-0.8924797610867073,0.9358475753798776,0.6069223983669825,0.1777508366533398,-0.6898264468501503,9.592542816850257,-0.7978723090991408,0.3241440911548686,-0.9390369650186527
0.96,-1.447629102153612,-1.686192609967379,2.385309172531632,0.0055814523124879,0.1526749562071121,0.0461930159821896,0.880934430045385,0.6207914866378464,-0.6491223710422955,-1.4605973323483867,-1.6843797999620849,2.378926121453357,1.0237840388449635,0.8847452354151908,-0.9324797616827538,0.9621361929608117,0.5197284551935077,0.2137104646949716,-0.7809713336270119,9.592542816850257,-0.8035076682777332,0.3256624229341391,-0.933884032600699
0.98,-1.4308058721343675,-1.6743480311049703,2.3728128143135154,0.0030575201015778,0.1468095017965324,0.0462350370262469,0.8893014487153674,0.6260244763262381,-0.6654839372248482,-1.440521651577448,-1.6670848952597417,2.360676526225663,1.06378403944101,0.9247452360112371,-0.9724797622788004,0.9553690784831546,0.4183509334991231,0.2616494844195849,-0.8180783091276345,9.48380124056348,-0.8088673547407454,0.3277177071547503,-0.9289863242617026
1.0,-1.412941648463533,-1.6617552055236953,2.359307554490378,0.0003006507468349,0.1411938567235824,0.0462973879273497,0.8965478253349345,0.6330161597666254,-0.684244827448948,-1.386340799698599,-1.6430468072886584,2.339538617452273,0.9893014502054835,0.7260244778163543,-0.7654839387149643,1.0646180223957271,0.3623188309783531,0.3495841720193626,-0.9380445112049884,9.388334795142327,-0.8133925011601868,0.3297049288602773,-0.9249578421117526
1.02,-1.394925624953096,-1.6489416228428908,2.3457484165665567,0.0001255897111121,0.1369853060185898,0.0465549206243971,0.9046978806132174,0.6472865796235452,-0.6689805317896669,-1.386340799698599,-1.6430468072886584,2.339538617452273,0.9893014502054835,0.7260244778163543,-0.7654839387149643,1.1214577632548033,0.4075027639141471,0.7135209928459896,0.7632147829640556,9.294683625507789,-0.8104220418647629,0.3269072635158467,-0.9319328385413402
1.04,-1.3776855027725452,-1.6365354165142694,2.3331481782659176,0.0032753651348483,0.1357146352528358,0.0470252711764974,0.9099046980820944,0.6574573653883439,-0.658309301778509,-1.386340799698599,-1.6430468072886584,2.339538617452273,0.9893014502054835,0.7260244778163543,-0.7654839387149643,0.7817144318398352,0.2603408734438484,0.5085392882399342,0.5335615005578942,11.50928686046882,-0.8175261446315077,0.3293695534536878,-0.9196934543740126
1.06,-1.359426485928757,-1.6233152487224976,2.320030302763997,0.0077762363577624,0.1370855645164845,0.0476053824858488,0.9159792663555568,0.6638383720011354,-0.6543728400873802,-1.3764477851965442,-1.6357865625104948,2.331883778065124,1.0093014505035067,0.7460244781143774,-0.7854839390129875,0.4824763096442404,0.3037284136731211,0.3190503306395753,0.1968230845564411,10.965403411055377,-0.8199231273127958,0.3285425132530741,-0.9151281530094932
1.08,-1.3410342663081036,-1.6099942751286238,2.3069234903468,0.011955410647243,0.1402704775108399,0.0481795846393171,0.9231436839860916,0.6680046242320402,-0.6567579235000764,-1.3566617561924346,-1.6212660729541677,2.316574099290824,1.0493014510995533,0.7860244787104239,-0.825483939609034,0.4312051730955852,0.358220881526744,0.2083126115452416,-0.1192541706348138,10.496489532260057,-0.8190647035919226,0.3266587297974677,-0.9152157842498254
1.1,-1.3224867250298784,-1.5966032406355737,2.2937122913966235,0.0153006532067481,0.1445053593721252,0.0487156351379283,0.9314619135202512,0.6711058220526624,-0.664233238723936,-1.336875727188325,-1.6067455833978406,2.301264420516525,1.0893014516955997,0.8260244793064704,-0.8654839402050805,0.5802816303349188,0.4159114767079697,0.1550598910311118,-0.373765761192979,10.140974949350491,-0.8161364859011824,0.324578803779753,-0.9181897026738064
1.12,-1.3047006013881297,-1.5838295915132743,2.280988561267724,0.0176275729310296,0.1489739488980207,0.0491791760787015,0.9404834953431864,0.6735561071805325,-0.6747403792348465,-1.315089698154413,-1.5902250938117113,2.283954741712423,1.129301452291646,0.8660244799025169,-0.9054839408011268,0.703194207726068,0.4510790911467721,0.1225142563935022,-0.5253570255455253,9.883006849157027,-0.811606347447563,0.3223943129678921,-0.9232498982035438
1.14,-1.285779959815326,-1.5703374354292574,2.267363857121901,0.019146803926644,0.1537731306800996,0.0496084089294159,0.9512366368090464,0.6756510840214175,-0.6872443482729333,-1.2933036691205009,-1.5737046042255818,2.2666450629083217,1.1693014528876926,0.9060244804985632,-0.9454839413971734,0.831216309173001,0.5376570732929964,0.1047488420442499,-0.6251984519043408,9.69772419833589,-0.8059234712176812,0.3203779982286938,-0.9297748472869792
1.16,-1.2666242451246617,-1.5568000822857997,2.2534786879239475,0.0197775426260699,0.1581865705808109,0.0499688229348437,0.9638290107022924,0.6780404963787285,-0.7006595134534678,-1.2705176400716878,-1.5561841146245512,2.248335384089319,1.209301453483739,0.9460244810946096,-0.9854839419932198,0.9276904501254708,0.6296186946623039,0.1194706178655524,-0.6707582590267214,9.633750629007409,-0.8007307307082622,0.3189517454400073,-0.93575922060353
1.18,-1.2481795367180486,-1.5438940952817672,2.240031325363679,0.0196983670287603,0.1615557967977734,0.050245145121765,0.977050584748144,0.680405577703479,-0.7141894422434736,-1.2467316110079736,-1.5376636250086195,2.229025705255415,1.249301454079785,0.9860244816906562,-1.025483942589266,0.9532347598902958,0.6610787022925724,0.118254066237522,-0.6764964395002904,9.60186792985769,-0.7960107864018683,0.3182394367451575,-0.9409277789805344
1.2,-1.2284857559808855,-1.5302592092035503,2.2255877577450103,0.0189117193841239,0.1640046029708274,0.0504611013162191,0.991589054609902,0.6830064867514379,-0.7295055456970148,-1.1993270074806417,-1.5098738163965932,2.2043218532515056,1.051491235390062,0.7804055791935951,-0.80853414758672,1.0638548524077185,0.7269234930879054,0.1300454523979477,-0.7658051726770587,9.56855789702422,-0.7923917182750144,0.3182987479323493,-0.944735435149287
1.22,-1.2083667302165544,-1.5165106523420848,2.211163616726514,0.0193522987548023,0.1628414535270432,0.0506888782824103,1.019981468369222,0.691281362796205,-0.7103536465700326,-1.1993270074806417,-1.5098738163965932,2.2043218532515056,1.051491235390062,0.7804055791935951,-0.80853414758672,1.76167390058914,1.419620687966,0.4137438022383533,0.957594956349106,9.515594506987329,-0.7859172569987498,0.3116818629207289,-0.9584541361468408
1.24,-1.1876892844380809,-1.5026248846617531,2.1971273824882966,0.0218643914120311,0.1555715322146791,0.0509238308036669,1.0453063301104637,0.6966511047291926,-0.694289273091395,-1.1993270074806417,-1.5098738163965932,2.2043218532515056,1.051491235390062,0.7804055791935951,-0.80853414758672,1.5233571855453276,1.266243087062069,0.268487096649378,0.8032186739318825,11.84790236597746,-0.7992695256037476,0.3173294121511281,-0.938173215979036
1.26,-1.1676413989025645,-1.4893636410367554,2.184011811372085,0.0246458413460076,0.144901392969243,0.0510563820407946,1.0630922629487247,0.6989911440228561,-0.6869920290227062,-1.188812095126741,-1.5020697606046574,2.1962365117756386,1.0663793655184457,0.8004055794916183,-0.8274030886553694,0.9683296982704848,0.8892966419130621,0.1170019646831777,0.3648622034344406,11.315636638036269,-0.8148390834356123,0.3207753533801744,-0.918092496611692
1.28,-1.1462419266359498,-1.4753752504713809,2.1702822243020727,0.0269813692237314,0.1315204520340377,0.0510579480595626,1.07528412603888,0.6998624307523867,-0.6866278562539524,-1.1677822704189396,-1.4864616490207854,2.180065828823904,1.096155625775213,0.8404055800876647,-0.8651409707926679,0.6114190215794041,0.6095931545077593,0.0435643364765314,0.0182086384376889,10.745864785273625,-0.830515486932318,0.3230120890673033,-0.8994393176532087
1.3,-1.1246636749851764,-1.461379343968641,2.1564845626735205,0.0283333179998612,0.1174360883473633,0.050937421135167,1.0814413899624933,0.6998025302224327,-0.6934105262690425,-1.1467524457111384,-1.4708535374369134,2.1638951458721696,1.1259318860319802,0.8804055806837112,-0.9028788529299664,0.4580395715222716,0.3078631961806688,-0.0029950264977041,-0.3391335007545071,10.259641517302953,-0.8450135860346819,0.3244248719754319,-0.8831492080761966
1.32,-1.103019962488491,-1.4473954504975943,2.142479734763932,0.0282846322141044,0.1038320457009287,0.0507187898723113,1.0823500311579033,0.6988220565512838,-0.7066692689196774,-1.1242338079904988,-1.4532454258232392,2.1458375688135702,1.1557081462887475,0.9204055812797576,-0.9406167350672652,0.6662980078718087,0.0454320597705004,-0.049023683557442,-0.6629371325317435,9.836397798039798,-0.8568193695382126,0.3253227940268914,-0.8706614018085663
1.34,-1.082481728653928,-1.4341354249947371,2.128896004912366,0.0265568935804898,0.0921384287183202,0.050440073688254,1.0794011642814143,0.6972767074134941,-0.722505591614367,-1.101715170269859,-1.435637314209565,2.127779991754971,1.1854844065455148,0.9604055818758042,-0.9783546172045636,0.8091245829649197,-0.1474433438244493,-0.0772674568894848,-0.7918161347344799,9.313469559069745,-0.866438812513046,0.326063703905069,-0.8615139288124818
1.36,-1.0609515094272777,-1.4201949264259572,2.114249361747359,0.0230928266590084,0.0815212989268088,0.0501136849496032,1.0736100974557514,0.6973637649840804,-0.7414089781761655,-1.0784521260428006,-1.4170292025809896,2.108778967642939,1.215260666802282,1.0004055824718503,-1.0160924993418623,0.9885368702085324,-0.2895533412831441,0.0043528785293123,-0.9451693280899232,9.185683116556447,-0.8743875057642732,0.3272526905312284,-0.854598316128334
1.38,-1.0395612173420878,-1.4062251061816633,2.099205573974286,0.019096991678446,0.0727257102237061,0.0498392978547105,1.0656267473736287,0.6997493697367206,-0.7620934229622699,-1.0544446753093226,-1.397421090937513,2.088834496477475,1.2450369270590491,1.0404055830678969,-1.0538303814791607,1.114978973657072,-0.3991675041061349,0.1192802376320134,-1.0342222393052214,9.185683116556447,-0.8803503282465887,0.328474829539466,-0.8499955555984732
1.4,-1.0183503922127994,-1.392193236984284,2.0837313897548517,0.0151920385668707,0.0658203510695226,0.0496485409934658,1.0558439981571237,0.7033667231536984,-0.78428860225212,-0.9862798799734064,-1.3712376376948272,2.061100902826172,1.0624473008123667,0.7997493712268368,-0.7978137340675212,1.2261865800979757,-0.4891374608252619,0.1808676708488887,-1.1097589644925077,9.092444505537514,-0.8841960547004379,0.3293132204150296,-0.8478847291090468
1.42,-0.9982344013568604,-1.378727057749726,2.069077328087419,0.0137370639233987,0.0568777622044779,0.0496168942711591,1.0608858864835593,0.712824695336324,-0.7570867150946281,-0.9862798799734064,-1.3712376376948272,2.061100902826172,1.0624473008123667,0.7997493712268368,-0.7978137340675212,1.4618622888566606,0.2520944163217908,0.4728986091312781,1.3600943578745972,9.021698210001889,-0.8840828937202178,0.3214938295306325,-0.8605521858845149
1.44,-0.977023169868416,-1.3643989775494867,2.054197427724339,0.0148476910292029,0.0423386255293523,0.049691690252727,1.0589956996947187,0.7192911755367651,-0.7328055318091502,-0.9862798799734064,-1.3712376376948272,2.061100902826172,1.0624473008123667,0.7997493712268368,-0.7978137340675212,1.2599246346730193,-0.0945093394420282,0.323324010022058,1.2140591642738952,12.110479812698031,-0.902067919883094,0.3281248418606468,-0.831348174448012
1.46,-0.9559363241066936,-1.3499687894651862,2.0396993515022603,0.0171487244264823,0.0252783792916645,0.0497752998657917,1.049081860204604,0.7233770562224368,-0.7181513946323078,-0.9756554069652827,-1.3632401439825588,2.053122765485497,1.0618114115001145,0.8197493715248599,-0.8049577962885714,0.9079129512390136,-0.4956919745057297,0.2042940342835808,0.7327068588421193,11.547484132289355,-0.9203290556312288,0.3320969086710443,-0.8037285813303159
1.48,-0.9351246554963524,-1.3354829507645882,2.025406053107316,0.0195646616773931,0.0078694863785673,0.0498092828445792,1.0321199590125194,0.7250565184019723,-0.7118858350261486,-0.9544064609490354,-1.347245156558022,2.0371664908041467,1.0605396328756096,0.8597493721209064,-0.819245920730672,0.907997690581962,-0.8480950596042369,0.0839731089767759,0.3132779803079633,10.960407501297595,-0.9361211204973616,0.3339882149302547,-0.7810069059616498
1.5,-0.9157251419687372,-1.3217075185428622,2.01187649416545,0.0211365132872618,-0.0075206694190485,0.049773742934963,1.0105693733234742,0.7251325303569823,-0.712572798959246,-0.933157514932788,-1.3312501691334853,2.021210216122796,1.0592678542511047,0.8997493727169529,-0.8335340451727725,1.0780833001252288,-1.077529284452261,0.0038005977505028,-0.0343481966548708,10.478133519095536,-0.9502874983945212,0.3347813970533535,-0.7615481345537435
1.52,-0.8957922226351462,-1.307216672503847,1.997569369602212,0.0215334999117785,-0.0215034672920684,0.0496758181505749,0.983665377313128,0.7240882076950867,-0.7183192821210035,-0.911972157847766,-1.3132551816791462,2.0045395352193407,1.0579960756265998,0.9397493733129992,-0.847822169614873,1.376533399408847,-1.345199800517305,-0.052216133094779,-0.287324158087876,10.104599797045012,-0.9612284924083274,0.3346401957769027,-0.7478399928671678
1.54,-0.8764338596084218,-1.2927568511391396,1.983122299981092,0.0200912593091497,-0.0325752188865323,0.0495189658167452,0.9534684391139192,0.7221505018378725,-0.7261430348460559,-0.8907868007627439,-1.2952601942248072,1.987868854315885,1.0567242970020951,0.9797493739090458,-0.8621102940569736,1.5627066961674976,-1.5098469099604497,-0.09688529286071,-0.3911876362526212,9.841386350666651,-0.9686865666242848,0.3340422691003895,-0.7402926423332776
1.56,-0.857709986151155,-1.2783273916258042,1.96851059747081,0.0167439174279211,-0.040228399733698,0.0493268274077733,0.9204452890498004,0.721480255230692,-0.7346226563338746,-0.8696332381433344,-1.276265206755567,1.9708409703013767,1.0554525183775902,1.0197493745050925,-0.8763984184990741,1.7050525294315784,-1.65115750320593,-0.0335123303590256,-0.4239810743909333,9.771019300481385,-0.9731832433479752,0.3341293972112171,-0.7367405270294509
1.58,-0.840560015279434,-1.2646057827991006,1.9544725626245485,0.0128372328813931,-0.0436903010481411,0.0491863801214273,0.8865911987763697,0.7231287542812684,-0.7426345112430434,-0.8485114699895375,-1.2562702192714257,1.9534558831758169,1.0541807397530856,1.0597493751011386,-0.8906865429411747,1.7414123552787,-1.692704513671539,0.0824249525288201,-0.400592745458439,9.768414841123558,-0.974868056582689,0.334242705018709,-0.7376306036043885
1.6,-0.8232015261282558,-1.250112007149678,1.939537298015995,0.0086567469619561,-0.0430955812941946,0.0491031257061907,0.8514860901320411,0.7262939591111001,-0.7503901058206678,-0.7962304553406155,-1.2284493450850371,1.917340837062396,0.8774206497860009,0.8231287557713846,-0.7322496759402136,1.80453347281048,-1.755255432216429,0.1582602414915812,-0.3877797288812212,9.799720616401828,-0.973546471812642,0.3336572129633249,-0.7438013436740162
1.62,-0.8065274751394154,-1.2354708871821267,1.924701961334816,0.0070263235460746,-0.0394153820015604,0.0492253774779814,0.8180348796615595,0.7367995838340586,-0.7314011469370243,-0.7962304553406155,-1.2284493450850371,1.917340837062396,0.8774206497860009,0.8231287557713846,-0.7322496759402136,1.993697690376352,-1.6725605235240804,0.5252812361479287,0.9494479441821746,11.550283600427974,-0.9672803819261764,0.3283089056500843,-0.7620476993079851
1.64,-0.7905031123796433,-1.2206596912872645,1.9102902691155024,0.008525523564725,-0.0336766849888287,0.0495820135219022,0.786514221018833,0.7435969204700811,-0.7108091140046507,-0.7962304553406155,-1.2284493450850371,1.917340837062396,0.8774206497860009,0.8231287557713846,-0.7322496759402136,1.9129738150995843,-1.576032932136329,0.3398668318011222,1.0296016466186777,11.550283600427974,-0.965497565763064,0.3289671727674485,-0.7623758948755477
1.66,-0.7758436185964268,-1.2064884360256558,1.896961454461069,0.0111596041404904,-0.0266632463455647,0.0500291892925912,0.7585650577569643,0.7476416219170146,-0.6932098809262389,-0.7874562488427556,-1.2202180575273234,1.910018340302994,0.8755865399879271,0.8431287560694077,-0.7301727088796477,1.6637670673667642,-1.3974581630934346,0.2022350723466737,0.8799616539205912,11.438931338586372,-0.9621314394723028,0.3284526370449606,-0.7655132887369637
1.68,-0.7609587796855741,-1.191516920649523,1.8832767386391849,0.0138635114734251,-0.0180050564883711,0.0505273076477213,0.7317734629650874,0.7494000111307393,-0.6762320100320062,-0.7699078358470355,-1.2037554824118957,1.8953733467841896,0.8719183203917795,0.8831287566654542,-0.7260187747585157,1.588340001558469,-1.3395797395938436,0.0879194606862365,0.8488935447116375,11.289202521064,-0.957441689780262,0.3273867144774913,-0.7711947202434666
1.7,-0.7465805376885789,-1.1765235298466514,1.869917552358357,0.0157049967788197,-0.0084461724618629,0.0509944171632863,0.7077565071331073,0.7500470035189513,-0.6605672737631947,-0.7523594228513155,-1.187292907296468,1.8807283532653851,0.868250100795632,0.9231287572615008,-0.7218648406373839,1.4340647901656174,-1.2008477915990023,0.0323496194105987,0.7832368134405743,11.08612838314366,-0.95168867126772,0.3266590833056,-0.778257356171558
1.72,-0.7326520754459367,-1.1615271940725458,1.8568609806051748,0.0162438315488485,0.0016160730742335,0.0513867998809962,0.6866496894246792,0.7498285797962364,-0.6458483095576735,-0.7349944208354029,-1.168830332151238,1.8662910564526376,0.8645818811994845,0.9631287578575471,-0.717710906516252,1.2866559077535795,-1.0553408854214077,-0.0109211861357427,0.7359482102760606,11.08612838314366,-0.9454016314301557,0.3266166727970043,-0.7857944294666264
1.74,-0.719782034147564,-1.1472907351682091,1.844734268756261,0.0151249147655206,0.0112414019397535,0.0516418306405321,0.6694069991387636,0.7490487982312349,-0.6313722795923443,-0.7176294188194903,-1.150367757006008,1.85185375963989,0.8609136616033369,1.0031287584535935,-0.7135569723951201,1.1263590359452806,-0.8621345142957815,-0.0389890782500734,0.7238014982664576,11.02661292646826,-0.9383341823010848,0.3275621899363364,-0.7939555488154385
1.76,-0.7065592401417612,-1.1323094288894615,1.8322737260181805,0.0121749620926807,0.0210363281721476,0.0517600646349706,0.6540318829082212,0.7495445104847817,-0.6154068063215108,-0.7003561222934813,-1.1309051818458769,1.8375203111801703,0.8572454420071894,1.04312875904964,-0.7094030382739882,1.1085308594066094,-0.7687558115271165,0.024785612677336,0.7982736635416765,11.097006411501752,-0.9320374844190608,0.3303238333261182,-0.7998475931340029
1.78,-0.693616747897778,-1.117286379279939,1.8201401084287765,0.0083713934908911,0.0301217967581661,0.051777496231648,0.6411631538157677,0.7529684001355349,-0.5987599771937376,-0.683174531257376,-1.1104426066708444,1.8232907110734795,0.8535772224110418,1.0831287596456864,-0.7052491041528562,1.065884760193112,-0.6434364546226756,0.1711944825376621,0.8323414563886578,11.097006411501752,-0.9269522937734512,0.334168101536884,-0.8031745308284884
1.8,-0.6815384425174121,-1.1029304026667908,1.8089252014370791,0.0048297042335206,0.0378593990096403,0.0517621528635853,0.6309914358805043,0.758044286201195,-0.58259715834204,-0.6615585902069897,-1.0796379592731622,1.7902021095690897,0.6620467158590769,0.852968401625651,-0.5544078220149523,0.9880095879328744,-0.5085858967631696,0.2537943032830059,0.808140942584884,11.130557438267717,-0.922639998266948,0.3386860940671722,-0.8046998322703336
1.82,-0.6690170717149836,-1.0876247014615106,1.7975867582251568,0.0039856805818086,0.0450539242768875,0.0519219242017585,0.6219071838310387,0.7714092715650908,-0.551384649340712,-0.6615585902069897,-1.0796379592731622,1.7902021095690897,0.6620467158590769,0.852968401625651,-0.5544078220149523,1.7573895322561164,-0.4542126024732806,0.6682492681947871,1.5606254500663996,11.150450108602854,-0.9182242260582988,0.3401684091491457,-0.8084972835717429
1.84,-0.6566572603544741,-1.0720901484628065,1.7868909013413703,0.0068718764711845,0.0513348378149025,0.052342166151598,0.6146437474029933,0.7809379038879627,-0.5198278376615455,-0.6615585902069897,-1.0796379592731622,1.7902021095690897,0.6620467158590769,0.852968401625651,-0.5544078220149523,1.6877386542672368,-0.3631718214022694,0.4764316161435966,1.5778405839583232,12.164713499449135,-0.9177281560702208,0.3431783632876718,-0.8029637694114694
1.86,-0.6444276898607834,-1.056413946511019,1.7768042888131703,0.0110230534732243,0.0567150576050419,0.0528601730853831,0.6087564301937796,0.7860460694710267,-0.4904022541346904,-0.6549381230483989,-1.0711082752569057,1.7846580313489402,0.6662234282677387,0.8729684019236742,-0.5455373909791953,1.5220207172060989,-0.294365860460688,0.2554082791532019,1.4712791763427515,11.912513432546804,-0.9175972118044584,0.3448082248750179,-0.7983927930757297
1.88,-0.6329080682670865,-1.0414547551415578,1.767747448957924,0.0145549202337429,0.0610373632675518,0.0533280275394875,0.6041585596159955,0.7885437287352809,-0.4644091463366305,-0.6416971887312174,-1.0540489072243928,1.773569874908641,0.6745768530850624,0.9129684025197208,-0.5277965289076811,1.3257265636736075,-0.2298935288892023,0.1248829632127079,1.2996553899029983,11.912513432546804,-0.9178651682161756,0.3461881330206035,-0.7940720953320913
1.9,-0.6208683115870905,-1.0256691042656436,1.7587326265763756,0.0172913004139548,0.0648108336138134,0.0537490715771265,0.6000903324444217,0.7901025099362188,-0.4384966450795743,-0.6284562544140359,-1.0369895391918798,1.762481718468342,0.6829302779023861,0.9529684031157672,-0.510055666836167,1.313809339810066,-0.2034113585786923,0.0779390600468943,1.2956250628528063,11.775197228428624,-0.9183833733578428,0.3478399155990116,-0.7898915904603803
1.92,-0.6089029202369595,-1.0098603664148782,1.7502196400179553,0.0187937254301754,0.0678308870753683,0.0540747370990759,0.5966422444058129,0.7909786283506192,-0.4140801281059861,-0.6147976488559881,-1.0179301711295643,1.7522806051316189,0.6912837027197098,0.9929684037118136,-0.4923148047646528,1.2337171431486729,-0.1724044019304371,0.0438059207200192,1.2208258486794104,11.676591340797131,-0.9191989875714656,0.3500216333392361,-0.785538517339959
1.94,-0.5970011400269314,-0.9940404313712552,1.7421891058478745,0.0188347615524649,0.0701532192146881,0.0542860286935406,0.5936833773328277,0.7912314179206321,-0.3901781157724584,-0.6011390432979403,-0.998870803067249,1.7420794917948954,0.6996371275370336,1.0329684043078602,-0.4745739426931387,1.2042891996053269,-0.1479433536492602,0.0126394785006478,1.195100616676387,11.550838848100284,-0.9202219664553803,0.3529817025926651,-0.7807873630468992
1.96,-0.5857453946595738,-0.9790003483554516,1.7349999285374087,0.0174992553965745,0.0717288046438818,0.0543787697411404,0.591237344119779,0.7920612701002303,-0.3677595981174591,-0.5872716021194595,-0.9788114349900324,1.73232190000996,0.7079905523543571,1.0729684049039063,-0.4568330806216246,1.1283413346222373,-0.1223016606524352,0.0414926089799094,1.120925882749965,11.525319493106508,-0.921927825370674,0.3568713328883426,-0.7749799891227398
1.98,-0.5739460298341361,-0.9631423730886588,1.727892488746486,0.0148644729893552,0.0727399459919484,0.0543804401296542,0.5887789687079267,0.793981534384834,-0.344149409559589,-0.5731953253205456,-0.9577520668979148,1.723007829776812,0.7163439771716809,1.112968405499953,-0.4390922185501105,1.1907686890476492,-0.1229187705926171,0.0960132142301839,1.1805094278935029,11.525319493106508,-0.92432782123625,0.3615820953062481,-0.7680442604410918
2.0,-0.5621969529814941,-0.947219802666008,1.7212556126165122,0.0117472385885138,0.0731323049890292,0.0543430361191383,0.5861763098364021,0.7982859588170003,-0.320701237193273,-0.5445070813987398,-0.9234432963694172,1.7106850182685065,0.5842912670162396,0.8939815358749501,-0.3133090871842915,1.1990816175455117,-0.1301329435762277,0.2152212216083138,1.1724086183158038,11.49682151435627,-0.9276034592689322,0.3666176453798738,-0.7598271123742487
2.02,-0.5510345558221443,-0.9319297693910182,1.7153844456022158,0.0111258501747355,0.0712274341713492,0.0544488605326471,0.5887681595784806,0.8098732034073187,-0.2984724478169384,-0.5445070813987398,-0.9234432963694172,1.7106850182685065,0.5842912670162396,0.8939815358749501,-0.3133090871842915,1.2600605138433036,0.1295924871039244,0.5793622295159229,1.1114394688167273,11.49682151435627,-0.935446582685767,0.3700549490364826,-0.7474960910587033
2.04,-0.5392443133500925,-0.9156433392340396,1.7096507079481955,0.0133370694449392,0.0651376957417729,0.0547062969762917,0.5894212736489327,0.8179714199860215,-0.2760936355964506,-0.5445070813987398,-0.9234432963694172,1.7106850182685065,0.5842912670162396,0.8939815358749501,-0.3133090871842915,1.1903979441183228,0.0326557035226049,0.4049108289351399,1.1189406110243882,11.470961812683528,-0.9449019120690472,0.3740102596455502,-0.7299922974003603
2.06,-0.5274929719539416,-0.8992284348797069,1.7043433301551485,0.0166886502928079,0.056510494118253,0.0549815387812139,0.5852100519214107,0.8228053581529271,-0.2558392963243346,-0.5386641687285775,-0.9145034810106676,1.7075519273966635,0.5833937266779021,0.9139815361729732,-0.307141022709232,1.062237739385351,-0.2105610863760987,0.2416969083452791,1.0127169636058002,11.216228664953633,-0.9558158872740944,0.3769614396258242,-0.7110409029388005
2.08,-0.515876202042604,-0.8827500065244644,1.6994138121275697,0.019668322485301,0.0470889996395323,0.0551818148004703,0.5763647604612838,0.8249906127783742,-0.2380845125609211,-0.5269783433882527,-0.8966238502931686,1.7012857456529775,0.5815986460012273,0.9539815367690198,-0.294804893759113,0.9978061751640488,-0.4422645730063457,0.1092627312723526,0.8877391881706748,11.216228664953633,-0.9660420159373168,0.3790774002568594,-0.6939492448324525
2.1,-0.5050435037431139,-0.8670682925379279,1.6950400479195675,0.0216079234833388,0.0386056052827101,0.0552933733321623,0.5642246536896919,0.8258822311831232,-0.2231703853178224,-0.5152925180479279,-0.8787442195756696,1.695019563909292,0.5798035653245525,0.9939815373650662,-0.2824687648089939,0.9625595659862806,-0.607005338579597,0.0445809202374525,0.7457063621549354,11.064882734759522,-0.9756437134080498,0.3809789818033712,-0.6779845495750476
2.12,-0.4939217499347871,-0.8505517116957136,1.690728719029117,0.0224448299227262,0.0310281457246143,0.0553429323926025,0.548431982788315,0.8258599579032657,-0.2087896878233792,-0.5036964467414368,-0.8588645888283684,1.689370188613112,0.5780084846478776,1.0339815379611126,-0.2701326358588749,1.0679576427987176,-0.7896335450688463,-0.0011136639928743,0.7190348747221589,10.941564907458996,-0.9834246207562004,0.3828749596804182,-0.6647165309759834
2.14,-0.483146532661836,-0.8340444703094495,1.6866929040469485,0.0216097170213174,0.0256126245221578,0.0553265613369294,0.5297026705150147,0.8250432096140825,-0.1955463299666669,-0.4921003754349457,-0.838984958081067,1.6837208133169324,0.5762134039712028,1.0739815385571592,-0.2577965069087559,1.1476505819712968,-0.9364656136650108,-0.0408374144591605,0.6621678928356175,10.864966056389676,-0.9890526668074822,0.3852246629090098,-0.6543510574687434
2.16,-0.4727752951238522,-0.8175467730259414,1.6829148706813533,0.0190462810490766,0.0233884194138158,0.0552713373287427,0.5085684024927049,0.8250421783308579,-0.1828835711191609,-0.4805491811453716,-0.8181053273188645,1.6783798412445057,0.5744183232945279,1.1139815391532055,-0.2454603779586369,1.2318712874449034,-1.0567134011154944,-5.156416122975571e-05,0.6331379423752975,10.814495417025682,-0.9923887221685344,0.3874905766332581,-0.6481679215868117
2.18,-0.4633110232598406,-0.8018493554117478,1.6795626493589657,0.0157651703479576,0.0243089421338062,0.0552281262156211,0.4890793335710501,0.8275304658898041,-0.1705783970641465,-0.4690428638727142,-0.7962256965417609,1.6733472723958314,0.5726232426178531,1.153981539749252,-0.2331242490085179,1.1591297284312216,-0.9744534460827377,0.1244143779473072,0.6152587027507206,10.78966389368361,-0.9940935805346026,0.3899454125525823,-0.6448566573476874
2.2,-0.453730115769365,-0.7852531548420381,1.6762932850846923,0.0123973355351592,0.0276222641659083,0.0552275118969085,0.4703391410920825,0.8320009069167054,-0.156958736389138,-0.4388570565812881,-0.7604728321172576,1.6710337295057585,0.4836058632557129,0.9275304673799202,-0.1505614008741946,1.1796978575318862,-0.9370096239483788,0.2235220513450653,0.6809830337504263,10.78793612856407,-0.9942091919829286,0.3925880573103534,-0.6436560564944801
2.22,-0.4445051593886681,-0.7684837436479585,1.6733058713623996,0.0117431013639893,0.0324799205811999,0.0554332682763569,0.4534063226481412,0.8439554709753714,-0.1424195905298307,-0.4388570565812881,-0.7604728321172576,1.6710337295057585,0.4836058632557129,0.9275304673799202,-0.1505614008741946,1.2659173596708866,-0.8466409221970672,0.5977282029333009,0.7269572929653675,10.810159600978295,-0.9948295689113218,0.3940915336270167,-0.6427077026708279
2.24,-0.4355950089762712,-0.7515153887485838,1.6706072299704031,0.0144446342222655,0.0381722997042227,0.0558916382726762,0.4387165325320701,0.8520150570410226,-0.1281581584990648,-0.4388570565812881,-0.7604728321172576,1.6710337295057585,0.4836058632557129,0.9275304673799202,-0.1505614008741946,1.1001537446784575,-0.7344895058035539,0.4029793032825635,0.7130716015382912,10.851384612700713,-0.9943699712750266,0.394866998825739,-0.6427873341934645
2.26,-0.427381245480007,-0.7352838902722182,1.668298501997663,0.0180448164440531,0.0438645479383507,0.0564210069116367,0.4268003640580313,0.8560529784724382,-0.1155749279348866,-0.4340209979487309,-0.7511975274434584,1.6695281154970163,0.4825111691926455,0.9475304676779434,-0.1465580016362043,0.8897156456127278,-0.5958084237019379,0.2018960715707785,0.6291615282089109,10.811748913915835,-0.993330279744515,0.3947779944836109,-0.6443657941669266
2.28,-0.418959203446037,-0.7181425670452352,1.6661173223852412,0.021354920222913,0.049742835649549,0.0569626880469344,0.4161823122523438,0.8580227149729086,-0.1032450404717861,-0.4243488806836167,-0.73264691809586,1.6665168874795326,0.4803217810665106,0.9875304682739898,-0.1385512031602235,0.8195257941063746,-0.5309025902843767,0.0984868250235193,0.6164943731550271,10.74071414593982,-0.991988082408304,0.3944733718739462,-0.6468087927511631
2.3000000000000003,-0.4107311267260959,-0.7009736705295185,1.6641722163134818,0.0235950450062151,0.0551729022419858,0.0574355497906,0.4072317840339237,0.8591074722983786,-0.0918759355025723,-0.4146767634185024,-0.7140963087482616,1.6635056594620488,0.4781323929403757,1.0275304688700362,-0.1305444046842427,0.7255087898242447,-0.4475264109210036,0.0542378662734988,0.5684552484606885,10.681984450148777,-0.9907653307819444,0.3945751029030683,-0.6488646157915015
2.32,-0.4030668586606346,-0.6846484527872342,1.662528783839924,0.0246007352739855,0.0597163939030006,0.0578004443045082,0.4000134329783365,0.859498324523975,-0.0816834865060512,-0.4051141155596949,-0.6935456993708609,1.660894771368364,0.4759430048142408,1.0675304694660823,-0.122537606208262,0.6247867115476975,-0.3609175527793606,0.0195426112798213,0.509622449826054,10.59266260467666,-0.989627256857844,0.3953145699221487,-0.6503149657082462
2.34,-0.3951363581572311,-0.6674614720529729,1.661004917737424,0.0241382140594796,0.0637393104691813,0.0580632822361295,0.3934549648780844,0.859347084702277,-0.0712482973127135,-0.3955514677008874,-0.67299508999346,1.6582838832746791,0.473753616688106,1.1075304700621291,-0.1145308077322812,0.6162985291367418,-0.3279234050126062,-0.0075619910848978,0.5217594596668866,10.59266260467666,-0.9889077993463798,0.3968978298956988,-0.6506114110258102
2.36,-0.387328900646807,-0.6502684393994782,1.659688041762767,0.0221067723908562,0.0669360654689422,0.0581965352593099,0.3876281911440906,0.8600912159287013,-0.0609634741760946,-0.3860435545452332,-0.6514444806011582,1.6558731651428935,0.4715642285619711,1.1475304706581757,-0.1065240092563005,0.5922048006830735,-0.2913386866996909,0.0372065613212124,0.5142411568309454,10.577406267455444,-0.9890146923290594,0.3991604644485698,-0.649443592182055
2.38,-0.3796331224362081,-0.6330414212553584,1.6585770888650766,0.0190771939701813,0.0693087384029522,0.0582410603616502,0.3821919379615608,0.8628816688491154,-0.0506355651019632,-0.3765903760927325,-0.6288938711939552,1.6536626169730078,0.4693748404358362,1.1875304712542218,-0.0985172107803197,0.6000107957552485,-0.2718126591264885,0.1395226460207066,0.5163954537065703,10.564716297933956,-0.9900597952295916,0.4021946489876395,-0.6465429549164862
2.4,-0.372421857816229,-0.6166007609039792,1.6577141133926805,0.0162618203126329,0.0708756060841106,0.0582754018861519,0.377130271577552,0.8675116086255374,-0.0407214417006798,-0.36052352553813,-0.5898973378129027,1.6560453106099784,0.3879360301279846,0.9065469699038315,-0.0579320551192878,0.6027989957941505,-0.2530833192004394,0.2314969888211004,0.4957061700641703,10.564716297933956,-0.991527736755828,0.4052221059372265,-0.6429437856052713
2.42,-0.3649607911351012,-0.5989451959379266,1.6569818746685572,0.0216341821501908,0.072159222459451,0.0588864995778804,0.3694682899964654,0.8941235958136802,-0.0332213078292813,-0.36052352553813,-0.5898973378129027,1.6560453106099784,0.3879360301279846,0.9065469699038315,-0.0579320551192878,1.4345346213490986,-0.3830990790543276,1.3305993594071364,0.3750066935699233,10.566274534362492,-0.995422864795294,0.4051697729592389,-0.6376410034311247
2.44,-0.3576446539702677,-0.5809532003821901,1.6563725653018722,0.0355438243757126,0.0734806086540727,0.0600898157324572,0.3626926048576253,0.902272890972026,-0.0281044630859642,-0.36052352553813,-0.5898973378129027,1.6560453106099784,0.3879360301279846,0.9065469699038315,-0.0579320551192878,0.5884365318489142,-0.3387842569420068,0.4074647579172974,0.2558422371658533,10.362246899083402,-0.9924128119027238,0.3968141941311647,-0.6472818131414794
2.46,-0.3508133268670278,-0.5638190873440023,1.6558567093095444,0.0496899123902974,0.0748718780021282,0.0612993317161696,0.356803863987859,0.9007832544622856,-0.0264669931161312,-0.3566441652368502,-0.5808318681138643,1.6554659900587856,0.3890848485612693,0.9152800301147748,-0.0593913531227528,0.3145536276396792,-0.2944370434883131,-0.0744818254870327,0.0818734984916509,10.23519823423976,-0.9909247115608788,0.3883079923117088,-0.6547082762205941
2.48,-0.3437375410780302,-0.5458749979481594,1.6553199338082052,0.0630442816516147,0.0764868779418515,0.0624704786612631,0.3511321381298463,0.8938603741826131,-0.0274122627425604,-0.3488854446342905,-0.5627009287157877,1.6543073489563995,0.3913824854278389,0.9327461505366612,-0.0623099491296827,0.4499674439383834,-0.2835862929006394,-0.346144013983618,-0.0472634813214575,9.931092723746588,-0.988680811675262,0.3799807597955406,-0.6629766962967523
2.5,-0.3367695926476075,-0.5281049950155655,1.6547405377370603,0.073909142143074,0.0782163736278978,0.0634730360421701,0.3459839206115628,0.8838285144420746,-0.0305491270567588,-0.3411267240317308,-0.5445699893177111,1.653148707854014,0.3936801222944084,0.9502122709585475,-0.0652285451366125,0.5851971274602482,-0.2574108759141713,-0.5015929870269276,-0.1568432157099232,9.836928827778138,-0.9859042848711658,0.3725856896075066,-0.6712793373652512
2.52,-0.3298986952155202,-0.5105572687442488,1.6540824453509502,0.0820853990759627,0.0799920046836989,0.0642882114089059,0.3413858682314238,0.8720496945735947,-0.0350696815941401,-0.3332531215858426,-0.52556574389854,1.6518441369512815,0.3959777591609779,0.967678391380434,-0.0681471411435424,0.6714128694589423,-0.2299026190069525,-0.588940993423992,-0.2260277268690639,9.836928827778138,-0.9829869690011156,0.3666913548078048,-0.6787934099172115
2.54,-0.3234511786453221,-0.4941129613370562,1.653366773114375,0.0876466964567208,0.081643528432973,0.0649011594954336,0.3375388122583824,0.8600288869278366,-0.0400087220383488,-0.3253795191399545,-0.5065614984793692,1.6505395660485496,0.3982753960275474,0.9851445118023204,-0.0710657371504723,0.677668386132846,-0.1923527986520679,-0.601040382287904,-0.2469520222104351,9.786774862817763,-0.9798521462028046,0.3616776461997996,-0.6860298790637704
2.56,-0.3167378472196338,-0.4770470410742016,1.6525102002330907,0.0916937653610017,0.0832506942673571,0.065402014705164,0.3340176256999437,0.8474624602151414,-0.045379386928945,-0.3174484757724021,-0.487120600049651,1.649162030245644,0.4005730328941169,1.002610632224207,-0.0739843331574022,0.7056165326718778,-0.1760593279219374,-0.6283213356347628,-0.2685332445298099,9.764386639535587,-0.9769445419751256,0.3578162578051905,-0.6922521626682578
2.58,-0.3100896823324718,-0.4602332744673457,1.651546190852884,0.0943286490417172,0.0846317032039667,0.0657751080538201,0.3309817908425043,0.8347770943332165,-0.050734987455817,-0.3094599914831854,-0.4672430486093857,1.6477115295425653,0.4028706697606865,1.0200767526460934,-0.076902929164332,0.7050128683991895,-0.1517917428719706,-0.6342682940962463,-0.267780026343602,9.76294908521504,-0.974403538274214,0.3548724517265614,-0.6974650407535566
2.6,-0.3034977085019777,-0.4436769730639813,1.650476383879585,0.0957269196019161,0.0857236928411934,0.0660251753897591,0.3283484625368481,0.8217192806047897,-0.0559680182339625,-0.2935405927903466,-0.4184944197506849,1.649009441480093,0.3041481075901697,0.8081657531697004,-0.0565873877810557,0.7155863477887862,-0.1316664152828106,-0.6528906864213369,-0.2616515389072721,9.771414962499875,-0.971856922800371,0.3524033638846997,-0.7024623116347454
2.62,-0.2972095325670057,-0.4280008613200572,1.6494283533890384,0.1020468060792875,0.0838524124876244,0.066311775667788,0.3336424913153235,0.8250687185906888,-0.0544466437948839,-0.2935405927903466,-0.4184944197506849,1.649009441480093,0.3041481075901697,0.8081657531697004,-0.0565873877810557,0.3223354452763103,0.26470143892377,0.167471899294952,0.0760687219539302,10.07657739960996,-0.9809601139758364,0.3508764763767096,-0.6932748821752907
2.64,-0.2904946370743366,-0.4116048370049898,1.6483301768497107,0.1131445285327609,0.0765700796109193,0.0663011600853481,0.3367927540082747,0.8137580525729292,-0.0556037446176606,-0.2935405927903466,-0.4184944197506849,1.649009441480093,0.3041481075901697,0.8081657531697004,-0.0565873877810557,0.5899029647195624,0.1575131346475633,-0.565533300887977,-0.0578550411388382,10.07657739960996,-0.9815608328772124,0.3428716893052292,-0.6947662680352787
