t,x,y,z,roll,pitch,yaw,v_x,v_y,v_z,ref_x,ref_y,ref_z,ref_v_x,ref_v_y,ref_v_z,a_com,a_x,a_y,a_z,thrust,wind_x,wind_y,wind_z
0.0,-0.3341681551906099,0.8829052566877346,1.9656136741193728,0.0263021683207394,0.0998582788973975,0.0422539906686754,0.0043270502700341,-0.0088908075322903,0.0077954171523284,-0.3340394955601501,0.8826298726296647,1.965849107336195,-0.0066248922374745,-0.1091279146806839,-0.0921664110440831,0.6295600670199188,0.2163525135017069,-0.4445403766145166,0.3897708576164233,10.250925845087297,-0.9418699982229016,0.2571251567140517,-0.8763721432169482
0.02,-0.3341087418560834,0.8830251168512766,1.965535216127708,0.0331844895083393,0.0994622381024762,0.0427144943725842,0.0018026652219753,0.0150905728662759,-0.0158174231898317,-0.3340394955601501,0.8826298726296647,1.965849107336195,-0.0066248922374745,-0.1091279146806839,-0.0921664110440831,1.6874872997418016,-0.1262192524029401,1.1990690199283118,-1.1806420171080128,10.250846086033562,-0.9377127134320185,0.258927437509196,-0.8725999193118961
0.04,-0.3340985426800728,0.883349572833543,1.9649583169372724,0.046611328219464,0.0986629849693293,0.0435898179193587,-0.0005986046539781,0.0172604348998106,-0.0437311253051538,-0.3340394955601501,0.8826298726296647,1.965849107336195,-0.0066248922374745,-0.1091279146806839,-0.0921664110440831,1.4050348430240744,-0.1200634937976717,0.1084931016767356,-1.3956851057661048,8.87573215893326,-0.9271409346534863,0.2398901682065071,-0.8952942595244429
0.06,-0.3341392336720781,0.8836538994250196,1.9637708080585956,0.0613585318670713,0.0977107593806876,0.0445061237095592,-0.0033606235803779,0.0126822794833867,-0.0735979259394527,-0.3341057444825248,0.8815385934828579,1.9649274432257544,-0.0088099946033855,-0.1291279149787071,-0.1121664113421063,1.517081108325851,-0.1381009463199935,-0.2289077708211924,-1.493340031714943,8.667816153782042,-0.9177656517364604,0.2184675661814679,-0.9181923571764644
0.08,-0.3342369532818036,0.8838269924288481,1.961989500066238,0.0755893344758701,0.0969448660381894,0.0453517763523086,-0.006232319440395,0.0045385147925277,-0.1030591272240377,-0.3342382423272743,0.8793560351892442,1.9630841150048728,-0.0131801993352075,-0.1691279155747535,-0.1521664119381528,1.5350325090884516,-0.1435847930008562,-0.407188234542952,-1.47306006422925,8.69040575418012,-0.9100085826825828,0.1976397282661616,-0.9382214513994108
0.1,-0.3343905498221253,0.8838066358670464,1.9596260071272609,0.0891363795950391,0.0964869519606681,0.0461290589796297,-0.0089269787251836,-0.0064639611820699,-0.1318942152535713,-0.3343707401720238,0.8771734768956305,1.961240786783991,-0.0175504040670295,-0.2091279161708,-0.1921664125341992,1.5490141767456882,-0.1347329642394275,-0.5501237987298826,-1.441754401476681,8.80841997768539,-0.9028034478892524,0.1778475236451636,-0.9567293417051254
0.12,-0.3345833316615094,0.8835583064350052,1.9568510168136064,0.1013752291795906,0.0963388616811917,0.0468110778105119,-0.0111795137432238,-0.0193730085861016,-0.1588360686783982,-0.3347217482533644,0.8729909185722146,1.957397458533307,-0.0219206087988516,-0.2491279167668464,-0.2321664131302457,1.4979827142292843,-0.1126267509020102,-0.6454523702015873,-1.3470926712413456,8.80841997768539,-0.8950696303310537,0.1569036776787806,-0.976123081741585
0.14,-0.3348293403361229,0.8830075249022091,1.9533690289893304,0.1136221570997657,0.0964391548888859,0.0474730411618773,-0.0132531127093439,-0.0352977432662708,-0.1880390288223691,-0.335072756334705,0.8688083602487986,1.953554130282623,-0.0262908135306736,-0.2891279173628929,-0.2721664137262922,1.6663657075177338,-0.1036799483060029,-0.7962367340084613,-1.4601480071985444,8.864345419573056,-0.8871428996227971,0.1364566707523943,-0.9947868331192804
0.16,-0.3351130026805405,0.8821138229006658,1.949298299091057,0.125248080458333,0.096744160078567,0.0480777311542117,-0.0149598813729525,-0.0535317667828918,-0.2176285389325022,-0.3355330195343411,0.8636258019104814,1.9487108020170376,-0.0306610182624956,-0.3291279179589393,-0.3121664143223386,1.7399222550400275,-0.0853384331804335,-0.9117011758310468,-1.4794755055066542,8.848954392301039,-0.8800279399954056,0.1174926303521043,-1.0108640809683729
0.18,-0.3354261811757081,0.8808318584410944,1.944635423055434,0.136283792409812,0.097190468659569,0.0486221665949806,-0.0162262469569909,-0.0739941186058023,-0.2472504464603328,-0.3361025378522728,0.8574432435572631,1.942867473736552,-0.0350312229943176,-0.3691279185549858,-0.352166414918385,1.8012280043794786,-0.0633182792019196,-1.0231175911455246,-1.481095376391529,8.864285191854378,-0.8734179231107209,0.1001016458287329,-1.0251791670548367
0.2,-0.3357426379183261,0.879214595011772,1.9396575652398604,0.1462473412338164,0.0976767305583807,0.0490770525299421,-0.0169892073951633,-0.0954218258580807,-0.2753163793907433,-0.3362374935235577,0.8771321525108042,1.9322729007324173,-0.0336142815689313,-0.1739941200959184,-0.3472504479504489,1.7659454535558723,-0.0381480219086174,-1.0713853626139227,-1.4032966465205243,8.893652588382793,-0.8664204693476127,0.081953633506513,-1.039982678786943
0.22,-0.3360627298441302,0.8768964246143305,1.933961625263535,0.151868286885366,0.0980816603283913,0.0491616997169038,-0.01497988024679,-0.1333925331403482,-0.2917736688635068,-0.3362374935235577,0.8771321525108042,1.9322729007324173,-0.0336142815689313,-0.1739941200959184,-0.3472504479504489,2.0716264044798023,0.1004663574186658,-1.8985353641133744,-0.8228644736381768,8.928507092421114,-0.863791490839104,0.0655748351340072,-1.053549604201422
0.24,-0.3363400619933688,0.8738844846510685,1.9279607596151371,0.1520565970535036,0.0981483351216301,0.0487817106883918,-0.0129208473396774,-0.1654522529861459,-0.3076125219972577,-0.3362374935235577,0.8771321525108042,1.9322729007324173,-0.0336142815689313,-0.1739941200959184,-0.3472504479504489,1.790903767442667,0.1029516453556268,-1.6029859922898837,-0.7919426566875443,9.851406503355063,-0.8608498218527949,0.0607504616467612,-1.060363281260593
0.26,-0.336579356842795,0.8702538192516789,1.921617847766381,0.149091239303532,0.097801327203511,0.0480929845775888,-0.011197241666287,-0.1954309738844614,-0.3257976406940763,-0.336573636339247,0.875392211309845,1.928800396252913,-0.0370918884913194,-0.1939941203939416,-0.3672504482484722,1.7552728172807102,0.0861802836695211,-1.4989360449157774,-0.9092559348409274,9.740146253644523,-0.8588794477270328,0.0597811516524629,-1.065277010598946
0.28,-0.3367795100446826,0.8662863097337933,1.9152394142121552,0.1446299522878591,0.0971078565814472,0.0472540074882682,-0.0100139774701325,-0.2203201461728905,-0.3446566244460172,-0.3372459219706256,0.8719123289079267,1.921855387293904,-0.0440471023360955,-0.2339941209899881,-0.4072504488445186,1.5624758234265397,0.0591632098077232,-1.2444586144214536,-0.9429491875970448,9.606553553508093,-0.8569262431108084,0.0601197631694723,-1.070713922827699
0.3,-0.3369711961206243,0.8616314510209605,1.9081215176630717,0.1396739787195361,0.0960107944588185,0.046289491170719,-0.009266352142269,-0.2437427356240271,-0.3662300861665121,-0.3379182076020042,0.8684324465060083,1.914910378334895,-0.0510023161808717,-0.2739941215860345,-0.4472504494405651,1.5926321694234815,0.037381266393174,-1.1711294725568282,-1.0786730860247478,9.492795999780355,-0.8550240262103533,0.0606628871606798,-1.076264191771888
0.32,-0.3371531700156683,0.8565255060091768,1.900555316693544,0.1350131489177198,0.09456678943889,0.0452899294829643,-0.0090193681183968,-0.2656367913951862,-0.3893831969877048,-0.3389382539256216,0.8629525640742876,1.905965369346084,-0.0579575300256478,-0.3139941221820809,-0.4872504500366115,1.5933276655455262,0.0123492011936141,-1.0947027885579566,-1.1576555410596323,9.38197069175476,-0.8534561685394176,0.0608156146816997,-1.0815408645136728
0.34,-0.3373356283745294,0.85099356305501,1.8925170072352064,0.1308288377996693,0.0928330282379297,0.0442789972958355,-0.0092930758641283,-0.2864951631221164,-0.4132938530416925,-0.3399583002492391,0.8574726816425668,1.8970203603572724,-0.064912743870424,-0.3539941227781275,-0.5272504506326581,1.586557641531638,-0.0136853872865772,-1.0429185863465085,-1.1955328026993866,9.297690097667328,-0.8537556024543093,0.0613677545193374,-1.084672497498051
0.36,-0.337520104675402,0.8453504974441826,1.8844330255088029,0.1270544311826839,0.0910316617979902,0.0433081382248695,-0.0101677548573726,-0.3063223465229055,-0.4364377104960448,-0.3411522269189759,0.8509927991959451,1.88707535135356,-0.0718679577152002,-0.3939941233741739,-0.5672504512287044,1.5244018522170664,-0.0437339496622127,-0.9913591700394548,-1.1571928727176162,9.262990497946705,-0.8549077711959092,0.0619858838949056,-1.0868267310851332
0.38,-0.3377399649612852,0.8390099915435693,1.875443068782967,0.1230869852144871,0.089153364093186,0.0422856966148709,-0.0118440430332476,-0.3265431396694447,-0.4613540255960298,-0.3425200339348321,0.843512916734422,1.8761303423349465,-0.0788231715599763,-0.4339941239702203,-0.6072504518247509,1.6066371523195906,-0.0838144087937502,-1.011039657326959,-1.2458157549992466,9.243725164283203,-0.856228237977379,0.0627454232561911,-1.0887116498650402
0.4,-0.3380018036051029,0.8322713426318423,1.8659503362319003,0.1190622025942105,0.0875127024420765,0.0412862079046801,-0.0143209382341388,-0.3461470616949342,-0.4866710620629157,-0.3383321671129476,0.822682834560097,1.8523753675031656,-0.0005123246182257,-0.4265431411595608,-0.5181216457423043,1.6057717023936668,-0.1238447600445599,-0.9801961012744748,-1.2658518233442966,9.18975534141373,-0.8575586727757702,0.0640230551627767,-1.0900901063507953
0.42,-0.3383503361701166,0.8251167291722618,1.8562441781234067,0.1151209655087935,0.0881299221930615,0.0405542898975366,-0.0199950670782737,-0.3684012150893413,-0.4811039503109896,-0.3383321671129476,0.822682834560097,1.8523753675031656,-0.0005123246182257,-0.4265431411595608,-0.5181216457423043,1.181562328762307,-0.2837064422067483,-1.1127076697203586,0.2783555875963045,11.15624597324586,-0.8622876777140176,0.0631612880633857,-1.0905802285715624
0.44,-0.3387682090985532,0.8179166708361747,1.8471524518144529,0.1116701685903491,0.0919769374833044,0.040239938528232,-0.0232901817733019,-0.3883390430991206,-0.4763629785821892,-0.3383321671129476,0.822682834560097,1.8523753675031656,-0.0005123246182257,-0.4265431411595608,-0.5181216457423043,1.037848230154842,-0.1647557347514103,-0.996891400488964,0.2370485864400223,11.15624597324586,-0.859839431290732,0.0667231718808101,-1.0918690981046193
0.46,-0.3392454962479423,0.8099400561067569,1.837640213819894,0.1083450489982581,0.0980081290505785,0.0401263259452016,-0.0239376294242573,-0.4081827849081583,-0.475288777682199,-0.3383372903591298,0.8184174031485014,1.8471941510457424,0.0017540190647786,-0.446543141457584,-0.5294751697715593,0.9941669691480626,-0.0323723825477699,-0.9921870904518848,0.0537100449995053,10.86883402481726,-0.853879989540873,0.0695074531351278,-1.0965178500359458
0.48,-0.3397067091753229,0.8015778815375652,1.828108894272916,0.1052432565116153,0.1048957903813519,0.0400914704103,-0.0219028274156539,-0.4269678415944906,-0.4778892110595843,-0.3383475368514944,0.8098865403253103,1.8368317181308964,0.0062867064307874,-0.4865431420536305,-0.552182217830069,0.9536522265390478,0.1017401004301714,-0.9392528343166144,-0.1300216688692623,10.61344937917147,-0.8459595615695455,0.0716455898798796,-1.103188904893227
0.5,-0.3401012869286424,0.7928510540452102,1.8184960020437844,0.1023361922276795,0.111756139486343,0.0400377398082877,-0.017500761303284,-0.4447234299042962,-0.4832835541214763,-0.3383577833438589,0.801355677502119,1.8264692852160505,0.0108193937967961,-0.5265431426496769,-0.5748892658885789,0.9535958779199416,0.220103305618494,-0.887779415490278,-0.2697171530946007,10.41326266755459,-0.8376400789524047,0.0731998010309724,-1.11045032987892
0.52,-0.3403754710531488,0.7842408741580169,1.809242172953432,0.0997812866546999,0.1176908426286958,0.0399163733344142,-0.0115165111155281,-0.4607065935713592,-0.4905487982975427,-0.338141395467923,0.7908248146491255,1.8149714998982789,0.0153520811628049,-0.5665431432457234,-0.5975963139470888,0.9274380626969728,0.2992125093877961,-0.7991581833531491,-0.3632622088033194,10.260695386824407,-0.8297569590773312,0.0747699886035701,-1.1171607375548105
0.54,-0.3405250196676532,0.7748579622632209,1.799345037942317,0.0973850807886409,0.1229686389462885,0.0396898623529507,-0.0036902600153257,-0.476750114433121,-0.4988215761628431,-0.337925007591987,0.7802939517961319,1.803473714580507,0.0198847685288136,-0.6065431438417699,-0.6203033620055985,0.9837220409417108,0.3913125550101206,-0.8021760430880903,-0.4136388932650198,10.14220704339732,-0.8227635242786251,0.075817624610085,-1.1234007874707777
0.56,-0.3405037952100452,0.7651508278997867,1.789277671468824,0.095039271564275,0.1270285622027869,0.0393294493983551,0.0054233468637705,-0.4930237130990204,-0.5075133523435651,-0.3375953025319009,0.7687630889282373,1.7914082530612727,0.0244174558948224,-0.6465431444378162,-0.6430104100641084,1.0288765925285217,0.4556803439548126,-0.8136799332949723,-0.4345888090360988,10.118629660005354,-0.8167366341703677,0.0766677324573399,-1.1290678915462842
0.58,-0.3402906733263799,0.7551207902570494,1.7790321173789236,0.0924431402084939,0.1297306153000682,0.038807384484322,0.0153329069325632,-0.5089586549697858,-0.5166005508084239,-0.3371522802876646,0.7562322260454414,1.7787751153405758,0.0289501432608312,-0.6865431450338627,-0.6657174581226182,1.042471737172542,0.4954780034396385,-0.7967470935382664,-0.4543599232429418,10.109365554081704,-0.8122302223899434,0.077680920609878,-1.1335772715371475
0.6,-0.3399015617055101,0.7453026864258591,1.769126191700879,0.0897217829581387,0.1310628494815071,0.0381693501325077,0.0250172722794504,-0.5235463765778993,-0.52566382218401,-0.3395240279797518,0.72967285750856,1.7532020898385023,0.0561067382404513,-0.6089586564599019,-0.5278880584095063,0.9858136765070354,0.4842182673443564,-0.7293860804056751,-0.4531635687793023,10.0952182739029,-0.8087198074628725,0.0790069572972565,-1.137447491107787
0.62,-0.3392890493054576,0.7346360695604053,1.7587634500407332,0.0860974434792985,0.1322096032325394,0.0374140352939379,0.0359269146224754,-0.5419840415474209,-0.5087622262164326,-0.3395240279797518,0.72967285750856,1.7532020898385023,0.0561067382404513,-0.6089586564599019,-0.5278880584095063,1.3643970571577348,0.545482117151251,-0.9218832484760796,0.8450797983788672,10.073572722452807,-0.8103676193606973,0.0792660125594693,-1.1392503981605293
0.64,-0.3384475329591929,0.7236278129788141,1.748766183196112,0.0819934985515115,0.1338297319060109,0.0366597504132614,0.0477373336435001,-0.5577640516242007,-0.4919536241061853,-0.3395240279797518,0.72967285750856,1.7532020898385023,0.0561067382404513,-0.6089586564599019,-0.5278880584095063,1.2952063738803024,0.5905209510512343,-0.7890005038389936,0.8404301055123631,11.855691479400775,-0.8078736207045236,0.0835614106006706,-1.140125247509133
0.66,-0.3374229365514172,0.7128965234232176,1.7395486789811867,0.0782890616836144,0.1353140026148464,0.0359469025081966,0.0595302127577592,-0.5710383874494992,-0.479148327202833,-0.3389629605973472,0.723583270943961,1.7479232092544073,0.0642615045020289,-0.6289586567579251,-0.5301455599297227,1.0945953797971857,0.5896439557129589,-0.6637167912649233,0.640264845167618,11.633003963570443,-0.8046824246734094,0.0876398198029437,-1.1417828308637896
0.68,-0.3360989919410582,0.7013426947996427,1.7300833524990928,0.074845060080757,0.1364977959386172,0.0351950698081512,0.0722250205919709,-0.583654295036236,-0.468169128748707,-0.3378408258325382,0.711404097814763,1.7373654480862173,0.0805710370251841,-0.6689586573539715,-0.5346605629701556,1.0498357834439256,0.634740391710585,-0.6307953793368404,0.5489599227062991,11.41736275600033,-0.8038500472905183,0.0920045007853332,-1.1406622913598716
0.7000000000000001,-0.3345198762489195,0.6895465854414938,1.720813694512629,0.0719521165477317,0.1371136222283972,0.0344381480132402,0.085003793115139,-0.5953575290814564,-0.4594365211052108,-0.3367186910677292,0.699224924685565,1.726807686918027,0.0968805695483393,-0.708958657950018,-0.5391755660105886,0.9702076460368284,0.6389386261584015,-0.5851617022610223,0.4366303821748102,11.25362063794364,-0.8033523172883998,0.0955298459870973,-1.139651668063751
0.72,-0.3326861969882355,0.6775245454120645,1.711697822353311,0.0696116483478861,0.1370600499529141,0.033673097988758,0.097635548089728,-0.6063582484042296,-0.452580144280393,-0.3347810796767624,0.6850457515265646,1.7160241755978154,0.1131901020714945,-0.7489586585460645,-0.5436905690510215,0.9049681797173692,0.6315877487294521,-0.5500359661386567,0.3428188412408883,11.11529496757339,-0.8035354928400275,0.0982367241574551,-1.1383671551900152
0.74,-0.3307118980770857,0.6659043497781287,1.7031611102948618,0.0678722337944507,0.1363929594337099,0.0329401836975133,0.1094687659142871,-0.6163636680914084,-0.4463612808916467,-0.3328434682857957,0.6708665783675642,1.7052406642776037,0.1294996345946497,-0.7889586591421109,-0.5482055720914545,0.8348768308079026,0.5916608912279547,-0.5002709843589415,0.3109431694373193,11.00697498759564,-0.8044815259184633,0.1002520178065168,-1.1368547090812382
0.76,-0.3283923069994684,0.6534631132767809,1.694300902787947,0.0663040153160303,0.135021123508924,0.0321459999055909,0.1218070050754764,-0.6271855584892202,-0.4399836303460342,-0.33049811858175,0.6556874051936628,1.694344277881381,0.1458091671178049,-0.8289586597381573,-0.5527205751318873,0.8803690758183552,0.6169119580594629,-0.5410945198905892,0.3188825272806228,10.989604350524132,-0.8063788190714161,0.1019373325977952,-1.1346952992587536
0.78,-0.3258274540800239,0.6408048078046101,1.6855653642249346,0.0647078359508101,0.132814320233814,0.031300981683882,0.1339828131962044,-0.6380260918098198,-0.4338880999704969,-0.3277450305646254,0.6395082320048601,1.6833350164091476,0.1621186996409601,-0.8689586603342038,-0.5572355781723203,0.8702341015883546,0.6087904060364018,-0.5420266660299822,0.3047765187768669,10.97723852551644,-0.8092614364238937,0.1036579725792075,-1.13179825805942
0.8,-0.3230228366242137,0.6279320009168479,1.6769474641492943,0.0629305478623278,0.129584177655438,0.0303868724290329,0.1457357285957719,-0.6485696700967647,-0.4281795434054843,-0.3191283134202137,0.6089035032141191,1.6638709592264098,0.1835623031723721,-0.7097977358656632,-0.4158317762186896,0.8394725748025876,0.587645769978376,-0.5271789143472427,0.2854278282506284,10.954412799227612,-0.8130196270149082,0.1054590233709096,-1.1282915015500958
0.8200000000000001,-0.3201408358476138,0.615392339311927,1.6690137561076426,0.0575600318796589,0.1259791538147302,0.0292475327968552,0.156836584037722,-0.6682278314962161,-0.4070205383179421,-0.3191283134202137,0.6089035032141191,1.6638709592264098,0.1835623031723721,-0.7097977358656632,-0.4158317762186896,1.5470744951719295,0.5550427720975054,-0.9829080699725712,1.0579502543771102,10.924163574200064,-0.8216745475100808,0.1097478086104467,-1.1220511515268323
0.84,-0.3168988310173113,0.6019052622590092,1.6611055950558995,0.0488658399619103,0.1223481892873756,0.0278944123760471,0.1666037922043766,-0.6789323172228107,-0.385008664222904,-0.3191283134202137,0.6089035032141191,1.6638709592264098,0.1835623031723721,-0.7097977358656632,-0.4158317762186896,1.317675008506878,0.4883604083327275,-0.5352242863297274,1.1005937047519063,12.060131554569123,-0.8287128577560805,0.1206692984342379,-1.1127378170297708
0.86,-0.3134821195245944,0.5882630624469457,1.6536107070680333,0.040164536011695,0.119220002643534,0.0266218237434915,0.1744387586444006,-0.6846267100999696,-0.3656948354765148,-0.3172926903884899,0.6018055258554625,1.659712641464223,0.1934782011676056,-0.7241520646768319,-0.4122205114683282,1.0803203115287012,0.3917483220011994,-0.2847196438579447,0.9656914373194576,11.904015751760198,-0.8343260042463408,0.1314677819706417,-1.1044757735193735
0.88,-0.3099276865255638,0.57454301642223,1.6464720791459784,0.0325432295878746,0.1169748422374847,0.0255088087811927,0.1805518832538638,-0.6872543479251708,-0.3491144739813986,-0.3136214443250425,0.5876095711381493,1.6513960059398491,0.2133099971580727,-0.7528607222991692,-0.4049979819676053,0.8932848934410331,0.3056562304731586,-0.1313818912600628,0.8290180747558079,11.697678979054215,-0.8382691384408629,0.1403842645425085,-1.0980421759217405
0.9,-0.3064470566795682,0.5614803947034456,1.6399776641760515,0.0266066215674509,0.1158853425682289,0.0246107330691836,0.1856399743597241,-0.6878687980446101,-0.3353328131807954,-0.3099501982615951,0.573413616420836,1.6430793704154754,0.2331417931485398,-0.7815693799215065,-0.3977754524668824,0.7351877217311529,0.2544045552930155,-0.030722505971964,0.6890830400301612,11.523904451815724,-0.8417131965919927,0.1482031631537348,-1.0919787762303343
0.92,-0.3026778849476568,0.547730378215978,1.6334102946337592,0.0217610043250906,0.1156284071533455,0.0238130957357862,0.1910736310122405,-0.6872856143399275,-0.3221910718031314,-0.3052873623986243,0.5577822288224058,1.6351238613661376,0.2529735891390068,-0.8102780375438439,-0.3905529229661595,0.7116356059955319,0.2716828326258233,0.0291591852341288,0.6570870688832026,11.38351767576296,-0.8437203198262824,0.1542935123768041,-1.08751208180834
0.94,-0.2987969990622734,0.5340026168444233,1.6270983296651211,0.0183321784583665,0.1160185970006455,0.0231490007447367,0.1968249465136508,-0.6858497553579863,-0.3096590542799842,-0.3006245265356534,0.5421508412239757,1.6271683523168,0.2728053851294739,-0.8389866951661813,-0.3833303934654367,0.6931644541760108,0.2875657750705154,0.0717929490970603,0.6266008761573572,11.289695915229458,-0.8449115990563304,0.1587696482651985,-1.0840766761002505
0.96,-0.2947939652366612,0.5203016699722884,1.6210338152156365,0.0159359992326514,0.1167281224833658,0.0225803939307333,0.2032282687913039,-0.6844886964912258,-0.2974176989694083,-0.295465895772921,0.5258017371849871,1.6193934065049804,0.2926371811199409,-0.8676953527885186,-0.3761078639647138,0.6940925681601153,0.3201661138826528,0.0680529433380261,0.6120677655287982,11.254536416786324,-0.845651738740889,0.1619988219211463,-1.0813129356807298
0.98,-0.2908670255185265,0.5073124652202333,1.6154972259834703,0.0143334112550022,0.1174099033732656,0.022102837425556,0.2098163502971196,-0.6829693686331119,-0.2859915932887979,-0.2898114701104268,0.5087349167054401,1.611799023930679,0.312468977110408,-0.8964040104108559,-0.3688853344639909,0.6638280389004895,0.3294040752907831,0.0759663929056964,0.5713052840305183,11.233381791641476,-0.8461838148314988,0.1646462915432924,-1.0787867298431268
1.0,-0.2865945938450046,0.4936745299290948,1.6099025660091006,0.0133200173434292,0.1179428662882279,0.0216605936529311,0.2170760317748238,-0.6809396079163625,-0.2740786940426725,-0.2803762080036705,0.4731639967885777,1.6011976463190305,0.2347507762471699,-0.7117552027220334,-0.2526518879705854,0.7048760035873621,0.3629840738852113,0.1014880358374659,0.5956449623062715,11.207377370656104,-0.8467423481832687,0.1665941702791657,-1.0763793024089174
1.02,-0.2820961640865745,0.4799314160120473,1.6046150743515697,0.0082701805174645,0.115993895283649,0.0209302882740748,0.2325036643473987,-0.6910655830378198,-0.2548216545675327,-0.2803762080036705,0.4731639967885777,1.6011976463190305,0.2347507762471699,-0.7117552027220334,-0.2526518879705854,1.333586131734502,0.7713816286287464,-0.5062987560728649,0.9628519737569868,11.207377370656104,-0.8579781814181628,0.1732699091585434,-1.062736681003266
1.04,-0.2773017209679194,0.4661089546652697,1.5997217669826058,-0.0007570406327809,0.1092491420479027,0.0199553594206591,0.2453045832024874,-0.6900730265252466,-0.2354599414146528,-0.2803762080036705,0.4731639967885777,1.6011976463190305,0.2347507762471699,-0.7117552027220334,-0.2526518879705854,1.16159871317467,0.640045942754433,0.0496278256286619,0.9680856576439968,11.72805110367517,-0.8641317232986847,0.1833208772331071,-1.0539103769328495
1.06,-0.2725647324691135,0.4530590226583258,1.5954144835045962,-0.0092270862812259,0.1002137472273106,0.0191460972740139,0.2522303051278499,-0.6837386296482351,-0.2188685978889052,-0.2780287002411988,0.4660464447613574,1.5986711274393246,0.23973766143718,-0.7175123695398177,-0.2459839469069429,0.9531039921911808,0.3462860962681238,0.3167198438505769,0.8295671762873796,11.629061798234034,-0.8746431971532195,0.1944245582673585,-1.0399405994491124
1.08,-0.2674904216046148,0.4394851001189363,1.59120542903176,-0.0167900948299251,0.0897144887634823,0.0185205969302749,0.254423134100976,-0.674151501728141,-0.20295641523717,-0.2733336847162554,0.4518113407069167,1.593618089679913,0.2497114318172001,-0.7290267031753863,-0.2326480647796579,0.9353062030744412,0.1096414486563057,0.4793563960047042,0.7956091325867595,11.4824828650153,-0.8867875793919213,0.2040653012932104,-1.0243527427541672
1.1,-0.2624220074377321,0.4261231648932715,1.5872976395298426,-0.0225863890171758,0.0796029990727537,0.0181208515137175,0.2520415749173338,-0.6627928345161508,-0.1886603415077526,-0.268638669191312,0.4375762366524761,1.5885650519205012,0.2596852021972203,-0.740541036810955,-0.2193121826523729,0.9206911385677484,-0.1190779591821095,0.5679333605995096,0.7148036864708718,11.370788515996535,-0.8988735546320017,0.2116468977102435,-1.0090509426576235
1.12,-0.2574428695825194,0.4130007271298149,1.5836612270496409,-0.0265509828995755,0.0709402646276673,0.0178972691073659,0.2459592033784677,-0.6504768897899931,-0.1756501095207177,-0.2634449651473676,0.422765415916257,1.5841788082674535,0.2696589725772404,-0.7520553704465236,-0.2059763005250879,0.9459702352492988,-0.3041185769433061,0.6157972363078856,0.6505115993517426,11.267751875911928,-0.909286773208167,0.2168332962897039,-0.9959182572002784
1.14,-0.2528543878958185,0.4007659375981539,1.5804430256748163,-0.0288193569022214,0.064715239879189,0.0177867686818085,0.2372855786620971,-0.6384134466464793,-0.1637289306720806,-0.2582512611034231,0.4079545951800379,1.5797925646144062,0.2796327429572606,-0.7635697040820922,-0.1926404183978028,0.9524611951917216,-0.4336812358185282,0.603172157175691,0.5960589424318541,11.194525231469015,-0.9178522167043874,0.2203036762963534,-0.9851609051518366
1.16,-0.2482284173459747,0.3881330941320342,1.5772993520154015,-0.029877815122582,0.0610736665055937,0.017713186740478,0.2256605172488325,-0.625631802435529,-0.1512538892467776,-0.2528082127999783,0.3928559161029296,1.575739718014541,0.2896065133372807,-0.7750840377176608,-0.1793045362705178,1.0655270294090606,-0.5812530706632304,0.6390822105475147,0.6237520712651503,11.176634438422298,-0.923966074996176,0.222325915690442,-0.977010286934048
1.18,-0.2438431689139576,0.3757614392429378,1.574405552201477,-0.0294299578753979,0.0608698569133982,0.0176654407752158,0.2138184896278892,-0.6123159110822755,-0.1387093483042583,-0.2471158202370328,0.3774693786849321,1.5720202684678577,0.2995802837173008,-0.7865983713532294,-0.1659686541432329,1.0896238894285697,-0.5921013810471637,0.6657945676626753,0.6272270471259639,11.183192800387587,-0.9288660285189108,0.2232818502276748,-0.9694371709026696
1.2,-0.2396782393405164,0.3636592661165717,1.571766559158156,-0.0271769201317806,0.0633652883239779,0.0176849137138539,0.2036240263624548,-0.5988313884092406,-0.1257760394916061,-0.2331522444325631,0.3451456436888241,1.5674700847862642,0.2300470220464979,-0.6182883211688178,-0.1165918304157123,1.0642249642736623,-0.5097231632717192,0.6742261336517452,0.6466654406326113,11.167625122728168,-0.9307936375970004,0.2228384191553847,-0.964860567106098
1.22,-0.2356741435215168,0.3517130199340464,1.569355656669928,-0.0264633622084215,0.0669563561028005,0.0175903254701679,0.1974361980062987,-0.595766126828206,-0.1161718561896242,-0.2331522444325631,0.3451456436888241,1.5674700847862642,0.2300470220464979,-0.6182883211688178,-0.1165918304157123,0.591450304809046,-0.3093914178078055,0.1532630790517297,0.4802091650990978,11.170297016824406,-0.9311608622284536,0.223909000684614,-0.9613979518558824
1.24,-0.2319731568856003,0.340447904822162,1.5672383336596325,-0.0290621179227305,0.0702875947580331,0.0172910154031078,0.1925181064694505,-0.5898343326505611,-0.1071657879957433,-0.2331522444325631,0.3451456436888241,1.5674700847862642,0.2300470220464979,-0.6182883211688178,-0.1165918304157123,0.5926277728127325,-0.2459045768424123,0.2965897088822444,0.450303409694041,10.899827803757944,-0.930360471355899,0.2270929497051802,-0.96000786017191
1.26,-0.2281703254501163,0.328757280166163,1.5651939626220157,-0.033108961162675,0.073633496133221,0.0169021046916868,0.1881048353821583,-0.5792897718359927,-0.0977517227507994,-0.2308517742120981,0.3389627604771359,1.5663041664821071,0.2332927285302196,-0.6194828031861263,-0.1121683268380032,0.7404210776614223,-0.2206635543646071,0.5272280407284169,0.4707032622471983,10.915360462718128,-0.9294228534530532,0.2318013399254096,-0.9580668888315172
1.28,-0.2244481316693991,0.3173108572424181,1.5633350914373907,-0.0367657773307615,0.0767466098934616,0.0165613520546106,0.184409056496237,-0.5659958029384772,-0.0886131476086513,-0.2262508337711682,0.3265969940537596,1.5639723298737929,0.2397841414976631,-0.6218717672207432,-0.1033213196825847,0.8274991635198479,-0.1847889442960673,0.6646984448757776,0.4569287571074026,10.898589575528604,-0.928232769658877,0.2363330421304417,-0.9562570420540794
1.3,-0.2207927523530889,0.3061453795228679,1.5616569211538305,-0.0393961972999697,0.0795831260908937,0.0163180358437314,0.1813778773374592,-0.5514332905510481,-0.0796580003836963,-0.2216498933302382,0.3142312276303832,1.5616404932654786,0.2462755544651065,-0.6242607312553602,-0.0944743125271664,0.8681150211049999,-0.1515589579388881,0.7281256193714558,0.4477573612477484,10.890352978050032,-0.9271013193678252,0.2398359416951405,-0.9547201357886864
1.32,-0.2173704704802713,0.2958170387538451,1.5602280412282596,-0.0407092979238199,0.0819943222422006,0.0161975562597997,0.1790547684931779,-0.5367534269390227,-0.0711867011561742,-0.2167243822409361,0.301746013005276,1.5597510070149352,0.25276696743255,-0.6266496952899772,-0.085627305371748,0.8553627022676709,-0.1161554422140664,0.7339931806012667,0.423564961376107,10.890352978050032,-0.9260797017747362,0.2425084591756177,-0.9531277005893912
1.34,-0.2138106914197768,0.2852513452927618,1.558898025284425,-0.040646988400579,0.0842310485579428,0.0162031017114722,0.1770885943324438,-0.5207373026534979,-0.0622509544323242,-0.2117988711516339,0.2892607983801688,1.5578615207643918,0.2592583803999935,-0.6290386593245941,-0.0767802982163296,0.9222657527422764,-0.0983087080367026,0.8008062142762395,0.4467873361924994,10.89038965940017,-0.9252328470157068,0.2439352838402935,-0.951645720575742
1.36,-0.2102849064102329,0.2750095471496544,1.5577471990221194,-0.0387996225770044,0.0861438683469792,0.0163667366409523,0.1756194867450536,-0.5044363795830139,-0.053264741127038,-0.2067110747381457,0.2767158596541962,1.556193209692734,0.265749793367437,-0.631427623359211,-0.0679332910609112,0.9335823472266246,-0.0734553793695122,0.8150461535242015,0.449310665264312,10.892293538656304,-0.9246194356355812,0.2438468235566321,-0.950301746873986
1.38,-0.2067837302229562,0.2650839012724962,1.5567785751076808,-0.0351749932398451,0.0877011814899147,0.0166876974965417,0.1745875355396122,-0.489594894931106,-0.0440178416582212,-0.2014609930004714,0.2641111968273582,1.5547460737999614,0.2722412063348804,-0.633816587393828,-0.0590862839054928,0.8758420801571982,-0.0515975602720694,0.7420742325953966,0.4623449734408403,10.893940748670502,-0.924129678342086,0.2421675759985709,-0.9493492490697324
1.4,-0.2032994243786451,0.2554243427096125,1.555998825926892,-0.0308914970581769,0.0889038202771186,0.0170846068285156,0.1738919296980052,-0.477323900668181,-0.0344076756041258,-0.1980543534459756,0.2406041565259409,1.5545776830247695,0.1972523190620989,-0.4693463477347177,-0.0251786630513534,0.7800904743600308,-0.0347802920803497,0.6135497131462497,0.4805083027047692,10.91480709724783,-0.9242528074077389,0.2400271283868559,-0.9480260785034113
1.42,-0.1999925120292627,0.2463456445541987,1.5554239693804803,-0.030436394812741,0.0895069563846628,0.0172420198539764,0.1741195256201294,-0.4771385674960924,-0.0266407832304965,-0.1980543534459756,0.2406041565259409,1.5545776830247695,0.1972523190620989,-0.4693463477347177,-0.0251786630513534,0.3886218130521749,0.0113797961062103,0.0092666586044259,0.3883446186814615,10.91480709724783,-0.925006524963904,0.2409650753908166,-0.9452269363272162
1.44,-0.1965138126082547,0.2368579333610319,1.554974861423121,-0.0347858891016514,0.0895764757211862,0.0171103438506857,0.1736707607966122,-0.4706166841008777,-0.0186907715023713,-0.1980543534459756,0.2406041565259409,1.5545776830247695,0.1972523190620989,-0.4693463477347177,-0.0251786630513534,0.5146334602533453,-0.0224382411758594,0.326094169760735,0.3975005864062623,10.80864288220073,-0.9262631707259136,0.2459232615560772,-0.941385647097464
1.46,-0.1930512822808504,0.2275727306869024,1.5546797235115226,-0.0404695202794559,0.0894190720957937,0.016921601690213,0.1725786773912642,-0.4580657410337044,-0.011239640314401,-0.1960818302553546,0.2359106930485937,1.554325896394256,0.2017852757665962,-0.4652966382954401,-0.0214108273299798,0.731843859747432,-0.0546041702673985,0.627547153358668,0.3725565593985167,10.799717657328983,-0.9275176398537134,0.2524471137298715,-0.936600723352659
1.48,-0.1896163349634714,0.2185760855726434,1.554528154284081,-0.045535648918043,0.0892920873792473,0.0168037536805734,0.1709919833851991,-0.4424407760080666,-0.0042752283753407,-0.1921367838741126,0.2265237660938993,1.553822323133229,0.2108511891755909,-0.4571972194168848,-0.0138751558872327,0.8590112973328856,-0.0793347003032574,0.781248251281888,0.3482205969530111,10.774713303052522,-0.9284451692737204,0.258183912745703,-0.9323584470715386
1.5,-0.186216438329678,0.2099097609899778,1.554513128300722,-0.0493709050758608,0.0893643802940797,0.0167895493629458,0.1691208004473514,-0.4253057885727582,0.002447087746639,-0.1881917374928707,0.217136839139205,1.553318749872202,0.2199171025845856,-0.4490978005383295,-0.0063394844444856,0.9250657463646852,-0.0935591468923857,0.8567493717654223,0.3361158060989917,10.752681030082384,-0.9297328354679452,0.2634213509874673,-0.9274263019333332
1.52,-0.1830223147138851,0.202001583582828,1.55462304767249,-0.0517821730120012,0.0897009952719039,0.0168708715036685,0.1672496583294291,-0.4083244694621106,0.0088103018837982,-0.1837933954411789,0.2081548831284384,1.5531919601833124,0.2289830159935802,-0.4409983816597742,0.0011961869982614,0.9115328651760846,-0.0935571058961123,0.8490659555323771,0.3181607068579607,10.740784908472053,-0.9309062461097408,0.2675948641196307,-0.922771371150946
1.54,-0.1796976424375218,0.1940280455466026,1.554870576847334,-0.0531077165271806,0.0903602959456626,0.0170459001595018,0.1653649872384077,-0.3900652400762601,0.015628173118544,-0.1793950533894872,0.1991729271176718,1.5530651704944227,0.2380489294025749,-0.4328989627812188,0.0087318584410086,0.9790745771645956,-0.0942335545510722,0.9129614692925252,0.3408935617372897,10.738488402207622,-0.9320255613731318,0.2709703855203036,-0.9180312561873594
1.56,-0.1764077903571444,0.1864286908873179,1.555255330270494,-0.0529447070585145,0.0912801845426299,0.0173299866517234,0.1637653706768373,-0.3709431628549107,0.0225260014114654,-0.1747700635025706,0.1903934565788691,1.5531267725916016,0.2471148428115696,-0.4247995439026636,0.0162675298837557,1.019549711345561,-0.0799808280785172,0.95610386106747,0.34489141464607,10.74297736617882,-0.932991669231492,0.2733227434530978,-0.9134587431072952
1.58,-0.1731463038143298,0.1792181483984055,1.555779926122964,-0.050838978219143,0.0923570407617675,0.0177583803656122,0.1625145779469548,-0.3513772273856603,0.0296173463956182,-0.1699184257804292,0.1818164715120303,1.5533767664748492,0.2561807562205643,-0.4167001250241083,0.0238032013265028,1.0424460260899209,-0.0625396364941272,0.9782967734625198,0.3545672492076412,10.744597437608718,-0.93373963958453,0.274311347585719,-0.9093699525999268
1.6,-0.1700671343192352,0.1727178379742533,1.5564129967680866,-0.0471461495397826,0.0934330813832806,0.0182948544857383,0.161714268781223,-0.3344436406152409,0.0367063447177682,-0.165020574916982,0.1616492870291224,1.5572607934427447,0.1789701519080935,-0.3237738395530187,0.0286675850892169,0.9187501739911732,-0.0400154582865922,0.8466793385209725,0.3544499161075,10.751043387725986,-0.9343892473265648,0.2738105689944475,-0.9058075561924586
1.62,-0.1668214574128976,0.1661607257559079,1.557169372060374,-0.0435832121106505,0.093840006184749,0.0188832232148991,0.162815516638033,-0.3218526704494815,0.0382320486543385,-0.165020574916982,0.1616492870291224,1.5572607934427447,0.1789701519080935,-0.3237738395530187,0.0286675850892169,0.6365395688000006,0.0550623928405005,0.6295485082879665,0.0762851968285151,10.759087727752558,-0.9353582870934338,0.2745102742528982,-0.9004706799522649
1.64,-0.163560488633007,0.159858238106551,1.557944975808922,-0.0410243843883991,0.0929983187001459,0.0194662452225645,0.1631089141840508,-0.3089354693168389,0.0393040592874053,-0.165020574916982,0.1616492870291224,1.5572607934427447,0.1789701519080935,-0.3237738395530187,0.0286675850892169,0.6482464308011313,0.0146698773008921,0.6458600566321332,0.0536005316533364,10.349376881432365,-0.9361059669293688,0.274822778454753,-0.8971800087216705
1.66,-0.1603051251780788,0.1538165175179479,1.5587450397571885,-0.0389497999239849,0.0914687269035698,0.0200519024330217,0.1623227300832259,-0.2958657269579811,0.0406600494593565,-0.1632308733979011,0.1584115486335923,1.5575474692936369,0.1822612667003213,-0.3182531619864904,0.0284776328279366,0.6581697351628623,-0.0393092050412449,0.6534871179428914,0.0677995085975637,10.375464562636807,-0.9377748325250166,0.2755410623269634,-0.892715262912174
1.68,-0.1572386188677669,0.1483183967936176,1.5595318774146838,-0.0371897178296196,0.0898596974644224,0.0206066122219288,0.1604448442804772,-0.2835590955557623,0.0421086537092692,-0.1596514703597392,0.1519360718425319,1.5581208209954212,0.1888434962847768,-0.3072118068534338,0.0280977283053761,0.6266539831340484,-0.0938942901374362,0.6153315701109385,0.0724302124956308,10.375464562636807,-0.9397304037272948,0.2764095298580156,-0.8879760638356181
1.7,-0.1540610423887985,0.1427806938636492,1.5603910170635709,-0.0354742355151228,0.0885093292846039,0.0211756193798564,0.1573776085764228,-0.2708882421603319,0.0437417521624107,-0.1560720673215773,0.1454605950514715,1.5586941726972054,0.1954257258692323,-0.2961704517203771,0.0277178237828155,0.656935063743688,-0.1533617852027213,0.6335426697715196,0.0816549226570758,10.381404968743482,-0.9416904562083112,0.2771878049093788,-0.883525084259462
1.72,-0.150951263440985,0.1374940039592124,1.561283391962028,-0.0338512503676084,0.0878400291098684,0.0217222416592351,0.1538325952306538,-0.2584566052014692,0.0454271259814644,-0.1521635528041927,0.139537186017064,1.5592485291728615,0.2020079554536877,-0.2851290965873205,0.027337919260255,0.6518305032916794,-0.1772506672884477,0.6215818479431368,0.0842686909526855,10.38347957899623,-0.9433906257446196,0.2778393470604643,-0.879654043766814
1.74,-0.1479134633413351,0.132452928178185,1.562207355526,-0.0322900156003513,0.0878733450489536,0.0222497178993719,0.1502139828100135,-0.2463212961767902,0.0468960247920193,-0.148255038286808,0.1336137769826564,1.559802885648518,0.2085901850381432,-0.2740877414542638,0.0269580147376945,0.6374122384511397,-0.1809306210320174,0.6067654512339482,0.0734449405277469,10.38087999124582,-0.9443618925844288,0.2784623492360203,-0.87673959777376
1.76,-0.1450923683272607,0.1278880157890815,1.5631103552254892,-0.0307951392637235,0.0884734333211623,0.0227420200037764,0.1470026286472928,-0.2348762294455291,0.0480926126944145,-0.144181968029812,0.1279664018265753,1.5603477445111102,0.2151724146225987,-0.2630463863212072,0.0265781102151339,0.5973570344643184,-0.1605677081360348,0.5722533365630555,0.0598293951197603,10.36234907465132,-0.9448589358736762,0.2790278641793042,-0.8743940140167947
1.78,-0.1421844342079558,0.1233146445538043,1.5640841253165902,-0.0291562470193761,0.0895524042458883,0.0232604390839098,0.1440306837261228,-0.2231380025699327,0.0492211120798328,-0.1399443420332046,0.1225950605488206,1.5608831057606385,0.2217546442070542,-0.2520050311881506,0.0261982056925734,0.6080541457393608,-0.1485972460584989,0.5869113437798168,0.0564249692709125,10.345685762436004,-0.9448762462354554,0.2795213267558364,-0.872639480007152
1.8,-0.1393310029184916,0.118973112556277,1.5650791216110058,-0.0274442843593498,0.0909381849217607,0.0237846350872228,0.1415342199056523,-0.2116965799676482,0.0502309997384744,-0.1349829000216497,0.1121577444253076,1.566545180920582,0.1546319788843898,-0.2194955007947574,0.0237166477962472,0.5877039132379124,-0.124823191023525,0.5720711301142267,0.0504943829320817,10.32339839582437,-0.9446237519142648,0.2800496912054709,-0.8710876159099796
1.82,-0.1365079337154386,0.1149200404093035,1.56605258934878,-0.0236209417177969,0.0918543400618392,0.0244763837814063,0.1408029288940794,-0.1957247767811344,0.0471008276907483,-0.1349829000216497,0.1121577444253076,1.566545180920582,0.1546319788843898,-0.2194955007947574,0.0237166477962472,0.8146030637996428,-0.0365645505786438,0.7985901593256906,-0.1565086023863057,10.32339839582437,-0.9445607461417492,0.2800696760738808,-0.8683625465380287
1.84,-0.1338439260875253,0.1113134161139877,1.566911421704815,-0.0183201624888245,0.0919532338827436,0.025270178645065,0.13960986226809,-0.185078344460906,0.0434760558896779,-0.1349829000216497,0.1121577444253076,1.566545180920582,0.1546319788843898,-0.2194955007947574,0.0237166477962472,0.5654840840666706,-0.0596533312994695,0.5323216160114191,-0.1812385900535212,10.075090882904988,-0.9429491352682884,0.2769320455508406,-0.8700916803239923
1.86,-0.1310700364758599,0.1077016102483697,1.5677365219482984,-0.0125753341740752,0.0916655950517628,0.0261211574701485,0.1378066781731703,-0.17678012014132,0.0392015468599992,-0.1334365802328058,0.1099627894173601,1.5667823473985445,0.1567522379160432,-0.2187670004397223,0.0186157549395301,0.4753509944849821,-0.0901592047459862,0.4149112159793008,-0.2137254514839325,10.041079427882323,-0.9417756392835394,0.2731394723538957,-0.872091868878459
1.88,-0.1283376664582305,0.10423500874137,1.568471075621224,-0.0073205064197839,0.0912937387335564,0.0269335175302798,0.1355225583741042,-0.1702665911295731,0.0344652788755508,-0.130343940655118,0.1055728794014649,1.5672566803544694,0.16099275597935,-0.2173099997296522,0.0084139692260959,0.4185555454890801,-0.114205989953306,0.3256764505873422,-0.23681339922242,9.991172354798437,-0.9406957537998718,0.2694651058286744,-0.8744196945125519
1.9,-0.1257876164373991,0.1010505649601988,1.5690772179422663,-0.0029620071570875,0.0910635526589064,0.0276552085227636,0.1330407526912752,-0.165192789564036,0.0295716372390938,-0.1272513010774302,0.1011829693855698,1.5677310133103943,0.1652332740426568,-0.2158529990195821,-0.0017878164873382,0.3736661285152651,-0.1240902841414481,0.2536900782768567,-0.2446820818228494,9.991172354798437,-0.9394169370951564,0.2657529949169936,-0.8773408984017436
1.92,-0.1231559738630883,0.0977946157775735,1.5696105370575413,0.000958153376184,0.0910743435041979,0.0283635211682254,0.1302798432569335,-0.1606374775125261,0.023993797553114,-0.123946635596577,0.0968659094051781,1.5676952569806475,0.1694737921059636,-0.2143959983095119,-0.0119896022007724,0.3856351395871488,-0.1380454717170867,0.2277656025754942,-0.2788919842989911,9.971153008737929,-0.9378270620594068,0.2622756334030018,-0.880821425758701
1.94,-0.1205799261463624,0.0946228290435289,1.570027011615548,0.0042486765374362,0.091404056557958,0.0290253381694044,0.1275030196872319,-0.1567311182990814,0.017905649129422,-0.1206419701157239,0.0925488494247865,1.5676595006509009,0.1737143101692705,-0.2129389975994418,-0.0221913879142067,0.3874143217235865,-0.1388411784850773,0.1953179606722366,-0.3044074211846027,9.925829979528316,-0.9358066863983676,0.2590278359846712,-0.8849386872458167
1.96,-0.1180577160918885,0.0915235477297536,1.5703167232300828,0.0069774840031011,0.0920443681293775,0.0296473143281399,0.1249147742878922,-0.1533227192211707,0.0113624118079664,-0.1172312916832881,0.0882682144621466,1.5673686996783185,0.1779548282325773,-0.2114819968893717,-0.0323931736276409,0.3909288719396231,-0.1294122699669851,0.1704199538955328,-0.3271618660727788,9.925829979528316,-0.933539465308732,0.2561431604376721,-0.8893520288969597
1.98,-0.115706808644206,0.0886387587856424,1.5704671236890202,0.0091391096392579,0.0928748618833721,0.0302082339005281,0.1227262248530611,-0.150456000332794,0.0047879418892814,-0.1137146002992696,0.0840240045172585,1.5668228540628997,0.1821953462958841,-0.2100249961793015,-0.0425949593410751,0.3749382633360102,-0.1094274717415563,0.1433359444188375,-0.3287234959342489,9.90685381876392,-0.9308049379544974,0.2533139896222839,-0.8944208538699937
2.0,-0.1132736030196445,0.0856581304944839,1.570486639214467,0.0110402492619271,0.093906923946388,0.0307724532008077,0.1207554901545883,-0.1477360323024973,-0.0025153741205681,-0.1095704974015529,0.0811159587690027,1.5707065207834845,0.1275435118250176,-0.1266497766869877,-0.0061849882291601,0.4019342174949963,-0.098536734923639,0.1359984015148321,-0.3651658004924804,9.891250683744149,-0.9277355678551396,0.2506623215491637,-0.8998791312992602
2.02,-0.1108382692464393,0.082630751339773,1.570458700000839,0.0094969289447897,0.0942192228632392,0.0310880646489112,0.1228642736915696,-0.1543441109724524,0.0006435959197736,-0.1095704974015529,0.0811159587690027,1.5707065207834845,0.1275435118250176,-0.1266497766869877,-0.0061849882291601,0.3810930445112295,0.105439176849064,-0.3304039334977512,0.1579485020170919,9.874929951781269,-0.9290523111282314,0.2476195795332268,-0.9046788816419256
2.04,-0.1084889352047136,0.0796792497184987,1.5704997566095882,0.0036481500198069,0.0931699568823878,0.0310792224695056,0.1241697322322827,-0.1549011307513006,0.0034883206108708,-0.1095704974015529,0.0811159587690027,1.5707065207834845,0.1275435118250176,-0.1266497766869877,-0.0061849882291601,0.1589571609246255,0.0652729270356554,-0.02785098894241,0.1422362345548596,10.446147653647133,-0.93092195812781,0.2547425945768802,-0.8987595432040337
2.06,-0.1060031127684183,0.0766316113651494,1.570587180516112,-0.003497026723833,0.0910599239660225,0.0310213551256117,0.1242165270771078,-0.149644329447557,0.0050422642254432,-0.1082950622833028,0.0798494610021328,1.5706446709011928,0.1285069692194089,-0.1218885319578264,-0.0083795742528484,0.2740934624439827,0.0023397422412564,0.2628400651871782,0.0776971807286169,10.446147653647133,-0.9334967401207288,0.2630930290950467,-0.8914411694506585
2.08,-0.1035322595786006,0.0737259160374409,1.5706908143505631,-0.010023480209435,0.088353387984285,0.0310398646358485,0.1227412888171119,-0.1412510887752843,0.0051912006640999,-0.1057441920468024,0.077316465468393,1.5705209711366095,0.1304338840081915,-0.1123660424995039,-0.012768746300225,0.4261601781290937,-0.0737619129997965,0.4196620336136353,0.0074468219328349,10.35031090322991,-0.9362473128588102,0.2707397703493642,-0.8841659708841996
2.1,-0.101109074731121,0.0710091696772745,1.5707839617574648,-0.0153074166738381,0.0855980869566434,0.0311750550321847,0.119571723774749,-0.1311201382454077,0.0041291832408725,-0.1031933218103021,0.0747834699346533,1.5703972713720262,0.1323607987969741,-0.1028435530411814,-0.0171579183476017,0.5334092758000527,-0.1584782521181459,0.5065475264938307,-0.0531008711613656,10.268986618317284,-0.9385773858383206,0.2767769370539017,-0.8781027865945685
2.12,-0.0988816672717594,0.0686249651058041,1.570844205138074,-0.0191220565125994,0.0834937020853627,0.0314008739460772,0.1150078443628324,-0.1206286325494548,0.0022731936114721,-0.1005461058343626,0.0727265988738296,1.5700541130050742,0.1342877135857567,-0.0933210635828588,-0.0215470903949783,0.5795372821466466,-0.2281939705958281,0.5245752847976417,-0.0927994814700233,10.206171418021768,-0.940375952760585,0.2817269457889411,-0.8732066011894294
2.14,-0.0966428717696054,0.0663332740844814,1.5708667377843974,-0.0220242172650513,0.0823624620940331,0.0317096985132112,0.1091928396284297,-0.1092606642565429,7.660884334427767e-05,-0.0978988898584231,0.070669727813006,1.569710954638122,0.1362146283745393,-0.0837985741245363,-0.0259362624423549,0.6478232162661116,-0.2907502367201338,0.5683984146455962,-0.1098292384063927,10.159542071972282,-0.9417647548852974,0.2851321119311527,-0.8699373756576257
2.16,-0.0945197782900899,0.0642746202705391,1.5708440098821377,-0.0238672730615852,0.0823966016478479,0.0320746040626854,0.1035188893748158,-0.0973510312756607,-0.0022375668543916,-0.095203501012764,0.0688509189886405,1.5692580669699856,0.1381415431633219,-0.0742760846662138,-0.0303254344897316,0.6696799205213564,-0.283697512680698,0.5954816490441134,-0.1157087848867961,10.146994008424372,-0.9423089765659902,0.2876074134239677,-0.8679686787414622
