t,x,y,z,roll,pitch,yaw,v_x,v_y,v_z,ref_x,ref_y,ref_z,ref_v_x,ref_v_y,ref_v_z,a_com,a_x,a_y,a_z,thrust,wind_x,wind_y,wind_z
0.0,-2.101832995490912,2.196656594366797,2.532937058470146,0.0279330989936341,0.1007644286276701,0.0435733397349493,0.0042431373433402,-0.0071317723827793,0.0317485717685301,-2.101709082079905,2.196453356098756,2.5338971772490364,0.0219423889134664,-0.1069071551454602,-0.0680636086455756,1.6407606476690404,0.2121568671670104,-0.3565886191389651,1.5874285884265076,10.225644157393615,-0.9483041701374906,0.2632868010287669,-0.8622799046919245
0.02,-2.101805777373042,2.1967854898461834,2.533366451728467,0.0339913514483412,0.1014725996701514,0.0440052957089878,-0.00133312968314,0.0161666273983615,0.0099528434026676,-2.101709082079905,2.196453356098756,2.5338971772490364,0.0219423889134664,-0.1069071551454602,-0.0680636086455756,1.619385656129306,-0.2788133513240113,1.1649199890570436,-1.089786418293123,10.225644157393615,-0.9421969574655018,0.2656458842560849,-0.8600306933252444
0.04,-2.1018872335865653,2.1971541279647315,2.5332605764945733,0.0479901972076883,0.1037432973056191,0.0450440236214481,-0.0061952674734642,0.0186404134277831,-0.0194181419394549,-2.101709082079905,2.196453356098756,2.5338971772490364,0.0219423889134664,-0.1069071551454602,-0.0680636086455756,1.4936656094811194,-0.2431068895162094,0.1236893014710771,-1.4685492671061309,8.898185032051515,-0.9295305146801958,0.247113096756261,-0.885196237905741
0.06,-2.102035760601997,2.1974708038778696,2.5326113694316423,0.0619782877009669,0.1069768078233591,0.0461453689807454,-0.0089906998946171,0.0142787524928392,-0.0475138149688988,-2.1014896581907703,2.1953842845473006,2.5332165411625804,0.0254983781789082,-0.1269071554434834,-0.0880636089435988,1.4284654104230814,-0.1397716210576478,-0.2180830467471952,-1.4047836514721974,8.6962519659387,-0.9167547450049868,0.2252141306161669,-0.9123238162337992
0.08,-2.102229682968362,2.197677057164102,2.5313524827190856,0.0762270558984976,0.1109809540697678,0.0473352391624155,-0.01006318770197,0.0062563251872031,-0.0769455671649584,-2.101050810412501,2.193246141444392,2.531855268989669,0.032610356709792,-0.1669071560395299,-0.1280636095396453,1.526218863156097,-0.0536243903676426,-0.401121365281803,-1.4715876098029803,8.6962519659387,-0.903534921415288,0.2033046618777144,-0.9387845741954582
0.1,-2.102425299682165,2.197692834311741,2.529509801625859,0.0898060454298957,0.1151404114002868,0.0485183449545716,-0.0092928269273035,-0.0045736717353829,-0.1058832510916263,-2.100611962634232,2.1911079983414825,2.530493996816757,0.0397223352406758,-0.2069071566355763,-0.1680636101356917,1.545373611870364,0.0385180387333243,-0.5414998461293045,-1.4468841963333945,8.742866275270444,-0.8915060918440567,0.1833281921348924,-0.961698224681512
0.12,-2.102580240125157,2.197482384221758,2.5272291522795185,0.1020790228708203,0.1188859016968005,0.0496008640586873,-0.0069809228680923,-0.0172814751837094,-0.1328204187613383,-2.099817515929418,2.186969855208771,2.527132724614044,0.0468343137715596,-0.2469071572316228,-0.2080636107317381,1.493690204599392,0.1155952029605571,-0.635390172416326,-1.346858383485596,8.871449278628916,-0.8787185905615132,0.1623697574255717,-0.9851436887792822
0.14,-2.1026832086066807,2.196975886777821,2.524268625195357,0.1143594876434753,0.1223829272526202,0.050662460988308,-0.003358585790888,-0.032969720132985,-0.1619112271796127,-2.099023069224605,2.182831712076059,2.5237714524113297,0.0539462923024434,-0.2869071578276693,-0.2480636113277846,1.662466157488708,0.1811168538602154,-0.7844122474637805,-1.4545404209137218,8.871449278628916,-0.8657578472308487,0.1415864832286419,-1.0078818000596093
0.16,-2.102701276420676,2.1961314158883005,2.5207212095706883,0.1260108412203617,0.1252584299525612,0.0516094507375797,0.0014164290536014,-0.050947327421628,-0.1914392599058755,-2.098050823056519,2.1776935689284467,2.5194101801937148,0.0610582708333272,-0.3269071584237157,-0.288063611923831,1.7449210922510288,0.2387507422244755,-0.8988803644321499,-1.4764016363131376,8.867930436676033,-0.8541022999506719,0.12207617876494,-1.0276634368998203
0.18,-2.1026132091956624,2.1949038968642878,2.516583508218467,0.1370586119128544,0.1273759526442879,0.0524058680838044,0.0071322406058941,-0.0711490495492499,-0.2209348625010286,-2.0969007774251613,2.171555425765933,2.514048907961199,0.068170249364211,-0.3669071590197621,-0.3280636125198775,1.8102283357867963,0.2857905776146353,-1.010086106381093,-1.4747801297576566,8.886735534959826,-0.8439563417405324,0.1040792764296831,-1.0448084449960493
0.2,-2.1024171127837854,2.193343107743974,2.512107570332915,0.1470186350823474,0.128659092603028,0.0530014501658445,0.0131871092391287,-0.0923368148105931,-0.2488080005732156,-2.1022565971653675,2.191346444386825,2.5055367650934155,0.0221439786603484,-0.171149051039366,-0.3209348639911447,1.7765800410667607,0.3027434316617308,-1.0593882630671605,-1.3936569036093485,8.924864572551542,-0.8342621762277389,0.0857893413118605,-1.0611556168496288
0.22,-2.1020643872795675,2.1911012801177963,2.5069448497459685,0.1530076898131436,0.1294854323367671,0.0532011874489501,0.0217832989273347,-0.1289579990502898,-0.2649904636269327,-2.1022565971653675,2.191346444386825,2.5055367650934155,0.0221439786603484,-0.171149051039366,-0.3209348639911447,2.0474848734229685,0.4298094844102976,-1.8310592119848357,-0.8091231526858547,8.96772444716953,-0.8289476642683743,0.0692477249826093,-1.0760798324809184
0.24,-2.1015383826809906,2.1881886150253678,2.5014824745794826,0.1541867821753616,0.1299819740443095,0.0529767880468378,0.0303406740961666,-0.1600903597339998,-0.2805705019664389,-2.1022565971653675,2.191346444386825,2.5055367650934155,0.0221439786603484,-0.171149051039366,-0.3209348639911447,1.7924774379202333,0.4278687584415954,-1.5566180341854974,-0.779001916975311,9.891738523173444,-0.8240730556776551,0.063294150263286,-1.0842987397880786
0.26,-2.10088091551792,2.184859763386028,2.495982069659228,0.1527773096725521,0.1300812010073106,0.0524989961248689,0.0383794570823896,-0.1884547556283191,-0.2975958673929191,-2.102035157378764,2.189634953876431,2.502327416453504,0.0251463262712393,-0.1911490513373892,-0.3409348642891679,1.7022221170094505,0.4019391493111533,-1.418219794715965,-0.85126827132401,9.786521050000374,-0.8197477776394804,0.0601264489612272,-1.0917471762363191
0.28,-2.10002746689513,2.18079281243446,2.4898239798333908,0.1492157667830097,0.1297720691429039,0.0517616156208582,0.0464687205793274,-0.2161832151550598,-0.3173336818039066,-2.101592277805557,2.186211972855644,2.495908719173681,0.031151021493021,-0.2311490519334357,-0.3809348648852144,1.7492033682305033,0.4044631748468874,-1.386422976337036,-0.9868907205493772,9.66369525339178,-0.8159721463701679,0.0596305305098968,-1.0982041235399689
0.3,-2.099016786638632,2.176206067036376,2.4832567259196674,0.1448172198586723,0.1290582308042677,0.050885479247385,0.054146084942176,-0.240905840682381,-0.338454683104766,-2.10114939823235,2.1827889918348564,2.4894900218938583,0.0371557167148027,-0.2711490525294822,-0.4209348654812608,1.6705140170580686,0.3838682181424302,-1.2361312763660592,-1.0560500650429685,9.5501693139513,-0.8129583383770729,0.0599969878360112,-1.1041007871539454
0.32,-2.09785674534859,2.171145807606775,2.476252118970913,0.1404284079986831,0.1279307372502481,0.0499350489129584,0.0614255299188704,-0.2638222675309629,-0.3609460498776972,-2.100406283898054,2.177366010784267,2.4810713245842333,0.0431604119365845,-0.3111490531255286,-0.4609348660773072,1.6462187870918346,0.3639722488347225,-1.1458213424290973,-1.1245683386465617,9.461814790250171,-0.8111224046787368,0.0606027903394859,-1.1087200068027283
0.34,-2.09662334619694,2.165925825227021,2.4691755185317943,0.1365682311162472,0.1264806820980026,0.0489892886684089,0.0679972334569789,-0.2845166479106043,-0.3828439041675237,-2.0996631695637578,2.171943029733677,2.472652627274608,0.0491651071583662,-0.3511490537215751,-0.5009348666733537,1.5418825256715782,0.3285851769054229,-1.0347190189820692,-1.0948927144913243,9.3864470760127,-0.8094824085513928,0.060539143099055,-1.113834793989258
0.36,-2.09519380155466,2.160007372794878,2.461270505151508,0.1326983785417129,0.1245619134276162,0.0479439081214498,0.0745514735156753,-0.3061173829948553,-0.4065234696243049,-2.098769937848917,2.1655200486681863,2.4632339299500816,0.0551698023801479,-0.3911490543176215,-0.5409348672694001,1.6357503164824667,0.3277120029348199,-1.0800367542125489,-1.183978272839059,9.356304627744066,-0.8082642033063602,0.0602140764390503,-1.118774582747691
0.38,-2.0936378010107752,2.1536605123870176,2.4528874367187328,0.1287738456353279,0.1222410690457823,0.0468341341586184,0.080647674685127,-0.3273199343729364,-0.4305954047668501,-2.0977265887535324,2.158097067587794,2.452815232610654,0.0611744976019297,-0.4311490549136679,-0.5809348678654466,1.6326128714008517,0.3048100584725828,-1.060127568904054,-1.2035967571272592,9.325507601665777,-0.8081626484594198,0.0601830791811138,-1.122687310787989
0.4,-2.0919663373223734,2.146895978496072,2.44401863873858,0.1246872218953016,0.1195525660676763,0.0456622869084287,0.0861060576117045,-0.347861135309935,-0.4550571227676258,-2.089605417276519,2.137294515668371,2.43135766648039,0.1021204565817181,-0.4273199358630525,-0.5305954062569662,1.6202704462965296,0.2729191463288795,-1.027060046849934,-1.223085900038784,9.307343502644471,-0.8084388130352121,0.0603123973297362,-1.126193607757196
0.42,-2.090290884317582,2.140092951937576,2.4353142230753844,0.1212926364222603,0.1176134007529299,0.0446570005072915,0.0898929385371692,-0.3674987924499731,-0.4589892218463651,-2.089605417276519,2.137294515668371,2.43135766648039,0.1021204565817181,-0.4273199358630525,-0.5305954062569662,1.019116588347914,0.1893440462732341,-0.9818828570019006,-0.1966049539369657,9.286047357511052,-0.8079800611320381,0.0573412666397299,-1.1333527664287872
0.44,-2.0884602182091965,2.132536369202871,2.4260754217351064,0.1187714753445201,0.1175943737123714,0.0439089549729536,0.0932118956417394,-0.387269627756185,-0.4650499189742434,-2.089605417276519,2.137294515668371,2.43135766648039,0.1021204565817181,-0.4273199358630525,-0.5305954062569662,1.0471788942716598,0.1659478552285091,-0.9885417653105966,-0.3030348563939189,10.263116678742335,-0.8082036879918897,0.0592484838198734,-1.1333560657543005
0.46,-2.0865530874355915,2.1245814734738366,2.41666881805245,0.1168737216087711,0.1190537688743332,0.0433651926500725,0.097476954104941,-0.4072005918121448,-0.4754796209539154,-2.088584212710701,2.1330213163097405,2.4260517124178205,0.1064150129610364,-0.4473199361610757,-0.5505954065549894,1.1447846252453604,0.2132529231600788,-0.9965482027979922,-0.5214850989835984,10.263116678742335,-0.8064706732367852,0.060210348671594,-1.1351250752476738
0.48,-2.084653334401406,2.116658604766628,2.40750344635092,0.1152257514540936,0.1211570284590933,0.0429275586803782,0.1023879414919082,-0.4257387675653505,-0.4887605257753019,-2.0865418035790677,2.124474917592479,2.415439804292681,0.1150041257196729,-0.4873199367571221,-0.5905954071510359,1.1663663556601978,0.2455493693483586,-0.9269087876602856,-0.6640452410693221,10.02366827304104,-0.8035722001990688,0.0606167756665489,-1.1381126779009645
0.5,-2.0825442683904765,2.1079456893227104,2.397556409170168,0.1135926371503697,0.1236370124038432,0.0424878228655562,0.1083361405749656,-0.4445395456311388,-0.5053689557201015,-2.084499394447433,2.115928518875218,2.404827896167542,0.1235932384783093,-0.5273199373531686,-0.6305954077470823,1.289079393833085,0.2974099541528718,-0.940038903289414,-0.8304214972399832,9.84249697290943,-0.7995918132673614,0.0604559213006875,-1.1424871835844963
0.52,-2.080308507459479,2.098861841010577,2.3872538707315654,0.112054874931412,0.1260485217334328,0.0420302073513881,0.114989537012979,-0.4628559976437315,-0.5241432353182833,-2.082027529677867,2.1053821201281546,2.3922159880126004,0.1321823512369458,-0.5673199379492151,-0.6705954083431288,1.352990828610532,0.3326698219006718,-0.9158226006296344,-0.9387139799090892,9.695618579499753,-0.7952267982749153,0.059651209855744,-1.1477505662704852
0.54,-2.0779324205922154,2.0894167110600708,2.3765641336946053,0.1106223441239157,0.1281450437482411,0.0415288188452009,0.1222956597722377,-0.4807099212776,-0.543892708169933,-2.0795556649083005,2.0948357213810915,2.3796040798576588,0.1407714639955823,-0.6073199385452616,-0.7105954089391753,1.3803837299963115,0.3653061379629341,-0.8926961816934254,-0.9874736425824816,9.587098934070127,-0.7911914341029074,0.0586353675744686,-1.152875278370232
0.56,-2.0754032219832377,2.079607528396298,2.3654722197787788,0.1089878784801759,0.1297502100732835,0.0409443478835154,0.1302250328603791,-0.4991153500130748,-0.5642990555888024,-2.0768690723197683,2.083289322619127,2.365992171687816,0.1493605767542188,-0.6473199391413079,-0.7505954095352216,1.4300819727267244,0.3964686544070707,-0.9202714367737396,-1.0203173709434743,9.548532250960308,-0.787781799599249,0.0577874267296107,-1.157524168658824
0.58,-2.072850158222749,2.069949292204553,2.3545510006883443,0.1069670588082206,0.130709203652357,0.0402827496682005,0.1380665662164651,-0.5163777731100323,-0.5842634605088517,-2.0739677519122703,2.070742923842261,2.351380263503072,0.1579496895128553,-0.6873199397373544,-0.7905954101312681,1.3766429823711248,0.3920766678042975,-0.8631211548478734,-0.9982202460024624,9.524175966726943,-0.784679156496707,0.0573394936940058,-1.1621666816961094
0.6,-2.0700019064566737,2.059436263497232,2.342637128798314,0.1044223397715395,0.1311071568491844,0.0394817258005436,0.1462926894730292,-0.533833665111371,-0.6060999733079343,-2.0659468299119257,2.044130403549051,2.325337827662901,0.1708468446905576,-0.6163777746001484,-0.6842634619989678,1.4570608777768028,0.4113061628282052,-0.872794600066934,-1.0918256399541304,9.49588650557871,-0.7820290130712005,0.0572913493075277,-1.1666018783059575
0.62,-2.066980207941553,2.04855326731681,2.330517473216663,0.1014544722463437,0.1316240885660097,0.0386550415139571,0.1556720285230544,-0.5534739972904666,-0.6035219636105192,-2.0659468299119257,2.044130403549051,2.325337827662901,0.1708468446905576,-0.6163777746001484,-0.6842634619989678,1.0958567232085066,0.4689669525012596,-0.9820166089547832,0.1289004848707531,9.450111736942745,-0.7806792644196691,0.0558392737431747,-1.1720540232126746
0.64,-2.06376813564703,2.03729974986265,2.3184496415367324,0.0985246601677921,0.1328728922629456,0.0378974033167235,0.1651674060585125,-0.5709239639922956,-0.6035425487093893,-2.0659468299119257,2.044130403549051,2.325337827662901,0.1708468446905576,-0.6163777746001484,-0.6842634619989678,0.993307550789428,0.4747688767729033,-0.8724983350914484,-0.001029254943502,11.00064708940772,-0.7785788863605149,0.0584017118323432,-1.1733941549486997
0.66,-2.06053702820558,2.026293326033385,2.3069346879674586,0.0959674487755831,0.1343402034687997,0.0372133001546583,0.1745169134342818,-0.5867219189724707,-0.6085476710775627,-2.06423836146502,2.0379666258030498,2.318495193042912,0.1774029003853761,-0.6363777748981716,-0.704263462296991,0.9513673313258078,0.4674753687884697,-0.7898977490087555,-0.2502561184086704,10.65517668569737,-0.7756688916278323,0.0602790486834959,-1.1759431042215744
0.68,-2.056941824277595,2.014393873471754,2.2946694081521226,0.0934717753009568,0.1358239360309832,0.0364932921571909,0.1845219685255944,-0.6023480376200515,-0.617901937925764,-2.0608214245712086,2.0256390703110467,2.3048099238029325,0.1905150117750131,-0.6763777754942181,-0.7442634628930375,1.038964652473593,0.500252754565629,-0.7813059323790394,-0.4677133424100643,10.353400308743405,-0.7723367027514875,0.0615358975553862,-1.1792944744153016
0.7000000000000001,-2.053145280043512,2.0021897387567527,2.2821796691612817,0.091178662824713,0.1370314571265521,0.0357549233607018,0.1946218032719641,-0.6172423772453278,-0.6307422476105812,-2.0574044876773976,2.013311514819044,2.291124654562953,0.2036271231646501,-0.7163777760902645,-0.7842634634890839,1.1053523958211962,0.5049917373184859,-0.7447169812638155,-0.6420154842408599,10.115237044972671,-0.7689827713826537,0.0622472417390953,-1.183081217084954
0.72,-2.04914707531496,1.989695466259614,2.2694004623673725,0.0890818114142846,0.1378309220823711,0.0349879962104313,0.2046636860287983,-0.631436396828586,-0.6465297627058731,-2.053331945214105,1.9989839592972385,2.275439385293172,0.2167392345542871,-0.756377776686311,-0.8242634640851304,1.1742606547483303,0.5020941378417076,-0.7097009791629083,-0.7893757547645985,9.929352875100449,-0.7659715284975709,0.0624940004227884,-1.1868734098665925
0.74,-2.0451628722288446,1.9775681069611848,2.2569553792486903,0.0872935736911509,0.1381821850804412,0.0342340268333149,0.2141864705656093,-0.6444353563854766,-0.6626922754825837,-2.0492594027508115,1.984656403775433,2.25975411602339,0.2298513459439241,-0.7963777772823575,-0.8642634646811769,1.1411432799538526,0.4761392268405495,-0.6499479778445283,-0.8081256388355273,9.781619838395272,-0.7632216737463395,0.062260850220801,-1.190915425673967
0.76,-2.04077337734894,1.9645324992591744,2.243512694241242,0.0854066774095897,0.1380973596777704,0.0333984350173151,0.2242107345610116,-0.6583232780344299,-0.6807644168454278,-2.044859057502778,1.9693288482387263,2.243068846738707,0.2429634573335611,-0.8363777778784038,-0.9042634652772232,1.24495233825999,0.501213199770116,-0.694396082447668,-0.9036070681422036,9.721978464348467,-0.7609355327304395,0.0619337234320979,-1.1947928758510404
0.78,-2.0361834933256944,1.951219653761916,2.2296977418943045,0.0832403845485933,0.1374734673837463,0.0324974999597351,0.2342049389539848,-0.6720577471951111,-0.6998087563541957,-2.040130909470003,1.953001292687119,2.225383577439123,0.256075568723198,-0.8763777784744503,-0.9442634658732696,1.2759375297202524,0.4997102196486608,-0.6867234580340609,-0.9522169754383968,9.6679959789617,-0.7594095939794805,0.0618817985369365,-1.1981000361335836
0.8,-2.0313949415132866,1.9376369786194123,2.21549203168352,0.0807409610948491,0.1362165989731116,0.0315239631359617,0.2440827797342656,-0.6853104011225055,-0.7197928756980994,-2.0244732463779957,1.91761676640216,2.1947073040765948,0.2720448210297714,-0.7720577486852273,-0.7998087578443118,1.2966973437846288,0.4938920390140405,-0.6626326963697193,-0.9992059671951824,9.62159592927037,-0.7585383763791395,0.0621783753922413,-1.2011400651473187
0.8200000000000001,-2.0266520051088897,1.924471268266084,2.2018610344914267,0.0779986264356389,0.1349868235634847,0.0305758782316297,0.2547260586093129,-0.6997870997798349,-0.7126487336911878,-2.0244732463779957,1.91761676640216,2.1947073040765948,0.2720448210297714,-0.7720577486852273,-0.7998087578443118,0.9668155902782956,0.5321639437523618,-0.7238349328664684,0.3572071003455801,9.57133009446261,-0.7593838403769182,0.0609551506396639,-1.205060773629066
0.84,-2.02144668113935,1.9103379548100576,2.1876656543606985,0.0751769809256686,0.134488600823818,0.0296511462279369,0.2652683991370488,-0.7127765922739999,-0.7077359504458117,-2.0244732463779957,1.91761676640216,2.1947073040765948,0.2720448210297714,-0.7720577486852273,-0.7998087578443118,0.8717845179210874,0.5271170263867975,-0.6494746247082517,0.2456391622688014,11.35428371450871,-0.7591852174136389,0.0639582618540472,-1.2047563733114468
0.86,-2.01603320130723,1.8959544587305075,2.1734967822793587,0.0727223901568541,0.134464917553731,0.028793089101058,0.2755815886386684,-0.7249217321366807,-0.7093694953995857,-2.021752798167697,1.909896188915308,2.1867092164981514,0.2796127974449288,-0.7920577489832504,-0.819808758142335,0.8008351408005167,0.515659475080979,-0.6072569931340366,-0.0816772476886995,10.942592655404953,-0.7580281296815237,0.0660386018481379,-1.2056356891403768
0.88,-2.0107010844938835,1.882072833771303,2.159958624619569,0.0706464806473182,0.1345450525077093,0.0280077919932292,0.2851756301911293,-0.7357041935344671,-0.7156092468037505,-2.0163119017471023,1.8944550339416035,2.170713041341265,0.2947487502752434,-0.8320577495792969,-0.8598087587383815,0.7861959117975581,0.4797020776230426,-0.5391230698893246,-0.3119875702082386,10.575338550958804,-0.7563090161307803,0.0674800845430738,-1.2074953434372824
0.9,-2.004894661512317,1.867247542580517,2.145540621101842,0.0687682769182294,0.1345577224952683,0.0272025153030428,0.2949338900204049,-0.7462755183324454,-0.7260387373974412,-2.010871005326506,1.8790138789678987,2.154716866184379,0.309884703105558,-0.8720577501753434,-0.8998087593344279,0.888468931538813,0.487912991463782,-0.5285662398989144,-0.5214745296845347,10.294867371062535,-0.7545324390148117,0.0683396868256699,-1.209715833997615
0.92,-1.9988965077374483,1.852216916554329,2.130878837736516,0.0672415046668872,0.1344110656728884,0.0264162516113545,0.3043599742131863,-0.7562539771620249,-0.7397487816937159,-2.0046733112643955,1.861572723964392,2.1367206909976906,0.3250206559358727,-0.9120577507713898,-0.9398087599304744,0.9700335283236764,0.4713042096390701,-0.4989229414789742,-0.685502214813738,9.894062025245148,-0.7527847017276699,0.0685443911921424,-1.2122878979467546
0.94,-1.9927120778945508,1.8369934638286929,2.1159236697055936,0.0661844226485117,0.134054397993045,0.0256542100341236,0.3135782899406982,-0.7656383297793264,-0.7550776244807864,-1.9984756172022844,1.844131568960885,2.1187245158110017,0.3401566087661873,-0.9520577513674364,-0.9798087605265208,1.009971336336667,0.460915786375593,-0.4692176308650764,-0.7664421393535237,9.894062025245148,-0.7509851542890815,0.0678298346224841,-1.2154270785727923
0.96,-1.9866657631121307,1.8223514543318824,2.101421980034448,0.0654301946039615,0.1334512481638689,0.0249352016539722,0.3223545604425301,-0.7750781825672494,-0.770640977332573,-1.9918995243194155,1.825690413942477,2.099728340609412,0.3552925615965019,-0.9920577519634828,-1.0198087611225672,1.010385689437695,0.438813525091597,-0.471992639396146,-0.778167642589328,9.82060773014473,-0.7503152094594999,0.0671032263561551,-1.2174009341031191
0.98,-1.9801231035618851,1.8067438137209568,2.085826403723108,0.0645942198901642,0.1324519646591318,0.0241573538160068,0.331407436091615,-0.7851248215419405,-0.7881426615269764,-1.9849450326157885,1.806249258909168,2.079732165392921,0.3704285144268165,-1.0320577525595291,-1.0598087617186136,1.1058915654871058,0.4526437824542428,-0.5023319487345579,-0.8750842097201728,9.768906195306954,-0.7505528411894588,0.0666270966629593,-1.2184787117466869
1.0,-1.973400425778436,1.7909324698980644,2.0698685543849824,0.0634633796364464,0.1309460395240488,0.023333632734814,0.3403435426408029,-0.7953777770240725,-0.8067496559359001,-1.9635527317573047,1.7674875726438597,2.046419270646759,0.3790075638482106,-0.8851248230320566,-0.8741897670181378,1.1523859350394916,0.4468053274593986,-0.5126477741066005,-0.930349720446183,9.705306956712777,-0.7514996253500239,0.066420093469766,-1.2190953601426504
1.02,-1.9664840999919175,1.7748691636718494,2.0538901715629923,0.0610759187017117,0.1297769490946503,0.0224533653432804,0.3508869987936251,-0.8097369165087944,-0.7901098619754372,-1.9635527317573047,1.7674875726438597,2.046419270646759,0.3790075638482106,-0.8851248230320566,-0.8741897670181378,1.2188438142711735,0.5271728076411103,-0.7179569742360947,0.8319896980231445,9.649349683959372,-0.7518831475370561,0.0640201357723168,-1.224353483032692
1.04,-1.9597217454664069,1.7593774403923692,2.038990081204824,0.058023423047088,0.129674986442256,0.0216358705966321,0.3604993709943412,-0.8201314980979046,-0.7792426237541892,-1.9635527317573047,1.7674875726438597,2.046419270646759,0.3790075638482106,-0.8851248230320566,-0.8741897670181378,0.8923870969135554,0.4806186100358017,-0.519729079455511,0.5433619110624011,11.860792213558852,-0.7516395568125747,0.0680880766431944,-1.2233706969682403
1.06,-1.9524064067376967,1.7428781256449444,2.023465049207568,0.0549207452854219,0.1301650917613865,0.0208292167645898,0.370555849575418,-0.8292097653741708,-0.7741149955578528,-1.9597626561188224,1.758636324413539,2.0376773729765776,0.3885275893995297,-0.9051248233300798,-0.8913991881163701,0.7242932229264001,0.5028239290538389,-0.4539133638133075,0.2563814098168193,11.367268555943156,-0.750540223823424,0.0718395446226038,-1.223183022464828
1.08,-1.9448910418080043,1.726210818584191,2.007978068634784,0.0521966573429224,0.1308589461538332,0.0200712498312188,0.3805033778329747,-0.8371099940224204,-0.7748126860362361,-1.9521825048418584,1.740933827952898,2.0201935776362148,0.407567640502168,-0.9451248239261264,-0.9258180303128346,0.6361086839784924,0.4973764128778368,-0.3950114324124787,-0.0348845239191653,10.958663955424528,-0.7501260419020628,0.0754322622259867,-1.2220230824809342
1.1,-1.9371779248558323,1.709394913983861,1.9924308812877,0.0499189126792508,0.1314952399954168,0.0193526570581028,0.3903118969963088,-0.8441621205144173,-0.7798665769669967,-1.9446023535648944,1.7232313314922567,2.002709782295852,0.4266076916048062,-0.9851248245221728,-0.9602368725092992,0.6547544382756046,0.4904259581667042,-0.3526063245998467,-0.2526945465380292,10.383451463744676,-0.7493486225400146,0.0778869270320123,-1.2218769850561548
1.12,-1.9296705842479371,1.6932956640084125,1.9775338609873887,0.0482024808839676,0.1319213022561169,0.0187031259450876,0.3994314325531128,-0.8502345042688078,-0.7879863686468591,-1.936070199732798,1.7035288350018132,1.983505044845666,0.4456477427074444,-1.0251248251182192,-0.9946557147057636,0.681855538506438,0.4559767778402029,-0.3036191877195227,-0.4059895839931215,10.187161350618226,-0.7482808110082982,0.0795254900616855,-1.2225318155937837
1.14,-1.921582261074162,1.6762313878581103,1.9616703356285476,0.0469822255088968,0.1321433095601016,0.018061006373176,0.4089014155160004,-0.8559118456496941,-0.7980002616535817,-1.9275380459007017,1.68382633851137,1.96430030739548,0.4646877938100827,-1.0651248257142656,-1.0290745569022282,0.7453033537134279,0.4734991481443767,-0.283867069044319,-0.5006946503361309,10.187161350618226,-0.7471108866699436,0.0800431227374816,-1.2239220444523793
1.16,-1.9133026512841933,1.6590494593468637,1.945594719476177,0.0462768992166871,0.132042991218897,0.0174512838246453,0.4185476547405941,-0.8619768607558622,-0.809099508843007,-1.91852989079104,1.6631238420060253,1.9442350988903825,0.483727844912721,-1.105124826310312,-1.0634933990986928,0.7953421081335089,0.4823119612296866,-0.303250755308404,-0.5549623594712616,10.107387997748448,-0.7462652719203409,0.0798511158235592,-1.2253058321422918
1.18,-1.9048296437432053,1.6417437044227725,1.929285459725632,0.0457758961516326,0.1314629694132216,0.0168451948075462,0.4281900646453075,-0.8682389885895812,-0.8212645188346518,-1.909045734403812,1.6414213454857791,1.9233094193303728,0.5027678960153592,-1.1451248269063583,-1.0979122412951572,0.8369255968620681,0.4821204952356717,-0.3131063916859467,-0.6082504995822413,10.05200874395905,-0.7458003311236999,0.0793232596055479,-1.226673955550743
1.2,-1.89660275505656,1.625185764596005,1.9135562784963105,0.0453271564198177,0.1303807332720522,0.0162579399009423,0.4372580274209233,-0.8743285525660905,-0.8338245515200499,-1.88342014051094,1.5983317549932932,1.8882222337839,0.4700929085080795,-0.9682389900796972,-0.8401794381812228,0.8322637192954845,0.4533981387807861,-0.3044781988254696,-0.6280016342699035,9.997321986031238,-0.7460618664247644,0.0787093768974801,-1.227661479120492
1.22,-1.8876690451130196,1.6075716449379422,1.8971704746483409,0.0434757283058645,0.1275443018342089,0.0154814685274042,0.455908059430246,-0.8864280769041178,-0.8017800702648415,-1.88342014051094,1.5983317549932932,1.8882222337839,0.4700929085080795,-0.9682389900796972,-0.8401794381812228,1.950045487976289,0.9325016004661346,-0.604976216901365,1.6022240627604156,9.939204249578324,-0.7505253111781777,0.0755220465111275,-1.2305340896319836
1.24,-1.8783596642966227,1.5897441567876596,1.8814698758083532,0.0398879958189357,0.1216167449321305,0.0144811574085216,0.473508641949101,-0.8952921122383243,-0.7703685433528314,-1.88342014051094,1.5983317549932932,1.8882222337839,0.4700929085080795,-0.9682389900796972,-0.8401794381812228,1.8540736570812264,0.8800291259427523,-0.4432017667103216,1.570576345600505,13.128091460240285,-0.7587764769922466,0.0823216438793626,-1.221120820052723
1.26,-1.8687446724681425,1.5717747554756702,1.866319875861709,0.0361147988128357,0.1132704743205066,0.0134205696655599,0.4865860694854583,-0.9011784532002498,-0.7461210476314671,-1.8787192114258595,1.5886493650924962,1.8798204394020877,0.4784734772806339,-0.9882389903777204,-0.843962422050537,1.4085534864234817,0.6538713768178633,-0.2943170480962764,1.2123747860682157,12.142329220884676,-0.7700539217527826,0.0892215319977524,-1.2092875976845876
1.28,-1.8594128857205348,1.5546129875784966,1.8523195464424909,0.0329896906218123,0.1041446929868046,0.012453246064173,0.4946919517372958,-0.9051355486669134,-0.7287636879823381,-1.8693173532556977,1.569284585290902,1.863016850638463,0.4952346148257427,-1.028238990973767,-0.8515283897891653,0.9780616872188518,0.4052941125918752,-0.1978547733331781,0.8678679824564495,12.142329220884676,-0.7830470650473313,0.0950847069211982,-1.1970176828895032
1.3,-1.849467583988645,1.5364781752923913,1.837891782268901,0.0304261065104761,0.0942048148146297,0.0115253183431955,0.499049746106312,-0.9082500216441612,-0.7151156195391686,-1.859915495085536,1.5499198054893082,1.8462132618748384,0.5119957523708516,-1.0682389915698134,-0.8590943575277937,0.7330758588271701,0.2178897184508116,-0.1557236488623881,0.6824034221584785,11.72887543989964,-0.7960647266519334,0.099416384328874,-1.1854596222907143
1.32,-1.8394759936553504,1.5182885206724654,1.8236916576919735,0.0286862969588502,0.0846797945658757,0.010710342275153,0.4996250344404241,-0.9106652931110466,-0.7057358986367543,-1.849675580038119,1.528555025657912,1.8290313747242828,0.5287568899159604,-1.1082389921658595,-0.8666603252664221,0.4851382718702552,0.0287644167056039,-0.1207635733442735,0.4689860451207117,11.408589421616853,-0.808408934534055,0.1024345328392073,-1.1746981211559144
1.34,-1.829506964367953,1.5000590422888864,1.809657546128661,0.0279458969292287,0.0761709789169364,0.0100255180985374,0.4971369261230204,-0.9123263021731464,-0.6981090225587488,-1.839435664990702,1.5071902458265156,1.811849487573727,0.5455180274610693,-1.1482389927619063,-0.8742262930050505,0.4096305433337578,-0.1244054158701851,-0.0830504531049936,0.3813438039002748,11.047614887626878,-0.8188561588825128,0.1036562282670098,-1.166099136862277
1.36,-1.820104298253857,1.482705945776435,1.7964567765260724,0.0281115709315202,0.0693335175218877,0.0094884134668714,0.4926733852307053,-0.914276320915278,-0.6918112089864662,-1.8287767215046573,1.4848254659802185,1.7944784512297054,0.562279165006178,-1.188238993357953,-0.8817922607436789,0.3980836161639296,-0.2231770446157521,-0.097500937106576,0.3148906786141325,11.047614887626878,-0.8282420545336162,0.1036717819951141,-1.1584885254132111
1.38,-1.8103190005560188,1.4643966335721796,1.7826826440698909,0.0290241188442473,0.0637038624521367,0.0090301934480036,0.4859345369878649,-0.9165998274482674,-0.6859645067634493,-1.817698749579985,1.4614606861190198,1.776918265692218,0.5790403025512868,-1.228238993953999,-0.8893582284823073,0.4609628106840843,-0.3369424121420217,-0.1161753266494702,0.2923351111508432,10.985207253322187,-0.8354310271076834,0.1025996420256548,-1.1528799458108236
1.4,-1.800691800525474,1.4460351403583556,1.76901569450331,0.0305542657084918,0.060222320443897,0.0086857375204812,0.4770729600179294,-0.9194741947914704,-0.6810148467890338,-1.7860222737066256,1.4185666421997662,1.7483844187317183,0.5426451341155409,-1.0165998289383835,-0.6749264324935585,0.5274672214462585,-0.4430788484967751,-0.1437183671601505,0.2474829987207771,10.938844365834484,-0.839763451260027,0.1007537716667674,-1.1497219015391182
1.42,-1.7917335432233312,1.4284690051789617,1.756351320510922,0.0306498621244993,0.0602256309034676,0.0083749383973421,0.4669150732347861,-0.9287228974741192,-0.6522503987260582,-1.7860222737066256,1.4185666421997662,1.7483844187317183,0.5426451341155409,-1.0165998289383835,-0.6749264324935585,1.593827655032702,-0.5078943391571666,-0.4624351341324439,1.4382224031487811,10.896963375420455,-0.8404771924196247,0.0976408506425837,-1.1525653349901357
1.44,-1.782489282257638,1.4098159521718954,1.7436089225587692,0.0285181561506847,0.0638017554994708,0.0080156050948256,0.4584590364022683,-0.9359155674824272,-0.6237079521650991,-1.7860222737066256,1.4185666421997662,1.7483844187317183,0.5426451341155409,-1.0165998289383835,-0.6749264324935585,1.5312660745658424,-0.4228018416258861,-0.3596335004154016,1.4271223280479528,12.6730398908594,-0.8426673165814311,0.1027026981951137,-1.1447973132875158
1.46,-1.7733876052182582,1.391048993687795,1.731399822904232,0.0253271537320814,0.0698334123739009,0.0076593221607099,0.4525150603739635,-0.9401182309391952,-0.59875724630298,-1.78059582236547,1.4084006439103824,1.7416351544067827,0.5539872535410761,-1.0365998292364067,-0.6727188176395804,1.299548916137731,-0.2971988014152438,-0.2101331728383948,1.2475352931059558,12.378780630779149,-0.84139329614652,0.1086083749378505,-1.1401340970848206
1.48,-1.7643766160479404,1.3722285557386278,1.719653964653337,0.0224093113437766,0.0773555466567421,0.007359944344752,0.4492666841799286,-0.9418535949256076,-0.5770557955204831,-1.769742919683159,1.3880686473316146,1.7281366257569115,0.5766714923921465,-1.0765998298324533,-0.668303587931624,1.100586664157397,-0.162418809701742,-0.0867681993206193,1.0850725391248428,12.101290655316006,-0.8373277769837347,0.1137669365395147,-1.1384976782105878
1.5,-1.7558492666216292,1.3543298781606372,1.7088745961529794,0.0203727770659784,0.0851295574652144,0.0071415874426375,0.4487833804561603,-0.9423553265308412,-0.5587034769949548,-1.7588900170008486,1.367736650752847,1.7146380971070403,0.599355731243217,-1.1165998304284996,-0.6638883582236678,0.91827679971176,-0.0241651861884156,-0.025086580261685,0.917615926276416,11.881669623747255,-0.8314363490600553,0.118086714284115,-1.1387032499039589
1.52,-1.7468556164825897,1.3354876310744357,1.6978880930128462,0.0192277824004993,0.0933512063008641,0.0069883177048657,0.4508631727707952,-0.9419501894050316,-0.5409948864627797,-1.7469029023759843,1.345404654144277,1.7013603299425673,0.6220399700942874,-1.156599831024546,-0.6594731285157115,0.8917452702411227,0.1039896157317421,0.0202568562904792,0.8854295266087553,11.721112915385676,-0.8247893962982978,0.121065035764439,-1.1401014182861575
1.54,-1.7377926675107402,1.3166625367761595,1.6872497126754589,0.0194956374636485,0.1011009608677123,0.0069394448068783,0.4555253495552879,-0.9407260837394952,-0.5237504015802664,-1.73491578775112,1.323072657535707,1.6880825627780938,0.6447242089453578,-1.1965998316205926,-0.6550578988077551,0.8952745192306814,0.2331088392246383,0.0612052832768217,0.8622242441256645,11.598928924428948,-0.8184860788126099,0.1223060026461952,-1.1419483018288876
1.56,-1.728608506000489,1.2978569139635576,1.6769546590433204,0.0212597325509828,0.1078530010010318,0.0069997919170819,0.4627185794495767,-0.9400480345512764,-0.5066349821854134,-1.7223615671549788,1.2997406609122355,1.6749151763563193,0.6674084477964282,-1.236599832216639,-0.6506426690997988,0.928897044988634,0.3596614947144388,0.0339024594109504,0.855770969742653,11.598928924428948,-0.81251328798931,0.1220721745957458,-1.143653949989458
1.58,-1.7197310557463563,1.2799936365283562,1.667490820016604,0.0240219283062086,0.1129736178683004,0.0071323808918553,0.4713685159892814,-0.9406547403717704,-0.4904327475127025,-1.709240240587561,1.2754086642738636,1.6618581706772435,0.6900926866474986,-1.2765998328126853,-0.6462274393918425,0.9188333669430142,0.4324968269852347,-0.0303352910247134,0.8101117336355435,11.598779587344325,-0.8076142807936623,0.1206014735993721,-1.1448177624936045
1.6,-1.7101961524957394,1.2611541057717357,1.6578610466587722,0.0272339973450023,0.1168288111309856,0.007283110538151,0.4816461552833103,-0.9433603093017002,-0.4734008849563109,-1.6961626299468924,1.2329608995097676,1.642969182640969,0.5288162065059917,-1.0406547418618866,-0.4970780260522111,1.0037857276737143,0.5138819647014431,-0.135278446496484,0.8515931278195776,11.602342139944994,-0.8049399381651112,0.1188926678005231,-1.1442225919557818
1.62,-1.7004049628502609,1.242179279076155,1.6486191122688136,0.0280799395661882,0.117906088487961,0.0072138757975347,0.4969319241047719,-0.9532790972821874,-0.4513549014304484,-1.6961626299468924,1.2329608995097676,1.642969182640969,0.5288162065059917,-1.0406547418618866,-0.4970780260522111,1.430089571572029,0.7642884410730799,-0.4959393990243588,1.1022991762931282,11.609461350092715,-0.8080024574460117,0.1195250801832852,-1.1389679287387378
1.64,-1.690312306158956,1.223045329373326,1.6398066008761596,0.0259231974412853,0.1150419887185429,0.0068469922034477,0.511261990558045,-0.9594373337199168,-0.4309890405569856,-1.6961626299468924,1.2329608995097676,1.642969182640969,0.5288162065059917,-1.0406547418618866,-0.4970780260522111,1.2826174114827111,0.7165033226636558,-0.3079118218864751,1.018293043673138,11.99404784350736,-0.813274773554225,0.1243549877053364,-1.1309633379674937
1.66,-1.6804874324208274,1.204784166368704,1.6317829934180492,0.0227742914688039,0.1093963329893139,0.0063801599439545,0.5217360498410921,-0.9622408161220262,-0.4145726427551966,-1.6908744678818324,1.2225543520911488,1.6379984023804468,0.5403057446093338,-1.0606547421599095,-0.4984070817601128,0.9836965337825284,0.5237029641523561,-0.1401741201054629,0.8208198900894498,11.814239159282806,-0.8209734709769968,0.1305401519433216,-1.1211525055121505
1.68,-1.669976031052522,1.1855359146854998,1.6236466453931395,0.019770855623335,0.1018216787340653,0.0059198057087015,0.5284630419227844,-0.962547687691617,-0.4000325103921689,-1.6802981437517126,1.201741257253911,1.6280568418594026,0.5632848208160178,-1.1006547427559563,-0.5010651931759162,0.8011898054795402,0.3363496040846125,-0.015343578479543,0.7270066181513823,11.58605225401152,-0.8308828385427882,0.1360570899329875,-1.1099229704970262
1.7,-1.65937391693801,1.1662968384793018,1.6157681546236242,0.017743514794563,0.0938820773218998,0.0055646267898818,0.5311903023391299,-0.9616452500440384,-0.3885084653962496,-1.6697218196215928,1.1809281624166732,1.6181152813383584,0.586263897022702,-1.140654743352003,-0.5037233045917197,0.5938349016231386,0.1363630208172761,0.045121882378929,0.5762022497959651,11.385754449426711,-0.8404166999889401,0.1399174390131589,-1.099684616408027
1.72,-1.6492841740571358,1.1480451139396584,1.6084749606297877,0.0169490266697105,0.0868856387435405,0.0053468803664159,0.5306660361986857,-0.9598511775892792,-0.3797518512531604,-1.6579965416811389,1.1581150675496332,1.608040815246524,0.6092429732293861,-1.180654743948049,-0.5063814160075231,0.4476936514233032,-0.0262133070222103,0.0897036227379632,0.4378307071544601,11.197621925251042,-0.8497347561682213,0.1422226420781762,-1.0901645686134251
1.74,-1.6387021526474477,1.1288772995982197,1.600963746380529,0.0177278930557933,0.0807812818420176,0.005270346936097,0.5273807804713174,-0.9572059699192594,-0.3718824494093964,-1.6462712637406849,1.1353019726825933,1.5979663491546896,0.6322220494360702,-1.2206547445440956,-0.5090395274233265,0.4464233254165085,-0.1642627863684131,0.1322603835009872,0.3934700921882,11.052028930215783,-0.8571825380597408,0.1423442661410263,-1.0829610769584923
1.76,-1.628211164395163,1.1097548103929418,1.5935987219116718,0.0202465562686395,0.0766705844862579,0.0053564182447212,0.5217540202052855,-0.9553781936617448,-0.3650495659750057,-1.6339715088950637,1.111488877800652,1.58782543027746,0.6552011256427543,-1.260654745140142,-0.51169763883913,0.4519112002564825,-0.2813380133015963,0.0913888128757367,0.3416441717195378,10.970318957800371,-0.8621556822090805,0.1403952625971878,-1.0783753094974151
1.78,-1.617851378598854,1.0906440707577592,1.586363610849602,0.0237778699441097,0.075207264452785,0.0055690348051169,0.5147607297550616,-0.956058353408852,-0.3587905405313426,-1.621097277144275,1.0866757829038096,1.5776180586148356,0.6781802018494384,-1.3006547457361883,-0.5143557502549334,0.4704894475628541,-0.3496645225111949,-0.0340079873553722,0.312951272183154,10.915241525696729,-0.8648403465140492,0.1373387039567468,-1.0759505990886025
1.8,-1.6081303189594869,1.072455434534902,1.5796053360719913,0.0271009414145623,0.0760299022975788,0.0058290051802057,0.5091036215433904,-0.9584984838987568,-0.3529095831695916,-1.592113342111101,1.0428411530873165,1.5684240838230348,0.5773414418946681,-1.0560583548989682,-0.3656882344969266,0.4258602165530777,-0.2828554105835601,-0.1220065244952384,0.2940478680875491,10.883545873170078,-0.8656441923783453,0.134022467800442,-1.0750878176416814
1.82,-1.597985207874665,1.0531781901717585,1.572738163949735,0.0280800855546016,0.0783954418387502,0.0059820061320771,0.5059479883415983,-0.9683740576317412,-0.33341002324589,-1.592113342111101,1.0428411530873165,1.5684240838230348,0.5773414418946681,-1.0560583548989682,-0.3656882344969266,1.1042167073064677,-0.1577816600896064,-0.4937786866492155,0.9749779961850836,10.871507658453991,-0.8658755806455893,0.1316632334871207,-1.0762680093049772
1.84,-1.5878914949162473,1.0337408930821557,1.566267605517302,0.0259168763826124,0.0817395138335528,0.0059569258315359,0.5037474800794867,-0.9746424635222588,-0.3148071631569377,-1.592113342111101,1.0428411530873165,1.5684240838230348,0.5773414418946681,-1.0560583548989682,-0.3656882344969266,0.9876760001501346,-0.11002541310558,-0.3134202945258735,0.9301430044476116,11.798497838440198,-0.866048562079948,0.1356100536937104,-1.072657612666729
1.86,-1.5778313628752727,1.014215579558719,1.5601334218214848,0.0225113153916249,0.0857723519660411,0.0058714259076862,0.5025725045181388,-0.9773126155852822,-0.2995165632722111,-1.5863399276921542,1.0322805695383268,1.5647672014780656,0.5898575843225894,-1.0760583551969911,-0.3670677732900435,0.7783198642657042,-0.0587487780673912,-0.1335076031511728,0.7645299942363293,11.607907111771055,-0.8649885637046312,0.1408665793440423,-1.070053594853573
1.88,-1.568285102885076,0.9956478854487092,1.5545623103534776,0.0196137647190327,0.0899399344108954,0.005826718556835,0.5025057876184906,-0.9772503550592876,-0.2876801479217675,-1.5747930988542609,1.0111594024403474,1.557453436788127,0.6148898691784319,-1.116058355793038,-0.3698268508762771,0.5918383560272451,-0.0033358449824105,0.0031130262997225,0.5918207675221804,11.391958921277364,-0.8624943210768199,0.145763731879612,-1.0689174682964004
1.9,-1.558225933249057,0.976117615615713,1.5489196338724358,0.0175301205108358,0.094429794599209,0.00585618623871,0.5035541203524095,-0.9759918617778812,-0.2773090903895874,-1.5632462700163674,0.990038235342368,1.5501396720981884,0.6399221540342745,-1.1560583563890845,-0.3725859284625107,0.5249800977088093,0.0524166366959455,0.0629246640703184,0.5185528766090047,11.07919989822676,-0.8594308452492013,0.1495606506552931,-1.0686115437291277
1.92,-1.5481335198320014,0.9566217945447352,1.5434655821960237,0.0167153644072847,0.0988110734497135,0.005982963054598,0.5057513416371718,-0.9737904616712856,-0.2686889015549019,-1.5504478269356818,0.9669170682145865,1.5426879535289382,0.6649544388901172,-1.1960583569851306,-0.3753450060487443,0.4582073748565397,0.1098610642381148,0.110070005329782,0.4310094417342758,11.07919989822676,-0.8561006329998162,0.1518786983010873,-1.069055647403192
1.94,-1.5379848191791208,0.9371804306299196,1.5381750899296,0.017659299385776,0.1028840530507914,0.0062422162490149,0.5090936766702419,-0.9707579388416614,-0.2607944481764217,-1.5376493838549965,0.9437959010868048,1.535236234959688,0.6899867237459597,-1.2360583575811772,-0.3781040836349779,0.454669639217524,0.167116751653501,0.1516261414812147,0.3947226689240107,10.94443558495368,-0.8528888003533441,0.1522594438662733,-1.070074476699661
1.96,-1.5282686008739377,0.9187587788238905,1.5332930751111593,0.0201920120831067,0.1062398500242186,0.006610834738374,0.5135160401427002,-0.9687450175766464,-0.2535039448196488,-1.524225133652915,0.919674733944122,1.5277155394507818,0.7150190086018023,-1.2760583581772236,-0.3808631612212115,0.438065605522737,0.2211181736229195,0.1006460632507533,0.3645251678386446,10.94443558495368,-0.8497979307902874,0.1509689392330718,-1.0711712290622712
1.98,-1.5179404137060144,0.8993832838269686,1.5283033348407855,0.0238186023882311,0.1090198192002203,0.0070693195958127,0.5190865084110794,-0.969169267481633,-0.2458607769207226,-1.5101750763294373,0.894553566786538,1.52012586700222,0.7400512934576449,-1.31605835877327,-0.3836222388074451,0.4733606453912186,0.2785234134189573,-0.0212124952493342,0.3821583949463109,10.933387131064592,-0.8472752930043915,0.1485628125820784,-1.0721507699194317
2.0,-1.5074933060824258,0.8799763557049852,1.523465983780559,0.0273935502635686,0.1109229441607125,0.0075193448016542,0.5253222405631154,-0.9715276016261092,-0.2382587906639217,-1.4919860882854603,0.850924820452887,1.5160102959947497,0.5957855194388924,-1.0691692689717491,-0.2466869300682226,0.5055598146053697,0.3117866076017994,-0.1179167072238085,0.3800993128400418,10.936608206439814,-0.8458914179939195,0.1461301041951416,-1.072299385610223
2.02,-1.4968927179714464,0.860437226459238,1.5189029327475023,0.0282904058802089,0.1115832161962633,0.0077608224338062,0.5343863624157921,-0.9815078882794198,-0.2177387551765664,-1.4919860882854603,0.850924820452887,1.5160102959947497,0.5957855194388924,-1.0691692689717491,-0.2466869300682226,1.2276362277205166,0.4532060926338344,-0.4990143326655316,1.0260017743677672,10.938181003723004,-0.8466477944953568,0.1445068961567512,-1.072609743601571
2.04,-1.486662637473479,0.8417249844950485,1.5149523181776372,0.0260028486761719,0.1110500222515107,0.0077521144767626,0.5418895983993511,-0.9874715583973128,-0.1991915950002587,-1.4919860882854603,0.850924820452887,1.5160102959947497,0.5957855194388924,-1.0691692689717491,-0.2466869300682226,1.0438642896775887,0.3751617991779532,-0.2981835058946502,0.9273580088153834,11.854386523187712,-0.8496838217520941,0.1495972350371573,-1.066176047183911
2.06,-1.4757558691338295,0.8219486311391611,1.511145249009368,0.0223948452484393,0.1098861159769539,0.0076641195602385,0.5482756597254567,-0.989602759577788,-0.1826157022671683,-1.4860282330910717,0.8402331277631695,1.5135434266940675,0.611125321644455,-1.0891692692697723,-0.2468521606977226,0.8945446015031335,0.3193030663052765,-0.1065600590237525,0.8287946366545229,11.66935838223526,-0.8533312896617579,0.1560086507193116,-1.0589444144596225
2.08,-1.4647372153306666,0.8021642734673552,1.5076335729623531,0.0193020347722853,0.1086035358414768,0.0076325328951245,0.5532486351719371,-0.988979766328008,-0.1693582297497831,-1.4741125227022938,0.8188497423837344,1.508609688092703,0.6418049260555801,-1.129169269865819,-0.2471826219567226,0.7086592674370936,0.2486487723240227,0.0311496624889884,0.6628736258692577,11.454825348164375,-0.8565173828762218,0.1614539956628188,-1.052580176407457
2.1,-1.4536306824497436,0.7824067645069114,1.5043599495609623,0.0173207873556018,0.1075428827730662,0.0077033466332729,0.5571737075113303,-0.987143800673611,-0.1586557197046044,-1.4621968123135158,0.7974663570042995,1.5036759494913383,0.6724845304667053,-1.1691692704618653,-0.2475130832157226,0.5773228819749535,0.1962536169696604,0.0917982827198571,0.5351255022589346,11.249412287381348,-0.8592487996919275,0.1656715746085264,-1.0471574724400492
2.12,-1.4430139005863496,0.7636798700119307,1.5014300530906548,0.0167299332989638,0.1069399197330887,0.0078829263620715,0.5602323371605754,-0.9844488312644892,-0.1502804588688693,-1.4487471217041816,0.7740829715950621,1.498725687827024,0.7031641348778305,-1.2091692710579116,-0.2478435444747226,0.4657334793472061,0.152931482462254,0.1347484704560808,0.4187630417867585,11.089276285802953,-0.8612497589321423,0.1681523614284712,-1.0430777301146954
2.14,-1.4317787826711283,0.7440294827981928,1.498510923191078,0.0178977862250593,0.1068384811307995,0.0082174005594212,0.5631635325135554,-0.9809345942581116,-0.1420936761433378,-1.4352974310948476,0.7506995861858249,1.4937754261627096,0.7338437392889557,-1.2491692716539582,-0.2481740057337226,0.4689487694018024,0.1465597676490015,0.1757118503188826,0.4093391362765722,10.97274145115989,-0.8624392302826546,0.1684458373589505,-1.0405206325844976
2.16,-1.42048144734426,0.724439382421266,1.4957515946176034,0.0209349734574177,0.1071854082142265,0.0086985230513498,0.566474867101264,-0.9786688800002968,-0.1342459328442991,-1.4210807503752354,0.7263162007616863,1.48881690296692,0.7645233437000809,-1.2891692722500043,-0.2485044669927226,0.4406968139702966,0.1655667293854301,0.1132857128907427,0.3923871649519364,10.910920828720007,-0.8630714818593067,0.1670249259711172,-1.038808512836628
2.18,-1.4096829556817558,0.7058417365029741,1.4932754293653705,0.0245463050260535,0.1076955803837757,0.009215891332197,0.5700632948971396,-0.979233257232334,-0.1267949828840574,-1.406097079545345,0.7009328153226467,1.4838501182396555,0.7952029481112061,-1.329169272846051,-0.2488349282517226,0.414463481552597,0.1794213897937768,-0.0282188616018586,0.3725474980120852,10.910920828720007,-0.8634997883890475,0.1645734947869594,-1.0375993166853963
2.2,-1.3982387106251508,0.6862343117973722,1.4908224823554523,0.0281837491204242,0.1082479082208325,0.0097550008044265,0.5741874351099487,-0.9815012198041516,-0.1188862960909386,-1.3811797909368988,0.6568800736413574,1.4869356802211675,0.6518073548174506,-1.0474625078422086,-0.1247426082342645,0.4601616930865858,0.2062070106404578,-0.1133981285908747,0.3954343396559368,10.910769137259194,-0.8639400935223479,0.1621518158598756,-1.0365292079976391
2.22,-1.3866778600644116,0.6663934696471757,1.488628194962021,0.0257556132739018,0.1081215132522121,0.0098611855204568,0.5816741836770596,-1.0003279860280794,-0.100299708294568,-1.3811797909368988,0.6568800736413574,1.4869356802211675,0.6518073548174506,-1.0474625078422086,-0.1247426082342645,1.3747361351089913,0.3743374283555423,-0.9413383111963936,0.9293293898185332,10.91516797620443,-0.8662173852549131,0.1643436563561932,-1.0345090639477634
2.24,-1.3749790455755264,0.6463095905203524,1.4868092135634252,0.0166793890463726,0.1069942397663912,0.0095065917180747,0.5876949362529412,-1.0059232219118168,-0.0825368509351528,-1.3811797909368988,0.6568800736413574,1.4869356802211675,0.6518073548174506,-1.0474625078422086,-0.1247426082342645,0.97861538377646,0.3010376287940819,-0.2797617941868724,0.8881428679707599,11.694306959535425,-0.8696996393789054,0.174419498804821,-1.0278935865443484
2.26,-1.363772634255798,0.627216188539658,1.485373031508174,0.0074137189134437,0.1056624007478703,0.0091593219348832,0.5915668499029069,-1.0036446159897685,-0.0695187723474444,-1.3746617173887243,0.6464054485629352,1.4856882541388248,0.6681561668015128,-1.0611083579641836,-0.1243321333043059,0.6885748513715374,0.193595682498282,0.1139302961024157,0.6509039293854164,11.497633453962408,-0.8735044505418184,0.186408494319263,-1.0195695452978748
2.28,-1.351912910564804,0.6072105724043261,1.4840940942315206,-0.0010038769453957,0.104553710429205,0.0089293190164717,0.5941917833618194,-0.9972320868622366,-0.0592124544174377,-1.3616255702923752,0.6254561984060911,1.4831934019741395,0.7008537907696372,-1.0884000582081337,-0.1235111834443887,0.6209488601115689,0.1312466729456285,0.3206264563765937,0.5153158965003392,11.222612889597258,-0.8763469091776414,0.1967032396786091,-1.0126770743360678
2.3000000000000003,-1.3400108376052244,0.5873586849411192,1.4829890344341363,-0.0073941889606892,0.1040616621650433,0.0088732090699183,0.5959204357174659,-0.9886156646714868,-0.0519243388896981,-1.3485894231960265,0.6045069482492469,1.4806985498094545,0.7335514147377615,-1.1156917584520831,-0.1226902335844715,0.5708493634086125,0.0864326177823227,0.4308211095374936,0.3644057763869776,11.005051394979091,-0.878031846159469,0.204824740405872,-1.007412665710286
2.32,-1.3280797083929607,0.5676933098381415,1.482005156872542,-0.0116322951058607,0.1043426724482286,0.0089854879337469,0.5972304448189071,-0.9789148988288972,-0.0468093335596747,-1.333918394901271,0.5821931130802052,1.478244745137765,0.7662490387058859,-1.1429834586960332,-0.1218692837245544,0.5522324268475599,0.0655004550720594,0.4850382921294749,0.2557502665011726,10.828767518883067,-0.8784727411164528,0.2103061571609453,-1.0042705278530026
2.34,-1.3167198377696654,0.5491939674930185,1.4811579157571702,-0.0139046705292529,0.1053185543589395,0.0092224998240081,0.5985994860868064,-0.9693381338307429,-0.0426197861313565,-1.319247366606516,0.5598792779111635,1.4757909404660754,0.7989466626740104,-1.1702751589399831,-0.1210483338646372,0.5271171821265552,0.0684520633949636,0.4788382499077259,0.2094773714159076,10.712470438246784,-0.877931593453283,0.2140345897084896,-1.0026684052520118
2.36,-1.3047254401660018,0.5299121602925512,1.480350572507148,-0.0148294316122374,0.1068780062468353,0.0095808379637847,0.6008613251421981,-0.9594751025152424,-0.0383369066833249,-1.3037588977125576,0.5368831502360231,1.473357659540884,0.8316442866421347,-1.197566859183933,-0.1202273840047201,0.5494050395869278,0.1130919527695895,0.4931515657750129,0.2141439724015776,10.674828407257335,-0.8768928362066477,0.2162090643177845,-1.0019853091301183
2.38,-1.2926764001425852,0.5108303696154664,1.479628856237796,-0.0142677215589321,0.1086411734789649,0.0100529174781733,0.6039969876390426,-0.9493357470141706,-0.0340452215692439,-1.287452988219396,0.513204730054784,1.4709449023621903,0.8643419106102591,-1.224858559427883,-0.1194064341448029,0.5724016736297585,0.1567831248422246,0.5069677750535961,0.2145842557040526,10.667089804500392,-0.8755530044726004,0.2170379105917055,-1.0018308277124868
2.4,-1.280555881830591,0.4919518296918527,1.4789946267404448,-0.0120581124429172,0.1103145766230124,0.0106535527333856,0.607923048880081,-0.9392541859379322,-0.0295876970433731,-1.262476550760633,0.4633635822647578,1.4779265951593337,0.7020234420877426,-0.950600240926629,-0.0357957481697612,0.5850669950976708,0.1963030620519168,0.5040780538119183,0.2228762262935371,10.667812063317797,-0.8742701096774982,0.2164553594461266,-1.0019479776020934
2.42,-1.2689513751094,0.4739703349998794,1.4785355840158465,-0.015752487861604,0.1115739084089364,0.0108368095433215,0.6134216189920787,-0.951446031847886,-0.0186283476936828,-1.262476550760633,0.4633635822647578,1.4779265951593337,0.7020234420877426,-0.950600240926629,-0.0357957481697612,0.8645558370301606,0.2749285055998862,-0.6095922954976851,0.5479674674845194,10.67683486936312,-0.8727494726120796,0.2201806721928521,-1.002545940851305
2.44,-1.2566307067310225,0.4549541290291353,1.4782745649174662,-0.0275714066875702,0.112650258264461,0.0104983323068715,0.6183358001692468,-0.9481546272325758,-0.008188548167501,-1.262476550760633,0.4633635822647578,1.4779265951593337,0.7020234420877426,-0.950600240926629,-0.0357957481697612,0.5999415286729675,0.2457090588584065,0.1645702307655039,0.5219899763090877,11.15103242884743,-0.8738512367098865,0.2329889008191535,-0.9968390764008712
2.46,-1.2442192712372526,0.4361213520822132,1.4781871103954982,-0.0403795088862163,0.1138623973677239,0.0101073845849797,0.6225977327683353,-0.9351194823606408,-0.0012423196455638,-1.2554563163397556,0.4538575798554915,1.477568637677636,0.7216287329774825,-0.9508531397091208,-0.0361458534898647,0.7686500536500308,0.2130966299544234,0.6517572435967456,0.3473114260968608,10.99938155329437,-0.8741303073219138,0.2472257023816946,-0.9906971954311908
2.48,-1.231727377996631,0.4176113246997103,1.4782024730000578,-0.0514744700390946,0.1153994281819334,0.0098410673030259,0.6264922616977683,-0.9169612853129128,0.0024492826644975,-1.2414158474980006,0.434845575036959,1.476852722714241,0.7608393147569625,-0.951358937274104,-0.0368460641300716,0.9467251491615184,0.1947264464716491,0.9079098523864017,0.1845801155030684,10.62793287954628,-0.8733404102799673,0.2591339497763081,-0.9862290512642572
2.5,-1.219787716973365,0.400391251423188,1.478265438761192,-0.0597068092109089,0.117233754393518,0.0097438971515039,0.6302343665987808,-0.8971369637926958,0.0040155687305585,-1.2273753786562458,0.4158335702184264,1.4761368077508457,0.8000498965364425,-0.9518647348390874,-0.0375462747702786,1.0117563007808017,0.1871052450506283,0.9912160760108536,0.0783143033030499,10.62793287954628,-0.871755374721096,0.2693830311898915,-0.9827649911628497
2.52,-1.2071391593883904,0.3826824382697077,1.4783535976488378,-0.0659891865032159,0.1195615148818849,0.0097969321417393,0.6345352020464489,-0.8751692009886,0.0046979412027922,-1.211374380725517,0.3967962755216446,1.47538588225544,0.8392604783159225,-0.9523705324040708,-0.0382464854104855,1.1197604881801702,0.2150417723834008,1.0983881402047924,0.0341186236116871,10.525775365075788,-0.8695664412097228,0.2773420303231976,-0.9804312003923452
2.54,-1.194397676801752,0.3654238101967205,1.4784527023731164,-0.0699821904965716,0.1222334353606066,0.0099998648989367,0.6395323608325235,-0.8523865107123586,0.0052118652606579,-1.195373382794788,0.3777589808248628,1.4746349567600343,0.8784710600954025,-0.952876329969054,-0.0389466960506924,1.1664976319024811,0.2498579393037325,1.139134513812068,0.0256962028932853,10.48050576710466,-0.867086221660865,0.2829317257438384,-0.9791166250999124
2.56,-1.1821877705413415,0.349451831830355,1.478559555652025,-0.0719822262714119,0.1248122498664792,0.0103281492628907,0.6455280023246885,-0.8304539747609467,0.0060344258945334,-1.1783921203195724,0.3587090411889565,1.4738665259986237,0.9176816418748824,-0.9533821275340376,-0.0396469066908994,1.137607639037892,0.2997820746082513,1.0966267975705934,0.0411280316937747,10.48050576710466,-0.8643881247585915,0.2872627663055382,-0.978049292161573
2.58,-1.1692012595734778,0.3330904129990379,1.4786937018157202,-0.0723691058838076,0.1272263805548507,0.0108310109012941,0.65285476368348,-0.8070207264208658,0.0073718874629426,-1.1604305932998695,0.3396464566139256,1.4730805899712078,0.9568922236543624,-0.9538879250990208,-0.0403471173311063,1.2294179143232378,0.3663380679395756,1.171662417004049,0.0668730784204598,10.53667058422252,-0.8620002411080764,0.2901314840071693,-0.9769493793782996
2.6,-1.15605885182136,0.3172046031257288,1.4788599960110902,-0.0706909937190249,0.1291019978345841,0.0115340510586932,0.6610296637078636,-0.7829608058456754,0.0092334546241594,-1.1365585213893037,0.2927393766779946,1.4790622961888673,0.7453622899619758,-0.7809939857506616,-0.0032045758415173,1.2739448582933797,0.4087450012191795,1.2029960287595176,0.0930783580608389,10.53667058422252,-0.860177238249308,0.2912883968929215,-0.9756715392144392
2.62,-1.1426928023906782,0.3017156843557987,1.479082449337472,-0.0693527807209941,0.1286490565271448,0.012392180479677,0.6752154131407655,-0.7666994575640875,0.0129662479477791,-1.1365585213893037,0.2927393766779946,1.4790622961888673,0.7453622899619758,-0.7809939857506616,-0.0032045758415173,1.0949893617120618,0.7092874716450925,0.8130674140793936,0.1866396661809831,10.569838699585487,-0.862044661480776,0.2922980942196944,-0.971522569012773
2.64,-1.1297395949323643,0.2873183113178946,1.4793628711497655,-0.0699386323635,0.1245361794250477,0.0133487388808054,0.6871195868163503,-0.7494887345626319,0.0163855734381797,-1.1365585213893037,0.2927393766779946,1.4790622961888673,0.7453622899619758,-0.7809939857506616,-0.0032045758415173,1.060200598873422,0.5952086837792414,0.8605361500727826,0.1709662745200318,10.659770067089084,-0.8653665628562985,0.2959083201128892,-0.9646532107217412
