t,x,y,z,roll,pitch,yaw,v_x,v_y,v_z,ref_x,ref_y,ref_z,ref_v_x,ref_v_y,ref_v_z,a_com,a_x,a_y,a_z,thrust,wind_x,wind_y,wind_z
0.0,-1.0085412761688366,2.4674617503968146,2.820100599378604,0.0285080135054518,0.1007278480409309,0.0436983554228484,0.0047828369109394,-0.0067453638484101,0.0324542534884178,-1.0084013941588368,2.467283678379637,2.82108248855563,-0.0355702476225255,-0.1061988017981963,-0.0673436770601985,1.6745551885908143,0.239141845546971,-0.3372681924205082,1.622712674420894,10.224718518119516,-0.9484608983922284,0.2632141482943034,-0.86185711916191
0.02,-1.0084171121087764,2.467600518999592,2.8205435764480007,0.0345143763033918,0.0986570819163977,0.044034391194762,0.007865863236224,0.0167807932236352,0.0106175385833791,-1.0084013941588368,2.467283678379637,2.82108248855563,-0.0355702476225255,-0.1061988017981963,-0.0673436770601985,1.6123176142938551,0.1541513162642291,1.1763078536022695,-1.091835745251938,10.224718518119516,-0.9493107781369186,0.2643704942344345,-0.8544109692105186
0.04,-1.0082283764827709,2.4679837723509404,2.8204514605163205,0.0484350352606221,0.0922220444017693,0.0446893139168964,0.0101467629007817,0.0194412939030769,-0.0186687954238689,-1.0084013941588368,2.467283678379637,2.82108248855563,-0.0355702476225255,-0.1061988017981963,-0.0673436770601985,1.4747628001895623,0.1140449832278897,0.1330250339720848,-1.464316700362403,8.886310821353163,-0.9425486958997198,0.2485076263621971,-0.8698368657551271
0.06,-1.0080494874649455,2.468315837592809,2.8198175020719924,0.0623099419117836,0.0836631273343015,0.0450985639483163,0.0082360515042419,0.0150704232070495,-0.046634906106758,-1.008757096635062,2.466221690361655,2.820409051785028,-0.0436237351618169,-0.1261988020962195,-0.0873436773582217,1.418501564512584,-0.0955355698269903,-0.2185435348013684,-1.398305534144453,8.642582476798452,-0.9395367065675782,0.2288443620191612,-0.8845115502424945
0.08,-1.0079408853144618,2.4685362414584664,2.818577225695518,0.0764105658853604,0.0738787837090152,0.0452695820245428,0.0024487680886353,0.0068640693761301,-0.0759567973130205,-1.0094685015875124,2.4640977143256912,2.819062178243824,-0.0597307102403996,-0.166198802692266,-0.1273436779542682,1.5496856104083634,-0.2893641707803313,-0.4103176915459716,-1.466094560313126,8.672712196394514,-0.938716621808038,0.2081153132377519,-0.8981597108692321
0.1,-1.0079839299428857,2.468560544010922,2.8167556583171485,0.0898300463971302,0.0646305444841937,0.0452559404496468,-0.0065487759064932,-0.0043249473815179,-0.1047972214811165,-1.010179906539963,2.461973738289727,2.81771530470262,-0.0758376853189824,-0.2061988032883124,-0.1673436785503146,1.6108382601481896,-0.4498771997564285,-0.5594508378824027,-1.4420212084048,8.763860143001239,-0.939621502702096,0.1887547728645497,-0.9091728507033074
0.12,-1.0082136019009424,2.468350500186155,2.814494186271666,0.101955973255125,0.057067951435761,0.0451615469915444,-0.0172328317199162,-0.0174806148123575,-0.1318251953257094,-1.0116966602463426,2.457849762223961,2.814368431131613,-0.0919446603975652,-0.2461988038843589,-0.2073436791463611,1.5950956118045034,-0.5342027906711525,-0.6577833715419834,-1.351398692229646,8.818311178824843,-0.9407937957141164,0.1683336068928358,-0.9207190217820578
0.14,-1.008693500513903,2.46783417697506,2.811551960374327,0.1140983547853689,0.0508952275772077,0.045072217014222,-0.0302724560072259,-0.0337361196412511,-0.161069912889471,-1.0132134139527225,2.4537257861581945,2.8110215575606072,-0.1080516354761479,-0.2861988044804054,-0.2473436797424075,1.7954990560987236,-0.6519812143654837,-0.8127752414446764,-1.4622358781880798,8.818311178824843,-0.9403919562864932,0.1477079207690951,-0.9340662251129298
0.16,-1.009454405610552,2.466967427215716,2.8080186322673044,0.1256395674048047,0.0471329437663378,0.0451156314720209,-0.0452386189724722,-0.0523899509973618,-0.1908698190546351,-1.0151328420360666,2.4486018100775278,2.8066746839747,-0.1241586105547307,-0.3261988050764518,-0.287343680338454,1.9104880695892332,-0.7483081482623176,-0.932691567805537,-1.489995308258206,8.804944459647231,-0.938063197061004,0.1279540539925249,-0.9487932692843316
0.18,-1.0105282664233703,2.4657032542129653,2.803887956636621,0.1366166369147057,0.0464838078607709,0.0454478681993481,-0.0609934772081452,-0.0733240048048024,-0.22074651440079,-1.0174549444963754,2.4424778339819584,2.8013278103738912,-0.1402655856333134,-0.3661988056724982,-0.3273436809345004,1.9868738583802448,-0.7877429117836461,-1.0467026903720276,-1.4938347673077446,8.821084632730162,-0.9358070173680836,0.1096909396860456,-0.9613230201204268
0.2,-1.01182476983865,2.4640945275797383,2.799411942255386,0.1465491088247119,0.0483429807997419,0.0460401617325796,-0.0743874589841395,-0.0951619660084972,-0.2489628474169796,-1.0135779402837777,2.462037053972725,2.7928506309165817,-0.086131447432168,-0.1733240062949185,-0.3207465158909062,1.905555526762642,-0.6696990887997178,-1.09189806018474,-1.4108166508094808,8.848942674265345,-0.9311481950773308,0.0914613029893768,-0.976028742131694
0.22,-1.0134590860682826,2.461774755454514,2.7942444910154425,0.1521616166661442,0.0530292900223156,0.0467199663136083,-0.0879822016090762,-0.1337836455831122,-0.2652211464109414,-1.0135779402837777,2.462037053972725,2.7928506309165817,-0.086131447432168,-0.1733240062949185,-0.3207465158909062,2.202716190513183,-0.6797371312468325,-1.9310839787307508,-0.8129149496980903,8.87867269846629,-0.9262744834929372,0.0747640422734158,-0.9933071423084964
0.24,-1.0153337879204891,2.4587480313665164,2.7887778912057213,0.1523161191875204,0.060332951407731,0.0474031394470273,-0.0984050562527965,-0.1664772802663295,-0.2807365220144095,-1.0135779402837777,2.462037053972725,2.7928506309165817,-0.086131447432168,-0.1733240062949185,-0.3207465158909062,1.8829740623814255,-0.5211427321860154,-1.6346817341608657,-0.7757687801734026,9.832916460479282,-0.9200175462102688,0.0703309763078622,-1.003360962197755
0.26,-1.01727484036603,2.4552887456188754,2.783273878739592,0.1494571033590154,0.0683688028481096,0.0479778603485067,-0.1051536782239081,-0.1954296782483567,-0.2977701113744647,-1.0144392547580994,2.460303813909776,2.789643165757673,-0.0911590414769726,-0.1933240065929417,-0.3407465161889294,1.7131319373487035,-0.3374310985555802,-1.4476198991013614,-0.8516794680027584,9.561889922721091,-0.911405203746939,0.0690000613615498,-1.0150045242056858
0.28,-1.0194270170804165,2.451099863169413,2.777112850149336,0.1447952276778285,0.0769270501293763,0.0484298536822301,-0.1094942095574782,-0.2215571038747942,-0.3175114456995472,-1.0161618837067428,2.4568373337838776,2.7832282354398545,-0.1012142295665818,-0.2333240071889882,-0.3807465167849758,1.651667992558892,-0.2170265666785034,-1.3063712813218733,-0.9870667162541286,9.561889922721091,-0.90237142652039,0.0701127633265691,-1.0259099649229138
0.3,-1.021640439233236,2.4464202866583604,2.7705372003252227,0.139881668851791,0.0848392037466228,0.0487123222111439,-0.1114907521002771,-0.2449615518745917,-0.3391646421928214,-1.0178845126553862,2.453370853657979,2.7768133051220363,-0.1112694176561909,-0.2733240077850346,-0.4207465173810223,1.5973535039846152,-0.0998271271399488,-1.1702223999898758,-1.0826598246637065,9.430050881482202,-0.8931673188338872,0.0710460423851438,-1.037020710031926
0.32,-1.0238733948644765,2.441292521737645,2.7635084761710678,0.1352534233507044,0.0916198912209114,0.0488033557732635,-0.1116725570990516,-0.266632693465463,-0.3626543421553476,-1.02010990100851,2.4479043735022783,2.768398374774416,-0.1213246057458,-0.313324008381081,-0.4607465179770687,1.5979967422046548,-0.0090902499387229,-1.0835570795435636,-1.1744849981263128,9.322553255649837,-0.8834963204249657,0.0714196928990412,-1.048949517917256
0.34,-1.0259848005858487,2.436031559343068,2.756387444868042,0.1313052001814266,0.0968133042942176,0.0487111392246742,-0.1105877832755184,-0.2861166350407039,-0.3857893966911705,-1.0223352893616338,2.4424378933465776,2.7599834444267954,-0.1313797938354092,-0.3533240089771275,-0.5007465185731153,1.5133005831056192,0.0542386911766584,-0.974197078762043,-1.1567527267911464,9.235528449376034,-0.8746269794708389,0.0711053829379118,-1.0603710479442114
0.36,-1.028177218122211,2.430094976113157,2.7484080147572496,0.1274439854315995,0.1009599693820271,0.0484263664426595,-0.1087177490456953,-0.3064181000408632,-0.4109807167863434,-1.024812057416998,2.435971413175976,2.7505685140642737,-0.1414349819250183,-0.393324009573174,-0.5407465191691616,1.6203773613813413,0.0935017114911569,-1.0150732500079669,-1.2595660047586414,9.200279032795152,-0.8666609946109031,0.0704804605333548,-1.0710075532740284
0.38,-1.0303270506835012,2.423756456351793,2.739918728178772,0.1236234505602594,0.1038694751954283,0.0479574090086395,-0.1063906064811622,-0.3262802979271212,-0.4367075704244598,-1.0275402051746023,2.4285049329904727,2.740153583686851,-0.1514901700146275,-0.4333240101692204,-0.5807465197652081,1.6292586469815022,0.1163571282266559,-0.9931098943128992,-1.286342681905822,9.168664099541274,-0.8604497839311015,0.0701650438810106,-1.0796447714898194
0.4,-1.0324279565310008,2.4170269170991165,2.730910018021952,0.1197278574929466,0.1056861464410772,0.047324570542295,-0.1038961877086661,-0.3455034794990068,-0.4628673521381281,-1.0356465810075592,2.4074424414554367,2.7180833496575483,-0.1211226832676207,-0.4262802994172373,-0.536707571914576,1.627948873632887,0.1247209386248011,-0.9611590785942814,-1.307989085683411,9.152246073804235,-0.8564507331083904,0.0708840232469043,-1.085606465999306
0.42,-1.0343733762782013,2.4102825700869213,2.722039424824683,0.1165502478382613,0.1069905531059735,0.0466915224625932,-0.1008836351437006,-0.3637459448785741,-0.4685992176675663,-1.0356465810075592,2.4074424414554367,2.7180833496575483,-0.1211226832676207,-0.4262802994172373,-0.536707571914576,0.9678808017118568,0.1506276282482746,-0.9121232689783654,-0.2865932764719137,9.13605460760118,-0.8575210092405425,0.070878438261605,-1.0877043959037318
0.44,-1.0363548842390364,2.402816906849677,2.712589674379245,0.1142895521453868,0.1083788682627277,0.0460859760450304,-0.0974054198484838,-0.3820472768502867,-0.4764362290686753,-1.0356465810075592,2.4074424414554367,2.7180833496575483,-0.1211226832676207,-0.4262802994172373,-0.536707571914576,1.010514078674588,0.1739107647608415,-0.9150665985856288,-0.3918505700554464,10.352707294120592,-0.8543419177027314,0.0714919193007237,-1.0913990052574412
0.46,-1.038264618397693,2.3949821290958604,2.7029335945857027,0.1127311303507808,0.1095417317854299,0.0454872910515814,-0.0937489851674558,-0.4005377702310466,-0.4887702424906279,-1.0368578078402355,2.4031796384612645,2.7127162739384025,-0.1240690986249124,-0.4462802997152605,-0.5567075722125991,1.126272332890071,0.1828217340513992,-0.9245246690379932,-0.6167006710976336,10.092010449506231,-0.8511991461727269,0.0710378280832618,-1.095453258555603
0.48,-1.040010590497171,2.3871989991590907,2.693500281204662,0.1115411077866105,0.1102983318789028,0.0448852732992535,-0.0902492324847774,-0.4177968031270084,-0.503589526435095,-1.0392802615055878,2.3946540324729195,2.701982122500111,-0.1299619293394958,-0.486280300311307,-0.5967075728086456,1.1507971823594143,0.1749876341339239,-0.8629516447980906,-0.7409641972233538,9.866422069621876,-0.848387034928006,0.0700777157326552,-1.099522952019895
0.5,-1.041778242560803,2.378658215469444,2.6832401764729363,0.1105807751558439,0.1106808002717333,0.0442117590723777,-0.086740285881812,-0.4353559340005753,-0.5217584893609041,-1.0417027151709404,2.386128426484575,2.69124797106182,-0.1358547600540792,-0.5262803009073534,-0.6367075734046921,1.2754871589876329,0.1754473301482692,-0.877956543678346,-0.9084481462904526,9.695596457297142,-0.8467837713770161,0.0690740316410222,-1.1023363056360287
0.52,-1.043478171558577,2.3697699815981217,2.6725941827269217,0.1099659237522586,0.1106507962129545,0.0435030603725695,-0.0834736437849487,-0.4525804781554453,-0.5420155034951336,-1.044419810372022,2.375602820466428,2.678513819593725,-0.1417475907686626,-0.5662803015033999,-0.6767075740007386,1.339498500901027,0.1633321048431654,-0.8612272077434979,-1.0128507067114767,9.552972726904954,-0.8453231498633124,0.0673252103820177,-1.1054980915642385
0.54,-1.0451148535352106,2.36053896517364,2.6615322001334745,0.1096979979157362,0.1102449211227973,0.0427639172863254,-0.0804125644702197,-0.4696708437966232,-0.56316779286732,-1.0471369055731037,2.365077214448281,2.665779668125632,-0.147640421483246,-0.6062803020994464,-0.716707574596785,1.368274597810072,0.1530539657364465,-0.854518282058897,-1.0576144686093192,9.411487373806269,-0.8442667710191109,0.0650779005393908,-1.108542506985328
0.56,-1.0466153338821125,2.3514424615097558,2.6506259228986657,0.1094246662050931,0.1095835917422449,0.0420180563501758,-0.0777317675637869,-0.4868754392587014,-0.5837928335783363,-1.0500013215420496,2.3535516084152324,2.652045516642637,-0.1535332521978294,-0.6462803026954927,-0.7567075751928314,1.3496083518917488,0.1340398453216436,-0.8602297731039127,-1.031252035550817,9.391871305062525,-0.8433806055661612,0.062508778962987,-1.111801454549607
0.58,-1.048143073174882,2.34150963631652,2.638715194418821,0.1086581883704456,0.108678177112161,0.0411653168356515,-0.0752254563998626,-0.5054019237547857,-0.606217442119724,-1.0530130582788604,2.341026002367283,2.6373113651447406,-0.1594260829124127,-0.6862803032915392,-0.7967075757888779,1.459773348561801,0.1253155581962137,-0.9263242248042092,-1.1212304270693807,9.391871305062525,-0.8428159403883896,0.060442169637436,-1.114788881994217
0.6,-1.0496238644540152,2.331199974224791,2.626348997145086,0.1069776838820445,0.1076160444115388,0.0402231292108853,-0.0730234367515043,-0.5244157849971309,-0.6292585688532629,-1.0519043459948751,2.3162395401287807,2.608404322312835,-0.0642135243546413,-0.6054019252449018,-0.7062174436098401,1.4977227138441882,0.1101009824179134,-0.9506930621172638,-1.1520563366769487,9.35698350599705,-0.8421064203900173,0.0590887258443572,-1.118143608161116
0.62,-1.051026829186266,2.3210293737444085,2.6143733206370663,0.1042458789570249,0.1083249798055242,0.0394254510072221,-0.0744583983062345,-0.5448991613642187,-0.6289619100333386,-1.0519043459948751,2.3162395401287807,2.608404322312835,-0.0642135243546413,-0.6054019252449018,-0.7062174436098401,1.026786039682515,-0.0717480777365074,-1.0241688183543871,0.0148329409962177,9.3323536995249,-0.8391685522618284,0.0555037323286845,-1.1269839955659493
0.64,-1.0525187382648076,2.309935259126918,2.6017818408885174,0.1010000228585506,0.1124481313439783,0.0388997191617005,-0.0742449971442421,-0.5633334294162331,-0.6305923314014613,-1.0519043459948751,2.3162395401287807,2.608404322312835,-0.0642135243546413,-0.6054019252449018,-0.7062174436098401,0.9253729687362424,0.0106700580996169,-0.9217134026007212,-0.0815210684061373,10.831814206440868,-0.8357617151971194,0.0587243904619709,-1.1288037189876368
0.66,-1.0539778700687787,2.298486425736647,2.589102874787994,0.097915316652494,0.1186229633077023,0.0385720627767962,-0.0713614789416811,-0.5805149485923167,-0.6374376673111223,-1.0525464812384215,2.310185520876332,2.6013421478767365,-0.062011137945597,-0.625401925542925,-0.7262174439078632,0.9359192034288032,0.1441759101280519,-0.8590759588041785,-0.3422667954830483,10.489314868422298,-0.8293037671168835,0.0612248166826583,-1.133460669501994
0.68,-1.0553526338384676,2.2867068832355044,2.576237347191026,0.0949645541364514,0.125641924320037,0.0383122927198759,-0.066012943333703,-0.5965056604255138,-0.6487647883069642,-1.0538307517255143,2.2980774823714336,2.58721779900454,-0.0576063651275084,-0.6654019261389714,-0.7662174445039097,1.0156443375224935,0.2674267803989064,-0.7995355916598557,-0.5663560497920939,10.186110017913052,-0.8216330353626248,0.0635874635744815,-1.139095224181124
0.7000000000000001,-1.0565384633890855,2.2752306714825825,2.563772930177453,0.0923306407594099,0.1323051331205236,0.0380545119861899,-0.0589418838897008,-0.6106868580076572,-0.662725093790711,-1.0551150222126071,2.285969443866536,2.573093450132343,-0.0532015923094199,-0.7054019267350179,-0.8062174450999562,1.0559313137272872,0.3535529722001065,-0.7090598791071712,-0.6980152741873413,9.954214045205845,-0.8133023881124605,0.0655782613770908,-1.1454030786125593
0.72,-1.0573699818399591,2.265986306383942,2.553729994449803,0.0904275322046418,0.1372341531386827,0.0378186424609268,-0.0522475656577984,-0.6211409294200289,-0.6757192983748507,-1.0561790540587954,2.271861405331836,2.556969101230344,-0.0487968194913314,-0.7454019273310644,-0.8462174456960027,0.8985416774688638,0.3347159115951199,-0.5227035706185823,-0.6497102292069845,9.776784674556438,-0.8070287995425836,0.0668275184944961,-1.1502015144452888
0.74,-1.0583121254714436,2.253429804883203,2.5400125185929574,0.08842551928863,0.1430646087576427,0.0374590113118691,-0.0423275760883458,-0.63393671882117,-0.6952723457471301,-1.057243085904984,2.257753366797135,2.540844752328345,-0.0443920466732429,-0.7854019279271108,-0.8862174462920491,1.2693109164020937,0.4959994784726293,-0.6397894700570561,-0.9776523686139738,9.63036923587606,-0.7985203680020141,0.0674353312285831,-1.157293543850786
0.76,-1.0590400488617622,2.240608182458796,2.5258921327310797,0.08666739780014,0.1478618546212751,0.0370116744412673,-0.0309690181375966,-0.6474632468445692,-0.7157903460738386,-1.05819699843072,2.2426453282475336,2.5237204034114447,-0.0399872738551543,-0.8254019285231572,-0.9262174468880956,1.3536729077727236,0.567927897537464,-0.6763264011699632,-1.0259000163354235,9.500591820208683,-0.7912712514929204,0.0674418991728858,-1.163777152255836
0.78,-1.059511229870128,2.2281764897920904,2.5120916195625216,0.0848053951269863,0.1512983371236172,0.036466104310939,-0.0192499726165455,-0.6602917684084649,-0.7358681505813727,-1.059040791636004,2.226537289683031,2.505596054479643,-0.0355825010370658,-0.8654019291192037,-0.966217447484142,1.3276155573833843,0.5859522760525528,-0.6414260781947845,-1.0038902253767024,9.500591820208683,-0.7845922193338124,0.0675732049712765,-1.1700242162559678
0.8,-1.059761997505194,2.214832613246948,2.497144700239439,0.0825901021451214,0.1537110441732967,0.0357638272253622,-0.0064907503539983,-0.6732831718013508,-0.757800623534609,-1.0604737285009551,2.1951619013716672,2.475298212033453,-0.0113924720410627,-0.760291769898581,-0.8358681520714888,1.425313723979925,0.6379611131273617,-0.6495701696442924,-1.0966236476618152,9.479104488090345,-0.7790791553964173,0.0679562382658841,-1.1755109106134751
0.8200000000000001,-1.059706529486015,2.2012061599974198,2.4820066682159423,0.0798887100407326,0.1546848183680005,0.0349040660858088,0.0115072954913216,-0.6885355158262425,-0.7535618337622294,-1.0604737285009551,2.1951619013716672,2.475298212033453,-0.0113924720410627,-0.760291769898581,-0.8358681520714888,1.1984688056415134,0.8999022922659968,-0.7626172012445864,0.2119394886189785,11.115359868775158,-0.7758127818895225,0.0650704122488916,-1.1837049757798788
0.84,-1.0593184596806031,2.188000602061891,2.467707380571075,0.0772592925095992,0.1540501638412929,0.0339587406622982,0.0283075814282388,-0.700817068878397,-0.7519893896012945,-1.0604737285009551,2.1951619013716672,2.475298212033453,-0.0113924720410627,-0.760291769898581,-0.8358681520714888,1.04350219642117,0.8400142968458612,-0.6140776526077252,0.0786222080467469,11.115359868775158,-0.7743896472946921,0.067777102860342,-1.1843198326693496
0.86,-1.0585727554844313,2.1738574766786902,2.452634147966403,0.0748177497258176,0.1516050689272814,0.0328554846728993,0.0452585584251477,-0.7128390033798795,-0.7556464746903486,-1.0605876532213658,2.187558983672681,2.466939530512738,-0.0098209719259661,-0.7802917701966042,-0.855868152369512,1.0550317550389778,0.847548849845443,-0.6010967250741239,-0.1828542544527078,10.757250595944242,-0.774930442297359,0.0699500010004944,-1.1840069384771512
0.88,-1.0574970068627834,2.159481192209363,2.437438721361212,0.0726661799669592,0.1470155130167459,0.0316235512250175,0.0612302190329781,-0.7241823163362571,-0.7638715266078605,-1.060815502662187,2.1723531482747096,2.450222167471308,-0.0066779716957729,-0.8202917707926507,-0.8958681529655584,1.062327833632129,0.7985830303915232,-0.5671656478188791,-0.4112525958755941,10.430700255035845,-0.777539419494435,0.0712549431134924,-1.1830431907056824
0.9,-1.0561278220135737,2.144884684756814,2.422036859639608,0.0707899285190189,0.1404255799509374,0.0302813237053871,0.0744748256272257,-0.7349449525433469,-0.7758541053768121,-1.0610433521030085,2.157147312876738,2.4335048044298784,-0.0035349714655798,-0.8602917713886972,-0.9358681535616048,1.0426362451937352,0.6622303297123776,-0.5381318103544919,-0.5991289384475795,10.171196822766433,-0.7819790376714136,0.0717055480301146,-1.18147157145156
0.92,-1.0546119780253462,2.1308238203594168,2.4071560422651315,0.0692978868901351,0.1330603549265762,0.0289649356270533,0.0841405143408748,-0.7446335668045552,-0.7899190900632446,-1.06111405153232,2.139941477448964,2.414787441358646,-0.0003919712353867,-0.9002917719847436,-0.9758681541576514,0.9812219153194036,0.4832844356824551,-0.4844307130604131,-0.7032492343216235,9.965332862482684,-0.7885416694096191,0.0717237501360371,-1.178635491495919
0.94,-1.0528474819574098,2.115830695178788,2.3911893420024968,0.0682149797216809,0.12482404007679,0.0275960510064486,0.091522088956558,-0.7541948839106813,-0.8060540553488463,-1.0611847509616317,2.12273564202119,2.3960700782874143,0.0027510289948064,-0.94029177258079,-1.0158681547536978,1.0077741976484291,0.3690787307841614,-0.4780658553063088,-0.8067482642800883,9.71555910353618,-0.7961467194459947,0.0710526988200977,-1.1751924845235466
0.96,-1.050961932574279,2.100639308910762,2.374888189035651,0.0674769596687563,0.1166113922175288,0.026265623434893,0.0964471274265664,-0.7643908611690982,-0.8232239799191258,-1.0611768753851882,2.104529806578515,2.376352715201281,0.0058940292249995,-0.9802917731768364,-1.0558681553497442,1.0283728238512295,0.2462519235004186,-0.5097988629208405,-0.8584962285139719,9.71555910353618,-0.8041547465380487,0.0699481716594615,-1.1714437316768764
0.98,-1.049001797082448,2.0852394714145066,2.3582337400659936,0.0666838796826402,0.1087846823536881,0.0249695411461175,0.0991515453239812,-0.7749726312207471,-0.8413378354209654,-1.0610904248029902,2.085323971120939,2.3556353521002467,0.0090370294551926,-1.020291773772883,-1.0958681559457906,1.057591006404837,0.1352208948707418,-0.5290885025824477,-0.905692775091982,9.659400442388687,-0.8117374380330156,0.0689849777109405,-1.1677453418552757
1.0,-1.0471087621333215,2.0704109810918223,2.3420669003751406,0.0656207481474628,0.101947720250588,0.0237700864687558,0.0998747722028147,-0.7852690367367208,-0.8595075523448871,-1.0440442198162487,2.0464908398534694,2.3161668482949453,0.1256055115988388,-0.8749726327108632,-0.9413378369110816,1.044841658773095,0.0361613439416715,-0.5148202757986831,-0.9084858461960832,9.603331812814758,-0.8193683995887256,0.0683529236095734,-1.1639226299616745
1.02,-1.045171902288746,2.0545568176488813,2.3249439135548826,0.063532784484453,0.0981875431856474,0.0226810818836124,0.0936564592950717,-0.7993600980452867,-0.8503901326132317,-1.0440442198162487,2.0464908398534694,2.3161668482949453,0.1256055115988388,-0.8749726327108632,-0.9413378369110816,0.8949200617702481,-0.310915645387147,-0.7045530654282983,0.4558709865827681,9.544487478980043,-0.8205661373346417,0.0653090932253348,-1.1693341425712418
1.04,-1.0433642436500938,2.0384496672768986,2.3079979377473,0.0607888505869934,0.1006822077136859,0.0219560482846091,0.0882467299365572,-0.8105341023077565,-0.8448007529325176,-1.0440442198162487,2.0464908398534694,2.3161668482949453,0.1256055115988388,-0.8749726327108632,-0.9413378369110816,0.6807435423954565,-0.2704864679257263,-0.5587002131234864,0.2794689840357078,11.452203191211993,-0.8212625626859443,0.0688874664705423,-1.1664546474469528
1.06,-1.0416241447473131,2.0221355753189467,2.291102999209325,0.0581512027599898,0.1073252788474979,0.0214902285434125,0.0865364594721511,-0.8202465165632162,-0.8452440994147492,-1.0427881647002604,2.037741113526361,2.3067534699258347,0.1308963048538103,-0.8949726330088864,-0.9613378372091048,0.4935903459205447,-0.0855135232203055,-0.4856207127729883,-0.0221673241115827,10.55631323862508,-0.81610639337481,0.0721111419128908,-1.1683596592276582
1.08,-1.039967442927229,2.0064690597934023,2.2749893585467347,0.0558947834004,0.1157895009323576,0.0211831145159536,0.0883337135584597,-0.8283894126710963,-0.8508937549441263,-1.0402760544682834,2.020241660872143,2.287926713187613,0.1414778913637533,-0.9349726336049328,-1.0013378378051512,0.5036255724124412,0.0898627043154319,-0.4071448053940052,-0.2824827764688564,10.55631323862508,-0.8070743944949663,0.0746340525852595,-1.1736877143308666
1.1,-1.038154120950458,1.989820701462703,2.2578709648234088,0.0538927387224893,0.1256900311389605,0.0209320460374701,0.0932531540507527,-0.8360468289658436,-0.8608483151121467,-1.0377639442363067,2.002742208217926,2.2690999564493914,0.1520594778736963,-0.9749726342009792,-1.0413378384011978,0.6744074940401554,0.2459720246146469,-0.3828708147373627,-0.497728008401016,10.25137875276596,-0.7955686420849468,0.0763552198793509,-1.1813560341887723
1.12,-1.036211757927313,1.9730261526580688,2.2405173720698004,0.0523326794545666,0.135774832360924,0.0207148784649545,0.1010188414075848,-0.8430460500605222,-0.8741693512184581,-1.034722754678833,1.9832427555339065,2.248273199681368,0.1626410643836393,-1.0149726347970258,-1.081337838997244,0.8466773278556431,0.3882843678416049,-0.3499610547339327,-0.6660518053155706,10.023818818383006,-0.7829743806299998,0.0773085959267807,-1.1901345857969097
1.14,-1.0340833943948666,1.956099381880254,2.222878415611077,0.0513473792256185,0.1453609061454313,0.0205095928151228,0.1116196517750591,-0.8493519354057871,-0.8890909962897336,-1.031681565121359,1.963743302849887,2.227446442913344,0.1732226508935823,-1.0549726353930724,-1.1213378395932907,0.9679835510842896,0.5300405183737166,-0.3152942672632441,-0.746082253563779,9.855883556430854,-0.7709688078712643,0.0773325113188476,-1.198822001520793
1.16,-1.0318393859463184,1.9398975962587977,2.20583544234085,0.0508097205778784,0.1534957276485876,0.0202954688466208,0.1241378164388621,-0.8557391563302617,-0.9041897019560892,-1.028375835901136,1.943243850150966,2.2056196861304183,0.1838042374035253,-1.0949726359891188,-1.161337840189337,1.031348571637362,0.6259082331901499,-0.3193610462237262,-0.7549352833177814,9.798356560498178,-0.7587805163621173,0.0766886447338449,-1.2078943583188977
1.18,-1.0292005156711348,1.922711218050116,2.1875746528454174,0.0504203493056497,0.1606847006236473,0.0200183546002595,0.1391657783944495,-0.8625301793014182,-0.9211620431523616,-1.024805567018165,1.921744397437144,2.1827929293325923,0.1943858239134683,-1.1349726365851651,-1.2013378407853834,1.1832349716096582,0.7513980977793683,-0.3395511485578262,-0.8486170598136222,9.767821403403104,-0.7475997392334927,0.0757421620691453,-1.216424694900894
1.2,-1.0262433908402129,1.9053865098891924,2.1689636477604206,0.0500299057259402,0.1662263621035551,0.019665007986489,0.1557418861737383,-0.869530877383772,-0.939107529435358,-1.0222422267514124,1.8795847090850448,2.141516550687799,0.1695388282943852,-0.9625301807915344,-0.9687910530846412,1.2706470799203902,0.8288053889644431,-0.3500349041176909,-0.8972743141498207,9.726314941959572,-0.7383932858321598,0.0747330865302754,-1.223749968152693
1.22,-1.0228392972433236,1.8878650826441887,2.1503925244894404,0.048315672549925,0.1689359171411036,0.019084431025835,0.184115127030744,-0.8819990200931369,-0.9149649056678568,-1.0222422267514124,1.8795847090850448,2.141516550687799,0.1695388282943852,-0.9625301807915344,-0.9687910530846412,1.9642820964221637,1.418662042850284,-0.6234071354682458,1.2071311883750602,9.694916258573356,-0.7332874411134669,0.0708468024212343,-1.2332096469839329
1.24,-1.0190669826366496,1.8710116049631624,2.133228569578891,0.0450800388027279,0.1677062291767932,0.0182481513070972,0.2112541154634924,-0.8910322636933431,-0.8931754983133231,-1.0222422267514124,1.8795847090850448,2.141516550687799,0.1695388282943852,-0.9625301807915344,-0.9687910530846412,1.79784764089962,1.3569494216374212,-0.4516621800103093,1.0894703677266917,12.178442231636836,-0.7323323275160343,0.0752471244352815,-1.2329523308595685
1.26,-1.014556742328558,1.8531182151639105,2.115548664022444,0.0414595192448702,0.1624360291381595,0.0172023230926017,0.2377046895131744,-0.8977719906725541,-0.8761831251186293,-1.0205468384684686,1.8699594072771293,2.131828640156953,0.1756134382743723,-0.9825301810895576,-0.9783168550710972,1.6076361016254272,1.3225287024840964,-0.3369863489605496,0.8496186597346911,12.178442231636836,-0.7350421251222318,0.0795628678163778,-1.2312309310386829
1.28,-1.0095618542860922,1.8351077241247629,2.0981447798249846,0.0382391694219239,0.1538322589427865,0.0160893102621491,0.2598346119147243,-0.9030179075873768,-0.8649644996218273,-1.0171560619025808,1.8507088036612989,2.11245281909526,0.1877626582343466,-1.022530181685604,-0.9973684590440092,1.2679813364294228,1.106496120077495,-0.2622958457411339,0.5609312748400985,11.745858571655845,-0.7415448974624769,0.0830158776506221,-1.227490600210235
1.3,-1.0041734959647697,1.8170029252752105,2.080917608925141,0.0356086286257549,0.1430243339408799,0.0149818162819153,0.2773390612401297,-0.9073282570797178,-0.8582492737242514,-1.0137652853366932,1.831458200045468,2.093076998033567,0.1999118781943209,-1.0625301822816504,-1.016420063016921,0.9618720260347576,0.8752224662702701,-0.2155174746170496,0.3357612948787947,11.373862854818071,-0.7514868850214854,0.085757247576358,-1.2218378152073013
1.32,-0.9987742343332277,1.7997298785196436,2.064640229693382,0.0337138942512573,0.1316138468074881,0.0139740613987563,0.2897126916091521,-0.9108178273878944,-0.8554489017957516,-1.009767047772807,1.8102075963998352,2.0727485967732284,0.2120610981542952,-1.1025301828776968,-1.0354716669898327,0.6578866018981353,0.6186815184511196,-0.1744785154088268,0.14001859642499,11.071865690360028,-0.7634915350682115,0.0876087620755371,-1.214886796382991
1.34,-0.9928799798412068,1.7814823758853608,2.047549465874692,0.0324588986844193,0.1192205906567772,0.0129897485697353,0.2986487130561805,-0.9138115562678648,-0.8538037764539289,-1.0057688102089204,1.7889569927542022,2.05242019551289,0.2242103181142695,-1.1425301834737434,-1.0545232709627446,0.4783339035099589,0.4468010723514243,-0.1496864439985257,0.0822562670911353,10.824230132144294,-0.7766083177181311,0.088317717399287,-1.2073036785540567
1.36,-0.9868467405056642,1.7631714396054012,2.0304781711787943,0.0319188247042382,0.1070779536343992,0.0120907489668914,0.3039032766970346,-0.917143225426758,-0.8533729223378089,-1.0014668421460349,1.766706389093668,2.0316155041532284,0.2363595380742438,-1.1825301840697895,-1.0735748749356564,0.3118336644329917,0.2627281820427041,-0.1665834579446579,0.0215427058059991,10.732126452729972,-0.789286884107572,0.0882318068042942,-1.199699147094992
1.38,-0.9810503984853652,1.7457122196103805,2.014257809630026,0.0318449346553027,0.0961892930647212,0.0113053030206383,0.3057568779132134,-0.9204956640801084,-0.8540330159756869,-0.9968611435841496,1.7434557854182329,2.0103345226942446,0.248508758034218,-1.222530184665836,-1.0926264789085682,0.194360528425037,0.0926800608089389,-0.1676219326675165,-0.0330046818939,10.652775268133157,-0.802297830622224,0.087640370717872,-1.1915913032878778
1.4,-0.9749415435695172,1.7272641027671376,1.9971590373707853,0.0321340317685165,0.0857391140300673,0.0105488692012331,0.3048030838396443,-0.9241475745245632,-0.8558497714765269,-0.9657625545897046,1.6996874364063748,1.9715561588312416,0.3253034016034371,-1.0204956655702244,-0.878349548513028,0.2094443457038555,-0.0476897036784551,-0.1825955222227449,-0.0908377750419964,10.577414764846251,-0.8145056479639007,0.0866668669710956,-1.1836879257567654
1.42,-0.9688776575832664,1.708686474065041,1.9802849025231295,0.0312904388378979,0.0772588437299588,0.0097909653493344,0.3015474020106806,-0.9331153750999222,-0.8300500652383203,-0.9657625545897046,1.6996874364063748,1.9715561588312416,0.3253034016034371,-1.0204956655702244,-0.878349548513028,1.3753597286788366,-0.1627840914481843,-0.4483900287679476,1.28998531191033,10.501665967404731,-0.824158746000045,0.084110334774822,-1.1811267770558471
1.44,-0.9629054681391508,1.6899516408808697,1.9639332538301024,0.0286337912411818,0.0717712842636866,0.0090319515386205,0.2957849773224629,-0.939568482471516,-0.8065366830253338,-0.9657625545897046,1.6996874364063748,1.9715561588312416,0.3253034016034371,-1.0204956655702244,-0.878349548513028,1.252724307390385,-0.2881212344108846,-0.3226553685796884,1.1756691106493244,12.471977864674956,-0.8320043313995995,0.0878461709105086,-1.1732066864178077
1.46,-0.9573572832362268,1.6720646341334775,1.9487822630541132,0.0257723851893575,0.0695562156603165,0.0084045480597129,0.2887660708869605,-0.9429454742869454,-0.7894497919271573,-0.9625095205736702,1.6894824797506725,1.9627726633461116,0.3292127063414818,-1.0404956658682476,-0.8832128550204963,0.9389235441088356,-0.3509453217751201,-0.1688495907714748,0.8543445549088258,12.081963451001684,-0.8371290504818346,0.092194176986974,-1.1667955527701592
1.48,-0.951653855511234,1.6531853003335482,1.9331428374397923,0.0232338316123481,0.0699330529497181,0.0078713045109366,0.2821905540731259,-0.94490018479696,-0.7755635664156073,-0.9560034525416016,1.669072566439268,1.9452056723758504,0.3370313158175713,-1.0804956664642942,-0.8929394680354327,0.7744119922634911,-0.3287758406917307,-0.0977355255007306,0.6943112755774972,11.703636435168846,-0.8390582923779627,0.0957852533552863,-1.1629688097807953
1.5,-0.9460701540387572,1.6342777465648737,1.9177398926490488,0.0214933231713922,0.0722678380373835,0.0074573923885064,0.2767818277377197,-0.9459519247599284,-0.7653979476769092,-0.9494973845095328,1.6486626531278636,1.92763868140559,0.3448499252936608,-1.1204956670603403,-0.9026660810503692,0.5781441901930514,-0.2704363167703089,-0.0525869981484128,0.5082809369349073,11.18791228110149,-0.8391005130622105,0.0985857920754815,-1.1603197867905448
1.52,-0.9408523705017074,1.6163039136227106,1.903270249396956,0.0207492112949743,0.0756729656534595,0.0071677359714339,0.2729368778324236,-0.9461329043984948,-0.7582229859477122,-0.9426003860036596,1.6262527397866569,1.9095853597845829,0.3526685347697503,-1.160495667656387,-0.9123926940653057,0.4071132189552852,-0.1922474952648079,-0.0090489819283223,0.358748086459848,11.18791228110149,-0.8371502499054319,0.1002036091405651,-1.1596504571672763
1.54,-0.935422250814237,1.5973876832335667,1.8881779334227116,0.0212847477620919,0.0799709755386705,0.0069862786831398,0.2704691640311328,-0.945620520947485,-0.7514159462575308,-0.9357033874977864,1.60384282644545,1.8915320381635756,0.3604871442458398,-1.2004956682524337,-0.922119307080242,0.3629322855218799,-0.1233856900645397,0.0256191725504839,0.3403519845090685,10.978276289529276,-0.8336985080798928,0.0999745398624134,-1.1609040121461704
1.56,-0.9300232504358794,1.5784750262935852,1.8732168080777487,0.0232289560090308,0.0845196697580635,0.0069293352533884,0.2697019128185362,-0.9458030544928756,-0.7450421153702035,-0.928610923755011,1.5804329130893422,1.8732355512171948,0.3683057537219292,-1.2404956688484798,-0.9318459200951784,0.3211219125918997,-0.0383625606298287,-0.0091266772695275,0.3186915443663674,10.978276289529276,-0.8295158613371468,0.0980951879915963,-1.163092489771685
1.58,-0.9246228551787647,1.559544651943734,1.8583796313420635,0.0261646514196955,0.0889102237967413,0.0069621039034891,0.2704759597048192,-0.9475609457549368,-0.7390111545514991,-0.9213229947753332,1.556022999718333,1.8546958989454403,0.3761243631980187,-1.2804956694445262,-0.9415725331101148,0.3164720314188209,0.0387023443141482,-0.0878945631030525,0.3015480409352178,10.954943001558604,-0.8253249586337575,0.0952047429132863,-1.1656197203445926
1.6,-0.9194651656217812,1.5415075378053675,1.844392924900497,0.0290594278446214,0.0926661170268616,0.0070124221511643,0.2724444588065555,-0.9510123490537046,-0.7335844366226769,-0.9110990571935238,1.5121666046559872,1.821429073614488,0.3067825011178879,-1.0475609472450529,-0.7239277698513796,0.3362902054895559,0.0984249550868149,-0.1725701649383959,0.2713358964411105,10.9373598664788,-0.8213686936089407,0.0919849141214973,-1.168013750235674
1.62,-0.9139566236692218,1.5223687882354489,1.8300321263141743,0.0298005298706883,0.0958980926457272,0.0069036090735611,0.2784664521544227,-0.9620605355931254,-0.7014277952963459,-0.9110990571935238,1.5121666046559872,1.821429073614488,0.3067825011178879,-1.0475609472450529,-0.7239277698513796,1.726540190005648,0.3010996673933591,-0.5524093269710428,1.6078320663165502,10.924446321830146,-0.8166396759913633,0.0875777999760336,-1.176015853255976
1.64,-0.908318586445308,1.503035431735291,1.816337478027601,0.0273280091858147,0.098234499557832,0.00655835837035,0.2849860497235357,-0.970381022620979,-0.6697771159199152,-0.9110990571935238,1.5121666046559872,1.821429073614488,0.3067825011178879,-1.0475609472450529,-0.7239277698513796,1.6684582417860232,0.3259798784556539,-0.4160243513926798,1.5825339688215367,12.868455253290447,-0.8174233888385678,0.0924446759209519,-1.1710870116927492
1.66,-0.9025517097132278,1.4835784797053535,1.8032315957959444,0.0234219170859089,0.0997603672122452,0.0061053762813891,0.2913239931603287,-0.9745934379040296,-0.6423661986672291,-0.9080312321823448,1.5016909951835369,1.8141897959159743,0.3140438094005017,-1.067560947543076,-0.7209110929113557,1.4223856317455454,0.3168971718396501,-0.2106207641525359,1.3705458626343037,12.598876715514962,-0.8199334812846926,0.0996880238631827,-1.163707871024772
1.68,-0.8969592157067486,1.4650481730288665,1.7912522163289806,0.0199253848827048,0.1005521172773315,0.005690894323382,0.2969933761516994,-0.9758758444543612,-0.6199791314362586,-0.9018955821599872,1.4807397762386356,1.7997112405189468,0.3285664259657292,-1.1075609481391226,-0.7148777390313079,1.1564679516389225,0.2834691495685354,-0.0641203275165758,1.1193533615485252,12.289529760298135,-0.8220515706042895,0.1062512300792123,-1.1575194122086718
1.7,-0.8909608087253816,1.4455324337294877,1.7790728239090765,0.0170828190619055,0.1008298857677753,0.0053217329811393,0.302493572932381,-0.9757897809633016,-0.5992619878373713,-0.8957599321376294,1.4597885572937346,1.7852326851219191,0.3430890425309567,-1.147560948735169,-0.7088443851512601,1.071750449553942,0.2750098390340766,0.0043031745529775,1.035857179944366,12.02405307380377,-0.8240752409813318,0.1114984156925238,-1.15214122719206
1.72,-0.8848576216959582,1.4260290925057073,1.7672777097810934,0.015346650594873,0.1006692505592751,0.0050430730515262,0.3074978616913015,-0.9748200291450372,-0.5812692207494872,-0.8888981512870102,1.4368373383190312,1.771055797418894,0.3576116590961842,-1.1875609493312154,-0.7028110312712124,0.9350441059791396,0.2502144379460252,0.048487590913232,0.8996383543942055,11.657372069136729,-0.8260966735471491,0.1150938123117568,-1.147503258029982
1.74,-0.8789704572449084,1.4075263835753775,1.756396818875292,0.0148929771920111,0.100216668879957,0.0048752215008238,0.3119094404231893,-0.9730936891510938,-0.5649778583972177,-0.882036370436391,1.4138861193443275,1.756878909715869,0.3721342756614118,-1.227560949927262,-0.6967776773911646,0.8483082635093154,0.2205789365943927,0.0863169996971613,0.8145681176134734,11.657372069136729,-0.8283194296868502,0.1171358509869114,-1.1432808004009654
1.76,-0.8726852050491785,1.3880814614402384,1.745274011988811,0.0157365209623549,0.0994792098571086,0.0048028741355466,0.3163317616777533,-0.9715911552982,-0.5481681790007619,-0.8748115241716412,1.3899349003547232,1.742852855859845,0.3866568922266392,-1.2675609505233083,-0.6907443235111167,0.8723242726608214,0.2211160627281994,0.0751266926446947,0.8404839698227917,11.605255386853967,-0.8307391804854727,0.1175977365341087,-1.1392533073070124
1.78,-0.8663142486419863,1.3686618264860535,1.7344829623199816,0.0178123160715287,0.0984743385818227,0.004824895873768,0.3204714277233285,-0.9705813292598228,-0.5317668193108445,-0.8672236124927607,1.3649836813502176,1.7289776358508222,0.4011795087918667,-1.3075609511193549,-0.6847109696310689,0.847291542614938,0.2069833022787598,0.0504913019188646,0.8200679844958703,11.579529651618031,-0.8332957093944526,0.1167834247413427,-1.135421512178317
1.8,-0.859864376427153,1.3492471598075169,1.7240164262801447,0.0207592605821711,0.0972284674180227,0.0049117934393774,0.3242359032639117,-0.9712413133123764,-0.5157020286196057,-0.8502906772558199,1.3201327600230623,1.7078946213544393,0.361324909463088,-1.0705813307499388,-0.519924395260871,0.8256578513503438,0.1882237770291589,-0.032999202627687,0.8032395345619392,11.524044821286225,-0.8359677118414716,0.114901023143678,-1.1317082108262504
1.82,-0.85366757539537,1.3307093310893054,1.7144540208686747,0.0216505337697738,0.0960296888896526,0.0048692192404763,0.3278441862827573,-0.9790755337101392,-0.4916295507628349,-0.8502906772558199,1.3201327600230623,1.7078946213544393,0.361324909463088,-1.0705813307499388,-0.519924395260871,1.2785528007766551,0.1804141509422818,-0.3917110198881357,1.20362389283854,11.524044821286225,-0.8395260833448572,0.1141108760718958,-1.1281354582481475
1.84,-0.8470774435303092,1.3110767516567898,1.7048738258964329,0.0201157110208038,0.0949864696357736,0.004673851227489,0.3309459071135822,-0.9836347286153134,-0.4677734404092126,-0.8502906772558199,1.3201327600230623,1.7078946213544393,0.361324909463088,-1.0705813307499388,-0.519924395260871,1.2242558265125207,0.1550860415412441,-0.2279597452587156,1.1928055176811114,12.007658557366996,-0.8445171586455337,0.1179529681733863,-1.1203207995947968
1.86,-0.8404318567107455,1.2913770033606489,1.695742064586776,0.0175109135502049,0.0942237009472712,0.004431735300568,0.3334404045025369,-0.9859421951644384,-0.4467001517815712,-0.846677428161189,1.309426946715563,1.7026953774018303,0.3694956058110398,-1.090581331047962,-0.5175559104508762,1.067275049697494,0.1247248694477343,-0.1153733274562474,1.053664431382073,11.808057054701749,-0.8489423250824997,0.1230331887550958,-1.1126811998121178
1.88,-0.8337422319097365,1.2716608918394643,1.687002185427367,0.0150075517200364,0.0937609015404228,0.0042250406273166,0.3354194498231021,-0.9856998790838412,-0.4283173938276351,-0.8394509299719273,1.2880153201005642,1.6922968894966133,0.3858369985069436,-1.1305813316440083,-0.5128189408308869,0.9245284304129954,0.0989522660282599,0.0121158040298552,0.9191378976968034,11.808057054701749,-0.8522749443512764,0.1276371524521806,-1.106357963498868
1.9,-0.8273537727479399,1.252949871370682,1.6790198309791244,0.0134353407334996,0.0936037291688136,0.0041088873188468,0.3369798917353306,-0.984132382646171,-0.4128383575848663,-0.8322244317826655,1.2666036934855651,1.6818984015913958,0.4021783912028474,-1.170581332240055,-0.5080819712108975,0.7818129364632196,0.0780220956114241,0.0783748218835145,0.7739518121384376,11.496476949725547,-0.8550149814138155,0.1313531531284497,-1.1008221533021696
1.92,-0.8205988202239115,1.2332960203373131,1.6709209404970091,0.0130459732591716,0.0937288510940893,0.0040970250678926,0.3384554021802336,-0.9814763856805854,-0.3979203703927907,-0.8241808639586086,1.2431920668407643,1.671736762167178,0.4185197838987512,-1.2105813328361013,-0.5033450015909081,0.7612125078076907,0.0737755222451508,0.1327998482792802,0.74589935960378,11.496476949725547,-0.8571518667802919,0.1335265942978262,-1.096244378567142
1.94,-0.8138143917162061,1.213702972531134,1.6631117069550003,0.0144393008614602,0.0941233395098718,0.0042288042771764,0.339945578284083,-0.9781626032200204,-0.383769679147064,-0.8161372961345515,1.219780440195963,1.66157512274296,0.434861176594655,-1.2505813334321478,-0.4986080319709187,0.7304858687002761,0.0745088051924719,0.1656891230282509,0.7075345622863355,11.35424911143582,-0.8587721258197327,0.1337402896764423,-1.0925324263366956
1.96,-0.8069968004824074,1.1941647209549089,1.655580895469779,0.017602707982816,0.0946670475547485,0.0044990894083902,0.3417622019392734,-0.976307858007725,-0.3700140798232759,-0.807685193493097,1.195368813536261,1.6515319075592418,0.4512025692905588,-1.2905813340281942,-0.4938710623509293,0.6999226994171057,0.0908311827595181,0.0927372606147669,0.6877799661894085,11.32659686806528,-0.8598376778954077,0.1322224687712223,-1.0897206577570906
1.98,-0.8004831891844316,1.1756087294008464,1.6486805205165145,0.0211899203656671,0.0951710175117311,0.004806413249509,0.3437912273272407,-0.977163335637754,-0.3570247092782552,-0.7988245560342448,1.1699571868616576,1.641607116616023,0.4675439619864625,-1.3305813346242406,-0.4891340927309399,0.6587346452790104,0.1014512693983643,-0.0427738815014455,0.649468527251032,11.32659686806528,-0.8611030748321257,0.1298532578953007,-1.0869029848181604
2.0,-0.7935829512996958,1.156040923850994,1.641683702026679,0.0247829642742314,0.0955881283588113,0.0051243925573917,0.3461235178006407,-0.9796012139948876,-0.3433346986736509,-0.7832936278180695,1.126750562618959,1.6308292850526018,0.3878551493450534,-1.0771633371278702,-0.3472165023474987,0.7049808864264915,0.11661452367,-0.1218939178566858,0.6845005302302171,11.320057187393104,-0.8626159510689023,0.1276636462719211,-1.0838906268272377
2.02,-0.7866172882042349,1.1363371623508072,1.635040568838536,0.025550005428769,0.0955338409616417,0.0052441581695789,0.3502996007130529,-0.9898456074105528,-0.3211997819782387,-0.7832936278180695,1.126750562618959,1.6308292850526018,0.3878551493450534,-1.0771633371278702,-0.3472165023474987,1.2372770527039425,0.2088041456206085,-0.5122196707832594,1.1067458347706087,11.319300636600929,-0.866650062324486,0.1279521954201066,-1.0787047414953066
2.04,-0.779575312667768,1.1164708834029975,1.6288405385165128,0.0228023405606237,0.0948867962402934,0.0051212836043459,0.3535927256902589,-0.9959178062540772,-0.3000374556433823,-0.7832936278180695,1.126750562618959,1.6308292850526018,0.3878551493450534,-1.0771633371278702,-0.3472165023474987,1.1130592154213472,0.1646562488603009,-0.303609942176225,1.0581163167428187,11.92764671369514,-0.8705345796714565,0.1330949651512719,-1.0716603134970808
2.06,-0.7724790391679782,1.0965320670423435,1.623031561249166,0.018943386791292,0.0940318713634212,0.0049397367020479,0.3558342807050919,-0.9975319767187952,-0.2818896051773075,-0.779415076324619,1.11597892924768,1.6273571200291268,0.396667933748616,-1.0971633374258931,-0.3452548609613474,0.9178433849419853,0.1120777507416515,-0.080708523235895,0.9073925233037432,11.565233278312007,-0.8737411276793097,0.1388508859481591,-1.0655389911464206
2.08,-0.7657049069001296,1.077589753777739,1.6178236729620197,0.0158049622164906,0.0932723409935353,0.0048277029935633,0.3571198803291603,-0.9965559977135512,-0.2672042629559145,-0.7716579733377179,1.0944356625051226,1.620412789982177,0.4142935025557411,-1.13716333802194,-0.3413315781890447,0.7386890035250124,0.0642799812034217,0.0487989502622077,0.7342671110696503,11.565233278312007,-0.876669609061044,0.1442269117260551,-1.0597380647843038
2.1,-0.7585545964624888,1.0576830388558112,1.612623576606007,0.0135950141502014,0.092716782327553,0.0048111905322809,0.357840690464491,-0.9944093163144296,-0.2536584042016825,-0.7639008703508169,1.0728923957625651,1.613468459935227,0.4319190713628661,-1.1771633386179865,-0.3374082954167421,0.6866915203898526,0.0360405067665325,0.107334069956072,0.677292937711596,11.38930574494043,-0.8793101216623629,0.1483418701780308,-1.0544837083090346
2.12,-0.7513945202874703,1.0378280591025462,1.6076767865937882,0.012736427117266,0.0925272443201569,0.0049122192634874,0.3581524306060237,-0.991345287662062,-0.2417586226761809,-0.7552624889235596,1.0493491289902053,1.606720294026892,0.4495446401699912,-1.2171633392140326,-0.3334850126444394,0.6145938778027398,0.0155870070766339,0.1532014326183883,0.594989076275082,11.15925315577806,-0.8811000142941449,0.1506767117549629,-1.0507701222394288
2.14,-0.7442301957257386,1.018044968346551,1.6029582310745711,0.0137217310761221,0.0927511641431746,0.005161642833353,0.3583269159089261,-0.9874368577961335,-0.2306779313353253,-0.7466241074963023,1.0258058622178456,1.5999721281185573,0.4671702089771163,-1.2571633398100792,-0.3295617298721368,0.5875542309632353,0.0087242651451213,0.1954214932964104,0.5540345670427771,11.15925315577806,-0.8825701618052234,0.1512027503457378,-1.0477165490831706
2.16,-0.7374179644111515,0.9993145818438054,1.5986781126351477,0.0163744400790235,0.0932575036678475,0.0055327990804519,0.3587790318744782,-0.9846605579737252,-0.2204078354925147,-0.7375450868488669,1.0012625954305847,1.59332204427953,0.4847957777842414,-1.2971633404061256,-0.3256384470998342,0.532416937584469,0.0226057982776028,0.1388149911204228,0.5135047921405345,11.113605667911544,-0.8838823124283615,0.1500059492873259,-1.0449219948283437
2.18,-0.7302342919970136,0.979627469622376,1.5943840921994854,0.0201281630057488,0.0939433342279349,0.0060022329690076,0.3595960783864705,-0.984446816200916,-0.2095286030379718,-0.7280254269812533,0.9757193286284228,1.58677004250981,0.5024213465913665,-1.337163341002172,-0.3217151643275316,0.5455981794053703,0.040852325599619,0.0106870886404597,0.5439616227271445,11.092130824487867,-0.8850943075273975,0.147759722688269,-1.0424704269350598
2.2,-0.7230306214979882,0.9599213705082612,1.590308300163405,0.0238181277780185,0.0946567230619192,0.0064764082083444,0.3607491202787924,-0.986200924191242,-0.1985881384591832,-0.7122544880776901,0.9304051288123302,1.5839076620475867,0.3908056068326681,-1.084446817691032,-0.2169785428849643,0.5570012694036324,0.0576520946160924,-0.0877053995163024,0.5470232289394306,11.095665640604238,-0.88637203668557,0.1456931470101213,-1.040023505923834
2.22,-0.7157524155786411,0.9400913236208934,1.586493821661476,0.0246022404389068,0.0938609449459997,0.0067204020893173,0.3667731121520577,-0.9954275377300028,-0.1833709142019108,-0.7122544880776901,0.9304051288123302,1.5839076620475867,0.3908056068326681,-1.084446817691032,-0.2169785428849643,0.9393918106665172,0.3011995936632677,-0.4613306769380376,0.7608612128636157,11.095665640604238,-0.8933781303381934,0.1470127645039767,-1.0305513021482964
2.24,-0.7087366858703,0.9211295549651016,1.583138362646107,0.0224895252866762,0.0906018117831899,0.0067081859928614,0.3712296511263136,-0.9999671461435122,-0.1705830371997058,-0.7122544880776901,0.9304051288123302,1.5839076620475867,0.3908056068326681,-1.084446817691032,-0.2169785428849643,0.7141403615547008,0.2228269487127926,-0.226980420675471,0.6393938501102522,11.367529414465023,-0.898319436209857,0.1508094001681262,-1.023756595411914
2.26,-0.7012851150879453,0.901112700107412,1.5798441786124615,0.0192290611712875,0.0851677016532404,0.0066093120157891,0.3732863513026531,-1.001237334407949,-0.1596097272602071,-0.7083464320093634,0.91956066063542,1.581737876618737,0.3970475125219075,-1.1044468179890552,-0.2184685308543628,0.5618205337800686,0.1028350088169732,-0.0635094132218405,0.5486654969749344,11.218972881066293,-0.9041573163822646,0.155245337420696,-1.0165999909433876
2.28,-0.6938330010334592,0.8811024981607319,1.5767377081562537,0.0164937328620287,0.0788856343281469,0.0065679849900309,0.3716113993311714,-0.9999879607719852,-0.1515579860660393,-0.7005303198727101,0.8978717242815992,1.5773983057610377,0.4095313239003866,-1.1444468185851018,-0.2214485067931597,0.415923475073451,-0.0837475985740854,0.0624686817981945,0.4025870597083883,11.043394644834734,-0.9104762953649712,0.1589640271983205,-1.009125889542724
2.3000000000000003,-0.6868162880312535,0.8621283560918309,1.5739136101046551,0.0149355711800796,0.0732010517987336,0.0066347272934059,0.3669771448287449,-0.9976441484851684,-0.1461014405412008,-0.6927142077360567,0.8761827879277786,1.5730587349033385,0.4220151352788656,-1.184446819181148,-0.2244284827319567,0.3766419383636409,-0.2317127251213219,0.1171906143408396,0.2728272762419256,10.737833236496044,-0.9170175654543624,0.1615475067537632,-1.0018125982677917
2.32,-0.6795541834272801,0.8422116106409155,1.5710367417629254,0.0147436853438948,0.0684468188702872,0.0068432118274192,0.3592908481321446,-0.9943213305423196,-0.1419375708514811,-0.6842739050304795,0.8524938515441556,1.5685701652486994,0.4344989466573445,-1.2244468197771945,-0.2274084586707538,0.46759514214343,-0.3843148348300157,0.1661408971424416,0.208193484485987,10.737833236496044,-0.9220764312798388,0.1623086338937139,-0.996629199813538
2.34,-0.6724739928546721,0.8223672275515116,1.5682317013152522,0.0164832887800414,0.0659844770366243,0.0072280019583642,0.3490350228388391,-0.9905031117350064,-0.1388061083298227,-0.6758336023249021,0.8288049151605327,1.5640815955940603,0.4469827580358236,-1.264446820373241,-0.2303884346095507,0.5691370767044511,-0.5127912646652744,0.1909109403656572,0.1565731260829178,10.650848043734186,-0.9250919170314568,0.1610864055189242,-0.9938369224045251
2.36,-0.6656040022883146,0.8025822842676759,1.5654850109785037,0.0199812225690975,0.0663361499177167,0.007785008418943,0.3388532221522541,-0.9887202210919902,-0.1359967112117996,-0.6670812043348628,0.8041159787620086,1.5595185265409512,0.4594665694143026,-1.3044468209692874,-0.2333684105483477,0.5355849055776651,-0.5090900343292515,0.0891445321508088,0.1404698559011555,10.604830440131993,-0.9271255657390208,0.1588723544081153,-0.9913537125103946
2.38,-0.6592508748553612,0.7837889580298556,1.5629298985876123,0.0236759868672898,0.0686161343402217,0.0083864926777606,0.3306525129556948,-0.9896652977445516,-0.1330924723960723,-0.6580167110603615,0.7784270423485833,1.554880958089372,0.4719503807927815,-1.3444468215653338,-0.2363483864871447,0.4375482953472829,-0.4100354598279621,-0.0472538326280747,0.1452119407863647,10.584058383347838,-0.9270659343485208,0.1558875251270119,-0.9912800485554276
2.4,-0.6527126464564811,0.7639710524984891,1.5603028195703064,0.027252639045887,0.0723149006912165,0.0090425000186381,0.3238224891776055,-0.9920712216175486,-0.1297534865476673,-0.6427182492075764,0.7343056931426281,1.5562752749678088,0.3744282353401477,-1.066665319679061,-0.1227076696895327,0.3987057843440824,-0.3415011889044694,-0.1202961936498436,0.1669492924202528,10.584058383347838,-0.9254226945759312,0.153115186828348,-0.9927908068518302
2.42,-0.6462758277735072,0.7439426084465481,1.5578794809126215,0.025525014565799,0.0765489606207368,0.0093556162621643,0.3204011665269637,-1.0090119254489658,-0.1119497723991758,-0.6427182492075764,0.7343056931426281,1.5562752749678088,0.3744282353401477,-1.066665319679061,-0.1227076696895327,1.2406300138082902,-0.1710661325320855,-0.8470351915708607,0.8901857074245734,10.594792617655004,-0.9286980190724132,0.1545693460947028,-0.9894128446699012
2.44,-0.6398942794759159,0.7236861781887095,1.555826707533562,0.0177953210290978,0.0807924444171116,0.0092436655649684,0.3180383751470149,-1.0146548551809698,-0.0942634462560862,-0.6427182492075764,0.7343056931426281,1.5562752749678088,0.3744282353401477,-1.066665319679061,-0.1227076696895327,0.9357237459651632,-0.1181395689974412,-0.2821464866001988,0.884316307154482,11.597797026934131,-0.927711903713644,0.1627977603791481,-0.9873711245895423
2.46,-0.6338684529250097,0.7044198843367363,1.5541717224817788,0.0098384929871015,0.0847178256161805,0.0090785299581786,0.3164753924257831,-1.0131263739170429,-0.0808299007372003,-0.6389739668541748,0.7236390399458374,1.5550481982709137,0.3831833798170382,-1.0820653240659628,-0.1206307091482248,0.6805132533041224,-0.0781491360615921,0.0764240631963453,0.6716772759442948,11.431331645027967,-0.9257347903161623,0.1726141010817252,-0.9852947676554286
2.48,-0.6275503688718931,0.6842120630656048,1.5526756005610758,0.0026699468472763,0.0886580268017311,0.0089752045519913,0.3155085026605786,-1.0079324769216271,-0.0696256660860602,-0.6314854021473719,0.7023057335522562,1.552594044877123,0.4006936687708193,-1.1128653328397666,-0.1164767880656089,0.6193672495677598,-0.0483444882602213,0.2596948497707863,0.5602117325570019,11.195458542942106,-0.9232987351943308,0.1811310385447299,-0.9840444000377262
2.5,-0.6212441629458442,0.6641302350954649,1.5513759298537535,-0.0026604395599028,0.0923426976798157,0.0089937331991642,0.3152426328622268,-1.0008328866524308,-0.0610054157089717,-0.623996837440569,0.680972427158675,1.5501398914833322,0.4182039577246005,-1.1436653416135705,-0.1123228669829931,0.5585328667675671,-0.0132934899175929,0.3549795134598188,0.4310125188544272,11.01217556541269,-0.9205591294628443,0.1878096075655264,-0.9835888516723282
2.52,-0.6149359622012718,0.6442023038473156,1.550227621429082,-0.0060447975524357,0.0957101952352986,0.0091497219171312,0.3156617877670532,-0.9928410149065088,-0.0542479619611751,-0.615632758286077,0.6580991203264036,1.5478934341436723,0.4357142466783816,-1.174465350387374,-0.1081689459003772,0.5237100485743951,0.0209577452413206,0.3995935872961043,0.3378726873898299,10.86510241353426,-0.91790535939885,0.1923030303291125,-0.9837908702622776
2.54,-0.6089284400685228,0.6254226272658575,1.549257112907359,-0.0076177800036539,0.0985730336992202,0.0094199177705953,0.3167334444592458,-0.984749159294391,-0.0482456736651333,-0.607268679131585,0.6352258134941321,1.5456469768040124,0.4532245356321628,-1.2052653591611775,-0.1040150248177613,0.506591650400206,0.0535828346096306,0.4045927806058835,0.3001144148020898,10.750014364786692,-0.915489430210012,0.1952274476828978,-0.9842828227202192
2.56,-0.6025744451267556,0.605816177015815,1.5483586412455923,-0.0077331707590875,0.1011506592977828,0.0098239364658275,0.3186483827531343,-0.9764551148476396,-0.0419154078643846,-0.5984668427532485,0.6115825064425157,1.543504367491418,0.4707348245859439,-1.2360653679349811,-0.0998611037351455,0.5304017983147727,0.0957469146944223,0.4147022223375762,0.3165132900374318,10.750014364786692,-0.9135627968611468,0.1967081732829363,-0.984593514888088
2.58,-0.596175021057645,0.5863749547114366,1.547587720382091,-0.0063207083804576,0.1031757198803086,0.0103489973197469,0.3212096677203481,-0.9682254660297636,-0.0354873986696661,-0.5892272491510674,0.5871691991715541,1.541465606205889,0.488245113539725,-1.2668653767087852,-0.0957071826525296,0.537602554300633,0.1280642483606903,0.41148244089379,0.3214004597359265,10.753391252763322,-0.9120867456359546,0.1968385628040213,-0.9847212747736788
2.6,-0.5897191357562065,0.567092618069032,1.5469474879270495,-0.0034054570134042,0.1045851105398073,0.010991968908644,0.3242191331508163,-0.9608268221346064,-0.0288528088032758,-0.5801145376716276,0.5379636814099484,1.5458133504486076,0.3686446161051099,-0.986142657639504,-0.0374706524206162,0.5191690388489555,0.1504732715234102,0.3699321947578604,0.3317294933195158,10.760001221587116,-0.9112430978976476,0.1958164182359316,-0.9844084069258116
2.62,-0.5835048697735464,0.5486607673088787,1.5464801306328697,-0.0072946635343606,0.1047472944534554,0.0111540766497741,0.3295482855545889,-0.9755021583082436,-0.0206746993856767,-0.5801145376716276,0.5379636814099484,1.5458133504486076,0.3686446161051099,-0.986142657639504,-0.0374706524206162,0.8812588025065595,0.2664576201886315,-0.7337668086818516,0.4089054708799545,10.770082243967408,-0.9142323949494944,0.2009466009480659,-0.9788499467183408
2.64,-0.5768688504007532,0.5291470591348253,1.5461447822439998,-0.0187046337174029,0.1034107723532796,0.0108597014476691,0.3336086478160194,-0.9739320654960476,-0.0133651135204277,-0.5801145376716276,0.5379636814099484,1.5458133504486076,0.3686446161051099,-0.986142657639504,-0.0374706524206162,0.4253874077073916,0.2030181130715236,0.0785046406098,0.3654792932624484,10.894039534980038,-0.9151051453572996,0.212124655928521,-0.9752984301186248
