t,x,y,z,roll,pitch,yaw,v_x,v_y,v_z,ref_x,ref_y,ref_z,ref_v_x,ref_v_y,ref_v_z,a_com,a_x,a_y,a_z,thrust,wind_x,wind_y,wind_z
0.0,1.2117222008618382,1.4244806252026838,1.7959401182313102,0.0210665627487082,0.0994177013336206,0.0416092264309721,0.0019171915225278,0.0002494586994191,0.0021417328557279,1.2117876718068303,1.4243854353279166,1.7960027485088152,-0.0978873900775858,-0.1022709988892752,-0.0978982403339641,0.1442642766078397,0.0958595761263944,0.012472934970959,0.1070866427863975,10.254275526242964,-0.9415071788800736,0.260906582796418,-0.8756806354056538
0.02,1.2118966421795578,1.4247463891221943,1.795754570478525,0.0287779483300461,0.0938322609937431,0.0420060732232964,0.0152871852434838,0.022446742679319,-0.0217430046485499,1.2117876718068303,1.4243854353279166,1.7960027485088152,-0.0978873900775858,-0.1022709988892752,-0.0978982403339641,1.7620703971684724,0.6684996860477984,1.1098641989949942,-1.194236875213897,8.810932399126159,-0.9483335037313564,0.2591870613008993,-0.8644366131493882
0.04,1.2123053379472293,1.4252442360909956,1.794992191345812,0.0431939895183051,0.0779100712006206,0.0423910640012708,0.0235537518585965,0.025408930474463,-0.053395154886035,1.2117876718068303,1.4243854353279166,1.7960027485088152,-0.0978873900775858,-0.1022709988892752,-0.0978982403339641,1.6423834013348728,0.4133283307556328,0.148109389757199,-1.5826075118742544,8.810932399126159,-0.948020283140668,0.2440051759526136,-0.8708554437210039
0.06,1.2127696456410686,1.4257179548709928,1.793592568464628,0.0580286510874322,0.0557834996362969,0.0421992889953337,0.0214400039065109,0.0214257088721761,-0.0849441306708642,1.2108087979060544,1.423362725339024,1.7950237661054755,-0.117887390375609,-0.1222709991872984,-0.1178982406319873,1.5934803558638635,-0.1056873976042775,-0.1991610801143425,-1.5774487892414604,8.500416745451275,-0.955128931271162,0.2257975819287491,-0.8728427552880562
0.08,1.2130869811270175,1.42606989333991,1.7915739784558211,0.0722915147966634,0.0316729917500381,0.0414499657468761,0.0097667589179046,0.013625617873951,-0.1154058728182306,1.2088510501045029,1.4213173053612385,1.7930658012987963,-0.1578873909716555,-0.1622709997833448,-0.1578982412280338,1.677068724588567,-0.5836622494303161,-0.3900045499112558,-1.5230871073683163,8.605687559418584,-0.966543885626766,0.2070060146088816,-0.8720599487822963
0.1,1.2130933716859131,1.4262293587125414,1.789100471158794,0.0852165419778794,0.0096533878404609,0.0403899159993617,-0.0087862141069201,0.0032782181098842,-0.1435137945346858,1.206893302302951,1.419271885383453,1.7911078364921171,-0.1978873915677019,-0.2022710003793913,-0.1978982418240802,1.761630461501266,-0.92764865124124,-0.5173699882033436,-1.4053960858227632,8.605687559418584,-0.9814135379373286,0.1873695334982088,-0.868362386858276
0.12,1.2126575034430602,1.4261554595490404,1.7859236303322577,0.0981869019942014,-0.0108357365330902,0.0391131202492433,-0.0340896164105646,-0.0104316645601781,-0.1727287551111921,1.2029355544715972,1.415226465375865,1.7871498716556355,-0.2378873921637484,-0.2422710009754377,-0.2378982424201267,2.050449324205412,-1.2651701151822232,-0.6854941335031182,-1.4607480288253136,8.696117366555882,-0.9959538124242472,0.1668746261530977,-0.8663543870442019
0.14,1.2116658443510433,1.425779001895998,1.7821593145745924,0.1105337935214963,-0.0275746765829984,0.037866513801198,-0.0638891304120618,-0.0268124628360423,-0.2023056566941749,1.198977806640243,1.4111810453682774,1.783191906819154,-0.2778873927597949,-0.2822710015714842,-0.2778982430161732,2.2534055860682467,-1.48997570007486,-0.8190399137932076,-1.4788450791491394,8.772194542907528,-1.0085400150654658,0.1458699374798826,-0.8673534120232206
0.16,1.2100379686971046,1.4250477997467983,1.777801792915505,0.1222758533582507,-0.0398870511907986,0.0368422813716426,-0.0971441950710611,-0.0457431077307785,-0.231997445812477,1.1940200587939878,1.4061356253457884,1.7782339419677713,-0.3178873933558413,-0.3222710021675307,-0.3178982436122196,2.4217096144307617,-1.662753232949967,-0.946532244736812,-1.4845894559151072,8.809070686359519,-1.018605494775472,0.1280127835607303,-0.86797917803087
0.18,1.2078520621277815,1.423979642395517,1.7731138869948502,0.1328825908409043,-0.0471745605309541,0.0362267412406095,-0.1311920552620587,-0.0659614417352783,-0.2600230431563252,1.1880623109328314,1.400090205308398,1.772275977101487,-0.3578873939518877,-0.3622710027635771,-0.357898244208266,2.4256297738848858,-1.7023930095498796,-1.0109167002249893,-1.4012798671924052,8.859313041402856,-1.025516604226998,0.1104866284929841,-0.8714280707300082
0.2,1.2048350577648124,1.422417449411814,1.7676036767972925,0.1434812224639626,-0.04967764400882,0.0361456593250931,-0.1683286903086744,-0.0894299106383175,-0.2894823334942524,1.2012924593646783,1.4206815703087534,1.760112734837034,-0.2311920567521748,-0.1659614432253944,-0.3480932495004528,2.644687355082228,-1.856831752330783,-1.1734234451519605,-1.4729645168963603,8.924005296941687,-1.030775441819984,0.0936295015407989,-0.8763378894043297
0.22,1.201048015689208,1.4201842762597467,1.7616352167393967,0.14854420946819,-0.0459877497398519,0.0365450777836644,-0.2079834535543795,-0.1306492317478419,-0.304611200624049,1.2012924593646783,1.4206815703087534,1.760112734837034,-0.2311920567521748,-0.1659614432253944,-0.3480932495004528,2.9582153832311,-1.9827381622852536,-2.060966055476221,-0.7564433564898304,8.960334642270027,-1.0362402133264332,0.0816722157170974,-0.8803380346961264
0.24,1.1965145486887492,1.4171959616254366,1.7554102205935722,0.1470430272109749,-0.03669209413829,0.0373110749795907,-0.2426699528124092,-0.165523824782288,-0.3170698449495908,1.2012924593646783,1.4206815703087534,1.760112734837034,-0.2311920567521748,-0.1659614432253944,-0.3480932495004528,2.537029901541313,-1.7343249629014872,-1.743729651722306,-0.622932216277089,10.016829194988986,-1.0358367167514972,0.0803379254838036,-0.8838896118431043
0.26,1.1916162476488872,1.4137552120380152,1.749256401979209,0.1423168126705168,-0.0249740033263442,0.0381905834407844,-0.2707235269949589,-0.1940272686324137,-0.3298759961134913,1.1989805387971568,1.4190219558764994,1.7566318023420295,-0.2511920570501981,-0.1859614435234176,-0.3657072907692784,2.099670714282216,-1.4026787091274848,-1.4251721925062826,-0.6403075581950274,9.913722960773155,-1.0307832827125416,0.0817385809919868,-0.8926597295951891
0.28,1.1859364719409256,1.409602967632858,1.742503739617682,0.136295723487046,-0.0114139503746905,0.0391383346203793,-0.2953192003911906,-0.2194083685617018,-0.3447664190466542,1.1943566976621132,1.4157027270119915,1.7496699373520204,-0.2911920576462445,-0.2259614441194641,-0.4009353733069294,1.9175975063624977,-1.229783669811582,-1.269054996464404,-0.7445211466581447,9.75788388448018,-1.023041692019019,0.0846384562606295,-0.9034881815083158
0.3,1.1798129748818935,1.404974436809462,1.7354306928385324,0.1303031744620857,0.002017892586373,0.0399796199240475,-0.3155100751834294,-0.2420566756604931,-0.3617776829422937,1.1897328565270695,1.4123834981474837,1.7427080723620114,-0.331192058242291,-0.2659614447155106,-0.4361634558445805,1.739252956475935,-1.00954373961194,-1.1324153549395644,-0.8505631947819753,9.465378316121132,-1.014230402454375,0.0870711608830482,-0.915472258768236
0.32,1.1736574853439004,1.4001779932463498,1.728376931139871,0.1250282969043046,0.0138131572211377,0.0406041218020636,-0.3312746967171309,-0.2616943375944293,-0.3798984889504701,1.183109015362224,1.4070642692531734,1.7339848032451195,-0.3711920588383374,-0.305961445311557,-0.4713915383822316,1.5512290842412484,-0.7882310766850781,-0.9818830966968116,-0.9060403004088196,9.465378316121132,-1.0039645847018277,0.0889309806845115,-0.9292181253057836
0.34,1.1668848362670563,1.3947426154894966,1.7205659246223282,0.1201211511015587,0.0246447402629938,0.0410406440695463,-0.3450096564889267,-0.2808254978102447,-0.4003475237880011,1.176485174197378,1.4017450403588632,1.7252615341282282,-0.4111920594343839,-0.3459614459076035,-0.5066196209198827,1.559497865438262,-0.6867479885897865,-0.9565580107907672,-1.0224517418765482,9.26648628348903,-0.99414096972787,0.090285893389083,-0.9421686748424374
0.36,1.1598573539474295,1.3889274963909353,1.712332757914505,0.1156681881461959,0.0336813924383013,0.041239208895049,-0.3569684208839773,-0.2996245831883385,-0.4220047338935676,1.1688613330176312,1.3954258114496518,1.7156575629478954,-0.4511920600304304,-0.3859614465036499,-0.5418477034575336,1.5535865010242011,-0.5979382197525335,-0.939954268904694,-1.082860505278327,9.26648628348903,-0.984888138853452,0.0908732209854324,-0.9547295398316732
0.38,1.1526050686758942,1.3827432484282351,1.7036555285264805,0.1113671158687073,0.0410651675180612,0.0412145065972769,-0.3676432326108075,-0.317719552159487,-0.444648367299698,1.1602374918229832,1.3881065825255392,1.7051728897041212,-0.4911920606264768,-0.4259614470996963,-0.5770757859951847,1.5444365002334364,-0.5337405863415079,-0.9047484485574242,-1.1321816703065202,9.17653519174928,-0.9771099934719688,0.0912559371164326,-0.9655408881926936
0.4,1.1455263556796556,1.3765410440625123,1.6949847343679525,0.1073571087094795,0.0467441407060164,0.0410158013097413,-0.3769455676084094,-0.3341184993129983,-0.4669452516422419,1.1342229070453538,1.3668572708202609,1.6814231101614954,-0.4676432341009236,-0.4177195536496031,-0.4789388188561422,1.4599742767734354,-0.4651167498800984,-0.8199473576755656,-1.1148442171271948,9.17653519174928,-0.9699127846033944,0.0915598585136988,-0.9758550106875378
0.42,1.1379329124472468,1.369657256671896,1.6856667728048549,0.1032090661770576,0.0505899655206235,0.0405591411169427,-0.3816764701374757,-0.3535726601534582,-0.4607066022874635,1.1342229070453538,1.3668572708202609,1.6814231101614954,-0.4676432341009236,-0.4177195536496031,-0.4789388188561422,1.048530589107782,-0.2365451264533136,-0.9727080420229932,0.3119324677389207,9.14036324740846,-0.9768398789206608,0.0942443181859921,-0.9699521764609038
0.44,1.1302540480583083,1.3623937059308635,1.676540593362981,0.0993348814837673,0.0513512526963764,0.0397908484788791,-0.3861507022612266,-0.371748823566887,-0.452667952225861,1.1342229070453538,1.3668572708202609,1.6814231101614954,-0.4676432341009236,-0.4177195536496031,-0.4789388188561422,1.0185916310545806,-0.223711606187546,-0.908808170671438,0.401932503080124,10.836162445870286,-0.9770681313115328,0.0972350734733206,-0.9693860387700652
0.46,1.12247972763382,1.354778529872541,1.6675314637290253,0.0958550020287367,0.0492791264901306,0.0387697873159412,-0.3912569235676071,-0.3888516391759018,-0.4486262227290284,1.1295464747043444,1.362680075283765,1.676633721972934,-0.4876432343989468,-0.4377195539476264,-0.485796909167431,0.915034664795906,-0.2553110653190249,-0.8551407804507416,0.2020864748416312,10.836162445870286,-0.9797138410236244,0.0995456416552848,-0.9666275079068324
0.48,1.1149881075693096,1.3472364781490087,1.659019926975077,0.0928841802784147,0.0448468692653839,0.0375974063085979,-0.3974189287208376,-0.4042127454399438,-0.4475226430918289,1.120193610022326,1.3543256842107727,1.6670549455958112,-0.5276432349949932,-0.4777195545436729,-0.4995130897900087,0.8293849847617061,-0.3081002576615255,-0.7680553132020984,0.0551789818599768,10.609869829175295,-0.984211770202626,0.1011608727315898,-0.9625207976774156
0.5,1.1069449497188697,1.3389906183484452,1.6500613817630037,0.0901591648801217,0.0383176600802709,0.0362355707207321,-0.4069446616103033,-0.4195888756972759,-0.448487249731141,1.1108407453403075,1.3459712931377807,1.6574761692186883,-0.5676432355910397,-0.5177195551397193,-0.5132292704125864,0.90567024178298,-0.4762866444732838,-0.7688065128666044,-0.0482303319656068,10.440397604890675,-0.9905468329400242,0.1021489330798135,-0.9568195689601674
0.52,1.0986767814339462,1.3304421992357116,1.6410653717914587,0.0878465955645806,0.0309511872538106,0.0348463645709293,-0.4196789730520834,-0.4345040778223016,-0.4511276721891191,1.099487880628487,1.3356169020349864,1.6472115838104366,-0.6076432361870862,-0.5577195557357658,-0.526945451035164,0.9894414751303122,-0.6367155720890028,-0.7457601062512892,-0.1320211228989065,10.315621935523268,-0.9977942470914462,0.1027244758415502,-0.950131964747147
0.54,1.090558194038337,1.322048190900637,1.6324687627824102,0.0860046151481491,0.0239891029317647,0.0335712765442866,-0.4344197339372877,-0.4483817056589252,-0.4536368225822084,1.088135015916666,1.325262510932192,1.636946998402185,-0.6476432367831326,-0.5977195563318123,-0.5406616316577417,1.0200176733049025,-0.7370380442602159,-0.6938813918311776,-0.1254575196544649,10.240362083897708,-1.0060871017854027,0.1030237155754451,-0.9423198669533808
0.56,1.0816816519198411,1.3129227144837294,1.623368851063485,0.0841866973670412,0.0174184202320544,0.0323179660407461,-0.4526085695854548,-0.4633497489912017,-0.456203427895038,1.075782151189944,1.3139081198144964,1.6263395084783687,-0.687643237379179,-0.6377195569278586,-0.5543778122803193,1.184761079569194,-0.9094417824083544,-0.7484021666138235,-0.1283302656414769,10.240362083897708,-1.0133531628252592,0.1031018735871984,-0.93560933716179
0.58,1.072412830499308,1.3034973712124325,1.6142172997585564,0.0822273689257966,0.0124317897926244,0.0312028887093117,-0.4735363670860503,-0.4783024087838931,-0.4588153179962026,1.062429286448321,1.3015537286818997,1.615389114038988,-0.7276432379752255,-0.6777195575239051,-0.5680939929028971,1.2926491335649302,-1.0463898750297769,-0.7476329896345724,-0.1305945050582319,10.269303809982375,-1.018847501137095,0.1031581735682435,-0.9308922856630036
0.6,1.0626955767760122,1.2937754410587423,1.605009942106511,0.0800169364630816,0.0101276474091999,0.0303037140111662,-0.4970854056232368,-0.4929491243018799,-0.461761378911453,1.0487360121450056,1.2795822507732375,1.5912765338587462,-0.5735363685761665,-0.5783024102740093,-0.4504908327240335,1.3944199209770844,-1.1774519268593242,-0.7323357758993398,-0.1473030457625201,10.269303809982375,-1.0221760234453612,0.1035062257338501,-0.9283290952297868
0.62,1.0530083970196042,1.284224517011545,1.5964039827366627,0.0766597712445301,0.011496799447326,0.0296530244047057,-0.5208963484780343,-0.510746604449845,-0.4438293015091044,1.0487360121450056,1.2795822507732375,1.5912765338587462,-0.5735363685761665,-0.5783024102740093,-0.4504908327240335,1.735850439421169,-1.1905471427398755,-0.8898740073982531,0.8966038701174323,10.266930259292169,-1.0280269797854782,0.1056430321834362,-0.9223251091043396
0.64,1.0423533235904263,1.273852696874705,1.5877224301209247,0.0722847429694692,0.0161736695222259,0.0291539372079744,-0.5429408645649976,-0.525319479852443,-0.4253955873900744,1.0487360121450056,1.2795822507732375,1.5912765338587462,-0.5735363685761665,-0.5783024102740093,-0.4504908327240335,1.6110021750684806,-1.1022258043481614,-0.7286437701298998,0.9216857059514972,11.480997057936293,-1.0279641261629926,0.1102032718159034,-0.9204658459848428
0.66,1.031290096766552,1.2632151961502092,1.5793806908147672,0.0681430432712941,0.0227409406339968,0.0287934506553405,-0.5619326976284436,-0.5376568250495337,-0.4098117427782242,1.0430006484592438,1.2737992266704976,1.586771625531506,-0.5935363688741897,-0.5983024105720325,-0.4488259356695996,1.3745508561965525,-0.9495916531722992,-0.6168672598545366,0.7791922305925097,11.26295670662148,-1.0253660495477317,0.1140995505412154,-0.9218276106902183
0.68,1.0204567541247311,1.2528974124876149,1.5717160461769044,0.0647602827835303,0.0297480934720315,0.0285255153774721,-0.5772297718120348,-0.5478995102239966,-0.3977552527452642,1.0315299210877205,1.2622331784650176,1.577761808877025,-0.6335363694702362,-0.638302411168079,-0.445496141560732,1.1003090816633307,-0.7648537091795637,-0.5121342587231459,0.6028245016479999,11.26295670662148,-1.0212847548576054,0.1174565638631078,-0.9251113980411664
0.7000000000000001,1.0087675970255503,1.24183775448212,1.563874024530475,0.0619019766900036,0.0371158391878147,0.0282773474027738,-0.5906661028488095,-0.5576102219032765,-0.3871882163850653,1.0200591937161971,1.2506671302595374,1.5687519922225446,-0.6735363700662826,-0.6783024117641254,-0.4421663474518644,0.982974021128816,-0.6718165518387331,-0.4855355839639919,0.528351818009945,11.075289602822522,-1.0166572070757869,0.1199878169257176,-0.929297928937966
0.72,0.996834232576506,1.230591508751669,1.5562213057444578,0.059777795126629,0.0438708032266198,0.028033136957355,-0.6018589307125466,-0.5666309791953846,-0.3787124474260619,1.0065884663148714,1.237101082024255,1.5599086652735072,-0.7135363706623291,-0.7183024123601719,-0.4388365533429967,0.8344041544071706,-0.5596413931868549,-0.451037864605408,0.4237884479501713,10.931255202061948,-1.012047534632527,0.1214834142028115,-0.9340151246133804
0.74,0.9846969884002306,1.2191707731655566,1.5487275582548738,0.0583743612873544,0.0496189466352907,0.0277757134939843,-0.6112287601720819,-0.57505516843517,-0.3711257514123968,0.9931177389135458,1.2235350337889723,1.55106533832447,-0.7535363712583756,-0.7583024129562184,-0.4355067592341291,0.7353887149872744,-0.4684914729767675,-0.4212094619892692,0.3793348006832536,10.80504771564938,-1.0083964588769605,0.1223003393444052,-0.9377900286500772
0.76,0.9730025462712166,1.208162510877167,1.541742497224748,0.0575784677878513,0.0540643612057924,0.0275107811210069,-0.6192793431498507,-0.5832825920642044,-0.3645291859673116,0.978647011497319,1.2089689855387886,1.5423052562281545,-0.7935363718544219,-0.7983024135522647,-0.4321769651252614,0.663357108812489,-0.4025291488884364,-0.4113711814517196,0.3298282722542622,10.76031382563906,-1.0051832724615724,0.1225755663407126,-0.9412267329555614
0.78,0.9605341511958416,1.196405921121314,1.534521539175295,0.0571005209236853,0.0578309701618651,0.0272085131040168,-0.6271049318647586,-0.5919292424952394,-0.357932552665998,0.963176284066191,1.1934029372737038,1.5336284189845606,-0.8335363724504684,-0.8383024141483112,-0.4288471710163938,0.6699253192024666,-0.3912794357453952,-0.4323325215517482,0.3298316650656802,10.731106219386676,-1.0027952664215307,0.1225506073291368,-0.9437833118679148
0.8,0.947914127846426,1.1844749753449386,1.5274282641945829,0.0568708734753137,0.060811346865732,0.0268841078943611,-0.634486741340122,-0.6007103343599178,-0.3517438698145807,0.9291789046026036,1.166809458996552,1.5166249115419952,-0.7271049333548747,-0.6919292439853555,-0.3298875242178931,0.6517255574663176,-0.3690904737681688,-0.4390545932339229,0.3094341425708635,10.714523951346564,-1.0011376316616245,0.1223079941196354,-0.945604006500721
0.8200000000000001,0.9351644634042608,1.172310483552023,1.5205407845491457,0.0550895481699895,0.0629086818040982,0.026407500466432,-0.64011642052081,-0.6147961646196866,-0.3368356125170268,0.9291789046026036,1.166809458996552,1.5166249115419952,-0.7271049333548747,-0.6919292439853555,-0.3298875242178931,1.063437865409348,-0.2814839590344009,-0.7042915129884364,0.7454128648776925,11.290719260087826,-1.0022170048184749,0.1233717108918047,-0.9443996157112812
0.84,0.922953739975173,1.1605336516871223,1.5142848586232744,0.0517489819780639,0.0638363198362335,0.0257884042727722,-0.6450664595760486,-0.6239427532052111,-0.3224719491690116,0.9291789046026036,1.166809458996552,1.5166249115419952,-0.7271049333548747,-0.6919292439853555,-0.3298875242178931,0.886676088231142,-0.2475019527619304,-0.4573294292762264,0.7181831674007627,11.290719260087826,-1.0023141271191065,0.1262539596594317,-0.9436139947846433
0.86,0.9099965092190988,1.1479804476430229,1.50798510598354,0.0483939587323409,0.0637132875590344,0.0251029671514569,-0.650497153041707,-0.6309552178325257,-0.3083115315774837,0.9219078552690548,1.1598901665566983,1.5133260362998162,-0.7471049336528979,-0.7119292442833787,-0.3242785185282721,0.8354407789211267,-0.2715346732829193,-0.350623231365732,0.7080208795763931,11.220571737713726,-1.003793108570035,0.1292307795807984,-0.9411072020682798
0.88,0.8969267239190002,1.135302500600781,1.5019574533350886,0.0458381583633126,0.0625447765202142,0.0244379754952184,-0.6563165141907776,-0.6367238403455903,-0.2951625844653308,0.9073657566019572,1.1460515816769914,1.5067282858154585,-0.7871049342489443,-0.7519292448794251,-0.3130605071490302,0.774656020501588,-0.2909680574535334,-0.2884311256532268,0.657447355607646,11.150394759954906,-1.0064289282625445,0.1315794424293436,-0.9372895712437446
0.9,0.884397792742086,1.1231586144591053,1.496469000527616,0.0442933457767523,0.0605194626156938,0.0238406353257411,-0.6623239577020715,-0.6414968268113577,-0.2832262706145277,0.8928236579348598,1.1322129967972845,1.5001305353311003,-0.8271049348449908,-0.7919292454754716,-0.3018424957697883,0.709482849843216,-0.3003721755646948,-0.2386493232883701,0.5968156925401563,11.087021521434508,-1.010121998053099,0.1332469305737678,-0.9323830124519864
0.92,0.8710792886271825,1.1102838627333325,1.490934954881014,0.0437918824910567,0.0574509786018214,0.0232621997586206,-0.6693260560857198,-0.6458424864395049,-0.2708095005775996,0.87628155923796,1.1163744118877748,1.4940936854157048,-0.8671049354410373,-0.8319292460715181,-0.2906244843905463,0.7451347487668806,-0.3501049191824146,-0.2172829814073629,0.6208385018464019,11.047025541127368,-1.0147520999314004,0.1339566134520028,-0.9265248293471922
0.94,0.8576098175413943,1.0973265298651111,1.4856524029024676,0.0447524144746843,0.0535120368799048,0.0227551213955204,-0.6774180190288485,-0.6498277072171359,-0.2580452632276471,0.8597394605410602,1.1005358269782652,1.488056835500309,-0.9071049360370838,-0.8719292466675646,-0.2794064730113044,0.7814851310891224,-0.4045981471564319,-0.1992610388815485,0.6382118674976289,11.03202681226503,-1.019885917750564,0.1334765785491745,-0.9202812319360772
0.96,0.8446446626761592,1.0849332098438824,1.4808751635062718,0.0469364707412456,0.0493828079966666,0.0223432312088354,-0.6870615046858242,-0.6546408344063306,-0.2454551154475122,0.8421973618292592,1.0836972420538546,1.4823004358693943,-0.94710493663313,-0.9119292472636108,-0.2681884616320624,0.8286658404949712,-0.4821742828487851,-0.2406563594597344,0.6295073890067406,11.050234978443768,-1.025370667895339,0.1316384842188983,-0.9139721939804852
0.98,0.8307771143498934,1.071767229554061,1.476110436634933,0.0499080735025724,0.0453872570579956,0.0219650024197124,-0.6993585748522511,-0.6619067480856865,-0.2316545054721426,0.8236552631025571,1.065858657114543,1.4768244865229605,-0.9871049372291766,-0.9519292478596574,-0.2569704502528205,0.993061266949514,-0.6148535083213447,-0.3632956839677959,0.6900304987684819,11.082580831672203,-1.0308227980659834,0.1292104273305879,-0.907775115436484
1.0,0.8166392397389659,1.0584338695760565,1.471626002936822,0.0526317044759318,0.0426363993172693,0.0216246557879823,-0.7139502713057655,-0.6710123226769212,-0.2174543731625272,0.7958091856072809,1.0386718921497766,1.4645277113613258,-0.7278329541831245,-0.7619067495758026,-0.1828643225538324,1.1152049717861594,-0.7295848226757218,-0.4552787295617366,0.7100066154807683,11.12837053579824,-1.0350864749472206,0.1269561718519302,-0.902914058650608
1.02,0.8021079004237505,1.044835476854977,1.4674532698093283,0.0525298939480992,0.0447996529293967,0.021348298135891,-0.7377925357885575,-0.6876571218352798,-0.2002328387555877,0.7958091856072809,1.0386718921497766,1.4645277113613258,-0.7278329541831245,-0.7619067495758026,-0.1828643225538324,1.6897367857294394,-1.1921132241396015,-0.8322399579179296,0.861076720346976,11.168589829488155,-1.033103894006913,0.1253821647214961,-0.9067467275087312
1.04,0.7879121824781772,1.0316426208640603,1.463819060459059,0.0489674688633851,0.0525845648972117,0.0211417789652667,-0.7546099991220822,-0.6995587744484502,-0.1831119440702892,0.7958091856072809,1.0386718921497766,1.4645277113613258,-0.7278329541831245,-0.7619067495758026,-0.1828643225538324,1.3394041984443252,-0.8408731666762315,-0.5950826306585166,0.8560447342649282,11.537500324935536,-1.0318061111375147,0.129701222389867,-0.9063738758349128
1.06,0.7726847869876569,1.0175702452970905,1.4603395082405752,0.0442389295519432,0.0637421028200691,0.0209722188234013,-0.7666623443293883,-0.7069104519322371,-0.1657863341768791,0.7885308560654496,1.0310528246540185,1.4626990681357874,-0.7335278300492992,-0.7819067498738258,-0.1731062859701704,1.117455754157991,-0.6026172603653068,-0.3675838741893478,0.8662804946705002,11.431415204788207,-1.0256783348666845,0.1345050269469078,-0.9116597641293492
1.08,0.7572662821634376,1.0033835724580746,1.4571914316364782,0.0401187824336472,0.0761882294303249,0.020862502323477,-0.7741079922722348,-0.7115074479377301,-0.1499740514927517,0.7739741969817872,1.0158146896625024,1.4590417816847108,-0.7449175817816487,-0.8219067504698723,-0.1535902128028463,0.9036015842810504,-0.3722823971423261,-0.2298498002746507,0.7906141342063716,11.318561565193704,-1.017016286291934,0.13859750258358,-0.9199040757250416
1.1,0.7425178546174732,0.9898373274466612,1.454478015082762,0.037298723532872,0.0883137794554121,0.020816834860651,-0.7776186522689718,-0.7144932631464795,-0.1364638072921367,0.7594175378981246,1.0005765546709864,1.455384495233634,-0.756307333513998,-0.8619067510659187,-0.1340741396355223,0.7137340618776372,-0.1755329998368471,-0.1492907604374704,0.6755122100307515,11.204282281956694,-1.007322329459286,0.1414644809540418,-0.9293540940916734
1.12,0.7269561521782547,0.9755240105338346,1.4518895787992785,0.0355737918627499,0.1008878997144206,0.0208312257668548,-0.7779908370539688,-0.7168759465364055,-0.1231591165293669,0.7442913912278447,0.983338419649668,1.4527030124409237,-0.7676970852463474,-0.9019067516619652,-0.1145580664681982,0.6760741415402309,-0.0186092392498504,-0.1191341694962988,0.6652345381384893,11.069538395190648,-0.9960061468831534,0.1434497944403207,-0.940291410622812
1.14,0.7114195065706939,0.9611719047098491,1.4495588881164174,0.0353509023557674,0.1129947707851181,0.0209330175325585,-0.7753163448078809,-0.7184738998732536,-0.1106165568093308,0.7291652445575647,0.9661002846283496,1.4500215296482133,-0.7790868369786969,-0.9419067522580116,-0.0950419933008741,0.6461852829719189,0.1337246123043922,-0.0798976668424045,0.6271279860018041,11.069538395190648,-0.9851564687223622,0.14413916976512,-0.9506989213882674
1.16,0.696736049050878,0.9475026203785888,1.4475723524616009,0.0364850138462251,0.1239392850103556,0.0211192845391069,-0.7701762899400524,-0.7204383399496226,-0.0991557366432459,0.713754354093976,0.94786214959213,1.447827948684686,-0.7904765887110462,-0.981906752854058,-0.0755259201335501,0.6356681283053115,0.2570027433914268,-0.0982220038184489,0.573041008304246,11.042567325956044,-0.9740812528309758,0.1435398886702938,-0.9613457911200766
1.18,0.6814120705522599,0.93306651276221,1.4457156435317309,0.038872522893724,0.1348183710666619,0.0214043213000161,-0.762204118087356,-0.7232049832067023,-0.0871432483064848,0.6980587198370787,0.9286240145410094,1.4461222695503415,-0.8018663404433957,-1.0219067534501045,-0.056009846966226,0.7340124573222356,0.3986085926348193,-0.1383321628539879,0.6006244168380547,11.033857631261526,-0.964309715450062,0.1422409209500674,-0.9702242086570712
1.2,0.6662854622435034,0.9185539597081068,1.4440983353971328,0.041880216079069,0.1446410054034905,0.0217285412230351,-0.750717367632599,-0.7280547140065129,-0.0752328291884625,0.6433018646478922,0.8969062636018749,1.4413584811164064,-0.7260285504306005,-0.8232049846968185,-0.0414159878956991,0.8621534208124466,0.57433752273785,-0.2424865399905273,0.5955209559011132,11.05262028591551,-0.9563755726807424,0.1406376858490459,-0.977115526338453
1.22,0.6521202633807897,0.9046073032977192,1.4426938191711711,0.0426969347436285,0.1532314065580733,0.0218913676165843,-0.740827622741923,-0.7391509296468909,-0.0737074534488339,0.6433018646478922,0.8969062636018749,1.4413584811164064,-0.7260285504306005,-0.8232049846968185,-0.0414159878956991,0.7470940815711702,0.4944872445337978,-0.5548107820188997,0.0762687869814336,11.068371069087334,-0.9463230333512374,0.1402346453038559,-0.9860069500091956
1.24,0.6374316210142572,0.8897376464695378,1.4412421265436794,0.0406916983178362,0.1620317164475615,0.0218549334520183,-0.7282813490339015,-0.7470595310362276,-0.0714150640485396,0.6433018646478922,0.8969062636018749,1.4413584811164064,-0.7260285504306005,-0.8232049846968185,-0.0414159878956991,0.7503499334553708,0.6273136854010763,-0.3954300694668344,0.1146194700147117,10.43229064874322,-0.9365592562120642,0.1417924650255579,-0.994984627209988
1.26,0.6230192185593614,0.8747400521959405,1.4398575030306024,0.0376086208446351,0.1704234383851998,0.0217146206324525,-0.7133747795284117,-0.7520784057544719,-0.0672029283959783,0.6360415791435862,0.8886742137549066,1.4409443212374493,-0.7187934368992495,-0.8432049849948416,-0.032270535813542,0.8141514057824425,0.7453284752744926,-0.2509437359122179,0.2106067826280679,10.557917156792428,-0.927659855093812,0.144614465126298,-1.0024205720845285
1.28,0.6096235639328857,0.8604275916277577,1.4386334766673683,0.0350290697853749,0.1779502512002106,0.021576806639585,-0.6972658575492429,-0.7544673124557136,-0.0618979270153451,0.6215210081349742,0.8722101140609703,1.4401160014795351,-0.7043232098365473,-0.8832049855908881,-0.0139796316492277,0.8563691993041104,0.80544609895844,-0.1194453350620849,0.2652500690316594,10.674166458365107,-0.9191809894460294,0.1475357606699729,-1.0090970855051165
1.3,0.5958802459599349,0.8453255033210955,1.4374654716772797,0.033332674997949,0.1851615497205949,0.0214722344120528,-0.6777471772888406,-0.7558043291938343,-0.0551572561818835,0.6070004371263622,0.8557460143670339,1.4392876817216214,-0.6898529827738451,-0.9232049861869346,0.0043112725150865,1.0346534880709,0.9759340130201132,-0.066850836906035,0.3370335416730801,10.768063769005494,-0.911788115541124,0.1497520163208296,-1.014562145499287
1.32,0.5825569124573831,0.8302057781372562,1.436443982059748,0.0330636179499218,0.1910913410887569,0.0214278535474692,-0.6554939097919966,-0.7562594643406082,-0.0473000274448934,0.5932033774708854,0.8372819146432953,1.4393739071719232,-0.6753827557111429,-0.9632049867829808,0.0226021766794007,1.180202425130223,1.1126633748421988,-0.0227567573386933,0.392861436849503,10.859390658461052,-0.9058387370742929,0.1509226499103483,-1.0185341695336034
1.34,0.5697019325506661,0.8150841942767788,1.4355907681545597,0.0346775826672935,0.1951883443006278,0.021465187249554,-0.6312473313726779,-0.756186905903984,-0.0384304324336946,0.5794063178154084,0.8188178149195565,1.439460132622225,-0.6609125286484407,-1.0032049873790274,0.040893080843715,1.2909023447123942,1.2123289209659385,0.0036279218312118,0.443479750559941,10.94594746684652,-0.9018214563074982,0.1505664595908158,-1.0208488432849656
1.36,0.5579517037028602,0.8007046102733651,1.434956210662312,0.0377594500081604,0.1971708157813787,0.0215538766610986,-0.6070148581433027,-0.7578831016354315,-0.0288095140901388,0.5659710138364991,0.7993537151809167,1.4400036306766344,-0.6464423015857386,-1.0432049879750738,0.0591839850080293,1.3063804083661206,1.211623661468758,-0.0848097865723762,0.4810459171777893,11.018313775733075,-0.9002050665740694,0.1488790587418094,-1.020971980864882
1.38,0.5460865699743742,0.7855013550623944,1.4345018215565044,0.0414095251666672,0.1972054033104443,0.0216033456746859,-0.5808518680046968,-0.7624498538235982,-0.0170453920042541,0.5528974655341573,0.7788896154273757,1.441004401335152,-0.6319720745230364,-1.08320498857112,0.0774748891723435,1.4523703444649672,1.308149506930295,-0.2283376094083355,0.5882061042942339,11.106339751069754,-0.9009866905096224,0.1469625890650554,-1.0188482057615018
1.4,0.5347512254072366,0.7701868835326687,1.434301560757834,0.0446413356493767,0.1949533646344464,0.0215255850923312,-0.5540902652967294,-0.7687178506741559,-0.0034676910657217,0.5170439765741394,0.7473788623712144,1.4336495519562915,-0.5230716841529779,-0.8624498553137143,0.0305859909379455,1.532828371666174,1.3380801353983671,-0.3133998425278839,0.6788850469266198,11.219759779551168,-0.9046147094748668,0.1457328202360733,-1.0138623259881796
1.42,0.5238831078417582,0.7546652625841382,1.4342442507270747,0.0446834440195451,0.1914249091983868,0.0211655462190018,-0.5344964106938532,-0.7822791305709761,-0.0035968782204436,0.5170439765741394,0.7473788623712144,1.4336495519562915,-0.5230716841529779,-0.8624498553137143,0.0305859909379455,1.1914740240134265,0.9796927301438108,-0.6780639948410105,-0.0064593577360952,11.331619921178572,-0.9057409400021484,0.1464951112271199,-1.011305370581048
1.44,0.5139043204945615,0.739713275151413,1.434199535619998,0.0411931679328785,0.1884376568163098,0.020610562006464,-0.5169482765376133,-0.7904222966305197,-0.0009878679601338,0.5170439765741394,0.7473788623712144,1.4336495519562915,-0.5230716841529779,-0.8624498553137143,0.0305859909379455,0.97603163419161,0.8774067078119951,-0.4071583029771786,0.1304505130154905,10.40784879009152,-0.9071169258752584,0.1495394904344218,-1.0095082864253964
1.46,0.5037530111477762,0.7238609513038151,1.4342406767141265,0.0367877354620215,0.186026911612551,0.0200344210149434,-0.4991840499945225,-0.7943382930598752,0.0051097594383192,0.5118132597326096,0.7387543638180772,1.4339554118656712,-0.5115156473826341,-0.8824498556117375,0.0401122675263854,0.9592755503495134,0.8882113271545422,-0.1957998214677792,0.3048813699226544,10.651897073496002,-0.9090025847595296,0.154068379982343,-1.006414986349724
1.48,0.4939521748918103,0.7079577540924351,1.434431365703456,0.0332033116720706,0.184699824554881,0.0195816341671353,-0.481714547819576,-0.7959857396698591,0.0137375734849082,0.50135182604955,0.721505366711803,1.43456713168443,-0.4884035738419465,-0.922449856207784,0.0591648207032653,0.9776716752004788,0.8734751087473208,-0.0823723304991919,0.431390702329453,10.83843151265046,-0.9110156771922217,0.1582531224657364,-1.002801051666612
1.5,0.4849720015592289,0.6928310376472849,1.434792462446418,0.0310352573705309,0.1842945901985992,0.0192842373018491,-0.464377415368092,-0.7965828258932722,0.0238225352093307,0.4908903923664904,0.7042563696055287,1.435178851503189,-0.465291500301259,-0.9624498568038304,0.0782173738801452,1.0032934847061927,0.8668566225742025,-0.0298543111706572,0.5042480862211254,10.973662462938591,-0.9128551644707866,0.1618682386445521,-0.9990074414245022
1.52,0.4758839491533467,0.6769014413001602,1.4353960336741776,0.0301601456717219,0.1843547084039735,0.0190986106255883,-0.4452870465484595,-0.7964994808755217,0.0360751813841417,0.4815845623604652,0.6850073724694521,1.4367431989807915,-0.4421794267605714,-1.0024498573998768,0.0972699270570251,1.134213897757704,0.9545184409816247,0.0041672508875267,0.6126323087405461,11.080274677618943,-0.9140260632643632,0.1641916090276886,-0.9959682242431775
1.54,0.4671860917014236,0.6609822783171829,1.4362560976613756,0.031163966460406,0.18454631318058,0.0190593285777501,-0.4254586579629558,-0.7957316740630128,0.0493118896567077,0.47227873235444,0.6657583753333755,1.4383075464583948,-0.4190673532198838,-1.0424498579959234,0.116322480233905,1.1926493272249905,0.9914194292751866,0.0383903406254437,0.6618354136283037,11.181554443125606,-0.9150669456288426,0.1649074968134229,-0.993299180873158
1.56,0.4592986131702869,0.6458626348971584,1.43732709398305,0.0337799238755268,0.1845104730438017,0.0191382827629243,-0.4058510175384465,-0.7961033893640849,0.0627674681625765,0.4635507041869321,0.6455093781823977,1.4403482077654195,-0.3959552796791963,-1.0824498585919695,0.1353750334107848,1.189170223527206,0.980382021225462,-0.0185857650536025,0.672778925293439,11.28610168373416,-0.916903993839632,0.1641986463668204,-0.9899848950062148
1.58,0.4514035574915858,0.6299106091133574,1.438742566793335,0.0373611790062511,0.1839719226304363,0.019265417376192,-0.3847428852602029,-0.7992832107802035,0.0781363664514711,0.4554004778579413,0.6242603810165188,1.4428651829018666,-0.3728432061385087,-1.122449859188016,0.1544275865876647,1.3151687602059128,1.0554066139121798,-0.1589910708059305,0.7684449144447297,11.28610168373416,-0.9191918206825056,0.1627239162801606,-0.986372732856548
1.6,0.4439343633153916,0.6138712251967617,1.440478575642902,0.0407053229860054,0.1827449802746867,0.0193501746732592,-0.3632917044627575,-0.8044647180974471,0.0947627219144833,0.4321664132285757,0.5899464485743472,1.4426493851159083,-0.3742840004994655,-0.8507639473636748,0.1149521624989202,1.3815180705167924,1.07255903987227,-0.2590753658621825,0.8313177731506117,11.365686943496256,-0.9220673862812384,0.1616643008238453,-0.9821125799764042
1.62,0.436961132465965,0.597497996212573,1.442382200140493,0.03605984543271,0.1776220046016148,0.0187331845210791,-0.3354929053998532,-0.8292156120497178,0.0941586479710909,0.4321664132285757,0.5899464485743472,1.4426493851159083,-0.3742840004994655,-0.8507639473636748,0.1149521624989202,1.8612797251524065,1.3899399531452166,-1.2375446976135351,-0.0302036971696235,11.441620100792534,-0.9338749214658985,0.1690581952176783,-0.9666243703464398
1.64,0.4308146553176642,0.581654963039821,1.4441867844819658,0.0241308137925924,0.1669086866639524,0.017527181493761,-0.3137861927772385,-0.8361443853992188,0.0960735043907723,0.4321664132285757,0.5899464485743472,1.4426493851159083,-0.3742840004994655,-0.8507639473636748,0.1149521624989202,1.1433021780324824,1.085335631130732,-0.3464386674750463,0.0957428209840703,10.39453036731993,-0.9398959593300196,0.1797786781046663,-0.9583157197615342
1.66,0.4247147170707088,0.5649492606984962,1.4461539272199588,0.0110301501764396,0.1524345193151451,0.0163639684246279,-0.2980384137899157,-0.8339699187249666,0.1006733920417072,0.428423573223581,0.5814388091007104,1.4437989067408976,-0.372192223547318,-0.861060094680369,0.12231532170841,0.8274657315445499,0.7873889493661412,0.108723333712607,0.229994382546745,10.529416734667391,-0.9517570115328252,0.191706235149637,-0.9433910410577584
1.68,0.4188554429951583,0.5483480365579514,1.4482319163865358,-1.9846412541605548e-05,0.1372400122069306,0.0155737746629455,-0.2890833468981684,-0.8267866368482956,0.1069283992972134,0.4209378932135917,0.5644235301534369,1.446097949990876,-0.3680086696430231,-0.8816523893137576,0.1370416401273897,0.6536778207225166,0.4477533445873677,0.3591640938335527,0.3127503627753089,10.60934164257378,-0.9647149921746389,0.2015483995146548,-0.9271738306024496
1.7,0.4133985564179325,0.5327359461570091,1.450333282729189,-0.007996617365352,0.1238861970181057,0.0151778444020179,-0.2859212531151874,-0.8175596115636827,0.1139768495440757,0.4134522132036024,0.5474082512061634,1.4483969932408542,-0.3638251157387281,-0.902244683947146,0.1517679585463693,0.6017006805250953,0.1581046891490467,0.4613512642306416,0.3524225123431174,10.668880552971132,-0.9780650502268968,0.2096854221081367,-0.9103046552985976
1.72,0.407675800125841,0.5165003716145141,1.4527007065884143,-0.0138756191476006,0.1121219037405123,0.0150470823115566,-0.2866546278372592,-0.8069053360709775,0.1224568915021577,0.4061757108888278,0.5293633575272205,1.4514323524117816,-0.3596415618344331,-0.9228369785805346,0.166494276965349,0.6818404072219987,-0.03666873610359,0.5327137746352628,0.4240020979040984,10.786804558235415,-0.98981988848972,0.2156326069175431,-0.8951695509371199
1.74,0.4019025458211496,0.5004828967398858,1.4552411392009943,-0.0175058564136242,0.1034141491804106,0.015110667259439,-0.2907322438955191,-0.7957917162974442,0.1311783146498659,0.3988992085740532,0.5113184638482775,1.454467711582709,-0.3554580079301381,-0.9434292732139232,0.1812205953843286,0.7351916738351815,-0.2038808029129923,0.5556809886766656,0.436071157385412,10.786804558235415,-0.9985825349456948,0.2197405508098726,-0.883375661652509
1.76,0.3960153425616766,0.484685645515,1.457957700386629,-0.0193229578540555,0.0985509239592347,0.0152757268063629,-0.2977541090548481,-0.7848710350244568,0.1400577228184228,0.3917272951068861,0.4927587628034999,1.457871228714111,-0.3512744540258432,-0.9640215678473116,0.1959469138033083,0.7864663998000975,-0.3510932579664505,0.5460340636493699,0.4439704084278434,10.798133222618162,-1.003282735161107,0.2221324680846624,-0.8765927781732691
1.78,0.3902842146363879,0.469880774408215,1.4607050374840125,-0.019652047149646,0.0979008595645962,0.0154738222333236,-0.3046760089393435,-0.7742879600938379,0.1487103043966622,0.3846599704873263,0.4736842543928876,1.461642903805987,-0.3470909001215482,-0.9846138624807002,0.2106732322222879,0.766128809284311,-0.3460949942247687,0.5291537465309415,0.4326290789119724,10.820148810364117,-1.0063518530668285,0.2237125241834304,-0.8717342479358059
1.8,0.3841331239922347,0.4545145290441527,1.4637780795851794,-0.0184545892063153,0.1004143476682146,0.0157422800559431,-0.3097140286089797,-0.7630394208670691,0.1581631614349798,0.3750504141894208,0.4311663764035231,1.4681405527038456,-0.2873815424438296,-0.7657661834474623,0.1595517485313745,0.776639850758811,-0.2519009834818092,0.5624269613384414,0.4726428519158762,10.81366895584324,-1.0063071633951834,0.2240934606899837,-0.8706948644572108
1.82,0.3778728613840865,0.4391539258938607,1.4669045628918154,-0.0224437184614645,0.1057910864356169,0.0156068424608085,-0.3157492354844458,-0.7709578267090839,0.1532221279104934,0.3750504141894208,0.4311663764035231,1.4681405527038456,-0.2873815424438296,-0.7657661834474623,0.1595517485313745,0.5557397893767948,-0.3017603437733079,-0.3959202921007376,-0.2470516762243191,10.81767224070245,-1.002510443838912,0.2288246174129576,-0.8724407860420007
1.84,0.371524590105074,0.4237770838030223,1.469906902519164,-0.0327645081385182,0.113498225014046,0.014947132036987,-0.3183550442743926,-0.7652536983880671,0.147300327711518,0.3750504141894208,0.4311663764035231,1.4681405527038456,-0.2873815424438296,-0.7657661834474623,0.1595517485313745,0.4312627880682915,-0.1302904394973408,0.2852064160508372,-0.2960900099487698,9.884006182103803,-0.9952782020752045,0.2364429353059386,-0.8790859472171941
1.86,0.3654807272253806,0.4093638321786232,1.4726492678737837,-0.0429854431497513,0.1216580202219298,0.0142061477449666,-0.3174640069394259,-0.7523036580159301,0.14163273319413,0.3721765987649825,0.4235087145690485,1.4697360701891593,-0.2839226491447268,-0.7640618281181871,0.1617200373583169,0.708200396755412,0.044551866748338,0.6475020186068492,-0.2833797258694009,9.920092463928086,-0.9873571224247816,0.2453122317252486,-0.8856547414231704
1.88,0.3591701990706589,0.3945012216380198,1.4754193392790858,-0.0522355906875665,0.1301165807246055,0.0134775809287473,-0.3134075208910603,-0.7348575571778079,0.1356623812505425,0.3664289679161059,0.4081933909000992,1.4729271051597868,-0.2770048625465212,-0.7606531174596369,0.1660566150122018,0.9440161755033826,0.2028243024182779,0.8723050419061129,-0.2985175971793735,9.959475048479362,-0.979534186041752,0.2530882589819596,-0.8921581636266154
1.9,0.352971791682489,0.3800155866328119,1.478072762989653,-0.0592504743677586,0.1376660499219137,0.0129116992650487,-0.3065621304369661,-0.71513880542487,0.1299709556946361,0.3606813370672293,0.39287806723115,1.4761181401304142,-0.2700870759483156,-0.7572444068010866,0.1703931926660867,1.0817588294317513,0.3422695227047106,0.9859375876468957,-0.2845712777953216,9.99975611406262,-0.9723913848442126,0.2591941327969759,-0.8981302627961149
1.92,0.3469338036568221,0.365935450792324,1.4806193371682723,-0.0640844959879678,0.1438287618333031,0.0125637462966928,-0.29758452203345,-0.6944080147606382,0.1249772171815313,0.355279595548263,0.3777331790951282,1.479526003983736,-0.2631692893501101,-0.7538356961425363,0.1747297703199716,1.1568281619890104,0.4488804201758067,1.036539533211589,-0.2496869256552382,10.06012490527246,-0.9667187997917618,0.2635235371894935,-0.9027483563818832
1.94,0.3413781945161501,0.3529467058089159,1.4829503945768012,-0.0669052966354998,0.14819768795624,0.0124543364989335,-0.2877249059514563,-0.6743228903356387,0.1206614050164801,0.3498778540292967,0.3625882909591065,1.4829338678370576,-0.2562515027519045,-0.7504269854839861,0.1790663479738564,1.1393534209103222,0.4929808040996852,1.0042562212499715,-0.2157906082525598,10.06012490527246,-0.962030310664956,0.2667495034399352,-0.906369669682784
1.96,0.3357408992678969,0.3396863090215464,1.4853220343926354,-0.0682945259000567,0.1512261750170304,0.0125683459513625,-0.2765694620110047,-0.6529784280980346,0.1167732389257055,0.3446490571752855,0.3475286205895485,1.4864501461317263,-0.2493337161536989,-0.7470182748254358,0.1834029256277413,1.2197825966852809,0.5577721970225769,1.0672231118802056,-0.1944083045387304,10.098829135310552,-0.9586411632244308,0.2687636885011781,-0.9087987610925224
1.98,0.3303324104271943,0.3268614018722745,1.4876259879608609,-0.0678781198214875,0.1527225767260016,0.0129318586859606,-0.2649739997093752,-0.6308939386094639,0.1138377708034994,0.3395932049862294,0.3325541679864543,1.4900748388677425,-0.2424159295554934,-0.7436095641668856,0.1877395032816262,1.2557830177381295,0.5797731150814778,1.104224474428539,-0.146773406110303,10.147970516614803,-0.9565001289681878,0.2696019187224097,-0.9099136691798264
2.0,0.3254096598025586,0.3150894011786129,1.4897709731234396,-0.0655521982911968,0.1528977158827097,0.0135126432475512,-0.2538972451408013,-0.6096647200846452,0.112123742645333,0.3170837104417256,0.2953167049418013,1.4933178765010355,-0.2349821811174228,-0.6011323969746658,0.1237370191725375,1.2003250637576377,0.5538377284286911,1.0614609262409314,-0.0857014079083208,10.207456603235189,-0.9553703185319063,0.2689739402371351,-0.9101724550380992
2.02,0.3204341822548649,0.3030437331811006,1.4919264822858216,-0.0634601721238749,0.1521890294661294,0.0141698684485844,-0.2443925030073663,-0.5956030040212883,0.1030871042542253,0.3170837104417256,0.2953167049418013,1.4933178765010355,-0.2349821811174228,-0.6011323969746658,0.1237370191725375,0.9614218833077484,0.4752371066717498,0.7030858031678466,-0.4518319195553871,10.273127970640417,-0.9540595567793178,0.2688480037142887,-0.9101266097597764
2.04,0.3156410046236186,0.2912924778554612,1.4939056280542893,-0.0632524710027886,0.1510930865769283,0.0147344101970283,-0.2354436813070345,-0.5800871434152108,0.0954347407007892,0.3170837104417256,0.2953167049418013,1.4933178765010355,-0.2349821811174228,-0.6011323969746658,0.1237370191725375,0.9738865541292692,0.4474410850165936,0.7757930303038729,-0.3826181776718007,9.931218066363726,-0.9528233302503878,0.2690180756550074,-0.9114087255928992
2.06,0.3112500067528509,0.2804279725409257,1.495667570105111,-0.0640187548323094,0.1499963615022331,0.015222893626754,-0.2272547773465409,-0.5642915759005801,0.0904037458984878,0.3147338886305514,0.2893053809720546,1.494555246692761,-0.2289838173990324,-0.5951800886477062,0.1257168688463452,0.924485005130192,0.4094451980246757,0.7897783757315369,-0.2515497401150729,9.931218066363726,-0.9521274999310811,0.270335374814484,-0.911507638465434
2.08,0.3067934255983044,0.2693262369588512,1.4974354007123356,-0.0653958235345962,0.1490028053224478,0.0157053055865575,-0.2188301663569349,-0.5466879826701795,0.086714909867248,0.3100342450082029,0.2772827330325613,1.4970299870762116,-0.2169870899622514,-0.5832754719937869,0.1296765681939604,0.9930610205482964,0.4212305494803003,0.8801796615200308,-0.1844418015619887,10.057324476814756,-0.9515459983996536,0.2724731202044637,-0.910885876408228
2.1,0.3025049811641429,0.2585897629022558,1.49914424250719,-0.0669066936365055,0.1482429168750033,0.0161821345526533,-0.2104259243019023,-0.5278512826650289,0.0844121305269795,0.3053346013858545,0.265260085093068,1.4995047274596625,-0.2049903625254705,-0.5713708553398678,0.1336362675415756,1.0377323165122911,0.4202121027516312,0.9418350002575292,-0.1151389670134235,10.15217322947774,-0.9510217914941655,0.2749935806305019,-0.9097900661972308
2.12,0.2983852394785259,0.2482447140103674,1.5008202932909471,-0.0679884842611561,0.1477195177274956,0.0166908516255054,-0.2019529981430443,-0.5077288311147323,0.0833110640909151,0.3012347941353451,0.2538326679862707,1.502177452810494,-0.1929936350886896,-0.5594662386859486,0.1375959668891909,1.0930643638232385,0.4236463079428987,1.0061225775148286,-0.0550533218032243,10.231885093882738,-0.9503408442005568,0.2771688474138657,-0.9088848085346808
2.14,0.2946291687704787,0.2387996144160235,1.50239836536524,-0.0681607575217228,0.1474069804504353,0.0172355075234932,-0.1938321371937768,-0.4876640655407203,0.0828667862312579,0.2971349868848357,0.2424052508794733,1.5048501781613255,-0.1809969076519086,-0.5475616220320293,0.1415556662368061,1.082520880761633,0.406043047463378,1.0032382787005991,-0.0222138929828592,10.299044706538552,-0.9493997372569228,0.2788726693746732,-0.9081705090479576
2.16,0.2908443832088795,0.2292755131473976,1.504056450204635,-0.067023129648918,0.1471901606144282,0.0179050832728189,-0.1850631645572587,-0.4659501944457537,0.083006471523074,0.2933350978202458,0.2312754491890239,1.5076218959958474,-0.1690001802151277,-0.5356570053781101,0.1455153655844214,1.170904128237639,0.4384486318259037,1.0856935547483293,0.0069842645908056,10.33712498953446,-0.9485143673228008,0.27947736101814,-0.9077256373812032
2.18,0.2872377349117096,0.2201873499004203,1.5057252947901187,-0.0642023433711088,0.1469705255160545,0.0187003903391103,-0.1760349012749018,-0.444309094183988,0.0839314880340271,0.2898351269415755,0.2204432629149225,1.5104926063140596,-0.1570034527783468,-0.5237523887241908,0.1494750649320366,1.1733524768594517,0.4514131641178434,1.0820550130882844,0.0462508255476543,10.418042318419792,-0.9478550532044924,0.278683758580678,-0.9074955087987924
2.2,0.2838148196949703,0.2115097340023696,1.5074237541387503,-0.0601914605995208,0.1466370026553116,0.019589404873839,-0.1667325214432843,-0.42490910738517,0.0858955980680623,0.2784359898479645,0.1979718951912208,1.50992186919182,-0.1744015440182509,-0.4084851045244402,0.0971303582682185,1.080221605217877,0.4651189915808762,0.9699993399408996,0.0982055017017639,10.418042318419792,-0.9478819797211626,0.2772089347574745,-0.9066044020703452
2.22,0.2807920263046908,0.203572817495252,1.509011006581522,-0.0571026007609829,0.1440630603382629,0.0205157615483945,-0.1521213807084226,-0.4109653301076127,0.0810572839394486,0.2784359898479645,0.1979718951912208,1.50992186919182,-0.1744015440182509,-0.4084851045244402,0.0971303582682185,1.0384166335667069,0.7305570367430875,0.6971888638778678,-0.2419157064306891,10.46396390902646,-0.9518709189666182,0.2768016173608896,-0.9006505692582765
2.24,0.2778934433507006,0.195515847459625,1.5105930679118864,-0.0549393077577855,0.1370095120367357,0.0216543637532038,-0.139215398628628,-0.3953665032818708,0.0775581159965289,0.2784359898479645,0.1979718951912208,1.50992186919182,-0.1744015440182509,-0.4084851045244402,0.0971303582682185,1.0272924949548434,0.6452991039897271,0.7799413412870937,-0.1749583971459835,10.035953858739049,-0.9526450373187716,0.2758688068502227,-0.8995323434697389
2.26,0.2752022434515548,0.1877755467512531,1.512130837796392,-0.05329447958293,0.1274534610171759,0.0228817627794403,-0.1310108632145698,-0.3794537598257252,0.0764260061312458,0.276691974407782,0.1938870441459765,1.5108931727745023,-0.1740748725669207,-0.4013203065925307,0.0997701323150568,0.896955236353399,0.4102267707029122,0.7956371728072814,-0.0566054932641564,10.143377294923084,-0.9576731798865248,0.2758047227351177,-0.8933178680511047
2.28,0.2727539027974192,0.180716726901821,1.513588080083187,-0.0519969642998606,0.1177224571629899,0.0240523540310831,-0.1273667259773318,-0.3644119545050309,0.0770484753385764,0.273203943527417,0.1857173420554876,1.5128357799398668,-0.1734215296642604,-0.3869907107287115,0.1050496804087333,0.774472580895485,0.1822068618618971,0.7520902660347134,0.0311234603665312,10.33763138379345,-0.9647148208690022,0.2760868544270372,-0.8846341023448356
2.3000000000000003,0.2702126547947642,0.1735925820710455,1.5151480603906715,-0.0508611215655018,0.1080627154756742,0.0252276911474625,-0.1271674139972577,-0.3488260268658456,0.0789874371486019,0.2697159126470519,0.1775476399649988,1.5147783871052312,-0.1727681867616,-0.3726611148648924,0.1103292285024099,0.7853668546291902,0.0099655990037056,0.7792963819592658,0.0969480905012733,10.33763138379345,-0.9726481788691248,0.2767784866270086,-0.8745247299873514
2.32,0.2676424469120499,0.1667791160705635,1.5167575281007093,-0.0499168382214435,0.0998748002887681,0.0263070325249604,-0.1299635182832428,-0.333335187551172,0.081913542282672,0.2662605489118199,0.170094417667701,1.5169849716752792,-0.1721148438589396,-0.3583315190010733,0.1156087765960865,0.800541056265656,-0.1398052142992517,0.77454196573368,0.1463052567035078,10.451175807833351,-0.9797937528638624,0.277628681175806,-0.8651302789072431
2.34,0.2651225297718486,0.1605928069934983,1.5183451447422969,-0.0491104601700527,0.094099244742536,0.0272212052111599,-0.1352022451271637,-0.3186810882732013,0.0850690883100752,0.2628051851765879,0.1626411953704031,1.5191915562453275,-0.1714615009562793,-0.3440019231372542,0.120888324689763,0.7939526990395879,-0.261936342196048,0.7327049638985339,0.1577773013701572,10.471955335352504,-0.9854312718848692,0.278593507895588,-0.8572286382440939
2.36,0.2623389861083674,0.1543828824985234,1.5200829778661704,-0.0482091910167865,0.090877088851385,0.0280436808578794,-0.1429578871705053,-0.3031464014013598,0.0885647654097918,0.2593661550139224,0.1555462129697008,1.5215301295177177,-0.1708081580536189,-0.3296723272734351,0.1261678727834396,0.8855735967384326,-0.3877821021670793,0.7767343435920782,0.174783854985832,10.471955335352504,-0.9891215125373556,0.2794723154437453,-0.8516212085669504
2.38,0.2593957461547522,0.1484854716237311,1.5218923158132456,-0.0470357795254764,0.0909471574696594,0.0287247899302033,-0.1506164709972714,-0.2874435029929586,0.0922180671387392,0.2559434584238235,0.1488094704655939,1.5240006914924495,-0.1701548151509585,-0.315342731409616,0.1314474208771162,0.8924426286587005,-0.3829291913383034,0.7851449204200583,0.1826650864473679,10.479972183096834,-0.9918432722421358,0.2802106955692868,-0.8472399476353004
2.4,0.2563176036934103,0.1429034289652942,1.5237763991591875,-0.0453770115376903,0.0934914894012181,0.0293240117153136,-0.1564904932321728,-0.2716768299148915,0.0960244126495305,0.2518649226048886,0.1341132964740832,1.5265032191701826,-0.1497813626011398,-0.2742731945594855,0.1040820475810247,0.8625259174573857,-0.2937011117450705,0.7883336539033531,0.1903172755395657,10.479972183096834,-0.9920076383419344,0.2805762415975215,-0.8459818790206656
2.42,0.2533009125871235,0.137942299432948,1.5255900214725024,-0.0415363837439586,0.0972665045727447,0.0299944210630627,-0.1605491696293315,-0.2524825361775004,0.0944793878578208,0.2518649226048886,0.1341132964740832,1.5265032191701826,-0.1497813626011398,-0.2742731945594855,0.1040820475810247,0.9839726466994682,-0.2029338198579339,0.959714686869556,-0.0772512395854838,10.474532354083747,-0.9888078226753514,0.2796236035871985,-0.8483051047712625
2.44,0.2500654270235631,0.1330536129961788,1.5274677839003916,-0.0353978699895079,0.1018311140757869,0.0308362074713672,-0.1625845674963528,-0.237796463224033,0.0934665862625305,0.2518649226048886,0.1341132964740832,1.5265032191701826,-0.1497813626011398,-0.2742731945594855,0.1040820475810247,0.7430500493625309,-0.1017698933510682,0.7343036476733691,-0.0506400797645162,10.133266382137665,-0.9849849320738352,0.2756827166525736,-0.8538087989343898
2.46,0.2468114617803574,0.1284214655075289,1.529337828711023,-0.0291118395921525,0.1063805363414154,0.0317073342246002,-0.1625781008180682,-0.2262552837690092,0.0936239528123751,0.2503671089788772,0.1313705645284883,1.527544039645993,-0.1496143409219135,-0.2716391328727909,0.1064548436694818,0.5771127040318937,0.0003233339142316,0.5770589727511904,0.0078683274922303,10.191827463352638,-0.9810733267562464,0.2717545921727096,-0.8591362455118466
2.48,0.2435766088400866,0.1239983467937213,1.5312214104923374,-0.0234199487225462,0.1104479000693777,0.032566118147733,-0.1608718333141337,-0.2165771044679767,0.0947058603926633,0.2473714817268544,0.1258851006372986,1.5296256805976134,-0.1492802975634609,-0.2663710094994016,0.111200435846396,0.4943405389764296,0.0853133751967258,0.483908965051627,0.0540953790144106,10.25363388691676,-0.9776034729908069,0.2685493886657827,-0.8635294500987977
2.5,0.2405475658342013,0.1199637918416006,1.5330368850562093,-0.0187486345420938,0.1136075805338344,0.0333551298052886,-0.1580726794405324,-0.2085024447547876,0.0963290665946603,0.2443758544748316,0.1203996367461089,1.5317073215492338,-0.1489462542050083,-0.2611028861260124,0.1159460280233102,0.4349430717522053,0.1399576936800622,0.4037329856594551,0.0811603100998516,10.30382409968024,-0.9743937914883306,0.2658637202188235,-0.8672432362729583
2.52,0.2374248009703374,0.1158747901863933,1.5349858602468445,-0.0145940544891283,0.1160759283638777,0.0341503964601514,-0.1543549443023487,-0.2007738918232507,0.098497743334587,0.2413969293907314,0.1151775790235886,1.5340262421097,-0.1486122108465557,-0.2558347627526232,0.1206916202002244,0.4423099698614998,0.1858867569091843,0.3864276465768451,0.1084338369963341,10.342508193079084,-0.9718233601196812,0.2638581615128355,-0.8698959931874435
2.54,0.234382125860928,0.1119333617772556,1.53698053470059,-0.0111614741173643,0.1176382868631171,0.034905002590917,-0.1501668812391811,-0.1936608158439652,0.1008544416844344,0.2384180043066313,0.1099555213010684,1.536345162670166,-0.148278167488103,-0.2505666393792339,0.1254372123771387,0.4292136682945066,0.2094031531583842,0.3556537989642727,0.1178349174923702,10.373395202957909,-0.9700791470778654,0.2625653319896925,-0.8713293398454294
2.56,0.231570452831247,0.1083174147224551,1.538920179186427,-0.0084299754940066,0.1183554321595054,0.0355866362025649,-0.146075043829559,-0.1872687871023132,0.1032002081560547,0.2354474303064924,0.1048651666628829,1.5387827230350553,-0.1479441241296504,-0.2452985160058446,0.1301828045540529,0.3971894546695129,0.2045918704811036,0.3196014370826006,0.1172883235810148,10.391803953938506,-0.9689115998607924,0.2616616900556952,-0.8719166432857233
2.58,0.2286933357056292,0.104639022181829,1.5410115869065,-0.0059877335672395,0.1184417781482606,0.03626984171836,-0.1419077654081988,-0.1808929110342914,0.1058265089965189,0.2324852073903149,0.0999065151090321,1.541338923204367,-0.1476100807711978,-0.2400303926324554,0.1349283967309671,0.4028506583727085,0.2083639210680096,0.3187938034010878,0.1313150420232105,10.391803953938506,-0.9683974449802092,0.2611054703923989,-0.8716805792227622
2.6,0.2258968571425694,0.1010846960498429,1.543157294508794,-0.00390436295817,0.118005485314387,0.0369197791840962,-0.138006041629247,-0.1748494676560939,0.1086256025554983,0.2215979474352193,0.0955943766301144,1.546302912356326,-0.1457251087940889,-0.1599355752045566,0.0941464200592364,0.3859455306926015,0.1950861889475894,0.3021721689098783,0.1399546779489675,10.40141215787935,-0.9687889380291564,0.2612469349581299,-0.8698460812011897
2.62,0.2231727103769017,0.0975937173473912,1.5452709979862007,-0.0038525247455655,0.1170046268852216,0.0374201453987937,-0.1347056260428091,-0.1741016959289826,0.1021285759318565,0.2215979474352193,0.0955943766301144,1.546302912356326,-0.1457251087940889,-0.1599355752045566,0.0941464200592364,0.3662760589616086,0.1650207793218935,0.0373885863555634,-0.324851331182089,10.409663441463636,-0.9668621483621552,0.2624177366691954,-0.8703434415205208
2.64,0.2206403927474242,0.0943033414388504,1.5471445540989914,-0.0067044504690687,0.1154440984007492,0.0376945059412968,-0.1320957723381254,-0.1718503615537442,0.0954658551752795,0.2215979474352193,0.0955943766301144,1.546302912356326,-0.1457251087940889,-0.1599355752045566,0.0941464200592364,0.3750722953948474,0.1304926852341889,0.1125667187619208,-0.3331360378288503,9.832880463597576,-0.966019513028028,0.2644898103826963,-0.8711506640645322
