t,x,y,z,roll,pitch,yaw,v_x,v_y,v_z,ref_x,ref_y,ref_z,ref_v_x,ref_v_y,ref_v_z,a_com,a_x,a_y,a_z,thrust,wind_x,wind_y,wind_z
0.0,-0.3231450594845008,-0.0641934703548943,2.24931073232557,0.0213073368618358,0.0997273341325311,0.0422031403927054,0.0044193134050103,0.0010606260849446,0.0107649988555588,-0.3230047708324726,-0.0642672229179143,2.249635090851863,0.0690474067978051,0.0204406301267599,-0.0892001406360101,0.5842526401822089,0.2209656702505174,0.053031304247232,0.5382499427779429,10.244113455039953,-0.9435228359179828,0.2638395579277345,-0.8703105711655521
0.02,-0.3231691151210458,-0.0641940750906812,2.249301880061236,0.0204940713910215,0.1025560491861735,0.0422133244135504,-0.0060758301940571,-0.0006803239833511,-0.0117176664614575,-0.3230047708324726,-0.0642672229179143,2.249635090851863,0.0690474067978051,0.0204406301267599,-0.0892001406360101,1.2436329704361309,-0.5247571799533725,-0.0870475034147899,-1.12413326585082,10.243469990209633,-0.928879537244948,0.2654709751179755,-0.8828075373926068
0.04,-0.323366259841527,-0.064216397433391,2.248771596676862,0.0178851575212846,0.1098505521901929,0.0421831134425071,-0.0125288069135944,-0.0009930710833908,-0.0402694963257137,-0.3230047708324726,-0.0642672229179143,2.249635090851863,0.0690474067978051,0.0204406301267599,-0.0892001406360101,1.4636817515164533,-0.3226488359768679,-0.0156373550019842,-1.427591493212812,8.940012040797683,-0.9160489399500932,0.25982646289345,-0.9052828450032704
0.06,-0.3236451330821409,-0.0642139066407372,2.247664233332072,0.014629652027979,0.1192860698945475,0.0421235760116917,-0.0146165035773899,0.0013576071756075,-0.0690855676446895,-0.3223142967644945,-0.0640628166166467,2.2487430894455027,0.0819351752452043,0.024834788475201,-0.1092001409340333,1.4493534178191745,-0.1043848331897742,0.1175339129499174,-1.4408035659487888,8.736996356463806,-0.9006374830380504,0.2551539660567939,-0.929113853503333
0.08,-0.3239275169890793,-0.0641477029331252,2.2459842627950986,0.01158704912032,0.1295543030416313,0.042061448852787,-0.0131716442880397,0.0050938333675176,-0.0975442283123579,-0.3209333486285384,-0.0636540040141115,2.2469590866327827,0.1077107121400026,0.0336231051720833,-0.1492001415300798,1.4369606566644682,0.0722429644675099,0.1868113095955056,-1.4229330333834187,8.761406543586418,-0.8828438655327764,0.2512715468023246,-0.95371311366594
0.1,-0.3241402459953119,-0.064008029829579,2.2438647940493484,0.0091379238793137,0.1394301203271331,0.0420081366569443,-0.0090327264392985,0.0093308205555889,-0.1242039162288052,-0.3195524004925823,-0.0632451914115763,2.2451750838200626,0.1334862490348008,0.0424114218689655,-0.1892001421261262,1.365486782426762,0.206945892437058,0.211849359403565,-1.3329843958223668,8.806892085902291,-0.8637805366734389,0.2476458930012321,-0.9781914327308264
0.12,-0.3242527586593615,-0.063770794496734,2.2410871753492034,0.0070378896902523,0.1495902917679325,0.0419594911621213,-0.0021627094609889,0.0141158778935693,-0.1522033943827328,-0.3168826755118863,-0.062396962974197,2.24139108097754,0.1592617859295991,0.0511997385658478,-0.2292001427221726,1.4612192545117,0.3435008489154809,0.2392528668990203,-1.39997390769638,8.857552631137878,-0.843994330475323,0.2441498784587807,-1.0021348019671126
0.14,-0.3242040228825038,-0.0634345478198739,2.237745000098632,0.0053975716017425,0.1593236377230425,0.0419202279915286,0.0069341420767304,0.0192209989630235,-0.1806906749846186,-0.3142129505311903,-0.0615487345368177,2.237607078135017,0.1850373228243974,0.05998805526273,-0.2692001433182192,1.5168554027359298,0.4548425768859687,0.2552560534727128,-1.4243640300942897,8.893942917361528,-0.8247312925170289,0.2408807427593478,-1.0243042465471883
0.16,-0.323951695683291,-0.0629901459102588,2.233829035530428,0.0043228089465378,0.16854507406819,0.0419028151025134,0.0180653724134059,0.0248856771839431,-0.2095539266802239,-0.3108988371281243,-0.0604807981820163,2.2328230752775937,0.2108128597191957,0.0687763719596123,-0.3092001439142656,1.5724822467984705,0.556561516833779,0.2832339110459781,-1.4431625847802625,8.899394690170084,-0.8050601682089885,0.2378861586339247,-1.0454955289155503
0.18,-0.3234877959952709,-0.0624585395846292,2.229572199185047,0.004006770304809,0.1768028827139129,0.0419248451153404,0.0303870689684157,0.0307041961602551,-0.2371498989993156,-0.3069403353026884,-0.0591931539097929,2.227039072405269,0.236588396613994,0.0775646886564945,-0.349200144510312,1.5388445806087083,0.6160848277504856,0.2909259488156009,-1.3797986159545848,8.913555264771276,-0.7868918114878368,0.2348356996611899,-1.06427140710643
0.2,-0.3227289396907539,-0.0617781714036325,2.2245213219509927,0.0045564172632783,0.1849659118233889,0.0420048108401525,0.0450444001599268,0.0369581325841296,-0.2665439728431382,-0.3219684425468501,-0.0609233297766165,2.217714704235081,0.0967250045949225,0.0476719025425297,-0.3371499004894317,1.671795932214519,0.732866559575559,0.3126968211937222,-1.4697036921911293,8.93419984299635,-0.7686711664886337,0.231010117941074,-1.0827180307637778
0.22,-0.3216104378972039,-0.0609418106471779,2.219026363147673,0.0070904952868657,0.1918893664833417,0.0422219193098198,0.0663268484297229,0.0459130886091356,-0.2807350239288,-0.3219684425468501,-0.0609233297766165,2.217714704235081,0.0967250045949225,0.0476719025425297,-0.3371499004894317,1.3551012625281946,1.0641224134898053,0.4477478012503016,-0.709552554283091,8.945142310863957,-0.7539002487907445,0.2239659089907126,-1.1002938468997712
0.24,-0.3201365099311147,-0.0600129610902229,2.2135494292068034,0.0112607102960991,0.1966920777955663,0.0425500181177107,0.0876938236308689,0.051018526854768,-0.2951898816097374,-0.3219684425468501,-0.0609233297766165,2.217714704235081,0.0967250045949225,0.0476719025425297,-0.3371499004894317,1.3148726549579903,1.0683487600572978,0.2552719122816224,-0.722742884046873,9.894158444176355,-0.7412507509944712,0.2195560903212415,-1.1103777666103885
0.26,-0.3181425554897527,-0.0589610725558379,2.207459064782929,0.0158526972149419,0.2000600206815242,0.0428975722591348,0.110514986422665,0.0538173361583044,-0.3132228158301801,-0.3210011925009009,-0.0604466107511912,2.2143432052301866,0.1099925917202238,0.0510654438189847,-0.3571499007874549,1.4610146485285758,1.1410581395898032,0.1399404651768198,-0.9016467110221332,9.612152010031425,-0.7304360518681905,0.214437152504811,-1.119633354678884
0.28,-0.3156903694805908,-0.0578702870869864,2.2009817430505,0.0200068833154046,0.2017909097285029,0.0431864730976907,0.1334254140400301,0.0551689135050681,-0.3336020511766182,-0.3190666924090024,-0.0594931727003406,2.207600207220398,0.1365277659708265,0.0578525263718945,-0.3971499013835013,1.5346234784470114,1.145521380868255,0.0675788673381843,-1.018961767321905,9.612152010031425,-0.7223122724328314,0.2097407209047215,-1.127035607161863
0.3,-0.3127818992948119,-0.0567624179721333,2.194079170325491,0.0235358626143639,0.2020449488725513,0.0433918389737209,0.1561655061919896,0.0556374065738714,-0.3556356372233235,-0.317132192317104,-0.05853973464949,2.2008572092106093,0.1630629402214293,0.0646396089248044,-0.4371499019795478,1.5833589224435929,1.1370046075979787,0.0234246534401655,-1.1016793023352622,9.509632134618188,-0.7154899496660873,0.2049382660636205,-1.1340815450089452
0.32,-0.3095998499809584,-0.0557072636291294,2.187100892241052,0.0262899172197919,0.2009864400919089,0.0435000105970204,0.1775650663984323,0.0555031069295407,-0.3778121034665601,-0.3138709335126754,-0.0572469424709939,2.192114211171018,0.189598114472032,0.0714266914777142,-0.4771499025755942,1.54090465998147,1.0699780103221326,-0.0067149822165352,-1.10882331216183,9.370320827384605,-0.7113703961503871,0.2005688641485972,-1.1393871565758205
0.34,-0.305815443140671,-0.0546033781968511,2.1792938567523703,0.0286092164936848,0.1985263964118888,0.0435195297612228,0.1996555602815621,0.0549486570309471,-0.4017407651841565,-0.3106096747082468,-0.0559541502924978,2.183371213131428,0.2161332887226347,0.0782137740306241,-0.5171499031716408,1.628556251934371,1.104524694156489,-0.0277224949296842,-1.1964330858798222,9.370320827384605,-0.7092383768729539,0.1962218068713993,-1.1440012797085344
0.36,-0.301590276090826,-0.0535134819394427,2.1710058670895664,0.0304182815002022,0.1945655756915017,0.0434399779049815,0.2216552870313194,0.0541138752598075,-0.4258519643925902,-0.3066850365475532,-0.054491681050179,2.1736282150769357,0.2426684629732375,0.0850008565835339,-0.5571499037676871,1.6325093911967186,1.0999863374878682,-0.0417390885569753,-1.2055599604216871,9.342426565419371,-0.7094307026371413,0.1922745279348054,-1.147159272436594
0.38,-0.2969341157121868,-0.0524447350686001,2.1622337602291126,0.0317509205333023,0.1889572344420734,0.0432562578196603,0.2424795044564043,0.0528302081884071,-0.4501109519969627,-0.3020970190305944,-0.0528595347440374,2.162885217007542,0.2692036372238401,0.0917879391364438,-0.5971499043637336,1.599839298262878,1.0412108712542445,-0.0641833535700225,-1.2129493802186224,9.336780703984005,-0.7109653245862761,0.1892861902162097,-1.148955268937257
0.4,-0.2921459894616198,-0.0514584449120929,2.153449004416192,0.0324920833925781,0.1825939221967278,0.0429949111531373,0.2602396917729495,0.0510917993776107,-0.4733562703676469,-0.2848101404893666,-0.0498032246591797,2.1397282126292643,0.2454301390309219,0.0681943726749345,-0.538029039837043,1.4652569270154403,0.8880093658272581,-0.0869204405398203,-1.162265918534208,9.301255618208415,-0.7146660990523084,0.1869324338498547,-1.1490950734290528
0.42,-0.2866300442180644,-0.0504564559119813,2.1439316875620333,0.032765202041695,0.1722979111432374,0.0425525709402994,0.2899089995845989,0.0491331028413952,-0.4759189966080381,-0.2848101404893666,-0.0498032246591797,2.1397282126292643,0.2454301390309219,0.0681943726749345,-0.538029039837043,1.4922063228040654,1.4834653905824695,-0.0979348268107756,-0.1281363120195638,9.301255618208415,-0.7259131075352354,0.1836162029599941,-1.1457116883178806
0.44,-0.2805716118821545,-0.0495038191325718,2.1343736000007847,0.0323630782561191,0.1565920833634086,0.0418780907970085,0.3133855172350749,0.0463074808698126,-0.4797435505303707,-0.2848101404893666,-0.0498032246591797,2.1397282126292643,0.2454301390309219,0.0681943726749345,-0.538029039837043,1.197662549744532,1.173825882523799,-0.1412810985791271,-0.1912276961166276,10.6864349906391,-0.7387577960080578,0.1855210902841395,-1.135996290374394
0.46,-0.2744578333451735,-0.0486545812131186,2.1251845384310952,0.0310958832280017,0.1389196559262843,0.0410966913579081,0.3283083182019106,0.0433311509879811,-0.487235236474595,-0.2823558390990573,-0.0491212809324304,2.134347922230894,0.2460202659458255,0.07126720557224,-0.555612657405059,0.8480475908641016,0.746140048341784,-0.1488164940915751,-0.374584297211214,10.10626612618853,-0.7568077526997364,0.1878256893911037,-1.1229488967988193
0.48,-0.2677925345972197,-0.0478207127544543,2.1153223921359263,0.0287301910805634,0.1193445559491773,0.0402080690262678,0.3367719518763215,0.0403864674025776,-0.4987084737942247,-0.2774472363184389,-0.0477573934789317,2.123587341434153,0.2472005197756325,0.077412871366851,-0.5907798925410911,0.7279069840737076,0.4231816837205471,-0.1472341792701756,-0.5736618659814868,10.10626612618853,-0.7766902005640423,0.1906556508633605,-1.108579196617576
0.5,-0.2610292063025882,-0.0470310891980992,2.1051946898093443,0.0256635844470974,0.100288486969449,0.0393453426398389,0.3386432369238359,0.038922710610274,-0.5136065604307564,-0.2725386335378205,-0.046393506025433,2.1128267606374123,0.2483807736054396,0.083558537161462,-0.6259471276771232,0.7543163744505161,0.0935642523757218,-0.0731878396151783,-0.7449043318265819,9.860698264280472,-0.796376129181723,0.1934276328303489,-1.094587059712025
0.52,-0.2542899222097485,-0.0462579915184443,2.0947341059938096,0.0224853868077422,0.0829029173819433,0.0385834139167016,0.3349537254609713,0.0385513352289507,-0.5316787733404,-0.2675710180657117,-0.0447223352822037,2.10030781808387,0.2495610274352466,0.089704202956073,-0.6611143628131553,0.9224360329583208,-0.1844755731432307,-0.0185687690661698,-0.9036106454821836,9.48803856379982,-0.8133917288425404,0.1953525717657407,-1.0831050368569528
0.54,-0.247998144350453,-0.0455233526718621,2.084446270164932,0.019576029709799,0.0685897109703415,0.0379715989877549,0.3274390967034798,0.0388407464452638,-0.550340282137254,-0.2626034025936029,-0.0430511645389745,2.0877888755303275,0.2507412812650537,0.0958498687506839,-0.6962815979491874,1.0059887111569723,-0.3757314378745768,0.0144705608156554,-0.933075439842701,9.48803856379982,-0.82893792915369,0.1964733965227758,-1.0734846131381806
0.56,-0.241561003219608,-0.0447378047673289,2.073221812256944,0.0167290685896772,0.0561636074988704,0.0374410036808152,0.3165632024877746,0.0397240776131709,-0.5711752081210179,-0.2576062807757489,-0.04122635215088,2.074390752098384,0.2519215350948607,0.1019955345452949,-0.7314488330852196,1.1759671441969823,-0.5437947107852614,0.044166558395358,-1.0417462991881898,9.40891882881624,-0.842074645263017,0.1972193146523154,-1.0655922942085088
0.58,-0.2353680200381451,-0.0439293906898661,2.06156922312556,0.0141562997577443,0.0465771384173612,0.0370130758848019,0.3033606120709847,0.0410734666617663,-0.5930301565223534,-0.2525796526121497,-0.0392478981179202,2.06011344778804,0.2531017889246678,0.1081412003399059,-0.7666160682212516,1.2784443810184092,-0.660129520839492,0.0674694524297699,-1.0927474200667753,9.346541186687318,-0.8524710545793093,0.1976181801800942,-1.0597729230660515
0.6,-0.2294584703461893,-0.0430900612744638,2.049471124845915,0.0118568877314379,0.0398509280173531,0.0366694693076502,0.2882546603895267,0.0427833065648783,-0.6156864209104058,-0.2201999894345958,-0.0418757173567778,2.0319177152994423,0.257687096423335,0.0638551721455605,-0.632191618859132,1.364202738523633,-0.7552975840729004,0.0854919951555968,-1.132813219402623,9.30015026336514,-0.8591478573105583,0.1976362428856779,-1.0570451699076442
0.62,-0.2240610371150362,-0.0422589538256292,2.0378874249453007,0.0099427233370988,0.0342441919215051,0.0363877415932466,0.2804354944752897,0.04459269568279,-0.6024990150923607,-0.2201999894345958,-0.0418757173567778,2.0319177152994423,0.257687096423335,0.0638551721455605,-0.632191618859132,0.7718823044742542,-0.3909582957118518,0.0904694558955893,0.6593702909022559,9.266829013432924,-0.8685800356139155,0.194528550861742,-1.055499004368318
0.64,-0.2185598587679332,-0.041347721366172,2.025954385427571,0.0080748446350483,0.0272519238050534,0.0361055241151924,0.2697361650788786,0.046502330665338,-0.5915964460266024,-0.2201999894345958,-0.0418757173567778,2.0319177152994423,0.257687096423335,0.0638551721455605,-0.632191618859132,0.7697213254371782,-0.5349664698205553,0.0954817491273959,0.545128453287913,11.086487377560845,-0.8761589986449755,0.1977939157996572,-1.0463886319575118
0.66,-0.2135629370990638,-0.040443903705716,2.0147734384821527,0.0063329781038608,0.0204105791932388,0.0358535385272723,0.2566181929862783,0.0486014559835225,-0.5858708620943186,-0.2176231184703625,-0.0412371656353222,2.025595799110851,0.248552393293805,0.0684115132423194,-0.6400239113264877,0.7233080780160525,-0.6558986046300147,0.104956265909227,0.286279196614192,11.086487377560845,-0.8845844136094875,0.2004948973269341,-1.037225863022194
0.68,-0.2085988787987415,-0.0394459442347107,2.003083285578751,0.0045191028898683,0.0136774787102822,0.0356089888673159,0.240314207951142,0.0511453341027222,-0.5836019347581396,-0.2124693765418958,-0.0399600621924109,2.0129519667336684,0.2302829870347451,0.0775241954358371,-0.6556884962611992,0.8328254246361466,-0.8151992517568137,0.1271939059599869,0.1134463668089502,10.801568221379055,-0.8928680641406976,0.2025332365321357,-1.0288777050262077
0.7000000000000001,-0.2039862360804821,-0.0383929966852528,1.9914038305784945,0.0027429755205251,0.007968616917786,0.0353872276178718,0.2215932568466438,0.0540686272793766,-0.5845802157033838,-0.2073156346134291,-0.0386829587494997,2.000308134356486,0.2120135807756852,0.0866368776293547,-0.6713530811959106,0.9486525797960922,-0.9360475552249072,0.1461646588327203,-0.0489140472622107,10.579097986688794,-0.900194977493558,0.2041260297604986,-1.0218125209326476
0.72,-0.1997745244830997,-0.0372779863500259,1.9796747068848608,0.0010338596221965,0.0040337695796885,0.0351877380923175,0.2004438987402805,0.0573249817256164,-0.5882677376406407,-0.2030753629979154,-0.0369502211969126,1.986881072732568,0.1937441745166253,0.0957495598228724,-0.6870176661306221,1.085699095777109,-1.057467905318167,0.1628177223119899,-0.1843760968628427,10.406179684920971,-0.905471345444904,0.2052019073147166,-1.017089707328596
0.74,-0.1961831299425865,-0.0361554829033219,1.968457853123314,-0.0005096384142731,0.0026445433622632,0.0350142449771039,0.1788325629993004,0.0607038520004029,-0.592242536346858,-0.1988350913824017,-0.0352174836443255,1.9734540111086492,0.1754747682575654,0.1048622420163901,-0.7026822510653336,1.1116042704107256,-1.0805667870490032,0.1689435137393221,-0.1987399353108654,10.27822210202703,-0.9091933883636129,0.2056363334512528,-1.014490144588106
0.76,-0.1928410524329889,-0.0348990849883696,1.9565683508595424,-0.0019790570890652,0.0036521803238028,0.0348450698441816,0.1567726911722356,0.0647816392602654,-0.5964773304101935,-0.1950515549233645,-0.0332569290369005,1.9596353348613635,0.1572053619985055,0.1139749242099078,-0.718346836000045,1.1414900073172876,-1.1029935913532434,0.2038893629931235,-0.2117397031667744,10.262373140441923,-0.9107010937997286,0.2058627595963851,-1.0138834637185212
0.78,-0.1899286340123063,-0.0335548703062894,1.9445931876942408,-0.0031401717600895,0.0066478492962982,0.0346938980443544,0.1358790318320981,0.0694276456914413,-0.6007975157754489,-0.1917247536208038,-0.0310685573746375,1.9454250439907097,0.1389359557394456,0.1230876064034255,-0.7340114209347565,1.091781088371668,-1.044682967006874,0.2323003215587954,-0.2160092682627734,10.24876350040904,-0.910486784834034,0.205923086708483,-1.0146015804472692
0.8,-0.1875347822184329,-0.0321869115770566,1.9331351152471177,-0.0038107180720875,0.0108581511884229,0.0345750950213636,0.1174042740513497,0.0743065116069337,-0.6050790008411342,-0.1831346824207014,-0.0300834880217173,1.914553311905468,0.1341644527695617,0.0692849703326392,-0.587394626292772,0.9790954014374228,-0.9237378890374196,0.2439432957746234,-0.2140742532842632,10.234330244806188,-0.9085992799803478,0.2056500725963473,-1.0168544525342085
0.8200000000000001,-0.1854381558826361,-0.0305455714475892,1.9212271365490268,-0.000747419503045,0.0182292663507758,0.0347081569400045,0.0938470805408388,0.0884031703792477,-0.5841228694613547,-0.1831346824207014,-0.0300834880217173,1.914553311905468,0.1341644527695617,0.0692849703326392,-0.587394626292772,1.726858851383988,-1.1778596755255435,0.7048329386156994,1.0478065689889735,10.21395412307993,-0.9061089868686109,0.1996806989110062,-1.022903209625853
0.84,-0.1837645974624204,-0.0287016188735721,1.9097763758171509,0.0064996933963329,0.0294164066454215,0.0351800202030029,0.075416506032176,0.0945001916621913,-0.5622151634923771,-0.1831346824207014,-0.0300834880217173,1.914553311905468,0.1341644527695617,0.0692849703326392,-0.587394626292772,1.4635635671770593,-0.9215287254331392,0.3048510641471803,1.095385298448881,11.995772529395254,-0.8981032751656512,0.1940023985637334,-1.0283730623143383
0.86,-0.1824019980469879,-0.0267940963375671,1.8987349407021388,0.0144524644735074,0.0425957255602306,0.035803205039018,0.0623614300741742,0.095739665599878,-0.5429977519435124,-0.1817930378930058,-0.0293906383183909,1.9086793656425405,0.1338215369570544,0.0692564352608788,-0.5847140483962365,1.1632714757848233,-0.6527537979000921,0.0619736968843306,0.9608705774432348,11.78029387526476,-0.8880124209823045,0.1878440241190131,-1.036039984851885
0.88,-0.1812994798505307,-0.0249885057683113,1.8885802890555787,0.0215301789044156,0.0556826760152841,0.0364618088387446,0.0547349467910173,0.0942889165863208,-0.5268793343260645,-0.1791097488376145,-0.0280049389117381,1.8969314731166849,0.1331357053320399,0.0691993651173579,-0.5793528926031658,0.8945268392550669,-0.3813241641578441,-0.0725374506778599,0.8059208808723961,11.58402103235403,-0.8759375682964318,0.181592455944221,-1.0455401990188324
0.9,-0.1802477938775268,-0.0231362256130867,1.87820425943972,0.0280796729637871,0.0690136185415023,0.0371694385132302,0.0512032263513534,0.091052355301886,-0.5116703676838945,-0.1764264597822233,-0.0266192395050853,1.8851835805908292,0.1324498737070254,0.0691422949738371,-0.573991736810095,0.7972782521404943,-0.1765860219831955,-0.1618280642217362,0.7604483321084987,11.433715695712635,-0.8633473653255924,0.1759511269713573,-1.055596320594772
0.92,-0.1792233551904108,-0.0213631875979801,1.868114043421364,0.0335701514844036,0.0810928071405151,0.0378375249653239,0.0516658324124686,0.0865090417341684,-0.4982042547227788,-0.1737774623080828,-0.0252363936056086,1.8737037458546275,0.1317640420820108,0.0690852248303163,-0.5686305810170241,0.710970992417969,0.0231303030557589,-0.2271656783858835,0.6733056480557859,11.327227319128724,-0.85183398966138,0.1714515259337396,-1.0646150690198792
0.94,-0.1781516628319387,-0.0196926268261509,1.858286574436918,0.0379430151176121,0.0913013739661178,0.0384113941073678,0.055537759840061,0.0809854609395607,-0.48524142385822,-0.1711284648339423,-0.0238535477061318,1.8622239111184256,0.1310782104569963,0.0690281546867954,-0.5632694252239534,0.7306448364668332,0.1935963713796232,-0.2761790397303835,0.6481415432279369,11.23667974813452,-0.8411500228285095,0.1675931697176298,-1.072879962238928
0.96,-0.177036876989006,-0.0182141447450102,1.849187557625752,0.0411301686121652,0.0989602020707598,0.0388357610726196,0.061575970968218,0.0751204273272261,-0.4732190835515895,-0.1684966131504272,-0.0224721285602431,1.8508781052770509,0.1303923788319817,0.0689710845432746,-0.5579082694308826,0.7338175511502266,0.30191055640785,-0.2932516806167288,0.601117015331526,11.233941151010184,-0.8323417004107744,0.164835552911278,-1.079319910829275
0.98,-0.1757229930085029,-0.0167811997390383,1.8398533161265116,0.0435816338221863,0.1047884710913215,0.0391370232662821,0.0694698295044017,0.0686188394846868,-0.4608575886884322,-0.1658819072575374,-0.0210921361679424,1.839666328330502,0.1297065472069672,0.0689140143997538,-0.5525471136378118,0.8021692500890931,0.3946929268091807,-0.3250793921269646,0.6180747431578676,11.23384056870691,-0.8255605404307192,0.1630593520337007,-1.0839462815527303
1.0,-0.1742403120847291,-0.0154826460525218,1.830761963575,0.0451542216697569,0.1083788455919142,0.0392786039950346,0.0783105089580109,0.0616652145315015,-0.4489154924910872,-0.1722495015332828,-0.0133502577648039,1.8168104366920896,0.0843648858787727,0.0611195274340462,-0.4497675708332648,0.8202502282499999,0.4420339726804626,-0.3476812476592667,0.5971048098672466,11.230991901643392,-0.8208998283765565,0.1621501412179105,-1.0868285874312242
1.02,-0.1725794458939138,-0.014318643366523,1.821941450465525,0.0460944741016079,0.1100700666702222,0.0392835154579515,0.0872430000219934,0.0550638737858919,-0.433559570921526,-0.1722495015332828,-0.0133502577648039,1.8168104366920896,0.0843648858787727,0.0611195274340462,-0.4497675708332648,0.9475909237354054,0.446624553199125,-0.3300670372804768,0.7677960784780613,11.4572873423931,-0.8194325238649465,0.1617527947683713,-1.087236782193523
1.04,-0.1708370588595073,-0.0133425750515829,1.8138427571087616,0.0464006077790757,0.1102803533659503,0.0391748388771418,0.0955764591404167,0.0481004122076763,-0.4197153546461322,-0.1722495015332828,-0.0133502577648039,1.8168104366920896,0.0843648858787727,0.0611195274340462,-0.4497675708332648,0.8797707972955174,0.4166729559211643,-0.3481730789107833,0.6922108137696892,11.4572873423931,-0.8184051016900339,0.1624627454564261,-1.0866738361071575
1.06,-0.1688365791779504,-0.0124613158594878,1.8055927330889625,0.0458078422567416,0.1092315972014948,0.0389304648545372,0.1039407255901111,0.0404817321154355,-0.4060440700208765,-0.1714058526744951,-0.0127390624904635,1.8123127609837573,0.0873438971536469,0.0596196650239181,-0.4475495672622313,0.8872841468409973,0.4182133224847207,-0.3809340046120404,0.6835642312627843,11.326723665134525,-0.8190812975918587,0.1639658840690075,-1.0848376659789534
1.08,-0.1666731248960145,-0.0117330965394187,1.797606127943715,0.0440603182932844,0.1069130631197817,0.0385447632500216,0.1118491912483715,0.0328904408974518,-0.393274077632581,-0.1697185549569196,-0.0115166719417825,1.803317409567092,0.0933019197033953,0.0566199402036619,-0.4431135601201643,0.8414930733839177,0.3954232829130176,-0.3795645608991829,0.6384996194147757,11.326723665134525,-0.8212985961346855,0.1664560840348796,-1.0817100647350952
1.1,-0.164359942488357,-0.0111479042883134,1.789867787386156,0.0412060158880057,0.1033371053832662,0.0380324118782942,0.1189056658469064,0.0264155230601791,-0.3811588428113378,-0.1680312572393442,-0.0102942813931016,1.794322058150427,0.0992599422531438,0.0536202153834056,-0.4386775529780974,0.7721679052075827,0.3528237299267447,-0.3237458918636377,0.6057617410621635,11.218783464420994,-0.8253553301665725,0.1703955549106596,-1.0765634828448143
1.12,-0.1620440033030065,-0.010691703479828,1.7827359335627346,0.0381404071211895,0.0988592909747761,0.0374900326609431,0.1243635317814007,0.0220415148518899,-0.3701441118900777,-0.1660460583942813,-0.0092218770854335,1.7855485070908648,0.1052179648028922,0.0506204905631494,-0.4342415458360305,0.6523889668611401,0.2728932967247188,-0.2187004104144574,0.5507365460630048,11.218783464420994,-0.83068440554822,0.1747607622439596,-1.070267858900009
1.14,-0.1595126600111389,-0.0102880592068662,1.775452264724411,0.0350136620833973,0.0932687286980355,0.0369120510795502,0.1282042748776185,0.0186032231228539,-0.358798942899053,-0.1640608595492184,-0.0081494727777654,1.7767749560313029,0.1111759873526406,0.0476207657428932,-0.4298055386939635,0.6230690511091213,0.1920371548108868,-0.1719145864518025,0.5672584495512306,11.173294301928763,-0.8370454692870855,0.179227896831041,-1.0627940850234443
1.16,-0.1569308825622533,-0.0099444820903035,1.7683906412961827,0.0321619652405453,0.0873711273733941,0.0363637888650134,0.1295914888085284,0.0159355327900051,-0.3479081210846956,-0.1619267101404118,-0.0071520615906037,1.7681123051502925,0.117134009902389,0.0446210409226369,-0.4253695315518965,0.5649135641719222,0.0693606965454937,-0.1333845166424397,0.5445410907178733,11.111827915911816,-0.8438372960814221,0.1831742714167071,-1.0550000943445057
1.18,-0.1544748509970799,-0.0096614745501728,1.7618794778367424,0.0297465956152121,0.0820340395739017,0.0358904930340465,0.1287333771153477,0.0139776295644897,-0.3380037978853083,-0.1596436101678615,-0.0062296435239484,1.759560554447834,0.1230920324521374,0.0416213161023807,-0.4209335244098295,0.5066195780770267,-0.0429055846590337,-0.0978951612757675,0.4952161599693638,11.111827915911816,-0.8513057220323804,0.1871220436293869,-1.046215564411794
1.2,-0.1520555123134004,-0.0094111595998052,1.7555533589884853,0.0276221555000114,0.0774669034177998,0.0354756667448223,0.125815576822023,0.012474569104488,-0.3284326565771456,-0.1480381821413125,-0.0089625930719484,1.744979287942477,0.130789643063688,0.0230717281473535,-0.3249311013708806,0.5059137654753159,-0.1458900146662362,-0.0751530230000845,0.4785570654081361,11.051709108545763,-0.858155284702014,0.1907285812234061,-1.0376864087734945
1.22,-0.1495744121278421,-0.0092041596996927,1.7491391857568133,0.0247715224143412,0.0737602370404885,0.0350414902219248,0.1223446516701029,0.0088023435752643,-0.3131896458202544,-0.1480381821413125,-0.0089625930719484,1.744979287942477,0.130789643063688,0.0230717281473535,-0.3249311013708806,0.8029351447695101,-0.1735462575960029,-0.183611276461188,0.7621505378445581,11.051709108545763,-0.8670326356604975,0.193958380148389,-1.0282136445493455
1.24,-0.1471815325037622,-0.0090447192688548,1.7430286700803996,0.0212623111215508,0.0713804025163969,0.0346116775103256,0.1170355127692625,0.0075105783317808,-0.2986302886048986,-0.1480381821413125,-0.0089625930719484,1.744979287942477,0.130789643063688,0.0230717281473535,-0.3249311013708806,0.7775450080815604,-0.265456945042021,-0.0645882621741735,0.7279678607677892,11.39841389236426,-0.8725625190548757,0.1993756134085291,-1.0192537545699452
1.26,-0.1450151416481373,-0.0089007246371055,1.737481608991453,0.0179995865398899,0.0706892288328742,0.0342548881581538,0.1114563686127996,0.0077522962201436,-0.2859742999433588,-0.1467302857106756,-0.0087318757904748,1.7417299769287682,0.131200896253356,0.0248905478639263,-0.3223165620679951,0.6916634406580511,-0.2789572078231446,0.0120858944181425,0.6327994330769915,11.30899624142603,-0.8775886861025355,0.2045650448249449,-1.010881671615748
1.28,-0.1428431073059856,-0.0087328633047733,1.7318938147520218,0.0148863436669166,0.0712533065171705,0.0339336782303566,0.1061593285238497,0.009044930210214,-0.2734974518114464,-0.1441144928494019,-0.0082704412275277,1.7352313549013507,0.1320234026326922,0.0285281872970718,-0.317087483462224,0.6808106852184238,-0.2648520044474925,0.0646316995035182,0.6238424065956177,11.21604373977243,-0.8809912675228603,0.2093439639318935,-1.004077563397444
1.3,-0.1407697355963214,-0.0085298313484405,1.7265465780680114,0.0121998564710042,0.0727146991767221,0.0336611208850894,0.1015540804902205,0.0111825117620607,-0.2618770678987415,-0.1414986999881281,-0.0078090066645807,1.728732732873933,0.1328459090120283,0.0321658267302173,-0.311858404856453,0.6340561619854594,-0.2302624016814608,0.1068790775923347,0.5810191956352462,11.085402081978827,-0.8830234934441828,0.2134588464003293,-0.99882652462115
1.32,-0.1388779734558667,-0.0082909387490965,1.7216749476338908,0.0100740073808354,0.0746055401708695,0.0334417060124547,0.0978942892306022,0.0138291241228103,-0.2515312369375092,-0.1388417818078876,-0.0071656901299763,1.722495564776804,0.1336684153913644,0.0358034661633629,-0.3066293262506819,0.564435220664085,-0.1829895629809161,0.1323306180374813,0.5172915480616186,11.085402081978827,-0.8843104569245103,0.2172657999284656,-0.9943175945025148
1.34,-0.1369534837742944,-0.0079802763679968,1.7167553669949205,0.0082773460246841,0.0768379868752802,0.0332474891731433,0.0948313880657787,0.017058758095363,-0.2409760764776481,-0.136184863627647,-0.006522373595372,1.716258396679675,0.1344909217707005,0.0394411055965084,-0.3014002476449108,0.5727637197736006,-0.1531450582411719,0.1614816986276346,0.5277580229930509,11.033280495738836,-0.8851345176204852,0.2205622987594132,-0.9904615597860827
1.36,-0.1350822941582778,-0.00759880584677,1.712043106091682,0.0069621004099871,0.0790843183917764,0.0330910643508552,0.0925023453849975,0.0209114193085844,-0.2307897394128681,-0.133507382787923,-0.005788116074939,1.71015195554769,0.1353134281500366,0.0430787450296539,-0.2961711690391398,0.5568413172306612,-0.1164521340390627,0.1926330606610668,0.5093168532389988,11.00923444451928,-0.8857414813715435,0.2235301355351329,-0.9867667103787962
1.38,-0.1332508952108508,-0.0071329033804111,1.7075299970192903,0.006336214252395,0.0811663449899186,0.0329864708526157,0.0907893160962034,0.0254053326216922,-0.2210227964574411,-0.1308093392887157,-0.0049629175686774,1.7041762413808497,0.1361359345293727,0.0467163844627994,-0.2909420904333687,0.544341117555344,-0.0856514644397031,0.224695665655393,0.4883471477713522,10.95200699425186,-0.8862438721564457,0.2258212621715153,-0.9834131542217714
1.4,-0.1316276323083419,-0.0066331460797246,1.703631988269321,0.0065195440247152,0.0828078015069106,0.0329477168279059,0.0896712819428866,0.0298137386348859,-0.2125723171058328,-0.1287114294060407,-0.0058626367493265,1.6964788571964184,0.0928790249068756,0.0302215313432203,-0.2154954328330174,0.4798297750689881,-0.0559017076658431,0.2204203006596822,0.4225239675804126,10.95200699425186,-0.8868280252009503,0.2274553714908905,-0.9801053968596142
1.42,-0.1299219361563249,-0.0059997653717559,1.6997009695548937,0.0082117156924935,0.08392995934578,0.0330118706951913,0.0899234781211166,0.0363862998820507,-0.2015713811967852,-0.1287114294060407,-0.0058626367493265,1.6964788571964184,0.0928790249068756,0.0302215313432203,-0.2154954328330174,0.640864172689932,0.0126098089115005,0.3286280623582417,0.5500467954523816,10.9251179769617,-0.8897555712980415,0.2281130917390204,-0.9742940956480156
1.44,-0.1281229663413462,-0.0052172115099865,1.6957846074148244,0.011809859952478,0.0842095406019619,0.0332009358494516,0.0898901587361439,0.0409765491403961,-0.1906990634915882,-0.1287114294060407,-0.0058626367493265,1.6964788571964184,0.0928790249068756,0.0302215313432203,-0.2154954328330174,0.5900821780012844,-0.0016659692486348,0.2295124629172706,0.5436158852598502,11.063143818807475,-0.8919594825054946,0.2280845558732198,-0.9682831849398604
1.46,-0.1263302114665297,-0.0043760239449889,1.6920738037175609,0.0158141842356551,0.0838900927674978,0.0334098319683295,0.0893220028058512,0.0428146566397185,-0.1809621772006749,-0.1277826391569719,-0.0055604214358943,1.6943239028680883,0.09329696666901,0.0311847710875259,-0.2143899601081326,0.4962569772365124,-0.0284077965146338,0.0919053749661183,0.4868443145456674,10.990351627737256,-0.8945727646656947,0.2273066930051183,-0.9628035971577976
1.48,-0.1245550110834078,-0.003515689886261,1.6885472570248576,0.0195004636378959,0.0832417537041243,0.0335879057238245,0.0881722142194283,0.043132690757853,-0.1722076265559587,-0.1259250586588344,-0.0049559908090299,1.6900139942114278,0.0941328501932789,0.0331112505761371,-0.2121790146583631,0.4417728955149546,-0.0574894293211454,0.0159017059067283,0.4377275322358098,10.916997044112575,-0.8975431936518881,0.226263570193254,-0.9575057606967382
1.5,-0.1228952438277102,-0.0027020034257898,1.6853511928605516,0.022478421228922,0.0825208881442005,0.0337152730534438,0.0865624169612877,0.0425502498023608,-0.1646816851286391,-0.1240674781606969,-0.0043515601821655,1.6857040855547676,0.0949687337175478,0.0350377300647483,-0.2099680692085936,0.3859095718118293,-0.080489862907028,-0.0291220477746115,0.376297071365976,10.855215600099656,-0.9003597265648801,0.2253903753251709,-0.9528810614202896
1.52,-0.1211860999857126,-0.0018636379419084,1.6821344616066256,0.0250071473679215,0.0818125807923181,0.03380597646147,0.0844124786691041,0.0413863184594696,-0.1574007707499735,-0.1221681034863459,-0.0036508055808705,1.6815047241705958,0.0958046172418166,0.0369642095533595,-0.2077571237588241,0.3840204585065169,-0.1074969146091807,-0.05819656714456,0.3640457189332827,10.802452117823124,-0.9032741167238107,0.2247098795224824,-0.948368308162694
1.54,-0.1196060843560577,-0.0010931719724492,1.6792079759890273,0.0268559329454654,0.0812952177172441,0.0338567751041767,0.0820159098517372,0.0398886865563828,-0.1509976049841274,-0.1202687288119949,-0.0029500509795755,1.6773053627864238,0.0966405007660855,0.0388906890419708,-0.2055461783090546,0.3499534799027644,-0.1198284408683456,-0.0748815951543382,0.3201582882923035,10.761996035906122,-0.9060059775874136,0.2243408379439732,-0.944216119610823
1.56,-0.1179943891212984,-0.0003151531884664,1.6762551970901582,0.0282845320628834,0.0809720665121261,0.0338809753137823,0.0792838246569041,0.0380181182725697,-0.1446259490176405,-0.1183484570495373,-0.0022011343910653,1.6731612750384963,0.0974763842903543,0.040817168530582,-0.2033352328592851,0.3590310396452583,-0.1366042597416551,-0.0935284141906585,0.3185827983243447,10.728425828528088,-0.9084115427555696,0.2241666416401733,-0.9406528281186458
1.58,-0.1164390242443534,0.0004203046824879,1.6734248200047577,0.0290818471718143,0.0809045796774114,0.0338707832932703,0.0764152174098212,0.0356914679017178,-0.138717466492926,-0.1164072881989729,-0.0014040558153397,1.6690724609268128,0.0983122678146232,0.0427436480191932,-0.2011242874095156,0.3483976723195035,-0.1434303623541473,-0.1163325185425955,0.2954241262357271,10.701839198055495,-0.9103113653567724,0.2243048874977495,-0.9378086490563324
1.6,-0.1150149389876532,0.0010731470231207,1.6708416082585245,0.0291359814603041,0.0810742547098682,0.0338224771528765,0.0736593022727465,0.0332198787762633,-0.1334850570334378,-0.1126182633738624,0.0022048780775738,1.6664889466801112,0.0841365483803469,0.0411028567198924,-0.1341886697269727,0.3204759343521903,-0.1377957568537348,-0.1235794562727207,0.2616204729744109,10.672831553181824,-0.9119983696616996,0.2249187111454638,-0.9352038893861752
1.62,-0.1135732842616828,0.0017026525255285,1.6682713032676562,0.0281924194929994,0.0816382778502408,0.0337181802052293,0.0707148769257311,0.0299724360575517,-0.1235811242459605,-0.1126182633738624,0.0022048780775738,1.6664889466801112,0.0841365483803469,0.0411028567198924,-0.1341886697269727,0.5415334927184274,-0.1472212673507687,-0.162372135935582,0.4951966393738647,10.646629960585416,-0.9149779944051836,0.225745650466588,-0.932040563878652
