t,x,y,z,roll,pitch,yaw,v_x,v_y,v_z,ref_x,ref_y,ref_z,ref_v_x,ref_v_y,ref_v_z,a_com,a_x,a_y,a_z,thrust,wind_x,wind_y,wind_z
0.0,1.6254827127860545,-1.7641298049288392,2.329884632342421,0.0236708705432318,0.0994418750230653,0.0421511967891722,0.0031863764448198,0.0066124416880867,0.0057530418422291,1.625586732853598,-1.7640218697520715,2.330056641021805,-0.0966072446800539,0.1044026245818615,-0.0392571051350291,0.4663015932979691,0.1593188222409905,0.3306220844043381,0.2876520921114585,10.248880712976645,-0.9426046733260254,0.261266349362187,-0.8723821501565566
0.02,1.6257405263400373,-1.7643069305397894,2.329890069930167,0.0152818231354716,0.0932985484604131,0.0414578070426838,0.020721140681509,-0.0176157431205375,-0.0049228193768369,1.625586732853598,-1.7640218697520715,2.330056641021805,-0.0966072446800539,0.1044026245818615,-0.0392571051350291,1.5878026551856894,0.8767382118344643,-1.2114092404312151,-0.5337930609533039,10.24811950970161,-0.9490911256096256,0.2605263494965903,-0.873062378634924
0.04,1.6262367828743831,-1.7646545470424324,2.329669257625532,-0.0002587407000967,0.0781515537426289,0.0403221048264399,0.0292895864188277,-0.0171622743697145,-0.0176874511707407,1.625586732853598,-1.7640218697520715,2.330056641021805,-0.0966072446800539,0.1044026245818615,-0.0392571051350291,0.7690249038478688,0.4284222868659341,0.0226734375411491,-0.6382315896951942,9.458788342162734,-0.9561272692378506,0.2761764051632017,-0.8567009464847638
0.06,1.6268196389823848,-1.764923295505881,2.329176503476755,-0.0171961547179958,0.0565608794611825,0.0394632192928553,0.0274660817599504,-0.0093427421293136,-0.0308856187133678,1.6246206604067974,-1.7629778435062529,2.3296640699704545,-0.1166072449780772,0.1244026248798847,-0.0482562911441977,0.7724342693441172,-0.091175232943865,0.3909766120200468,-0.6599083771313544,9.458788342162734,-0.969163349233312,0.2901883122037125,-0.8358318569458696
0.08,1.62725635550628,-1.7649947944300228,2.3284261119688336,-0.0334895821175959,0.0330724845685229,0.0391311678037016,0.0155163240929805,0.0021411905627083,-0.0434850774614265,1.6226885155131965,-1.7608897910146155,2.328878927867754,-0.1566072455741236,0.1644026254759312,-0.066254663162535,1.040941615939902,-0.5974878833484972,0.5741966346010989,-0.6299729374029321,9.438212905006369,-0.9858280993351826,0.3024424567779203,-0.8117682602905548
0.1,1.6273574686442651,-1.764805599472096,2.327430456647584,-0.0489894808155622,0.0107309237124457,0.0392551478067905,-0.0051556078660004,0.016535458671255,-0.0554901265632854,1.620756370619595,-1.7588017385229784,2.328093785765053,-0.1966072461701701,0.2044026260719776,-0.0842530351808722,1.395210494186727,-1.0335965979490502,0.7197134054273367,-0.6002524550929436,9.47647706486714,-1.0026789911128728,0.3125604057003949,-0.7881084820329993
0.12,1.6270028288403384,-1.7643248245836116,2.3262658693232763,-0.0627331380959914,-0.0076191224210708,0.0396561252348788,-0.0311938782572377,0.0334396259778772,-0.0665259985433118,1.616824225696192,-1.7547136860015389,2.326408725061436,-0.2366072467662165,0.2444026266680241,-0.1022514071992095,1.6473712906149818,-1.301913519561863,0.8452083653311065,-0.5517935990013222,9.53994093588244,-1.0192073104892432,0.3215718419670202,-0.7650858032728105
0.14,1.6260471320140903,-1.7634325357053549,2.324811963614486,-0.0755986544804024,-0.0229247968762002,0.0402278072387968,-0.0630667427063217,0.0548143894497532,-0.078284943580827,1.6128920807727885,-1.7506256334800994,2.324723664357818,-0.276607247362263,0.2844026272640706,-0.1202497792175467,2.006883647638568,-1.5936432224542023,1.0687381735938009,-0.5879472518757582,9.608849141172414,-1.0331774303301344,0.3285632692073273,-0.746283248902822
0.16,1.6244108433725235,-1.7620755122546776,2.3231215514849386,-0.086125028290955,-0.0334884318947351,0.0408029332529313,-0.0989788003377088,0.0794569839327626,-0.0901419317725097,1.6079599358344838,-1.7455375809437588,2.322588644353743,-0.3166072479583094,0.324402627860117,-0.138248151235884,2.256945676767507,-1.7956028815693532,1.232129724150472,-0.5928494095841348,9.703780686671962,-1.0430829398771624,0.3336569333145617,-0.7336506514763341
0.18,1.622017087130349,-1.760204085581575,2.321194702544746,-0.0939495990744539,-0.0382994659762503,0.0411723368474395,-0.1382449592905668,0.105812180481263,-0.1018772577892863,1.602027790881278,-1.7394495283925169,2.3200036650492084,-0.3566072485543559,0.3644026284561634,-0.1562465232542212,2.4362601978961678,-1.9633079476428976,1.3177598274250195,-0.5867663008388326,9.703780686671962,-1.0489139883451002,0.336421420917401,-0.7280141975891655
0.2,1.619017654592442,-1.7579300754709748,2.3191521194386846,-0.0991187034004067,-0.0374273455671413,0.0411984966067566,-0.1748589445099819,0.1317080064234735,-0.1124166382392676,1.6151048391658207,-1.7549134765575118,2.316100839655282,-0.2382449607806829,0.2058121819713791,-0.1317501911919438,2.303397629126514,-1.8306992609707555,1.294791297110525,-0.5269690224990644,9.759327725082583,-1.0520695076708275,0.33678188224856,-0.7290579172995455
0.22,1.6150949265857169,-1.7548702889051384,2.316853709233979,-0.0984912673360474,-0.0309175987103551,0.0410964642118058,-0.2147393504086664,0.1713852842972612,-0.1161796600651601,1.6151048391658207,-1.7549134765575118,2.316100839655282,-0.2382449607806829,0.2058121819713791,-0.1317501911919438,2.8190838438133303,-1.994020294934228,1.983863893689383,-0.1881510912946256,9.78490852390496,-1.0525100796958904,0.3349201083617252,-0.7320508234850037
0.24,1.6104348126436268,-1.751116313979178,2.3145155046235093,-0.0915662124790027,-0.0195417201978538,0.0409968786011352,-0.2484938384042819,0.2009019428998101,-0.1173008540764032,1.6151048391658207,-1.7549134765575118,2.316100839655282,-0.2382449607806829,0.2058121819713791,-0.1317501911919438,2.242685706310861,-1.6877243997807738,1.4758329301274435,-0.0560597005621554,10.337369396800568,-1.0484625917609485,0.3284468180902888,-0.7442511746075332
0.26,1.6051661258328105,-1.7468503573553955,2.3121543375967133,-0.0833545743318251,-0.005754621013335,0.0408596986628012,-0.2761015388638247,0.223999790078867,-0.1186969284404453,1.6127223895580138,-1.752855354737798,2.3147833377433624,-0.2582449610787061,0.2258121822694024,-0.1377247778724753,1.8011417855077658,-1.3803850229771388,1.1548923589528457,-0.0698037182021014,10.174990720916869,-1.0420540850708415,0.3222229627179793,-0.7579517893704403
0.28,1.599704742513858,-1.7424067026832613,2.309875568665634,-0.0760647240318494,0.0078857788586561,0.0407488190225931,-0.2970686419046365,0.2427082730357553,-0.1211034685186085,1.6079574903424003,-1.7487391110983703,2.3121483339195232,-0.2982449616747525,0.2658121828654488,-0.1496739512335383,1.4101579518089482,-1.0483551520405892,0.9354241478444132,-0.1203270039081605,10.174990720916869,-1.0350255910573272,0.3167714725664992,-0.7707385000605635
0.3,1.5935753099256529,-1.737366265644544,2.307413956249772,-0.0695372634828522,0.0214937800224869,0.0407019222348426,-0.3144663726677828,0.2604762295642759,-0.1250321846087193,1.6031925911267866,-1.7446228674589428,2.3095133300956845,-0.338244962270799,0.3058121834614953,-0.1616231245946013,1.2587852527566232,-0.8698865381573162,0.8883978264260308,-0.1964358045055431,10.067029526952863,-1.0270332013619554,0.3123231673334207,-0.7837230840317839
0.32,1.587141132122981,-1.7319842684637046,2.304855510341128,-0.0643363392642448,0.0333685368157945,0.040752673024508,-0.328006595766399,0.2770888999474857,-0.1306617632313922,1.596427691881371,-1.7385066237897129,2.3062808676037925,-0.3782449628668454,0.3458121840575417,-0.1735722979556643,1.107937965648725,-0.6770111549308122,0.8306335191604924,-0.2814789311336441,9.967451524880744,-1.019400559919574,0.3090053098609313,-0.7953005301744134
0.34,1.5808056154535102,-1.7265700341598211,2.3023099702079124,-0.0604939420781299,0.0425712667366394,0.040898912548137,-0.3382428617808093,0.2922160594828101,-0.1370519773204911,1.5896627926359546,-1.732390380120483,2.3030484051119005,-0.4182449634628919,0.3858121846535882,-0.1855214713167274,0.9675315674817048,-0.5118133007205122,0.7563579767662171,-0.3195107044549422,9.824484528172434,-1.0122040838786228,0.3063422456648246,-0.8057400558084321
0.36,1.573940756422782,-1.7205565629403592,2.299489913584271,-0.0572009645569921,0.0500303255179192,0.0411588781809844,-0.3476917281029633,0.3083441160365195,-0.1446736605275208,1.5818978933756374,-1.725274136436352,2.2995172132859816,-0.4582449640589384,0.4258121852496346,-0.1974706446777903,1.0093133035409567,-0.4724433161076985,0.8064028276854707,-0.3810841603514872,9.785849039432833,-1.0060366942198906,0.3044369525036475,-0.8140840313104737
0.38,1.5668960227053716,-1.7142215193850825,2.296510141062223,-0.0542828199415069,0.0554734261202291,0.0415204996855644,-0.3563283045339649,0.3243071010817423,-0.152958013884715,1.573132994100419,-1.71715789273732,2.2956872921260367,-0.4982449646549848,0.465812185845681,-0.2094198180388533,0.9975443029627756,-0.4318288215500843,0.7981492522611405,-0.4142176678597106,9.785849039432833,-1.001226313046759,0.3027830462254229,-0.8205283566833379
0.4,1.5600478258923758,-1.707910638771714,2.2935208434755405,-0.0516783949379995,0.0590733545792487,0.0419422298129042,-0.364164701206855,0.3391320442865372,-0.1612986121442621,1.5490796074786737,-1.6980061643309952,2.2888622403679872,-0.4563283060240811,0.4243071025718584,-0.2169977583214559,0.9364208898345816,-0.3918198336445022,0.7412471602397441,-0.4170299129773541,9.759460506622418,-0.9978046196890944,0.3012932666840026,-0.8251804766259108
0.42,1.5526798463426557,-1.7009729003063094,2.290191729567553,-0.0491799952535782,0.0615323121744398,0.0424374707041638,-0.3722702586150156,0.3538592856014573,-0.1712393902459933,1.5490796074786737,-1.6980061643309952,2.2888622403679872,-0.4563283060240811,0.4243071025718584,-0.2169977583214559,0.9764870287319942,-0.4052778704080301,0.7363620657460046,-0.4970389050865609,9.740127675737313,-0.9949560779716926,0.2997863885327261,-0.8292122854785439
0.44,1.545157068788603,-1.6937645126157646,2.2866438136205547,-0.047584998492247,0.0626497106378704,0.0429311581353732,-0.3797067399791938,0.366447153730463,-0.183167954560214,1.5490796074786737,-1.6980061643309952,2.2888622403679872,-0.4563283060240811,0.4243071025718584,-0.2169977583214559,0.9434594926539076,-0.3718240682089119,0.6293934064502876,-0.5964282157110325,9.675223937239934,-0.9929412074470334,0.2984691102559943,-0.8327549882104045
0.46,1.5378698867752416,-1.6866852870893538,2.283034550598314,-0.0472838227201294,0.0624781682517807,0.0433684370063666,-0.3870884824918564,0.378251113959509,-0.1961628552835221,1.5445163244184326,-1.6937630933052763,2.286692262784773,-0.4763283063221042,0.4443071028698817,-0.2298057072088041,0.9522224588046418,-0.3690871256331274,0.5901980114523003,-0.6497450361654056,9.562105952692036,-0.9915360421573618,0.2978953968121658,-0.8354867212555472
0.48,1.530043424967085,-1.6789926586240052,2.2789564940091576,-0.0482305346961641,0.0611936070467956,0.0437884533503634,-0.3952465523461277,0.3904971235380146,-0.2110179918552325,1.535389758297951,-1.6852769512538397,2.282352307618344,-0.5163283069181507,0.4843071034659281,-0.2554216049835004,1.0454591538029927,-0.4079034927135655,0.6123004789252762,-0.742756828585521,9.48041787893908,-0.9911396899247216,0.2980007941203998,-0.8371807585656699
0.5,1.522047623100552,-1.671052319177978,2.2745729959286285,-0.050516067922771,0.0588989013772555,0.0441645883786155,-0.4040245560946615,0.403080947366682,-0.2266220265791347,1.5262631921774694,-1.6767908092024022,2.2780123524519142,-0.5563283075141972,0.5243071040619746,-0.2810375027581968,1.0941799116518256,-0.4389001874266912,0.6291911914333731,-0.7802017361951102,9.419323363071271,-0.9918835730051032,0.2991681418478409,-0.8371326075012787
0.52,1.513866573433391,-1.6628421232704351,2.2698720927401923,-0.0536689642268285,0.0557735662384239,0.0445300322879404,-0.413762966579025,0.4175512217660462,-0.2426989612245678,1.5151366260271857,-1.6663046671211628,2.27239160239675,-0.5963283081102436,0.564307104658021,-0.3066534005328932,1.1860578691071362,-0.4869205242181762,0.7235137199682107,-0.8038467322716555,9.385315219012227,-0.9934258947794264,0.3010175204227547,-0.8357066943054299
0.54,1.5059026689450508,-1.6547582713045863,2.2651062704436877,-0.0566877437129201,0.0522795437746972,0.0449147916421002,-0.4241589531493923,0.4326734954929803,-0.2581650327409759,1.5040100598769015,-1.655818525039923,2.2667708523415864,-0.6363283087062901,0.6043071052540675,-0.3322692983075895,1.1999573613197958,-0.5197993285183611,0.7561136863467044,-0.7733035758204054,9.369108232670442,-0.995599228615982,0.3030223343704581,-0.8334952850176715
0.56,1.4972876035255016,-1.6459231297888737,2.259769862293762,-0.059362709076181,0.0485304523897482,0.0453701274816475,-0.4369442136619388,0.4499174251191828,-0.2746644882121265,1.4918834937117165,-1.6443323829437826,2.260509704842055,-0.6763283093023365,0.6443071058501139,-0.3578851960822859,1.353742983519753,-0.6392630256273263,0.8621964813101235,-0.824972773557528,9.36515195575521,-0.9977472107365006,0.3048194667318761,-0.8311434710596535
0.58,1.4883950403716075,-1.6367345383538277,2.2541028132783123,-0.0611667275459069,0.0454870840770975,0.0458508055531689,-0.4517921003861886,0.4679003318583868,-0.2912068806514796,1.47875692753163,-1.6318462408327408,2.2536081598981563,-0.7163283098983829,0.6843071064461603,-0.3835010938569822,1.4295938431811934,-0.7423943362124902,0.8991453369602026,-0.8271196219676535,9.363156342644288,-0.999576931389746,0.3059071072299957,-0.8294970906137195
0.6,1.479183851815219,-1.627178887955258,2.2481036232991443,-0.0618196244668147,0.0440633563010469,0.0463119408726685,-0.4685274877988851,0.4865489239465842,-0.3078684365602327,1.4658054353522982,-1.6133395217609083,2.2395424692457384,-0.5517921018763048,0.567900333348503,-0.3411196537241991,1.504535330281018,-0.8367693706348239,0.932429604409868,-0.8330777954376589,9.373481790734331,-1.0014957194005596,0.3063960051858986,-0.8275827876379882
0.62,1.4700987902406664,-1.6176969101061167,2.2422555960405868,-0.0596471955265812,0.0454043749553177,0.0467727027587736,-0.4864204612698815,0.5098223776724684,-0.3067775914701982,1.4658054353522982,-1.6133395217609083,2.2395424692457384,-0.5517921018763048,0.567900333348503,-0.3411196537241991,1.4688448615962708,-0.8946486735498221,1.1636726862942093,0.0545422545017271,9.37692488565881,-1.0072445376161197,0.3048988138878635,-0.8217928508176959
0.64,1.460200176007784,-1.6072949145357216,2.236120093981903,-0.0546327181977729,0.0494864883867184,0.047287181938391,-0.5021328180611475,0.5285763209768639,-0.3069714482224961,1.4658054353522982,-1.6133395217609083,2.2395424692457384,-0.5517921018763048,0.567900333348503,-0.3411196537241991,1.22334186334088,-0.785617839563299,0.9376971652197752,-0.0096928376148941,10.234122454346108,-1.0065644224455663,0.3022895005719659,-0.8227722656729728
0.66,1.4500169059844406,-1.596560989961166,2.2299458286273173,-0.0493214429683411,0.0549632388308423,0.0477558277839228,-0.5151515452822756,0.5438025423657503,-0.3105904099252125,1.4602875143335352,-1.6076605184274233,2.2361312727084965,-0.571792102174328,0.5879003336465262,-0.351102208338743,1.017867820553399,-0.6509363610564034,0.7613110694443204,-0.180948085135818,10.234122454346108,-1.003568311917656,0.2992566145687069,-0.8269119396997218
0.68,1.4395993680034074,-1.5855451714959792,2.223662080010788,-0.0445653445032099,0.060885107543261,0.0481774512532408,-0.5257819755304032,0.5571237025533545,-0.317595733811861,1.4492516722960092,-1.5963025117604532,2.2293088796340124,-0.6117921027703744,0.6279003342425726,-0.3710673175678309,0.921322308913888,-0.5315215124063799,0.6660580093802104,-0.3502661943324298,10.015893977830274,-0.9993518344178454,0.2964167450957914,-0.8327704979681215
0.7000000000000001,1.4295256908797032,-1.5748447176646108,2.2175370572671738,-0.0407934796707712,0.0662856914545324,0.048546042693875,-0.5339995138000723,0.5687206219272589,-0.3268037926094161,1.438215830258483,-1.5849445050934832,2.2224864865595286,-0.6517921033664209,0.6679003348386191,-0.3910324267969187,0.8467656420131058,-0.4108769134834544,0.5798459686952195,-0.4604029398777548,9.83237667638059,-0.9944593010336632,0.2936945887889498,-0.8396075914889968
0.72,1.4187698410466871,-1.5633505703672417,2.2108788602859137,-0.0376569330111882,0.0712764412352517,0.0489090393126846,-0.5410914344915981,0.5802023960015016,-0.3386426935465557,1.4251799881911549,-1.5715864983967107,2.21466583802359,-0.6917921039624674,0.7079003354346656,-0.4109975360260066,0.8976163578977492,-0.3545960345762933,0.5740887037121334,-0.5919450468569787,9.686660326866331,-0.9895817232100778,0.2913513623438719,-0.8464508906229498
0.74,1.4078853993373877,-1.551630692027288,2.20397131025544,-0.0353214465997297,0.0752664849998722,0.0492527080802257,-0.5469873109009132,0.5913265297056531,-0.3515684364222012,1.4121441461238262,-1.5582284916999385,2.206845189487652,-0.7317921045585138,0.747900336030712,-0.4309626452550944,0.9021952923135024,-0.2947938204657552,0.5562066852075775,-0.6462871437822731,9.57024441802696,-0.985367412634818,0.28942957561229,-0.8524848538402753
0.76,1.3968873942524642,-1.5396820560874285,2.196797735511672,-0.033392709949383,0.0782557892850172,0.0495974847973941,-0.5525358053789856,0.6029327045084292,-0.3651496162811175,1.3981083040415967,-1.5438704849882647,2.198525413220986,-0.7717921051545602,0.7879003366267584,-0.4509277544841822,0.9353308651033948,-0.2774247239036187,0.5803087401388018,-0.6790589929458135,9.499735911826065,-0.9818586065343348,0.2878388242241196,-0.8575317702336408
0.78,1.3863382154427564,-1.5281157505009562,2.1897269015953413,-0.0316029174133935,0.0803714982986272,0.0499383949085423,-0.5576347019852935,0.6139026031585639,-0.3784745498924186,1.383072461944466,-1.52851247826169,2.189706509223593,-0.8117921057506067,0.8279003372228049,-0.47089286371327,0.8998489855826227,-0.2549448303153956,0.5484949325067379,-0.666246680565058,9.499735911826065,-0.978778523075748,0.2861328140467193,-0.8621658405966408
0.8,1.3751303637724357,-1.515719722416391,2.1820051756088192,-0.029698636731908,0.0820131811929517,0.0503072365987474,-0.5628824987100991,0.6250466501876671,-0.3930244791840436,1.3584564803434918,-1.497420620343028,2.1708031741007203,-0.6576347034754096,0.71390260464868,-0.4043272897033622,0.9531914774102712,-0.2623898362402788,0.5572023514551605,-0.7274964645812482,9.481465259317702,-0.9761764399627488,0.2843479066581825,-0.8662950023532622
0.8200000000000001,1.3638221845011966,-1.5030845997517208,2.174169133034072,-0.0272963282986753,0.0834960314987531,0.0507042856199454,-0.5675438198226679,0.6376017228404116,-0.3888915696133355,1.3584564803434918,-1.497420620343028,2.1708031741007203,-0.6576347034754096,0.71390260464868,-0.4043272897033622,0.7007829645293581,-0.2330660556284391,0.6277536326372235,0.2066454785354055,9.455887222671665,-0.980081602022126,0.2826609426764025,-0.8630494452530786
0.84,1.3524343533761003,-1.4902260703713712,2.1664303811434067,-0.0248090695936942,0.0849017240092293,0.051097401493219,-0.571028885295299,0.6477304389222316,-0.3852978785412357,1.3584564803434918,-1.497420620343028,2.1708031741007203,-0.6576347034754096,0.71390260464868,-0.4043272897033622,0.5649141225361918,-0.1742532736315583,0.5064358040909989,0.179684553604989,10.607335795866677,-0.9794819830279232,0.2819289701446002,-0.8629777465561881
0.86,1.34155677155175,-1.4778313700821577,2.1591179603463404,-0.0229375521974453,0.0857752030353378,0.0514365801385901,-0.573866707041611,0.6565974847088462,-0.3846077317513251,1.3518801333087376,-1.4902815942965413,2.1667599012036867,-0.6776347037734328,0.7339026049467032,-0.409497837665551,0.4667816294515676,-0.1418910873155987,0.4433522893307284,0.0345073394955292,10.439430919467668,-0.9786795618687768,0.2813001415186829,-0.8632828029189887
0.88,1.3300506592954129,-1.4646089547367205,2.151412791331942,-0.0216296364456953,0.0860154675789723,0.0517502332767943,-0.5766644208625188,0.6652293642203577,-0.386041532378081,1.3387274392392294,-1.4760035422035676,2.15867335540962,-0.7176347043694793,0.7739026055427497,-0.4198389335899284,0.4593264927103512,-0.1398856910453882,0.4315939755755782,-0.0716900313377927,10.14817833066718,-0.978246656759999,0.2809182650401912,-0.863389352735191
0.9,1.3184881463915197,-1.451219924019191,2.1436603663114697,-0.0212332434931527,0.0854701283708055,0.0520046390424934,-0.5795202844740694,0.6733093803487333,-0.3891938749448481,1.3255747451697213,-1.461725490110594,2.150586809615552,-0.7576347049655258,0.8139026061387962,-0.4301800295143058,0.4565629235407791,-0.1427931805775328,0.4040008064187805,-0.1576171283383581,10.14817833066718,-0.9787483916538372,0.2811891230037148,-0.8623079064104386
0.92,1.3068676935186698,-1.437673532588331,2.135830930236106,-0.0219746898299464,0.0840461506804605,0.0521881599742957,-0.5824795489614173,0.6810719085824116,-0.3935826945589344,1.3104220510704108,-1.4454474379878182,2.141983209025266,-0.7976347055615722,0.8539026067348426,-0.4405211254386832,0.469776086262699,-0.1479632243673923,0.3881264116839145,-0.2194409807043162,9.9894513062427,-0.9801078021948506,0.2822109250708505,-0.8601356487456834
0.94,1.295771923198985,-1.4246596398666826,2.128312033274988,-0.0238429799418555,0.0817640952727324,0.0522971262299127,-0.5854487002148265,0.6885668301850851,-0.397653765543363,1.2952693569711002,-1.4291693858650425,2.13337960843498,-0.8376347061576187,0.8939026073308891,-0.4508622213630607,0.4515620886326147,-0.148457562670462,0.3747460801336755,-0.2035535492214274,9.9894513062427,-0.9825911941004978,0.2841219279850638,-0.8565050308120602
0.96,1.284021142022796,-1.410787596217126,2.120316851526456,-0.0266074922933701,0.0784239729327553,0.0523807551655216,-0.589613248200976,0.6984764343612692,-0.4016325427959772,1.2791166628568886,-1.411891333727365,2.1245174804465843,-0.8776347067536651,0.9339026079269356,-0.4612033172874382,0.5730933241704751,-0.2082273993074757,0.4954802088092014,-0.1989388626307098,9.994837134301632,-0.9856639955464048,0.2867544471022852,-0.8517924938300421
0.98,1.2721714554073185,-1.3966936281909166,2.112247313225615,-0.0291015794184622,0.0744584504246893,0.0525055929942853,-0.5952732932338027,0.7102687459530934,-0.4051080298407509,1.2619639687277755,-1.3936132815747868,2.1153968250600794,-0.9176347073497116,0.973902608522982,-0.4715444132118156,0.6767084539347223,-0.2830022516413344,0.5896155795912128,-0.1737743522386869,10.01195263614136,-0.9894767867579878,0.2892204876340872,-0.846084092547256
1.0,1.2607928995797335,-1.3830770710653857,2.104520556812832,-0.0307927406358449,0.0705548775883797,0.0526790024506169,-0.6022894607403085,0.7222602632800749,-0.4080459082097865,1.2424077907456283,-1.361180190893262,2.0919919117335777,-0.6952732947239189,0.8102687474432095,-0.431090746892853,0.710025041096952,-0.3508083753252899,0.5995758663490725,-0.1468939184517792,10.039344555625576,-0.9938648595005244,0.2913562314778366,-0.8396381027718793
1.02,1.248607736067301,-1.368449871318531,2.0963987045267287,-0.030281804136732,0.068402980429982,0.0529571352095546,-0.6160052799592217,0.739389767400489,-0.4035698128303426,1.2424077907456283,-1.361180190893262,2.0919919117335777,-0.6952732947239189,0.8102687474432095,-0.431090746892853,1.1197980153838822,-0.6857909609456592,0.856475206020707,0.2238047689721967,10.060266633390713,-0.9972988860222664,0.2917553093850271,-0.8349039438214425
1.04,1.2361551756236953,-1.3535080503940131,2.0883703434454426,-0.0269234482312937,0.0698450572237672,0.053312913609283,-0.6281269406696485,0.7535211879264779,-0.3995731686449358,1.2424077907456283,-1.361180190893262,2.0919919117335777,-0.6952732947239189,0.8102687474432095,-0.431090746892853,0.9521093282887608,-0.6060830355213376,0.7065710262994462,0.1998322092703369,10.5904537354254,-0.9998533315023784,0.2906791343387079,-0.8311866966665695
1.06,1.22348836328531,-1.338323368798438,2.080395166442965,-0.0226182156304983,0.073354509042945,0.053673113483345,-0.6376696301441656,0.7640885867797262,-0.3981223321755245,1.2354550577983892,-1.3530775034188298,2.087681004264649,-0.715273295021942,0.8302687477412327,-0.4362872903032734,0.7156077266765408,-0.4771344737258542,0.5283699426624155,0.0725418234705649,10.293767675684649,-0.9992801531062346,0.2887065202623423,-0.8317470988559684
1.08,1.2113013193554014,-1.3237245443648404,2.072822500946082,-0.0188166659136894,0.0775533542637059,0.0539762449817612,-0.6445518563206308,0.772198915803588,-0.399072835577834,1.2215495919039108,-1.3368721284699656,2.079059189326792,-0.7552732956179885,0.8702687483372792,-0.4466803771241143,0.5339614469629815,-0.3441113088232639,0.4055164511930886,-0.0475251701154727,10.293767675684649,-0.9969621452980508,0.2864655369573141,-0.8347444276237963
1.1,1.19835269180026,-1.3082026951396493,2.064811162119212,-0.0155402197214661,0.082053959595836,0.0542445709797057,-0.6498335611606402,0.779676141875627,-0.4021124773129882,1.2076441260094324,-1.3206667535211014,2.070437374388935,-0.795273296214035,0.9102687489333257,-0.4570734639449551,0.4822985010018382,-0.2640852420004669,0.3738613036019467,-0.1519820867577098,10.145270710111618,-0.99382557664384,0.284457194189123,-0.838852826574863
1.12,1.1853154435809896,-1.2925369135228355,2.0567199270124883,-0.0130913676746878,0.0860441554365152,0.0544613418173937,-0.6535797130949763,0.7866586452097653,-0.4069387184662476,1.1917386600851516,-1.3024613785424348,2.061295905110036,-0.8352732968100814,0.950268749529372,-0.4674665507657959,0.4639008805655501,-0.1873075967168069,0.349125166706915,-0.2413120576629679,9.931196841927886,-0.9905554261184596,0.2828539354148731,-0.8430839287354784
1.14,1.17221664837517,-1.27673596597857,2.0485199801504645,-0.0114620941528474,0.0891280378040086,0.0546270835066835,-0.6561658619503565,0.7932480365596694,-0.4128207119968252,1.1758331941608708,-1.2842560035637682,2.0521544358311368,-0.8752732974061279,0.9902687501254186,-0.4778596375866368,0.4601795632091157,-0.129307442769011,0.3294695674952053,-0.2940996765288833,9.931196841927886,-0.9879200838551824,0.281742632307327,-0.8465180270800363
1.16,1.159727408289383,-1.261596915026203,2.040615837937628,-0.0103965723100959,0.091183404564238,0.0547529141465661,-0.6583971841587222,0.7999812965315728,-0.4189041763035329,1.158927728221689,-1.2650506285702006,2.0427531393817167,-0.9152732980021744,1.030268750721465,-0.4882527244074776,0.467236895529905,-0.1115661104182819,0.3366629985951719,-0.3041732153353849,9.86095984379881,-0.9856209164923196,0.280896000714503,-0.8494614884285121
1.18,1.1465359738971517,-1.245522398490326,2.0321671882423016,-0.009521605825329,0.0925845834050122,0.0548662681801747,-0.6606546440205203,0.8070829926982802,-0.4256579711481193,1.141022262267606,-1.2448452535617318,2.033092015761776,-0.9552732985982209,1.070268751317511,-0.4986458112283184,0.5028517631335753,-0.1128729930899075,0.3550848083353708,-0.337689742229319,9.86095984379881,-0.9840176576849706,0.2802149423822478,-0.8515550623735172
1.2,1.1332990313888294,-1.2293050595594217,2.0235808887915745,-0.0087653521227952,0.093356171600643,0.0549666640639107,-0.6629563635710359,0.8142506646705249,-0.4326434316562407,1.1135032416961257,-1.2051682488554118,2.0108842896848955,-0.7538089179477321,0.9070829941883964,-0.4344296803145865,0.5134931667058745,-0.1150859775257806,0.358383598612233,-0.3492730254060688,9.844487868779652,-0.9830047855771188,0.2796284859123832,-0.852945555570061
1.22,1.1199935029184542,-1.2129159664300375,2.014979373378781,-0.0070858075017884,0.0946558375898261,0.0551160407552388,-0.667287881573565,0.8240006655944038,-0.4264807534365787,1.1135032416961257,-1.2051682488554118,2.0108842896848955,-0.7538089179477321,0.9070829941883964,-0.4344296803145865,0.6160421435684582,-0.2165759001264533,0.4875000461939449,0.3081339109830966,9.834809384664368,-0.9839476061806242,0.2780945737443246,-0.8531139136245768
1.24,1.1072908829250097,-1.1971946861277574,2.0069330179980662,-0.0047055593382299,0.0969128121285687,0.0552962663290864,-0.6694981131440513,0.8303623733707753,-0.4208860693547471,1.1135032416961257,-1.2051682488554118,2.0108842896848955,-0.7538089179477321,0.9070829941883964,-0.4344296803145865,0.4377697437084404,-0.1105115785243138,0.3180853888185786,0.2797342040915834,10.672593721242263,-0.9836906499114828,0.2773148685868531,-0.8527228185660778
1.26,1.0938914139934002,-1.1805317719882742,1.9985563636845167,-0.0025679657788662,0.099428597477473,0.0554518662225233,-0.6702721702380626,0.8356985768942801,-0.4171784030737578,1.105965152516648,-1.1960974189135278,2.00653999288175,-0.7724397727331744,0.9270829944864196,-0.4361840221478799,0.3271888662540262,-0.0387028547005674,0.2668101761752361,0.1853833140494615,10.551978144766508,-0.9823902850187896,0.2767540705515179,-0.8533624936179683
1.28,1.0804889462699236,-1.1637696351329736,1.9902326277885207,-0.0011455365813413,0.1014873249063464,0.0555502982602823,-0.6699388038372063,0.8403307441864708,-0.4154612476381933,1.0908889741576937,-1.17795575902976,1.9978513992754576,-0.8097014823040591,0.967082995082466,-0.4396927058144668,0.2475718570938065,0.0166683200428174,0.2316083646095368,0.0858577717782277,10.304353376174731,-0.980981929297176,0.2764874545450856,-0.8542124123343712
1.3,1.0671016879911257,-1.1469223912304636,1.9819259502588369,-0.0007366923872166,0.1026963361713942,0.0555696787926174,-0.668907143677672,0.844316374665351,-0.4152866738901471,1.075812795798739,-1.159814099145992,1.989162805669166,-0.8469631918749438,1.0070829956785126,-0.4432013894810537,0.2060342750154462,0.0515830079767132,0.1992815239440115,0.0087286874023095,10.304353376174731,-0.9800270939349628,0.2767433261355663,-0.8545875299312667
1.32,1.0544058569988288,-1.130847323409434,1.9740291333568485,-0.0015310705762772,0.1029012898724174,0.0554982677955104,-0.6676755068347116,0.8477572719768766,-0.4159626573647486,1.05887353196124,-1.1396724392324218,1.980298777879545,-0.8842249014458285,1.047082996274559,-0.4467100731476405,0.1858336438816686,0.0615818421480229,0.1720448655762763,-0.0337991737300757,10.177617305590502,-0.9797177751040912,0.2777894023128508,-0.8540923423531018
1.34,1.041068075348054,-1.1138552706648588,1.96570330939936,-0.0038231453717089,0.1020363463118313,0.0553185264832854,-0.6662291931764612,0.8514502865066407,-0.416570878003778,1.0419342681237411,-1.1195307793188514,1.971434750089924,-0.9214866110167133,1.0870829968706055,-0.4502187568142274,0.2006247234317819,0.072315682912516,0.1846507264882058,-0.0304110319514688,10.184445678974951,-0.980496288925028,0.2797607533755358,-0.8523207425767161
1.36,1.027754599142545,-1.0967621939162255,1.9573706675217024,-0.0070055084290013,0.1000026455710939,0.0550830543962925,-0.6652941777775414,0.8578603815582694,-0.4166306822499496,1.02406346154697,-1.09838911939038,1.9624830052086384,-0.958748320587598,1.127082997466652,-0.4537274404808143,0.3239102843187916,0.0467507699459912,0.3205047525814353,-0.0029902123085817,10.184445678974951,-0.9821741019930844,0.2826013797439333,-0.8489830459403848
1.38,1.0144518967779612,-1.079517757936338,1.9490450230507927,-0.0098752986346326,0.096911873369848,0.0548833445632216,-0.6651441897130375,0.8661274945520615,-0.4159177723981427,1.0052611122309272,-1.0762474594470075,1.953443543235688,-0.9960100301584828,1.1670829980626982,-0.4572361241474012,0.4149575102598565,0.0074994032251973,0.4133556496896062,0.0356454925903443,10.21506288510318,-0.9851460512401174,0.2854575938166748,-0.8438020359382539
1.4,1.0018066450269971,-1.0629732079055862,1.9411550383199776,-0.0119390982648917,0.0931734679504055,0.0547544043843551,-0.6660579101513481,0.8747951068879047,-0.4146263293865677,0.9811946872923092,-1.036211383208735,1.9282491344308856,-0.7243676106310253,0.9661274960421776,-0.3982740115083741,0.440540048395133,-0.0456860219155308,0.4333806167921616,0.0645721505787538,10.284527833812716,-0.9892713405385372,0.2881680872477974,-0.8370028580196522
1.42,0.9883605421805152,-1.045324087771456,1.93298273529134,-0.011514570498082,0.092159493657383,0.0547649691590866,-0.6784000961697126,0.8891236189283528,-0.4020866066580532,0.9811946872923092,-1.036211383208735,1.9282491344308856,-0.7243676106310253,0.9661274960421776,-0.3982740115083741,1.1345488741270708,-0.6171093009182282,0.7164256020224025,0.6269861364257251,10.284527833812716,-0.9922361778684284,0.2891383102184883,-0.8320941843739986
1.44,0.9746928563426552,-1.0274187720825618,1.9250807015880336,-0.0077556063038145,0.0969945692204047,0.0549392917915042,-0.6870047264127345,0.9001005544342132,-0.3888146939493615,0.9811946872923092,-1.036211383208735,1.9282491344308856,-0.7243676106310253,0.9661274960421776,-0.3982740115083741,0.9626479648164176,-0.4302315121510913,0.5488467752930215,0.6635956354345829,11.100674846296895,-0.9925453551819692,0.2880173639925227,-0.8311058076441631
1.46,0.9609070606117092,-1.009341870802873,1.917419647801064,-0.0030299595381512,0.1050625538990612,0.0551734508088736,-0.6906381631032065,0.9069461638192106,-0.3779549596051046,0.973951011185999,-1.0265501082483133,1.9242663943158016,-0.7362122948146228,0.9861274963402008,-0.3947452593304204,0.6670795680866408,-0.1816718345236001,0.3422804692498671,0.5429867172128428,10.996043387390271,-0.98892198468266,0.2863174032234244,-0.8347264403590512
1.48,0.9477880712663888,-0.992065272739292,1.9103183336195029,0.0010290652092122,0.1139023075946018,0.0553891203454158,-0.689854018990505,0.9114587913612124,-0.370112899244252,0.9594636589733786,-1.0072275583274697,1.9163009140856344,-0.759901663181818,1.0261274969362473,-0.387687754974513,0.4540831422371156,0.0392072056350722,0.2256313771000884,0.3921030180426305,10.818408563292904,-0.9824491897177564,0.2843138217774901,-0.8419080812360669
1.5,0.9340348684063712,-0.9737974254831294,1.9029832290087405,0.004404335856185,0.1230285561214251,0.0555786247431973,-0.6852817883647723,0.9152540479447412,-0.3639240692729586,0.944976306760758,-0.987905008406626,1.908335433855467,-0.7835910315490131,1.066127497532294,-0.3806302506186055,0.4289839211534823,0.2286115312866377,0.1897628291764375,0.309441498564672,10.65844698840374,-0.97489258213177,0.2826235328106539,-0.8502206606215096
1.52,0.9204068668577344,-0.9554578586460916,1.8957525464418408,0.0067894269031957,0.1309552905931972,0.0557095402559093,-0.6776498476593208,0.9186899324251124,-0.3595424187842729,0.9293044861297778,-0.9665824584559802,1.9007228288430948,-0.8072803999162083,1.1061274981283402,-0.3735727462626981,0.4723628957141512,0.3815970352725739,0.1717942240185677,0.2190825244342831,10.544181716303685,-0.9675317114889948,0.281633455792897,-0.8577842463186933
1.54,0.9069585158565124,-0.9370534097698284,1.8886002804764803,0.0081821826329994,0.136974311486745,0.0557633416517361,-0.6676714350286527,0.9217666238320864,-0.355914434371758,0.9136326654987976,-0.9452599085053344,1.8931102238307227,-0.8309697682834034,1.1461274987243868,-0.3665152419067907,0.5527138037426699,0.498920631533406,0.1538345703487043,0.1813992206257442,10.4584499127659,-0.961900207986926,0.2815255708992543,-0.8628985184215655
1.56,0.8943789940830043,-0.9195058669303856,1.881872048093796,0.0088004209787096,0.1407203431501049,0.0557468274170751,-0.6571229325765775,0.9251990276617432,-0.3525058960981089,0.8973686106586374,-0.9229373585397872,1.8856740564272485,-0.8546591366505984,1.1861274993204332,-0.3594577375508832,0.5802379537616641,0.5274251226037585,0.1716201914828352,0.1704269136824587,10.438761823702407,-0.95748396128539,0.2821011735383422,-0.8661390185665396
1.58,0.8813582622192992,-0.9009620676282786,1.874862829983613,0.0089524542829275,0.1426841206413927,0.0556717435529866,-0.6456231076503632,0.9290001948335748,-0.3485711955291907,0.8805123216092974,-0.8996148085593392,1.8784143266326716,-0.8783485050177936,1.2261274999164795,-0.3524002331949758,0.6367431070864314,0.5749912463107132,0.1900583585915716,0.1967350284459101,10.448820009214614,-0.9552627952542446,0.2833836891690701,-0.8664914305533479
1.6,0.8685691069387953,-0.8823387351805139,1.8679376876712663,0.0087503807460854,0.1427648437417197,0.0555492336119175,-0.6339548872331511,0.9331354761608424,-0.3441070356003755,0.8490771068367811,-0.8545120578865999,1.8574342702071531,-0.6803238477791188,1.0290001963236908,-0.3341700996098796,0.657982984640059,0.583411020860608,0.2067640663633907,0.2232079964407607,10.47614013954444,-0.955045154638102,0.285095184713983,-0.8644214568869841
1.62,0.8559369986673874,-0.863588626297739,1.8610890279210277,0.0097830836699155,0.1432265556504575,0.0555107338735194,-0.6297687187191015,0.9413036245445072,-0.3410754585708599,0.8490771068367811,-0.8545120578865999,1.8574342702071531,-0.6803238477791188,1.0290001963236908,-0.3341700996098796,0.4833040299114833,0.2093084257024813,0.4084074191832376,0.1515788514757782,10.506889472055263,-0.9546577527040606,0.2880141222993422,-0.8600400292772135
1.64,0.8440302908164332,-0.8456534354586412,1.854640475687932,0.0122577744873315,0.1456386946406605,0.0555932143737709,-0.6235371301699238,0.9460451141597016,-0.3378725007653984,0.8490771068367811,-0.8545120578865999,1.8574342702071531,-0.6803238477791188,1.0290001963236908,-0.3341700996098796,0.4230051959515495,0.3115794274588801,0.2370744807597136,0.1601478902730768,10.40950942125346,-0.953393349363647,0.287026795508943,-0.8608228316182183
1.66,0.8316513278650115,-0.8267019211247442,1.8479164910863035,0.0148465520488214,0.1489288868652015,0.0556869916495815,-0.6145395046765157,0.9489173345763576,-0.3347146018298901,0.8422738683589899,-0.844222055923363,1.8540925692110544,-0.68726399580487,1.049000196621714,-0.3312898804260174,0.4979438731633523,0.449881274670405,0.1436110208328123,0.1578949467754109,10.43323643261283,-0.9505528756830196,0.2860819476735013,-0.8630497447038593
1.68,0.8194744834934214,-0.807703707409404,1.8412525547262215,0.016791302150858,0.1520735034579622,0.0557328566217817,-0.6035371683912422,0.9509015889114628,-0.3318511648701633,0.8286673914034075,-0.8236420519968892,1.8474091672188568,-0.7011442918563722,1.0890001972177603,-0.325529442058293,0.5770353980107296,0.5501168142636792,0.0992127167552536,0.1431718479863397,10.41070712292094,-0.947395614884428,0.2856709195912172,-0.8652821945513318
1.7,0.8075352490580585,-0.7886734816510744,1.834644737241659,0.0178085358502196,0.154396023205744,0.0556974875858931,-0.5910207851789131,0.9521871554274668,-0.3290709028345919,0.8150609144478251,-0.8030620480704154,1.8407257652266595,-0.7150245879078744,1.129000197813807,-0.3197690036905686,0.64428717776195,0.6258191606164532,0.0642783258001988,0.1390131017785734,10.41070712292094,-0.9448754123238834,0.2860242228236757,-0.8665001223195873
1.72,0.7964343978034737,-0.770576527524178,1.828420953495004,0.017627682146553,0.1554963841930271,0.0555603748388272,-0.5782512351127325,0.952862715803287,-0.326192964361524,0.8007604226896676,-0.7804820441141392,1.834330385152848,-0.7289048839593766,1.1690001984098533,-0.3140085653228441,0.6553631065463565,0.6384775033090317,0.0337780187910086,0.1438969236533943,10.414040954508891,-0.9431781596343164,0.2874145301831806,-0.8663032432110773
1.74,0.7850157553169869,-0.7515151973873084,1.821933461265284,0.0159382279775696,0.1553114463560759,0.0552855359578222,-0.5643639551884271,0.9533957229945592,-0.3226709872494073,0.7864599309315101,-0.757902040157863,1.8279350050790368,-0.7427851800108789,1.2090001990058998,-0.3082481269551197,0.7168419685332276,0.6943639962152692,0.0266503595636069,0.1760988556058357,10.433858215335931,-0.9428321828738564,0.2900779445836462,-0.8641775227188265
1.76,0.7738778542957664,-0.7324258963861168,1.8155264274131784,0.0129662875200486,0.1535354540057697,0.0549001548432898,-0.5502751290928515,0.9558381895711888,-0.3181825795345001,0.771812431772065,-0.7343220361866858,1.8216836359644184,-0.7566654760623811,1.2490001996019462,-0.3024876885873953,0.749343825530985,0.7044413047787801,0.1221233288314915,0.2244203857453608,10.464395981910457,-0.9442937566154956,0.2943036107243473,-0.8590860689108415
1.78,0.7630201900545376,-0.7132588041416262,1.8092220281681437,0.0098953023141778,0.1499550650000197,0.0544971748786848,-0.5363634167092742,0.9607058775723182,-0.312449030378417,0.7568179252113325,-0.7097420322006074,1.8155762778089928,-0.7705457721138833,1.2890002001979926,-0.2967272502196709,0.790733384025449,0.6955856191788623,0.2433844000564622,0.2866774578041547,10.512534235234853,-0.947727094352822,0.2990593125675189,-0.8511768199375036
1.8,0.7529556139807204,-0.6949466415750238,1.80335118869761,0.0075003416992695,0.144772048806394,0.0541495816194186,-0.5240905656844328,0.9664822855775004,-0.3057779420026329,0.7362020192190739,-0.6652235102630103,1.7935995766492223,-0.5750279886501731,1.0194966805279455,-0.2719953616946496,0.7557995465694045,0.6136425512420718,0.2888204002591155,0.3335544187892031,10.573755464814894,-0.9530716115231108,0.3044491328877212,-0.8398945896943539
1.82,0.7425656526283265,-0.6753588572227209,1.797352749767551,0.0117892566715912,0.1384675712783715,0.0542506814508452,-0.515638427318101,0.989331359087866,-0.2941613110134834,0.7362020192190739,-0.6652235102630103,1.7935995766492223,-0.5750279886501731,1.0194966805279455,-0.2719953616946496,1.3495044634825892,0.4226069183165926,1.1424536755182737,0.5808315494574751,10.63273249264239,-0.9621781379530812,0.3070043050495633,-0.8237744367027455
1.84,0.7323340473641695,-0.6554709901536245,1.7916049137640189,0.023069547380466,0.1323072258768256,0.0547648564630469,-0.5080531230223323,0.9971926539933632,-0.2811685096804056,0.7362020192190739,-0.6652235102630103,1.7935995766492223,-0.5750279886501731,1.0194966805279455,-0.2719953616946496,0.848748616098184,0.3792652147884323,0.3930647452748681,0.6496400666538893,10.910735447083423,-0.9695738060814052,0.3031241339306584,-0.8127934696767312
1.86,0.7222407909874553,-0.6355254645420862,1.7861072098007078,0.0351290828110472,0.126418759988817,0.055236756847217,-0.5018062204292252,0.9968127344441208,-0.269238096165904,0.7304517393325721,-0.6550285434577309,1.790879623032276,-0.5827609030383529,1.0312548411190712,-0.2639046279578962,0.6736150560569967,0.3123451296553559,-0.0189959774621217,0.5965206757250818,10.84187917439067,-0.9755379414288742,0.2980821961131067,-0.8046858197717297
1.88,0.7127538841572706,-0.6166333876073625,1.7810938587469944,0.0453436520349073,0.1212334932270047,0.0555247356610971,-0.497280496886365,0.9920954987797228,-0.2590576963119654,0.7189511795595687,-0.6346386098471719,1.785439715798383,-0.5982267318147124,1.0547711623013225,-0.2477231604843892,0.6049277375975165,0.2262861771430091,-0.2358617832199039,0.5090199926969269,10.84187917439067,-0.9810632471929204,0.2927758308999485,-0.7978011757475741
1.9,0.7028454664924162,-0.5968715389964563,1.776018801196852,0.0541550354269437,0.116423042158061,0.0556483513409166,-0.4939689320894822,0.9845665458943056,-0.2489899325131523,0.7074506197865652,-0.6142486762366131,1.77999980856449,-0.613692560591072,1.0782874834835732,-0.2315416930108823,0.6500220397484183,0.1655782398441385,-0.3764476442708608,0.5033881899406567,10.732392780369082,-0.9861182187407362,0.2882017493883525,-0.7918780927703392
1.92,0.6929883262160266,-0.5772796211461163,1.7711403264998484,0.0608591630424048,0.1125364664488209,0.0556213430837875,-0.4920537632370107,0.9753064292657,-0.2393523610008192,0.6951767685747438,-0.5926829265669415,1.7753689747042725,-0.6291583893674316,1.101803804665824,-0.2153602255373754,0.6750933571814093,0.0957584426235752,-0.4630058314302743,0.4818785756166524,10.732392780369082,-0.9902838955299922,0.2845253027920951,-0.7871947967673448
1.94,0.6831573858739857,-0.5578863232448817,1.76645477633038,0.0655073425505736,0.1098459121914943,0.0554905150946642,-0.491235633272814,0.9649841266273244,-0.2296469924484301,0.6829029173629223,-0.5711171768972702,1.7707381408440548,-0.6446242181437911,1.1253201258480752,-0.1991787580638684,0.7096010272227614,0.0409064982098361,-0.5161151319187873,0.4852684276194563,10.719176523361966,-0.9934049574359934,0.2818837066598373,-0.7839315512728716
1.96,0.6738250709992079,-0.5396531516723636,1.7621866730926814,0.0684446310542885,0.1086075633549283,0.0553330326712221,-0.4910585184719442,0.955129964807471,-0.2200889447950617,0.6702424204316919,-0.5489635191980424,1.7665118436706748,-0.6600900469201507,1.148836447030326,-0.1829972905903615,0.6864622163101984,0.0088557400434896,-0.4927080909926662,0.4779023826684214,10.719176523361966,-0.9961428930904168,0.2798937718957268,-0.7813827944037022
1.98,0.6640116527579341,-0.5206616046379773,1.7578946712685375,0.0703827060402096,0.1084351237712856,0.0551560814083459,-0.4902074318018096,0.9447194161301324,-0.2095808645217537,0.6571952777810525,-0.5262219534692584,1.7626900831841326,-0.6755558756965102,1.1723527682125772,-0.1668158231168546,0.7408164808398906,0.0425543335067307,-0.5205274338669241,0.5254040136654009,10.735439360515556,-0.9980307329124178,0.2785819094868703,-0.7798375723662302
2.0,0.6542234636333171,-0.5018819079860134,1.753816258581289,0.0712193001530381,0.1089375960782392,0.0549461137166183,-0.4885927773566754,0.9338734395219516,-0.1987661454281018,0.6395012811678435,-0.4734256338314706,1.7474156280424498,-0.5230936947848933,0.945947754121184,-0.1929568459718345,0.7700656897904823,0.08073272225671,-0.5422988304090437,0.5407359546825932,10.75790180570766,-0.9991776135929984,0.2780874671823797,-0.778813691821926
2.02,0.6444148087685315,-0.4831275690756696,1.7498405472373302,0.0768301376943907,0.1108824477405663,0.055172567636452,-0.4920684813676878,0.9393065066858052,-0.2002096881833695,0.6395012811678435,-0.4734256338314706,1.7474156280424498,-0.5230936947848933,0.945947754121184,-0.1929568459718345,0.330463889348734,-0.1737852005506218,0.271653358192675,-0.072177137763385,10.773676373954912,-0.996344728589048,0.2792095690617908,-0.7771049704501412
2.04,0.6350571045031336,-0.4653349074064061,1.7460090175606036,0.0868962895130933,0.1144304642730763,0.0558600865452813,-0.4925091327633809,0.9326487373786329,-0.2030307702900736,0.6395012811678435,-0.4734256338314706,1.7474156280424498,-0.5230936947848933,0.945947754121184,-0.1929568459718345,0.3622104707653346,-0.0220325697846551,-0.3328884653586161,-0.1410541053352046,9.932140209376485,-0.9930081107657815,0.2693301895474022,-0.7864660993831327
2.06,0.6252266189628467,-0.4468193010057449,1.7419127043194311,0.0977169145202414,0.1188252756588413,0.056683757746726,-0.4903301695138701,0.9191640670862334,-0.2064934960675787,0.6342703442199946,-0.4639661562902588,1.7454860595827315,-0.5296709473815101,0.9461934217193942,-0.1896320422618507,0.7045826487141812,0.1089481624755417,-0.6742335146199707,-0.1731362888752557,9.966354745733952,-0.987366215930516,0.2581435544005181,-0.7989286014990705
2.08,0.6154645935213579,-0.4286158840296645,1.7377430758220176,0.1071352348371651,0.12312299927035,0.0574268909137457,-0.485878520370773,0.9020166615074676,-0.210309554119295,0.6238084703242968,-0.4450472012078351,1.7416269226632948,-0.5428254525747436,0.9466847569158148,-0.1829824348418831,0.9061084333980048,0.2225824571548518,-0.8573702789382909,-0.1908029025858154,9.974265707689485,-0.980819334248608,0.2471570692538402,-0.8122039348690002
2.1,0.6058127971185762,-0.410781791655315,1.7334980423346216,0.1145480494419476,0.1267251817528752,0.0579711337270122,-0.4795563312896382,0.8826873046923461,-0.2139960424793596,0.6133465964285989,-0.4261282461254114,1.737767785743858,-0.555979957767977,0.9471760921122352,-0.1763328274219154,1.0334218718567891,0.3161094540567427,-0.9664678407560744,-0.1843244180032288,9.991456793475663,-0.9745542530523932,0.2375826835129377,-0.8243727414809303
2.12,0.5967732387245629,-0.3942082257161381,1.7294016382554442,0.1198081698533216,0.1291996010999103,0.058257533493012,-0.4723064967555817,0.863112764870813,-0.2169727807516157,0.6022269972732394,-0.4071847242831667,1.7342411291954198,-0.5691344629612105,0.9476674273086558,-0.1696832200019478,1.0542576543918212,0.3624917267028238,-0.978726991076656,-0.1488369136128042,10.03097911563782,-0.9683667676346356,0.2284396975525778,-0.8362928284343937
2.14,0.5874158175773582,-0.3771715984406486,1.7250336272762845,0.1235704686608608,0.1306038629567856,0.058283229985378,-0.4638965286045952,0.8418701976825587,-0.2196300765631907,0.5911073981178798,-0.388241202440922,1.7307144726469814,-0.5822889681544441,0.9481587625050764,-0.1630336125819801,1.1500385277006175,0.4204984075493245,-1.062128359412717,-0.132864790578753,10.092219624462814,-0.9634138227802792,0.221110508437685,-0.845775481869178
2.16,0.5782296705328314,-0.3605649549651824,1.720620236178813,0.1257679481818588,0.1307856640601462,0.0580346144547233,-0.4552295269971539,0.8201200497320393,-0.2215117788650099,0.5796589363326894,-0.3692853972187668,1.7273540562840424,-0.5954434733476776,0.948650097701497,-0.1563840051620124,1.1744431194033422,0.4333500803720636,-1.0875073975259664,-0.0940851150909596,10.136054669095756,-0.9599491299687042,0.2152902956619698,-0.8529495211065816
2.18,0.5696656422516534,-0.3451998853305022,1.716402863443378,0.126377736680934,0.129852141359477,0.0575421857721945,-0.4467845011320584,0.7986017467257,-0.2223059389597254,0.5678816119176682,-0.3503173086167011,1.7241598801066025,-0.608597978540911,0.9491414328979176,-0.1497343977420448,1.1564887768487055,0.4222512932547773,-1.0759151503169695,-0.0397080047357736,10.265894742522503,-0.957882264130296,0.2108161902741006,-0.8582360441703719
2.2,0.5608239864681983,-0.3294735036003771,1.7119583557602631,0.1252199243395786,0.1276662163857089,0.0567355398481958,-0.4379118717472776,0.7753429933190117,-0.2220248871949029,0.5473264171950505,-0.3052697979942172,1.705287566495392,-0.4741507276710742,0.7598161326524234,-0.178331438810237,1.2447611742090507,0.4436314692390392,-1.162937670334413,0.0140525882411271,10.265894742522503,-0.9571207356744073,0.2077412744255942,-0.8617524284799296
2.22,0.5521269779444177,-0.3140847347346974,1.707526476130908,0.1260790135557482,0.1248216486803266,0.0559808371639418,-0.4323970229894773,0.7638796892935442,-0.22134759372046,0.5473264171950505,-0.3052697979942172,1.705287566495392,-0.4741507276710742,0.7598161326524234,-0.178331438810237,0.636945096637522,0.2757424378900142,-0.5731652012733734,0.033864673722142,10.34146213981785,-0.958655008759608,0.2075844484506096,-0.8588522768419753
2.24,0.5435369647649488,-0.2989867973283794,1.7031237474254275,0.1307125779658255,0.122101131778112,0.0554812441373672,-0.4269310974657179,0.7457193249003754,-0.2190493982054734,0.5473264171950505,-0.3052697979942172,1.705287566495392,-0.4741507276710742,0.7598161326524234,-0.178331438810237,0.9551922311098736,0.2732962761879731,-0.9080182196584408,0.1149097757493292,10.267912069859449,-0.9589587333910116,0.2006247565433026,-0.8620106910217845
2.26,0.535477718831713,-0.2850356484564795,1.6989966131395906,0.1354419166945204,0.1196010007421497,0.0550088682159347,-0.4217700225215991,0.7238064629046221,-0.2154985555516127,0.5425849099183397,-0.297671636667693,1.7035042521072896,-0.4796239729788773,0.7520590098377681,-0.1695365387803393,1.139537953488403,0.2580537472059385,-1.0956430997876632,0.1775421326930357,10.414581669936524,-0.9598579326687716,0.1932608764513544,-0.8646128727555139
2.28,0.527098686536094,-0.270826344278176,1.6947398043197792,0.139577234498603,0.1170254076157458,0.0544285268041349,-0.4164803819552059,0.698417522949729,-0.2102695124989841,0.5331018953649183,-0.2824753140146445,1.6999376233310848,-0.4905704635944836,0.7365447642084575,-0.1519467387205439,1.3228014406941848,0.2644820283196597,-1.2694469977446554,0.2614521526314334,10.532186843350246,-0.961315522392316,0.1867054296790968,-0.8664183497620653
2.3000000000000003,0.5188236145927939,-0.2571422377227327,1.6906040656404355,0.1424291478817208,0.1144393937258231,0.0537295569789019,-0.4113743528582409,0.6715146737579313,-0.2034561121286713,0.5236188808114968,-0.267278991361596,1.6963709945548802,-0.5015169542100899,0.7210305185791469,-0.1343569386607485,1.410901531275167,0.2553014548482502,-1.3451424595898875,0.3406700185156389,10.642345512147584,-0.9634072952051396,0.1814001670427094,-0.8671941968142529
2.32,0.510648229528156,-0.2440076551623478,1.6866213160198522,0.1438189336050081,0.1117660656869566,0.0528951311939012,-0.4065054391188792,0.643491753812369,-0.1950570403155788,0.513588541727295,-0.2528583809900131,1.6936838557816651,-0.5124634448256962,0.7055162729498363,-0.1167671386009531,1.4828475735879096,0.2434456869680828,-1.4011459972781135,0.4199535906546217,10.746510012592807,-0.9658528966531296,0.1772504498008713,-0.8673813341682259
2.34,0.502567436599456,-0.2314475425172522,1.6828228567499846,0.1433423306895184,0.1089290685363948,0.0518942776302502,-0.4019395692394195,0.6142616462385924,-0.1851600588371454,0.5035582026430931,-0.2384377706184301,1.6909967170084503,-0.5234099354413025,0.6900020273205256,-0.0991773385411577,1.5598049548863218,0.2282934939729891,-1.461505378688832,0.4948490739216743,10.848116649116491,-0.9685279867538398,0.1746524609775665,-0.8669561995981656
2.36,0.4949691900553645,-0.2200661849014035,1.67941120102301,0.1406796440249376,0.1061059944230448,0.0507697764029239,-0.3982192873934873,0.5856990660663476,-0.1743819965010273,0.4932542012935012,-0.2244050163875799,1.6887493232367303,-0.5343564260569088,0.674487781691215,-0.0815875384813624,1.5377159286018414,0.1860140922966102,-1.428129008612239,0.5389031168059013,10.94055749708059,-0.971944152023776,0.1741742923070688,-0.8651491700409392
2.38,0.4870383410154458,-0.2086480226372934,1.676061041144086,0.1359262618829115,0.1031188037873638,0.0494602513017406,-0.3951891075703466,0.5581753897887429,-0.1610396067437319,0.4826765376785191,-0.2107601182974626,1.6869416744665051,-0.5453029166725152,0.6589735360619045,-0.063997738421567,1.5368426318515245,0.1515089911570316,-1.376183813880233,0.6671194878647715,11.031416901385455,-0.9767203364980592,0.1765106108682943,-0.8606005396008898
2.4,0.4791574670407871,-0.1977555885299408,1.672998428408563,0.1303329145990524,0.1002830136748618,0.0481344664001967,-0.3931698281415718,0.5328341325722106,-0.1458307380220652,0.4672788856369285,-0.1807392531478562,1.6680090608068994,-0.4069535864400828,0.5191360089403352,-0.1416716436680941,1.481187441310872,0.1009639714387389,-1.2670628608266177,0.760443436083337,11.12724059228458,-0.9812390703755058,0.1795398118855931,-0.8559377457870317
2.42,0.471620716323515,-0.1878050137620085,1.670205544906755,0.1258581953349593,0.0997692450040294,0.0472342284469939,-0.4002063066854597,0.5156323037462328,-0.1500144831225703,0.4672788856369285,-0.1807392531478562,1.6680090608068994,-0.4069535864400828,0.5191360089403352,-0.1416716436680941,0.952521218035108,-0.3518239271943946,-0.860091441298888,-0.2091872550252546,11.210936741043952,-0.9743300935464982,0.1841122268716864,-0.8590874036372332
2.44,0.4635605750551133,-0.1776893075938515,1.66715877008606,0.1224693633552947,0.1030161272926964,0.0468584503469503,-0.4049368551557559,0.4967312803434159,-0.1542107396485151,0.4672788856369285,-0.1807392531478562,1.6680090608068994,-0.4069535864400828,0.5191360089403352,-0.1416716436680941,0.9965381870946872,-0.2365274235148096,-0.9450511701408426,-0.2098128262972398,9.917873665050138,-0.9720853280684733,0.1799817592916299,-0.8681596421244473
2.46,0.4554448444712737,-0.1679575486272529,1.6640571425119928,0.119669799158409,0.1084218444833403,0.0467785459057745,-0.406060315333059,0.477397782186833,-0.1556488580660491,0.4632093497725276,-0.1755478930584529,1.6665923443702184,-0.4093064822140301,0.5113281327706536,-0.1377980510529665,0.9709718048473802,-0.056173008865154,-0.966674907829146,-0.0719059208767025,10.23757409045902,-0.967972708283418,0.1765542864989068,-0.8781742495337741
2.48,0.4473436484447159,-0.1586133450601203,1.660952380838948,0.1171365240225756,0.1146676219370278,0.0468035434218489,-0.4037912874207848,0.4580509421460853,-0.1547928705125945,0.455070278043726,-0.1651651728796462,1.6637589114968565,-0.4140122737619245,0.4957123804312905,-0.1300508658227114,0.9749120754209422,0.1134513956137089,-0.9673420020373856,0.0427993776727281,10.23757409045902,-0.9629821016814312,0.1742423119889874,-0.8875313401383608
2.5,0.4397185281229532,-0.1500930251092152,1.658034750837963,0.1148335039294226,0.1204515935433274,0.046802883303071,-0.3988811697359756,0.439866319929429,-0.1523925703450216,0.4469312063149243,-0.1547824527008395,1.6609254786234946,-0.418718065309819,0.4800966280919274,-0.1223036805924563,0.9494092659854836,0.24550588424046,-0.9092311108328172,0.1200150083786447,10.364462616223136,-0.957325788099166,0.1727303524836251,-0.8965252471275895
2.52,0.4318165955549565,-0.1414933549656106,1.6550262646406728,0.1124786223373682,0.1257157025307845,0.0466986322754418,-0.3914875283814208,0.4211190084072483,-0.1485356667979776,0.4385568450087279,-0.1451805201390009,1.6584794050116456,-0.4234238568577135,0.4644808757525643,-0.1145564953622011,1.0259182798360111,0.369682067727739,-0.9373655761090338,0.1928451773522035,10.559473907858774,-0.9519530507602284,0.1718405819410411,-0.9042969749147528
2.54,0.4240805359284581,-0.1332646730988893,1.6521000409794135,0.1101599503683638,0.1297115225119342,0.046442762854404,-0.3824890530989708,0.4027652215634671,-0.1442784847622257,0.4301824837025316,-0.1355785875771624,1.6560333313997964,-0.4281296484056079,0.4488651234132012,-0.106809310131946,1.0439799420982054,0.4499237641225034,-0.9176893421890596,0.2128591017875936,10.559473907858774,-0.9471272381943142,0.1715283799642269,-0.9106268886647804
2.56,0.4165358606351249,-0.1254014152149366,1.6492627604939003,0.1077483706182004,0.1322220161324103,0.0460088226842852,-0.3725513291258008,0.3846309472311975,-0.1396600142063484,0.4216904776076378,-0.1263670488238079,1.6537809374187036,-0.4328354399535025,0.4332493710738381,-0.0990621249016909,1.059410842874986,0.4968861986584999,-0.9067137166134804,0.2309235277938637,10.586746147046142,-0.9435761182338502,0.1716383206885403,-0.9150983639916972
2.58,0.4095562857859339,-0.1182634002520305,1.6466579344805603,0.1053071595380843,0.1332563074512822,0.0454369304161898,-0.3627729387319324,0.3677877922949417,-0.1347531408243856,0.4130808267240467,-0.1175459038789375,1.6517222230683672,-0.4375412315013969,0.4176336187344751,-0.0913149396714358,1.0042238212771992,0.4889195196934204,-0.8421577468127911,0.2453436690981414,10.615647867500227,-0.941073444304811,0.1721183368463367,-0.9182199613495212
2.6,0.4024092922637093,-0.1110890719444415,1.6440234675208607,0.1026222670685519,0.1330483739257892,0.0446911151732326,-0.3525228756766866,0.35064372533629,-0.1289109207112734,0.3914176388493373,-0.0998740106372834,1.639920277439341,-0.3505380693188545,0.3425521486845834,-0.1111161459409675,1.0405699884790296,0.5125031527622892,-0.8572033479325836,0.2921110056556097,10.652329628201189,-0.9400939336954898,0.1729497107708798,-0.9195534454551804
2.62,0.3954127892472748,-0.1042754642953832,1.6414486021398909,0.0989691073201274,0.1330547865342888,0.0439031531334814,-0.347658479273228,0.3322104464368128,-0.1291189462910544,0.3914176388493373,-0.0998740106372834,1.639920277439341,-0.3505380693188545,0.3425521486845834,-0.1111161459409675,0.9532725187449492,0.2432198201729296,-0.9216639449738606,-0.0104012789890473,10.693720605339877,-0.9340483528752695,0.1747831976626893,-0.9246213159729144
2.64,0.3885212028132063,-0.0977996243109356,1.6388794599031191,0.0944881140864214,0.1344943378183576,0.0432032852772678,-0.3415637615150771,0.3165257639274554,-0.1277456371908194,0.3914176388493373,-0.0998740106372834,1.639920277439341,-0.3505380693188545,0.3425521486845834,-0.1111161459409675,0.8441576094777081,0.3047358879075423,-0.784234125467867,0.0686654550117488,10.321915744248145,-0.9326814246283291,0.1756521692037888,-0.9278718246012712
