t,x,y,z,roll,pitch,yaw,v_x,v_y,v_z,ref_x,ref_y,ref_z,ref_v_x,ref_v_y,ref_v_z,a_com,a_x,a_y,a_z,thrust,wind_x,wind_y,wind_z
0.0,1.2164849042892456,0.4857636988162994,2.128123998641968,0.0190139365819169,0.0735947723663778,-2.1400380766695065e-05,-0.0064185261726379,0.0003057718276977,-0.005042552947998,1.216437116265297,0.4857488423585892,2.128283202648163,-0.1040099039673805,-0.0906071737408638,-0.100826121866703,0.4084063995360982,-0.320926308631897,0.0152885913848876,-0.2521276473999023,12.226443984570324,-0.8768386490337172,0.1899063333865436,-2.0370414383704487
0.02,1.2163033485412598,0.4856976568698883,2.128099203109741,0.0188000384174341,0.0751617726676586,-0.0002003835671425,-0.0087305903434753,-0.0011707842350006,-0.0041091442108154,1.216437116265297,0.4857488423585892,2.128283202648163,-0.1040099039673805,-0.0858236476778984,-0.100826121866703,0.1448888402104367,-0.1156032085418701,-0.0738278031349182,0.0466704368591308,10.774950733401056,-0.8824879272542766,0.1971849959504945,-2.003541213416469
0.04,1.216074824333191,0.4856468141078949,2.1281795501708984,0.0189954859469098,0.0771701846836762,0.0001935914527839,-0.0092267990112304,-0.0026299059391021,0.0012499094009399,1.216437116265297,0.4857488423585892,2.128283202648163,-0.1040099039673805,-0.0858236476778984,-0.100826121866703,0.2788131758140379,-0.0248104333877563,-0.0729560852050781,0.2679526805877685,10.791285319238796,-0.8959981948712269,0.1965829545501616,-1.9534039333984532
0.06,1.2157816886901855,0.4855979084968567,2.1281588077545166,0.0220546147132677,0.0727758572349686,0.0010911484870293,-0.0117373466491699,-0.0022443383932113,0.0013411045074462,1.216437116265297,0.4857488423585892,2.128283202648163,-0.1040099039673805,-0.0858236476778984,-0.100826121866703,0.1270809616175681,-0.1255273818969726,0.0192783772945404,0.0045597553253173,10.38041824098218,-0.8951708272904074,0.1933929875346818,-1.870824309537389
0.08,1.2154920101165771,0.4853892028331756,2.128180980682373,0.0313396463845756,0.063114593784464,0.0024765931065261,-0.0131133198738098,-0.0057962536811828,3.218650817871094e-05,1.2153970172256232,0.4848906058818102,2.127274941429496,-0.1240099042654037,-0.1030039340257644,-0.1208261221647262,0.2013868842344144,-0.0687986612319946,-0.1775957643985748,-0.0654458999633789,10.239619524238153,-0.90852305486827,0.1991905224780474,-1.9195532409833
0.1,1.215341567993164,0.4853773415088653,2.128044605255127,0.0474429050414597,0.0476461982048564,0.0042259909183178,-0.0133600831031799,-0.0056889653205871,-0.0026124715805053,1.2133168191462755,0.4831741329282522,2.125258418992162,-0.1640099048614502,-0.1373645067214965,-0.1608261227607727,0.1329155680284539,-0.0123381614685058,0.0053644180297851,-0.1322329044342041,10.029707257661356,-0.8994784828569105,0.1989383139606797,-1.983202692728752
0.12,1.2149616479873655,0.4852015674114227,2.1275343894958496,0.0693523226931161,0.0275777039684638,0.0058604809523158,-0.016079843044281,-0.0049379467964172,-0.0161844491958618,1.211236621066928,0.4814576599746942,2.123241896554828,-0.2040099054574966,-0.1717250794172287,-0.2008261233568191,0.6931083958382717,-0.1359879970550537,0.037550926208496,-0.6785988807678223,9.833606182725816,-0.8521322970421333,0.2383082946150921,-1.8573006053233625
0.14,1.2141714096069336,0.4846977889537811,2.1265649795532227,0.0874154745766697,0.0102544026901777,0.0064965228876284,-0.0263285636901855,-0.0152899324893951,-0.0332915782928466,1.2071564229577778,0.4780231583863497,2.119225374087692,-0.244009906053543,-0.2060856521129608,-0.2408261239528656,1.123447538390551,-0.512436032295227,-0.5175992846488953,-0.8553564548492432,9.953635887420203,-0.802757059250099,0.3024807888788273,-1.8396335888716644
0.16,1.2132636308670044,0.4840037226676941,2.125060796737671,0.1198626042214511,-0.0216760063157974,0.0069493724413323,-0.0382053852081298,-0.0269515067338943,-0.0556558370590209,1.203076224848628,0.4745886567980051,2.115208851620555,-0.2840099066495896,-0.2404462248086929,-0.2808261245489121,1.3939254583634284,-0.5938410758972168,-0.5830787122249603,-1.1182129383087158,9.946888775338266,-0.7824948950326422,0.3074098883592391,-1.814658065769115
0.18,1.2119961977005005,0.4828872382640838,2.1233279705047607,0.1451872764523274,-0.0487550378661226,0.0059575082697933,-0.0489422678947448,-0.0407373905181884,-0.072832703590393,1.1979960267245768,0.4702951408922672,2.1101923291385174,-0.324009907245636,-0.274806797504425,-0.3208261251449585,1.2251285497619897,-0.5368441343307495,-0.6892941892147064,-0.8588433265686035,10.160967887150946,-0.7301249364460166,0.3479162429898022,-1.7593120680538517
0.2,1.2112385034561155,0.4822274148464203,2.1225597858428955,0.1674916682393784,-0.0750660558962434,0.0039956079455505,-0.0573429465293884,-0.0494619458913803,-0.0750964879989624,1.1919158285856246,0.465142610669136,2.104175806641579,-0.3640099078416824,-0.3091673702001571,-0.3608261257410049,0.6160640953483022,-0.4200339317321777,-0.4362277686595917,-0.1131892204284668,10.18446298734034,-0.6485363203795662,0.3957744526346774,-1.6687372721393758
0.22,1.20904803276062,0.4804811477661133,2.1198809146881104,0.1809405428249436,-0.0935272527705296,0.0022218596458416,-0.0834864377975463,-0.0680463016033172,-0.1039999723434448,1.2083713561296463,0.4797543175518513,2.1188049614429474,-0.1573429480195045,-0.1276470869779586,-0.1750964894890785,2.158860706581017,-1.307174563407898,-0.9292177855968476,-1.445174217224121,10.106727542553015,-0.5338134329624548,0.493035460980806,-1.465550191139726
0.24,1.2062270641326904,0.4781564772129059,2.1166672706604004,0.19542843864271,-0.1152442195515587,-0.0009848159917862,-0.112757384777069,-0.0915960967540741,-0.1325815916061401,1.2083713561296463,0.4797543175518513,2.1188049614429474,-0.1573429480195045,-0.1276470869779586,-0.1750964894890785,2.360238414015793,-1.4635473489761353,-1.1774897575378418,-1.4290809631347656,13.597394089070804,-0.5160602822344343,0.5350280571699977,-1.462427396967434
0.26,1.2026182413101196,0.4747387766838074,2.11318302154541,0.2041829336683938,-0.1332716223474963,-0.0037164909583616,-0.144670307636261,-0.1292033493518829,-0.1507025957107544,1.2083713561296463,0.4797543175518513,2.1188049614429474,-0.1573429480195045,-0.1276470869779586,-0.1750964894890785,2.6273136866063305,-1.5956461429595947,-1.880362629890442,-0.9060502052307128,11.19467572057738,-0.4945361363728401,0.5571712718283244,-1.4712221318667087
0.28,1.1981271505355835,0.4709231853485107,2.109255790710449,0.2036354840393794,-0.142535950523867,-0.0053123044445383,-0.182248055934906,-0.1627490669488906,-0.1667582988739013,1.2067979266494513,0.4784778466820716,2.117053996548057,-0.1773429483175277,-0.1432841151952743,-0.1950964897871017,2.643476848942317,-1.878887414932251,-1.6772858798503876,-0.8027851581573486,11.638994740113958,-0.4687862712179766,0.5074369373629433,-1.4471887939083077
0.3,1.195492386817932,0.4688438177108764,2.1071879863739014,0.1927397035720809,-0.1393145284451721,-0.0058297014491436,-0.20212322473526,-0.1740921288728714,-0.1751482486724853,1.203651067689061,0.4759249049425125,2.1135520667582752,-0.2173429489135742,-0.1745581716299057,-0.2350964903831482,1.2186864304206655,-0.9937584400177002,-0.5671530961990356,-0.4194974899291992,12.051899447683354,-0.4735303784214492,0.4834127540865541,-1.4129048952134613
0.32,1.189463496208191,0.4635945856571197,2.102975606918335,0.1799274897101346,-0.1298928431486238,-0.0044400206122628,-0.2465459704399109,-0.2110368758440017,-0.1869338750839233,1.200504208728671,0.4733719632029533,2.1100501369684936,-0.2573429495096206,-0.205832228064537,-0.2750964909791946,2.948387548564007,-2.221137285232544,-1.8472373485565183,-0.5892813205718994,11.360013458442154,-0.3625054276271991,0.5950858130948428,-1.3052085460931049
0.34,1.182700753211975,0.4577697813510895,2.098939895629883,0.1530324873356177,-0.1068171862301669,-0.0023375022595364,-0.2878117561340332,-0.2491658180952072,-0.1855820417404174,1.1953573497384786,0.4692553186416626,2.10454820714891,-0.2973429501056671,-0.2371062844991683,-0.315096491575241,2.8100305868164512,-2.063289284706116,-1.906447112560272,0.0675916671752929,11.325217802488169,-0.3725973992647489,0.5931813690749858,-1.6284506380715706
0.36,1.174836277961731,0.4512515068054199,2.0949206352233887,0.1355604739087644,-0.0916637888321575,-0.0025024706132128,-0.3291124105453491,-0.2777192592620849,-0.1812368631362915,1.1902104907482862,0.4651386740803718,2.0990462773293257,-0.3373429507017136,-0.2683803409337997,-0.3550964921712876,2.519882752418777,-2.065032720565796,-1.427672058343887,0.2172589302062988,12.793145547925633,-0.4342063450150688,0.4892442955831917,-1.5688887243381728
0.38,1.1661518812179563,0.4442533254623413,2.090996265411377,0.1128236325800193,-0.0674900032373151,-0.0011971752970468,-0.3723496198654175,-0.3041202425956726,-0.1787316799163818,1.1840636317431923,0.4602401781082153,2.0925443474948406,-0.37734295129776,-0.2996543973684311,-0.395096492767334,2.5361112622147988,-2.161860466003418,-1.3200491666793823,0.1252591609954834,10.71144312065735,-0.5153633192789209,0.4413763725625529,-1.6048530223845707
0.4,1.161495804786682,0.4405876100063324,2.088901996612549,0.092421224420078,-0.042831781423408,0.0008665128691697,-0.3895238041877746,-0.3140001893043518,-0.1779860258102417,1.176916772723198,0.454559830725193,2.0850424176454547,-0.4173429518938064,-0.3309284538030624,-0.4350964933633804,0.9913651624787958,-0.8587092161178589,-0.4939973354339599,0.0372827053070068,11.53273552032033,-0.619115902038479,0.3889165421444354,-1.6338463967785182
0.42,1.151811957359314,0.4327743351459503,2.0851175785064697,0.0744907620202499,-0.015862473984894,0.0037018160407401,-0.4202806949615478,-0.3379650413990021,-0.1755827665328979,1.1420196145772934,0.4248876005411148,2.0800026953220367,-0.4895238056778908,-0.3298392575234175,-0.2779860273003578,1.9532512134531088,-1.5378445386886597,-1.1982426047325134,0.1201629638671875,10.881493079532902,-0.5857018414018289,0.4118245110630681,-1.653984127033792
0.44,1.1415342092514038,0.4247268736362457,2.081458330154419,0.0617402006616934,0.0072640045761435,0.0057522730598096,-0.4491358995437622,-0.3568665683269501,-0.1674824953079223,1.1420196145772934,0.4248876005411148,2.0800026953220367,-0.4895238056778908,-0.3298392575234175,-0.2779860273003578,1.7716552610535967,-1.4427602291107178,-0.9450763463974,0.4050135612487793,10.920889897101915,-0.7072405243719381,0.2955193277355956,-1.6209887129408576
0.46,1.13105571269989,0.416660338640213,2.0774245262146,0.0498352202479082,0.0300333678514536,0.007501764416204,-0.4670155048370361,-0.3625649213790893,-0.1730936765670776,1.1420196145772934,0.4248876005411148,2.0800026953220367,-0.4895238056778908,-0.3298392575234175,-0.2779860273003578,0.9793325125732188,-0.8939802646636963,-0.2849176526069641,-0.2805590629577636,10.466971330634806,-0.8128392577355619,0.2369113187433426,-1.7418765782366217
0.48,1.1202682256698608,0.4083828032016754,2.07329535484314,0.0339046421577523,0.0516306095087097,0.0082169880885774,-0.4784846305847168,-0.367741584777832,-0.1836669445037841,1.1371243765205146,0.4215892079658806,2.0772228350490334,-0.509523805975914,-0.3330070711672306,-0.297986027598381,0.8217856840767249,-0.5734562873840332,-0.2588331699371338,-0.5286633968353271,10.393160068930683,-0.8583976201506228,0.2394724346844647,-1.6552392743127788
0.5,1.1149537563323977,0.4041716456413269,2.071309328079224,0.0149849682970645,0.0711569418470567,0.0081283036561082,-0.482424795627594,-0.3719982504844665,-0.1827496290206909,1.1273339004069567,0.4149924228154122,2.071663114503026,-0.5495238065719604,-0.3393426984548569,-0.3379860281944274,0.2936220836324835,-0.1970082521438598,-0.212833285331726,0.045865774154663,10.05115804165871,-0.8918722109579059,0.226507867708031,-1.7128047525268344
0.52,1.1039437055587769,0.3958920240402221,2.06693172454834,-0.0055194128497296,0.0876736448322423,0.0074922354652858,-0.4889827966690063,-0.3741990029811859,-0.191085934638977,1.1175434242933988,0.4083956376649439,2.066103393957019,-0.5895238071680069,-0.3456783257424831,-0.3779860287904739,0.5416287487118159,-0.3279000520706177,-0.110037624835968,-0.4168152809143066,9.729831027299042,-0.904480889905686,0.1902621151558602,-1.6339567812110103
0.54,1.0931832790374756,0.3876463174819946,2.062316656112671,-0.0217309931881052,0.0984272382288416,0.0067545399025521,-0.4898357391357422,-0.3718198835849762,-0.2023351192474365,1.1057529481500386,0.4014820711500942,2.0585436733812097,-0.6295238077640534,-0.3520139530301094,-0.4179860293865203,0.5764804296508776,-0.0426471233367919,0.1189559698104858,-0.5624592304229736,9.519675901131905,-0.9484430043340332,0.1456077848307152,-1.6108189768421923
0.56,1.0823062658309937,0.3795515894889831,2.0569615364074707,-0.0473043677490425,0.1097110761358845,0.00567764671562,-0.486842393875122,-0.3676597774028778,-0.2243292331695556,1.0939624720066785,0.3945685046352445,2.0509839528054,-0.6695238083600998,-0.3583495803177356,-0.4579860299825669,1.1291674438660162,0.1496672630310058,0.2080053091049194,-1.099705696105957,9.524150683002516,-0.9589363630645568,0.1151931797266814,-1.5462700347439884
0.58,1.0718278884887695,0.3717972040176391,2.051590919494629,-0.0603338595003598,0.1131673945021725,0.0054552967381136,-0.4804962873458862,-0.356605052947998,-0.2413290739059448,1.0811719958484172,0.3874965474382043,2.0424242322146893,-0.7095238089561462,-0.3646852076053619,-0.4979860305786133,1.062396566631692,0.317305326461792,0.552736222743988,-0.849992036819458,9.28867265791996,-0.9536825480664718,0.0689025807416254,-1.5348518172990762
0.6,1.0665172338485718,0.3680261671543121,2.0483434200286865,-0.0748825553159488,0.1130235465026528,0.0047030262993084,-0.4768726229667663,-0.3495072722434997,-0.2558183670043945,1.0673815196752547,0.3802661995589733,2.0328645116090778,-0.7495238095521927,-0.3710208348929882,-0.5379860311746597,0.8268147449012275,0.1811832189559936,0.3548890352249145,-0.7244646549224854,9.261438596632615,-0.943013253979997,0.0486531249604354,-1.4887348601995036
0.62,1.056282639503479,0.360809326171875,2.0418875217437744,-0.0885068193234457,0.1063260577884646,0.0049105953228752,-0.4681447148323059,-0.334319919347763,-0.2814602851867676,1.0426736027002337,0.3505508035421371,2.035552501678467,-0.5768726244568825,-0.3444487452507019,-0.3435509353876114,1.5526912414053349,0.4363954067230224,0.7593676447868347,-1.2820959091186523,9.341825510365652,-0.9439662698895814,-0.0059844488615478,-1.3907296948499357
0.64,1.0460236072540283,0.354029506444931,2.034341812133789,-0.092949972106601,0.0995390571041924,0.0051869070769738,-0.4611065983772278,-0.3149248659610748,-0.3150361776351928,1.0426736027002337,0.3505508035421371,2.035552501678467,-0.5768726244568825,-0.3444487452507019,-0.3435509353876114,1.97043379285879,0.3519058227539062,0.9697526693344116,-1.6787946224212646,10.438045421469724,-0.8936034179733832,-0.0151131855619418,-1.320700852741959
0.66,1.036035656929016,0.3476836681365967,2.0261571407318115,-0.0959124114020772,0.0898191006328475,0.0065716719816924,-0.455557107925415,-0.2953273057937622,-0.353933572769165,1.0426736027002337,0.3505508035421371,2.035552501678467,-0.5768726244568825,-0.3444487452507019,-0.3435509353876114,2.195375000423937,0.2774745225906372,0.9798780083656312,-1.9448697566986084,10.626817103825031,-0.8474171011870364,-0.0003168708102902,-1.2996437107751777
0.68,1.031040072441101,0.3447008728981018,2.021735668182373,-0.0927037134074221,0.0791972204455349,0.0076020775178532,-0.4521507024765014,-0.2852871417999267,-0.3674197196960449,1.0369048764556643,0.3471063160896301,2.0321169923245908,-0.5968726247549057,-0.3434370398521423,-0.3610974490642547,0.8577363377502576,0.1703202724456787,0.5020081996917725,-0.6743073463439941,10.701053581645285,-0.8136091732069294,0.0059838931898055,-1.3118274203940667
0.7000000000000001,1.021174669265747,0.3391411602497101,2.0123205184936523,-0.0838236987508695,0.0658032222947043,0.0091686570808337,-0.4464751482009887,-0.262411892414093,-0.4046005010604858,1.025367423966527,0.3402173411846161,2.0252459736168382,-0.6368726253509521,-0.3414136290550232,-0.3961904764175415,2.2010789704533176,0.2837777137756347,1.143762469291687,-1.859039068222046,10.732517429978545,-0.7596171414440772,0.0201919378269411,-1.2304999110731272
0.72,1.0113481283187866,0.3339244723320007,2.002581119537353,-0.0757146892821947,0.0570128121398465,0.009981734582465,-0.4430687427520752,-0.2424690127372741,-0.4309773445129394,1.0138299714773893,0.333328366279602,2.018374954909086,-0.6768726259469986,-0.339390218257904,-0.4312835037708282,1.6621220761437074,0.1703202724456787,0.9971439838409424,-1.3188421726226809,11.00956750564592,-0.7089845806353615,0.0191914290469501,-1.1488702295100075
0.74,1.0015517473220823,0.3292808532714844,1.9922387599945068,-0.0601813358370634,0.0407422095803083,0.0106401748548123,-0.4415157437324524,-0.2218569070100784,-0.4518395662307739,1.0002925189584493,0.3265405619144439,2.0097492848336698,-0.7168726265430451,-0.3373668074607849,-0.466376531124115,1.4684200722784753,0.0776499509811401,1.030605286359787,-1.0431110858917236,11.153264057603336,-0.6779933892438705,0.0396187325293418,-1.2557593104385911
0.76,0.991680920124054,0.324940025806427,1.981667637825012,-0.0539138246943501,0.034093494736316,0.0110985830672539,-0.442512184381485,-0.2021500468254089,-0.4705533385276794,0.9867550664395094,0.3197527575492859,2.001123614758253,-0.7568726271390915,-0.3353433966636657,-0.5014695584774018,1.359741249177196,-0.0498220324516296,0.9853430092334748,-0.935688614845276,11.474630270713533,-0.6379743838918672,0.0798866571366469,-1.3244113334714345
0.78,0.981670618057251,0.3210804164409637,1.9706759452819824,-0.0402908980799979,0.0153911511071344,0.0107606196717452,-0.4473254084587097,-0.1845098286867141,-0.4851633310317993,0.9722176139056682,0.3130155384540558,1.991620618999004,-0.7968726277351379,-0.3333199858665466,-0.5365625858306885,1.1702524332048518,-0.2406612038612365,0.8820109069347382,-0.7304996252059937,11.82213206409324,-0.6093294551234099,0.1185581098880315,-1.380818343929938
0.8,0.976517617702484,0.3192826807498932,1.965124249458313,-0.0306705473787328,-0.0007111493464225,0.0102905125217572,-0.4509826004505157,-0.1755955070257187,-0.4890203475952148,0.956680161356926,0.3063289046287536,1.9812402975559236,-0.8368726283311844,-0.3312965750694275,-0.5716556131839752,0.5189334271153795,-0.1828595995903015,0.4457160830497741,-0.1928508281707763,11.929878939259652,-0.578940473387896,0.1608702938044538,-1.4004419286438194
0.8200000000000001,0.96618914604187,0.3157461583614349,1.954024195671081,-0.036805128706527,-0.0024399463764843,0.0099479860973232,-0.4613426327705383,-0.1627390086650848,-0.4954603314399719,0.9539684876799585,0.3105029053986072,1.940673232078552,-0.5509826019406319,-0.1943396367132663,-0.4868941674940288,0.8861337535745176,-0.5180016160011292,0.6428249180316925,-0.321999192237854,11.929878939259652,-0.5342232929791512,0.1520297988645976,-1.4107934864504026
0.84,0.9554270505905152,0.3126353919506073,1.9429699182510376,-0.0137217767780216,-0.0339686160042085,0.0090121683260543,-0.4745377600193023,-0.1495639979839325,-0.4984724521636963,0.9539684876799585,0.3105029053986072,1.940673232078552,-0.5509826019406319,-0.1943396367132663,-0.4868941674940288,0.9444114050744032,-0.6597563624382019,0.6587505340576172,-0.1506060361862182,14.383666161322251,-0.5287337038095797,0.1619907387408325,-1.4238853789887942
0.86,0.9444295167922974,0.3095512986183166,1.931855320930481,-0.005168764095326,-0.0473017817831656,0.0075376775792158,-0.4895916581153869,-0.1393843442201614,-0.4987996816635132,0.9539684876799585,0.3105029053986072,1.940673232078552,-0.5509826019406319,-0.1943396367132663,-0.4868941674940288,0.908779783257622,-0.7526949048042297,0.5089826881885529,-0.0163614749908447,13.746856046124776,-0.5072495422860437,0.1984135182274469,-1.4974688517788937
0.88,0.9328389167785645,0.3066780567169189,1.921144127845764,0.0025532237531167,-0.0532013437285946,0.0064460757177374,-0.5082330107688904,-0.1340400427579879,-0.4910802841186523,0.948458661660552,0.3085595090314746,1.935804290403612,-0.570982602238655,-0.1980884626507759,-0.4864689314737916,1.043612338618215,-0.9320676326751708,0.2672150731086731,0.385969877243042,13.304755591468163,-0.4630692488479153,0.2310612003523418,-1.545294608784786
0.9,0.9268200397491456,0.3054664134979248,1.9159111976623533,0.0080414122383473,-0.0500211353624452,0.0049558993097409,-0.5206328630447388,-0.1252558082342147,-0.4843854904174804,0.9374390096217392,0.3046727162972092,1.9260664070537317,-0.6109826028347015,-0.2055861145257949,-0.4856184594333171,0.8302700996253598,-0.6199926137924194,0.4392117261886596,0.3347396850585937,13.304755591468163,-0.4430458735534007,0.2385939072511299,-1.5686672141811095
0.92,0.9143822193145752,0.3026942908763885,1.9055936336517332,0.0137231055421233,-0.0410126369581127,0.0049463199367443,-0.545318603515625,-0.1216650009155273,-0.4724040627479553,0.9264193575829268,0.3007859235629439,1.9163285237038508,-0.650982603430748,-0.213083766400814,-0.4847679873928427,1.3836855574840263,-1.2342870235443115,0.1795403659343719,0.5990713834762573,13.430268329983846,-0.3927630334991653,0.2731699218511678,-1.6468820924671213
0.94,0.9015276432037354,0.3001323938369751,1.8961502313613887,0.0180861604503701,-0.0282775662506905,0.0045971455868497,-0.5690789222717285,-0.1200154423713684,-0.444621741771698,0.9133997055143116,0.2965242482349276,1.906633163955994,-0.6909826040267945,-0.2205814182758331,-0.4839175153523684,1.829707045957112,-1.1880159378051758,0.0824779272079467,1.3891160488128662,13.800054067144629,-0.4194215828625303,0.2891249445812429,-1.908679395933778
0.96,0.8881454467773438,0.2974884212017059,1.8872846364974976,0.0232183194914273,-0.0117795083128812,0.0042117355410964,-0.5903273820877075,-0.1171320676803588,-0.4119524359703064,0.9003800534456968,0.2922625729069113,1.896937804208137,-0.7309826046228409,-0.2280790701508522,-0.4830670433118939,1.953902783984446,-1.0624229907989502,0.144168734550476,1.63346529006958,14.843112361419116,-0.4695629357336963,0.2947608964078273,-1.98849201283184
0.98,0.8811626434326172,0.2961996793746948,1.8829290866851809,0.0295144043576735,0.0033918466131793,0.0034110512413765,-0.605225682258606,-0.114319771528244,-0.4010599851608276,0.8863604013621806,0.2878134562820196,1.887263706261292,-0.7709826052188873,-0.2355767220258712,-0.4822165712714195,0.9334262722174512,-0.7449150085449219,0.1406148076057434,0.544622540473938,13.548735795939136,-0.5244267965477716,0.3108505750183827,-1.9827374401628208
1.0,0.8673136234283447,0.2935321927070617,1.8752630949020384,0.0355163830845485,0.0192780291686405,0.0026868232481683,-0.6202098727226257,-0.1165218651294708,-0.3662556409835815,0.8713407492637634,0.2831768983602523,1.8776108701154588,-0.8109826058149338,-0.2430743739008903,-0.4813660992309451,1.8978392672318096,-0.7492095232009888,-0.1101046800613403,1.740217208862305,12.836039959935988,-0.6445158015953508,0.3573085057159918,-2.124472637657465
1.02,0.8530420064926147,0.2909371256828308,1.8681639432907104,0.0408621712853974,0.0314122334129492,0.0022420166764043,-0.6327143311500549,-0.1184074580669403,-0.3322157263755798,0.8363031297922134,0.2877060994505882,1.8569503128528595,-0.6947734728455544,-0.1244178460910916,-0.3529090359807014,1.8156491454912125,-0.62522292137146,-0.0942796468734741,1.7019957304000854,12.445326048414245,-0.6711085195076524,0.3602005443788595,-2.187159373639776
1.04,0.8385328650474548,0.2881354987621307,1.861371159553528,0.0490898534994748,0.0497617543191817,0.0015988345744812,-0.6475670337677002,-0.1214256137609481,-0.3125685453414917,0.8363031297922134,0.2877060994505882,1.8569503128528595,-0.6947734728455544,-0.1244178460910916,-0.3529090359807014,1.240689084166246,-0.7426351308822632,-0.1509077847003936,0.9823590517044068,13.635050469546968,-0.7202532722204678,0.3717037265712939,-2.203731757308555
1.06,0.8241050243377686,0.2852606177330017,1.8553277254104612,0.0542355045731077,0.0639912242935826,0.0015636991518066,-0.6510820984840393,-0.1277214288711547,-0.288814902305603,0.8363031297922134,0.2877060994505882,1.8569503128528595,-0.6947734728455544,-0.1244178460910916,-0.3529090359807014,1.241197531960949,-0.1757532358169555,-0.3147907555103302,1.1876821517944336,12.03584006944402,-0.8256490480579287,0.3929534873030518,-2.4561701080673104
1.08,0.8169525265693665,0.2838475704193115,1.8522404432296755,0.0534776891957457,0.0815312942380982,0.0016451193636191,-0.6516829133033752,-0.1267839968204498,-0.2794030308723449,0.8293553950637579,0.2864619209896773,1.8534212224930524,-0.7096861928701401,-0.1259970422834158,-0.3502397149801254,0.4738751976338328,-0.0300407409667968,0.0468716025352478,0.4705935716629028,11.857744300107695,-0.8320782546595628,0.4045782693221693,-2.400770156480435
1.1,0.8025287389755249,0.2806210219860077,1.846956729888916,0.0481696967368257,0.1006991348953726,0.0015450101344018,-0.6492407321929932,-0.1397149264812469,-0.2555957436561584,0.8154599256068469,0.2839735640678554,1.8463630417734385,-0.7395116329193115,-0.1291554346680641,-0.3449010729789734,1.3601103953929512,0.122109055519104,-0.646546483039856,1.1903643608093262,11.745846122652438,-0.8733119645079848,0.4460313579417642,-2.3806143599059264
1.12,0.7883501648902893,0.2774510085582733,1.841662168502808,0.0377422300577412,0.1192949411597447,0.0012978411783833,-0.6435531377792358,-0.1439226418733596,-0.2380111813545227,0.8015644561499358,0.2814852071460336,1.8393048610538243,-0.769337072968483,-0.1323138270527124,-0.3395624309778213,0.9477215181377582,0.2843797206878662,-0.2103857696056366,0.8792281150817871,11.745846122652438,-0.8971450416040021,0.4165255898156966,-2.272433816796009
1.14,0.7743521332740784,0.2741939723491668,1.836608648300171,0.0266768350503407,0.1347583242122142,0.0006644562719369,-0.6339735984802246,-0.1446086168289184,-0.2328318357467651,0.7861777146905661,0.2788389306049794,1.832513612434268,-0.7991625130176544,-0.1354722194373607,-0.3342237889766693,0.545581698157004,0.4789769649505615,-0.0342987477779388,0.2589672803878784,11.354628944368416,-0.95374123058573,0.4005322283128038,-2.3506085295271357
1.16,0.7606911063194275,0.2708659768104553,1.831894040107727,0.0144567648986795,0.1466880102632601,0.0003015326740012,-0.6223288178443909,-0.1481632143259048,-0.2197828888893127,0.7707909732311964,0.2761926540639251,1.8257223638147115,-0.8289879530668259,-0.1386306118220091,-0.3288851469755173,0.8923439548611385,0.582239031791687,-0.1777298748493194,0.6524473428726196,11.118509278101556,-0.984287354324371,0.3836814498425802,-2.3102778057376043
1.18,0.7475738525390625,0.2674945592880249,1.82685124874115,0.0034343981418381,0.153228473985736,-0.0002530794846191,-0.6025112867355347,-0.1507367938756942,-0.2195414900779724,0.7546585957705975,0.2734674177132546,1.819064581245184,-0.8588133931159974,-0.1417890042066574,-0.3235465049743652,0.9992698888885,0.99087655544281,-0.1286789774894714,0.0120699405670166,10.970899634625312,-0.9956780089775278,0.3396281086350322,-2.159208668452905
1.2,0.7410109639167786,0.2657981812953949,1.824320673942566,-0.0057760204586965,0.1549029830043985,-0.000489687601737,-0.5957038402557373,-0.1516956835985183,-0.2234441041946411,0.7377805823087693,0.270663221552968,1.8125402647256847,-0.8886388331651688,-0.1449473965913057,-0.3182078629732132,0.3952568595845776,0.3403723239898681,-0.0479444861412048,-0.195130705833435,11.070761303561994,-0.96506887201958,0.289648256578212,-2.0972079838075395
1.22,0.728503406047821,0.2626242637634277,1.8194714784622192,-0.0130279023255578,0.1510438384807045,-0.0004446631620485,-0.5754491686820984,-0.1461220532655716,-0.2224195003509521,0.7112257719039917,0.258213397115469,1.8131484687328336,-0.6166567411273718,-0.1723155919462442,-0.2314482564106583,1.0516259894573057,1.0127335786819458,0.2786815166473388,0.0512301921844482,11.16121132894932,-1.016852164676634,0.2418509901620622,-2.0523725569084657
1.24,0.7164128422737122,0.2594752907752991,1.8141738176345823,-0.018200775240109,0.142644062594173,-0.0004483073318513,-0.5534577369689941,-0.142265036702156,-0.2283042669296264,0.7112257719039917,0.258213397115469,1.8131484687328336,-0.6166567411273718,-0.1723155919462442,-0.2314482564106583,1.1544805360508152,1.0995715856552124,0.1928508281707763,-0.2942383289337158,11.63794363117222,-0.9820310835654252,0.2262308557890399,-1.9807590843722327
1.26,0.7045734524726868,0.2563650906085968,1.8089284896850584,-0.0213041271822647,0.1308167288164142,-0.0002498056261463,-0.5384239554405212,-0.1408313959836959,-0.2372172474861145,0.7112257719039917,0.258213397115469,1.8131484687328336,-0.6166567411273718,-0.1723155919462442,-0.2314482564106583,0.8767997706942753,0.751689076423645,0.0716820359230041,-0.4456490278244018,11.996784634058711,-0.920001090545909,0.1972723991830286,-1.9206884310398515
1.28,0.693271279335022,0.2537392377853393,1.803335785865784,-0.0211097202785284,0.122579273786202,-5.514268559991607e-05,-0.5206851959228516,-0.1290611922740936,-0.2438557147979736,0.705059204492718,0.2564902411960065,1.8108339861687277,-0.6208473213016987,-0.1764395736157894,-0.2330490868538618,1.1149781756181103,0.8869379758834839,0.5885101854801178,-0.3319233655929565,11.929212424543948,-0.8929238710654882,0.1526476851516713,-1.877525043493208
1.3,0.6876957416534424,0.2523751556873321,1.8004952669143677,-0.0156868497675767,0.1130716434386336,0.0004383273973586,-0.511916995048523,-0.1235740631818771,-0.2514436841011047,0.6927260696701706,0.2530439293570816,1.806205021040514,-0.6292284816503525,-0.1846875369548797,-0.2362507477402687,0.6414187602348514,0.4384100437164306,0.2743564546108246,-0.3793984651565552,11.71926571327458,-0.8416518190902943,0.1774174306913291,-1.832904918281589
1.32,0.6768174171447754,0.2497990280389785,1.794986605644226,-0.0081398443080441,0.1099667676551743,0.0007945123758182,-0.4973700642585754,-0.1185231283307075,-0.2500677108764648,0.6803929348476231,0.2495976175181567,1.8015760559123009,-0.6376096419990063,-0.1929355002939701,-0.2394524086266756,0.7730110616821863,0.7273465394973755,0.2525467425584793,0.0687986612319946,11.955126196299716,-0.7957828352686082,0.1685380928324914,-1.7730800176662969
1.34,0.6663867235183716,0.2475574612617492,1.7890667915344238,0.0013579672107812,0.1103132696719788,0.0009890150575447,-0.479452908039093,-0.1083981245756149,-0.2571406960487366,0.667640742007643,0.2457389075122773,1.7967870077397674,-0.64599080234766,-0.2011834636330604,-0.2426540695130825,1.0880800835429727,0.8958578109741211,0.506250187754631,-0.3536492586135864,12.14893827861215,-0.7957828352686082,0.1685380928324914,-1.7730800176662969
1.36,0.656111478805542,0.2452856451272964,1.7830328941345217,0.0124636416319597,0.1124318016744507,0.0014777247678896,-0.4658836126327514,-0.1015511155128479,-0.2689585089683532,0.6548885491676628,0.2418801975063979,1.791997959567234,-0.6543719626963138,-0.2094314269721508,-0.2458557303994894,0.9626370202901444,0.6784647703170776,0.3423504531383514,-0.590890645980835,11.797549951375911,-0.7536043275463629,0.2102389966469525,-1.8651591142270207
1.38,0.6510030627250671,0.2442090213298797,1.7800445556640625,0.0224864076323213,0.1159409626757077,0.0017783558194737,-0.4607163369655609,-0.0987039506435394,-0.2686125040054321,0.6419268273189663,0.2378152884170412,1.7871288698725405,-0.6627531230449677,-0.2176793903112411,-0.2490573912858963,0.2954945221494383,0.2583637833595276,0.1423582434654235,0.0173002481460571,12.017676020960607,-0.7346580627323298,0.2461047703722883,-1.938342200340437
1.4,0.641147792339325,0.2422013580799102,1.7742359638214111,0.0291124918094442,0.1182412906062931,0.0018757956270308,-0.4489615559577942,-0.0938853621482849,-0.2659517526626587,0.6287555764615536,0.2335441802442073,1.7821797386556864,-0.6711342833936215,-0.2259273536503314,-0.2522590521723032,0.6489862659086537,0.5877390503883362,0.2409294247627258,0.1330375671386718,11.96407291925334,-0.7392138902862151,0.2847224688836888,-1.901845131060388
1.42,0.6314719915390015,0.2399312406778335,1.768373727798462,0.0383360777614899,0.1204939180688862,0.0017516292746713,-0.4394491016864776,-0.0962500646710395,-0.2625936269760132,0.6186997145414352,0.237507089972496,1.7609383761882782,-0.4913911335170269,-0.110816853120923,-0.2343752682209015,0.5180627674623962,0.4756227135658264,-0.1182351261377334,0.1679062843322754,12.259660223059656,-0.8092740452300181,0.3119536743090828,-1.953782804436629
1.44,0.6222711801528931,0.2377732545137405,1.762604594230652,0.0449986829516813,0.1203204869515396,0.0014520349970454,-0.4247237741947174,-0.0996323302388191,-0.2617058157920837,0.6186997145414352,0.237507089972496,1.7609383761882782,-0.4913911335170269,-0.110816853120923,-0.2343752682209015,0.7567416976896535,0.7362663745880127,-0.169113278388977,0.0443905591964721,12.244827620854268,-0.8092740452300181,0.3119536743090828,-1.953782804436629
1.46,0.6132000088691711,0.2354470342397689,1.75688898563385,0.0500555205193113,0.1182350109356791,0.0013747289950202,-0.4111196100711822,-0.1008946448564529,-0.2584066987037658,0.6186997145414352,0.237507089972496,1.7609383761882782,-0.4913911335170269,-0.110816853120923,-0.2343752682209015,0.7027639953362794,0.6802082061767578,-0.0631157308816909,0.1649558544158935,12.486094095827866,-0.7830197904183004,0.3204234129149061,-1.9159252588198783
1.48,0.608834445476532,0.2343733459711074,1.754040241241455,0.0531783683884888,0.1153441887430678,0.0010100318026758,-0.4049719870090484,-0.1034454256296157,-0.2559015154838562,0.613785803206265,0.2363989214412868,1.7585946235060692,-0.4998770490288734,-0.1142031513154506,-0.22805997133255,0.3555829538663707,0.3073811531066894,-0.1275390386581421,0.1252591609954834,12.330505903992162,-0.772799026166388,0.3473701692974616,-1.9091156838077623
1.5,0.6002073287963867,0.2319614589214325,1.7484179735183716,0.0518303305613607,0.1115217624745265,5.645974262005992e-05,-0.391862690448761,-0.1048619672656059,-0.2527016401290893,0.6039579805359244,0.2341825843788683,1.753907118141651,-0.5168488800525666,-0.1209757477045059,-0.2154293775558471,0.6784162601200366,0.6554648280143738,-0.0708270817995071,0.1599937677383422,12.515619810142198,-0.8123689401905879,0.3663287891437853,-1.9170681952212445
1.52,0.5919253826141357,0.2293072491884231,1.7433757781982422,0.0476305185545728,0.107460017999495,-0.0009367801749266,-0.3804539144039154,-0.1139871776103973,-0.23995041847229,0.5941301578655839,0.2319662473164498,1.749219612777233,-0.5338207110762596,-0.1277483440935611,-0.2027987837791443,0.9695659962309922,0.570438802242279,-0.4562605172395706,0.6375610828399658,12.517273108255722,-0.7955982731791924,0.3908443922029621,-1.941684851588477
1.54,0.5839293599128723,0.2265475243330001,1.7383798360824585,0.0427913480322621,0.1036310578713466,-0.0015690498290929,-0.3662542998790741,-0.121813528239727,-0.2258580923080444,0.5834537436440587,0.2294112804345786,1.74516363710165,-0.5507925420999527,-0.1345209404826164,-0.1901681900024414,1.07409784650512,0.7099807262420654,-0.391317531466484,0.7046163082122803,12.714955298997666,-0.7908514437138224,0.3591900276502733,-1.9156491280474872
1.56,0.5761064887046814,0.2236996293067932,1.7337888479232788,0.033449368584352,0.0959655025197319,-0.0026525835029413,-0.3559251129627228,-0.1261714398860931,-0.215705931186676,0.5727773294225335,0.2268563135527074,1.7411076614260672,-0.5677643731236458,-0.1412935368716716,-0.1775375962257385,0.7562239610470581,0.5164593458175659,-0.2178955823183059,0.5076080560684204,12.589711074502702,-0.7527691041179677,0.3348983034284281,-1.885843248128048
1.58,0.5685822367668152,0.2208765298128128,1.7294373512268066,0.0265357609961855,0.0888244822603194,-0.003358581498628,-0.3453102707862854,-0.127597376704216,-0.2012059092521667,0.5616766194254159,0.2241320317611098,1.737367450594902,-0.5847362041473388,-0.1480661332607269,-0.1649070024490356,0.901330691729182,0.5307421088218689,-0.0712968409061431,0.7250010967254639,12.579926640129996,-0.7461982393120279,0.3178461589711633,-1.9005104905920664
1.6,0.5647588968276978,0.2193024009466171,1.727186679840088,0.0194937938087959,0.0797903488524236,-0.0040225544799435,-0.3434005379676819,-0.1301189959049224,-0.1993390917778015,0.5501516136527062,0.2212384350597858,1.7339430046081543,-0.601708035171032,-0.1548387296497821,-0.1522764086723327,0.1836481031376196,0.0954866409301757,-0.1260809600353241,0.0933408737182617,12.831499707834157,-0.726063507132281,0.3112939318449315,-1.9026357591866188
1.62,0.5572779178619385,0.2165211737155914,1.7232166528701782,0.0137781601455454,0.0699589112840899,-0.0042972182609446,-0.3396722674369812,-0.1292234659194946,-0.1879557967185974,0.5475888699293137,0.212796451151371,1.7172197252511978,-0.4014059491455555,-0.1388688562437892,-0.1782948430627584,0.6005859253882664,0.1864135265350341,0.0447764992713928,0.5691647529602051,12.903172219876067,-0.7453199005199778,0.2880455837365728,-1.9799447662355183
1.64,0.5500167012214661,0.2135342210531234,1.7198013067245483,0.0084658229858589,0.0595851386543193,-0.0044089005894624,-0.331699401140213,-0.1297840476036071,-0.1661708950996399,0.5475888699293137,0.212796451151371,1.7172197252511978,-0.4014059491455555,-0.1388688562437892,-0.1782948430627584,1.1602400477469763,0.3986433148384094,-0.0280290842056274,1.089245080947876,13.228704452310012,-0.7451675941605755,0.2786923680759424,-2.0297128469553503
1.66,0.5427846312522888,0.2105580568313598,1.716607928276062,0.0052249797129729,0.0520328891385689,-0.0043761350858211,-0.3260989487171173,-0.1341701298952102,-0.1486963033676147,0.5475888699293137,0.212796451151371,1.7172197252511978,-0.4014059491455555,-0.1388688562437892,-0.1782948430627584,0.9433505994764544,0.2800226211547851,-0.2193041145801544,0.8737295866012573,13.264635390886724,-0.6879661808730287,0.2573390710163988,-1.963153626280704
1.68,0.5354433655738831,0.2076923996210098,1.7136486768722534,0.0010417479926438,0.0416831743828383,-0.0042479332423826,-0.3279000520706177,-0.131440982222557,-0.1384341716766357,0.5435748104378582,0.2114077625889331,1.7154367768205705,-0.4130070313811302,-0.1406188283115625,-0.1740859933197498,0.5385247606938195,-0.0900551676750183,0.1364573836326599,0.5131065845489502,12.346976551309126,-0.6492426282565373,0.2089140366126402,-1.9488623414426964
1.7,0.5318689346313477,0.2065012902021408,1.7121717929840088,-0.0014150330293575,0.0379197587996909,-0.0038754499662333,-0.3285706043243408,-0.1233024895191192,-0.1365700364112854,0.535546691454947,0.2086303854640573,1.711870879959315,-0.4362091958522797,-0.1441187724471092,-0.1656682938337326,0.4188069486541692,-0.0335276126861572,0.4069246351718902,0.093206763267517,11.916034821176254,-0.6481588903961065,0.202603618992267,-2.0145317940031084
1.72,0.524485170841217,0.2038671225309372,1.709690809249878,-0.0037199029096775,0.038033961618415,-0.0032180094403171,-0.3293994069099426,-0.1207379624247551,-0.1205384731292724,0.5275185724720359,0.2058530083391815,1.70830498309806,-0.4594113603234291,-0.1476187165826559,-0.1572505943477153,0.8128264485866796,-0.0414401292800903,0.1282263547182083,0.801578164100647,11.980393791269307,-0.6370253860919718,0.2250904730829896,-2.137228699097373
1.74,0.5169651508331299,0.2013579905033111,1.7076369524002075,-0.0060746998180661,0.0393858924827822,-0.0029926920768125,-0.3353351354598999,-0.1157242432236671,-0.1020339131355285,0.5183303452655673,0.2029006340075284,1.7051599712111056,-0.4826135247945785,-0.1511186607182026,-0.1488328948616981,1.0034801869097902,-0.2967864274978637,0.2506859600543976,0.9252279996871948,12.382350271521773,-0.6257336530833091,0.207613886154006,-2.19311886365756
1.76,0.509476363658905,0.1990709900856018,1.705594539642334,-0.0075849284052627,0.0414245996447548,-0.0028262868381998,-0.3376981616020202,-0.1079129800200462,-0.0921660661697387,0.5091421180590987,0.1999482596758753,1.7020149593241514,-0.5058156892657281,-0.1546186048537493,-0.1404151953756809,0.6402619173526432,-0.118151307106018,0.3905631601810455,0.4933923482894897,12.701204616468658,-0.6435408557282889,0.2043551954399752,-2.2194330043009063
1.78,0.5018607974052429,0.1969078481197357,1.7035295963287354,-0.0068910874446723,0.0437613786952887,-0.0019794167955391,-0.3398479521274566,-0.1001282036304473,-0.0924155116081237,0.4993738367408514,0.1969083867408335,1.6990803899243474,-0.5290178537368775,-0.1581185489892959,-0.1319974958896637,0.4040005128896585,-0.10748952627182,0.3892388194799423,-0.0124722719192504,12.01275314520717,-0.6381847488703387,0.2172777549828909,-2.1854830493254878
1.8,0.4980167150497436,0.1959317624568939,1.7026758193969729,-0.0063086433875977,0.0448461317743161,-0.0016271192014808,-0.34538134932518,-0.0968056172132492,-0.0848597288131713,0.4890255013108254,0.193781015202403,1.696356263011694,-0.5522200182080269,-0.1616184931248426,-0.1235797964036464,0.4968599367327312,-0.2766698598861694,0.166129320859909,0.3777891397476196,11.811541885794211,-0.6470306421026171,0.2256362299739995,-2.197538963864321
1.82,0.4902454912662506,0.1940251737833023,1.7008992433547974,-0.0033998984407402,0.0469730973043293,-0.0010366968141845,-0.347404420375824,-0.0900759547948837,-0.0822901725769043,0.4807476475834846,0.1910914815962314,1.698432832956314,-0.4040678814053535,-0.0891340193338692,-0.0968923894688487,0.3741115876060687,-0.101153552532196,0.3364831209182739,0.1284778118133545,11.718717281290084,-0.6662987019789323,0.2100030222227308,-2.142697504337635
1.84,0.4823159575462341,0.1923959851264953,1.6994260549545288,0.0004840243353778,0.0471839273999749,-0.0002854595269357,-0.3532670438289642,-0.0795549899339675,-0.0731196999549865,0.4807476475834846,0.1910914815962314,1.698432832956314,-0.4040678814053535,-0.0891340193338692,-0.0968923894688487,0.7568993055012088,-0.2931311726570129,0.5260482430458069,0.4585236310958862,12.179652025024552,-0.6718058436587642,0.2201376106418603,-2.1826521025333774
1.86,0.474573940038681,0.1907570511102676,1.6979042291641235,0.0036056287234034,0.0463647187138833,8.267456696871265e-05,-0.3526099026203155,-0.07353276014328,-0.0673878192901611,0.4807476475834846,0.1910914815962314,1.698432832956314,-0.4040678814053535,-0.0891340193338692,-0.0968923894688487,0.4169938314164513,0.032857060432434,0.301111489534378,0.286594033241272,11.598545004595508,-0.7014109526584749,0.2561289729978563,-2.2194755043175496
1.88,0.4666301608085632,0.1892191618680954,1.6963907480239868,0.0076683845324549,0.0464337598014593,0.0004097720528201,-0.3529304265975952,-0.0714785233139991,-0.0682944059371948,0.4767069687694311,0.1902001414028927,1.6974639090616257,-0.4158051878213882,-0.0875996997579932,-0.0992989215999841,0.1134077148981146,-0.0160261988639831,0.1027118414640426,-0.0453293323516845,11.436579525263369,-0.6782272112082902,0.2680902233803967,-2.173188310794968
1.9,0.4625594615936279,0.1886162310838699,1.6956411600112915,0.0094733413570228,0.0487902213597082,0.0007132910221978,-0.3580353260040283,-0.0662180408835411,-0.0696006417274475,0.468625611141324,0.1884174610162154,1.6955260612722487,-0.4392798006534576,-0.0845310606062412,-0.104111985862255,0.3722866009229185,-0.2552449703216553,0.2630241215229034,-0.0653117895126342,11.578832642876025,-0.6614546349561796,0.2599842238092814,-2.147498961994549
1.92,0.4545275568962097,0.1872535049915313,1.6945245265960691,0.0094185529039773,0.0516410294719899,0.0007461485589044,-0.3604721426963806,-0.0615030527114868,-0.0577560067176818,0.460544253513217,0.186634780629538,1.6935882134828717,-0.462754413485527,-0.0814624214544892,-0.108925050124526,0.6489695053877804,-0.1218408346176147,0.2357494086027145,0.5922317504882812,11.833857180691211,-0.6764250509548404,0.2738297997238174,-2.1142223082197344
1.94,0.4464820921421051,0.1859112083911895,1.6932727098464966,0.0085609875375011,0.0551877828614743,0.0010059409475953,-0.3617408275604248,-0.060863010585308,-0.0532901287078857,0.4512891652435064,0.1850055322004482,1.6914097124803813,-0.4862290263175964,-0.0783937823027372,-0.1137381143867969,0.2343249965641682,-0.0634342432022094,0.032002106308937,0.2232939004898071,11.21811360180618,-0.6972666203564908,0.2794799633122565,-2.098217359633592
1.96,0.4384917020797729,0.1848870515823364,1.691933035850525,0.0064808789682809,0.0584800363642656,0.0008108161962032,-0.3608067333698272,-0.0532452017068862,-0.0583085417747497,0.4420340769737959,0.1833762837713584,1.689231211477891,-0.5097036391496659,-0.0753251431509852,-0.1185511786490678,0.4584975838942373,0.0467047095298767,0.3808904439210892,-0.2509206533432007,11.19551146563208,-0.6923188155550577,0.2638729166198053,-2.014457585579689
1.98,0.4303247332572937,0.1838064789772033,1.690792202949524,0.0039813755212867,0.0614062446697396,0.0006003664772852,-0.3635405898094177,-0.0473564118146896,-0.0558114051818847,0.4321921233832836,0.1818237513210624,1.6869323838688437,-0.5331782519817352,-0.0722565039992332,-0.1233642429113388,0.347805651873834,-0.1366928219795227,0.2944394946098327,0.1248568296432495,11.199003650425766,-0.6764230136700708,0.2885836618643683,-1.9778653440690432
2.0,0.4263127148151397,0.1833680868148803,1.690129041671753,0.0019105016604547,0.0638802715822386,0.0006409419433762,-0.3652598857879638,-0.0452505424618721,-0.0551274418830871,0.4217633044719696,0.1803479348495602,1.6845132296532392,-0.5566528648138046,-0.0691878648474812,-0.1281773071736097,0.1401648153700063,-0.0859647989273071,0.1052934676408767,0.0341981649398803,11.42769363274283,-0.6986729708264084,0.2945600984576804,-1.9371924606045683
2.02,0.4181097149848938,0.182338148355484,1.6887751817703247,-0.000412894608728,0.065689937148939,0.000746751345446,-0.3643157482147217,-0.042898915708065,-0.059998333454132,0.4080497205257415,0.1811055596917867,1.6873726695775986,-0.3860285524278879,-0.0575912436470389,-0.068822793662548,0.2745320056173109,0.0472068786621093,0.1175813376903534,-0.2435445785522461,11.200206233296283,-0.7077418517640844,0.2551665277740244,-1.8922154675362688
2.04,0.4099893271923065,0.1815134733915329,1.6874606609344482,-0.0020504025693207,0.0663822757128857,0.0009997510044814,-0.3672762215137481,-0.0417288020253181,-0.0600385665893554,0.4080497205257415,0.1811055596917867,1.6873726695775986,-0.3860285524278879,-0.0575912436470389,-0.068822793662548,0.1591790414122582,-0.1480236649513244,0.0585056841373443,-0.0020116567611694,11.80468557727636,-0.7077418517640844,0.2551665277740244,-1.8922154675362688
2.06,0.4019839167594909,0.1808420419692993,1.6859301328659058,-0.0010802878681067,0.0675417095354322,0.0010103543059056,-0.3628304600715637,-0.0336623936891555,-0.0640136003494262,0.4080497205257415,0.1811055596917867,1.6873726695775986,-0.3860285524278879,-0.0575912436470389,-0.068822793662548,0.5015790855892756,0.2222880721092224,0.4033204168081283,-0.19875168800354,11.80468557727636,-0.7077418517640844,0.2551665277740244,-1.8922154675362688
2.08,0.3979814350605011,0.1805492341518402,1.685233235359192,0.0015056565639225,0.0713493606167548,0.001180280379781,-0.3623067736625671,-0.0320228934288024,-0.0645339488983154,0.4041894350014627,0.1805296472553163,1.6866844416409732,-0.3901822857558727,-0.0600593838840723,-0.0715618640184402,0.0899023243720182,0.0261843204498291,0.0819750130176544,-0.026017427444458,11.636670705738652,-0.7124000283769383,0.2383585037289413,-1.7764040782433876
2.1,0.3897829055786133,0.1800257712602615,1.683462619781494,0.0045690972639635,0.0765944872429566,0.0012467254811989,-0.3625857234001159,-0.0278161838650703,-0.0722774863243103,0.3964688639529049,0.1793778223823756,1.6853079857677222,-0.3984897524118423,-0.064995664358139,-0.0770400047302246,0.4408417805104723,-0.0139474868774414,0.2103354781866073,-0.3871768712997436,11.897981269257343,-0.7124000283769383,0.2383585037289413,-1.7764040782433876
2.12,0.3819990158081054,0.1795730143785476,1.6819806098937988,0.0106053689489334,0.0848690489568937,0.0018521298002104,-0.3596044182777405,-0.0219649448990821,-0.073184072971344,0.3887482929043471,0.1782259975094348,1.6839315298944713,-0.4067972190678119,-0.0699319448322057,-0.0825181454420089,0.3314629580299294,0.1490652561187744,0.2925619482994079,-0.0453293323516845,11.72685753829819,-0.7333890494508786,0.2304781052757561,-1.7656367073615449
2.14,0.374207079410553,0.1791289895772934,1.6803393363952637,0.0197412909229771,0.0983505245117226,0.0019943549712019,-0.3504560887813568,-0.0201775878667831,-0.0702738761901855,0.3806123485229909,0.1768273586127907,1.682281166985631,-0.4151046857237815,-0.0748682253062725,-0.0879962861537933,0.4882515310789543,0.4574164748191833,0.089367851614952,0.1455098390579223,11.479775747401618,-0.7347836950129296,0.2649757611135572,-1.766556623562724
2.16,0.3666446506977081,0.1787603795528412,1.6789181232452393,0.0290870642121165,0.11028868541949,0.002182728687864,-0.3454732298851013,-0.0182842835783958,-0.0689059495925903,0.3724764041416347,0.1754287197161466,1.6806308040767908,-0.4234121523797512,-0.0798045057803392,-0.0934744268655777,0.275157714251421,0.2491429448127746,0.0946652144193649,0.0683963298797607,11.273388107962091,-0.7347836950129296,0.2649757611135572,-1.766556623562724
2.18,0.3593341410160064,0.1783203184604644,1.6771652698516846,0.0362831203031373,0.1186589206010342,0.0022971402728474,-0.3346410989761352,-0.0181951001286506,-0.0714164972305297,0.3641327730938792,0.1739066738076508,1.678843487650156,-0.4317196190357208,-0.0847407862544059,-0.098952567577362,0.5559808071306279,0.5416065454483032,0.0044591724872589,-0.1255273818969726,11.167057540706992,-0.7757748679712482,0.2830379574244539,-1.7674369434983486
2.2,0.3557316362857818,0.1781267374753952,1.676452875137329,0.0469431296974722,0.1303805930264847,0.0025216593072317,-0.3304314017295837,-0.0193105638027191,-0.0714728236198425,0.3555814553797245,0.1722612208873033,1.6769192177057266,-0.4400270856916904,-0.0896770667284727,-0.1044307082891464,0.2177669785454322,0.2104848623275756,-0.0557731837034225,-0.0028163194656372,11.2575431758396,-0.7796104883576305,0.302442154489411,-1.7935648243844668
2.22,0.3487188816070556,0.1774738878011703,1.6749879121780396,0.052261374850561,0.1344007860730489,0.0026147176286164,-0.3211422264575958,-0.027163065969944,-0.070236325263977,0.3392100661993026,0.1771612092852592,1.672879233956337,-0.3311001533875242,-0.0378553327172994,-0.0606987308710813,0.6113090374435038,0.4644587635993957,-0.3926251083612442,0.0618249177932739,11.10072719769505,-0.85130595840995,0.3220005532096537,-1.814068875732334
2.24,0.3421620726585388,0.1768721342086792,1.673541784286499,0.0594425970353382,0.1358020499138681,0.002595605703653,-0.3053151965141296,-0.02822857350111,-0.0654995441436767,0.3392100661993026,0.1771612092852592,1.672879233956337,-0.3311001533875242,-0.0378553327172994,-0.0606987308710813,0.8277488727143942,0.7913514971733093,-0.0532753765583038,0.2368390560150146,11.83091324527959,-0.8701345338787886,0.3089520773011323,-1.7569680826604577
2.26,0.3359170854091644,0.1759695708751678,1.6722187995910645,0.061834394466442,0.1342996203749135,0.0024711126380682,-0.2880403995513916,-0.0338471308350563,-0.0623050332069397,0.3392100661993026,0.1771612092852592,1.672879233956337,-0.3311001533875242,-0.0378553327172994,-0.0606987308710813,0.922214314494734,0.8637398481369019,-0.2809278666973114,0.159725546836853,11.407421609063933,-0.8631589746916891,0.3416642972267647,-1.7030479484422252
2.28,0.3299805521965027,0.1750328540802002,1.670994997024536,0.0619598303442163,0.1291519647990757,0.0015745792411212,-0.274084210395813,-0.0413838028907775,-0.057302713394165,0.3358990646654274,0.1767826559580862,1.672272246647626,-0.3312339037191122,-0.0415642865002155,-0.0585439123213291,0.8315645569212562,0.6978094577789307,-0.3768336027860641,0.2501159906387329,11.407421609063933,-0.8230443813063244,0.3532927738650481,-1.5963106649168497
2.3000000000000003,0.3271736800670624,0.1743117272853851,1.67050302028656,0.0590134998005486,0.1216028546027286,0.000479318353058,-0.2659350037574768,-0.0482039898633956,-0.0527161359786987,0.3292770615976769,0.1760255493037402,1.6710582720302043,-0.3315014043822885,-0.0489821940660476,-0.0542342752218246,0.5787080688132786,0.4074603319168091,-0.3410093486309051,0.2293288707733154,11.417859953944571,-0.8104964550583248,0.3491259531061678,-1.5269701641632665
2.32,0.3217823803424835,0.173084944486618,1.6693572998046875,0.0548649375751285,0.1138714260741073,-0.000474293173041,-0.2503902316093445,-0.0544806942343711,-0.0509217381477355,0.3226550585299264,0.1752684426493942,1.669844297412783,-0.3317689050454646,-0.0564001016318798,-0.0499246381223201,0.8429958814753168,0.7772386074066162,-0.3138352185487747,0.0897198915481567,11.68306314747906,-0.8247263811906332,0.3463888999250576,-1.45199299064869
2.34,0.3166276216506958,0.1713490933179855,1.668776035308838,0.0491948561298417,0.1063662353956573,-0.0014533092457204,-0.2372863143682479,-0.0666592642664909,-0.0388571619987487,0.3160196804290171,0.1741404406167566,1.6688458046503365,-0.3320364057086408,-0.0638180091977119,-0.0456150010228157,1.0788700254704606,0.6551958620548248,-0.6089285016059875,0.6032288074493408,11.68306314747906,-0.7867888438436801,0.3457668827132554,-1.4855137908372913
2.36,0.3118472993373871,0.1695875078439712,1.6680105924606323,0.0438925343116084,0.1003047743116877,-0.0019790807319604,-0.2235393226146698,-0.0786923244595527,-0.0303009152412414,0.3093843023281079,0.173012438584119,1.6678473118878905,-0.332303906371817,-0.071235916763544,-0.0413053639233112,1.0086918241689955,0.6873495876789093,-0.6016530096530914,0.4278123378753662,11.497044545352765,-0.7591234941161438,0.2983824876546673,-1.4158540685936245
2.38,0.3072174191474914,0.1677644848823547,1.6674667596817017,0.0379654665652924,0.0952040411313502,-0.0024042358974499,-0.2117295563220977,-0.0806536898016929,-0.0294587016105651,0.3027422367106192,0.1716989888623357,1.6669565600529317,-0.3325714070349931,-0.0786538243293762,-0.0369957268238067,0.6000559509125294,0.5904883146286011,-0.0980682671070098,0.0421106815338134,11.35433621374159,-0.7204841047151174,0.2547538850688307,-1.3951212300155236
2.4,0.3050133883953094,0.166764885187149,1.667406439781189,0.0323851937340194,0.090864627096818,-0.0024318288166834,-0.2051635086536407,-0.0842662900686264,-0.0205296277999877,0.2960934835765511,0.1702000914514065,1.66617354914546,-0.3328389076981694,-0.0860717318952083,-0.0326860897243022,0.5828640960546392,0.3283023834228515,-0.180630013346672,0.4464536905288696,11.40843469637548,-0.693117429084446,0.2636021673036293,-1.4124719070100469
2.42,0.3008639514446258,0.1646670699119568,1.6670300960540771,0.0267811968610198,0.0869780212638803,-0.0021704286443511,-0.1936313509941101,-0.0894607231020927,-0.0160127878189086,0.2947552129626274,0.1625515706837177,1.6663799583911896,-0.2246250808238983,-0.0986031638458371,-0.0293316701427102,0.6715181275254455,0.576607882976532,-0.2597216516733169,0.225841999053955,11.392870429353025,-0.7017167965965794,0.2553967305979678,-1.41634004761018
2.44,0.2965081930160522,0.1624850034713745,1.6668691635131836,0.0216130727620072,0.0829413786157551,-0.0020297249358317,-0.191366896033287,-0.096297338604927,-0.0120887160301208,0.2947552129626274,0.1625515706837177,1.6663799583911896,-0.2246250808238983,-0.0986031638458371,-0.0293316701427102,0.4100774536802509,0.1132227480411529,-0.341830775141716,0.1962035894393921,11.454944964927108,-0.6654746085727017,0.2297459699204145,-1.417385615455619
2.46,0.2926703691482544,0.1604498922824859,1.6668744087219238,0.0179204040358016,0.078225187788594,-0.0016653908378768,-0.1843556016683578,-0.0948864966630935,-0.0035029649734497,0.2947552129626274,0.1625515706837177,1.6663799583911896,-0.2246250808238983,-0.0986031638458371,-0.0293316701427102,0.5587124592839641,0.3505647182464599,0.0705420970916748,0.4292875528335571,11.285713820538149,-0.683964719349152,0.190755327477563,-1.4164955681752691
2.48,0.288694679737091,0.1583139151334762,1.6670149564743042,0.0147380025770783,0.07300749220591,-0.0010756692845413,-0.1758040487766266,-0.0938494876027107,0.0032803416252136,0.2925089621543884,0.1615655390452593,1.6660866416897624,-0.2285173952579498,-0.1014705386012792,-0.0310920786112546,0.5482191465619906,0.4275776445865631,0.0518504530191421,0.3391653299331665,10.9581641091836,-0.662339507449372,0.2029880096938396,-1.3627580221561788
2.5,0.2868359684944153,0.1572532504796981,1.6673353910446167,0.0135350272574153,0.0714690293945971,-0.0006470767808271,-0.174495130777359,-0.0976739823818206,0.0114047527313232,0.2880164605379104,0.1595934757683426,1.6655000082869085,-0.2363020241260528,-0.1072052881121635,-0.0346128955483436,0.4537237112641438,0.0654458999633789,-0.1912247389554977,0.4062205553054809,11.223046600852284,-0.6345116763789271,0.2053110418088812,-1.3510144354032927
2.52,0.2830935716629028,0.1551190614700317,1.667596697807312,0.014653551778441,0.0707804220196377,0.0002505047424531,-0.1683066040277481,-0.0950879976153373,0.0140333175659179,0.2835239589214325,0.1576214124914258,1.664913374884054,-0.2440866529941558,-0.1129400376230478,-0.0381337124854326,0.3601893031199059,0.309426337480545,0.1292992383241653,0.1314282417297363,11.086412513296182,-0.6469498733770578,0.1756268447100774,-1.32731345985247
2.54,0.2795138359069824,0.1529935151338577,1.668098211288452,0.0172339878915539,0.0709526798673643,0.0008479346096476,-0.1647479832172393,-0.0958440452814102,0.0171634554862976,0.2786422258615494,0.1553626117389649,1.6641507006343454,-0.2518712818622589,-0.1186747871339321,-0.0416545294225215,0.2399643387409812,0.1779310405254364,-0.0378023833036422,0.1565068960189819,11.113402891511669,-0.6253192771899531,0.1919890280738237,-1.334571247504611
2.56,0.2758269608020782,0.1509409248828888,1.668670415878296,0.0209632368092578,0.0703962001234636,0.0015768113229999,-0.1634987443685531,-0.0940080732107162,0.0241586565971374,0.2737604928016663,0.1531038109865039,1.6633880263846368,-0.2596559107303619,-0.1244095366448164,-0.0451753463596105,0.3669612708670022,0.0624619424343109,0.0917986035346984,0.3497600555419922,10.8711598660243,-0.63304609697989,0.1846086342464236,-1.3502655197027718
2.58,0.2723293602466583,0.1487476974725723,1.6695119142532349,0.0256128861835303,0.0677650812921934,0.0022803806477099,-0.1616507023572921,-0.0955308973789215,0.031808316707611,0.2686841440200806,0.1507016414962708,1.662537331711501,-0.267440539598465,-0.1301442861557006,-0.0486961632966995,0.4007853307209081,0.0924021005630493,-0.076141208410263,0.3824830055236816,10.74093415010384,-0.6468912547108696,0.200687465340101,-1.2877491831261672
2.6,0.2705299258232116,0.147645965218544,1.6697100400924685,0.0297233326910669,0.0634415684575964,0.0027783368450074,-0.1601895689964294,-0.0958252698183059,0.0289839506149292,0.2634131795167923,0.1481561032682657,1.661598616614938,-0.2752251684665679,-0.1358790356665849,-0.0522169802337884,0.1596763105221491,0.0730566680431366,-0.014718621969223,-0.1412183046340942,10.61158822288462,-0.6383291852128572,0.2049345384401742,-1.22417694867473
2.62,0.267134815454483,0.145459845662117,1.6707364320755005,0.0310609226968063,0.0592211954068324,0.0030953098884289,-0.1538843661546707,-0.0966989994049072,0.0334981083869934,0.2625204473733902,0.1428547017276287,1.6711592376232147,-0.1948271505534649,-0.0979964963626116,0.0013977549970149,0.3901813894117467,0.3152601420879364,-0.0436864793300628,0.2257078886032104,10.552146173277832,-0.6380708582534733,0.2176496253503108,-1.244934156556733
2.64,0.263644814491272,0.1432310938835144,1.67130708694458,0.0300793049154395,0.0554453627511247,0.0031153503540559,-0.1549150049686432,-0.099334605038166,0.0359335541725158,0.2625204473733902,0.1428547017276287,1.6711592376232147,-0.1948271505534649,-0.0979964963626116,0.0013977549970149,0.1866817451784676,-0.0515319406986236,-0.1317802816629409,0.121772289276123,10.732258115837794,-0.5958749138870498,0.2304973615507554,-1.2021272248099133
