t,x,y,z,roll,pitch,yaw,v_x,v_y,v_z,ref_x,ref_y,ref_z,ref_v_x,ref_v_y,ref_v_z,a_com,a_x,a_y,a_z,thrust,wind_x,wind_y,wind_z
0.0,1.2144248485565186,0.4823369085788727,2.1264569759368896,0.0088830786947804,0.0905503384986341,0.0007724120202148,0.0017541646957397,-0.0036900490522384,-0.0054287910461425,1.21,0.48,2.13,0.0,0.0,0.0,0.3397253597039215,0.0877082347869873,-0.1845024526119232,-0.2714395523071289,11.891743717954796,-1.0178255635369613,0.0504361283161634,-2.002862835096697
0.02,1.214471459388733,0.4822665154933929,2.126450538635254,0.0080774769741623,0.0891100255615647,0.0008795538317341,0.0029423832893371,-0.0039435178041458,-0.0063031911849975,1.209878,0.4800319999999999,2.13004,-0.0122,0.0032,0.004,0.0748445962844628,0.0594109296798706,-0.0126734375953674,-0.043720006942749,13.2644294403226,-1.0363516224219382,0.0501616873715257,-2.064476363417131
0.04,1.2145880460739136,0.4821095466613769,2.1263909339904785,0.0070227628205489,0.0863759790604827,0.0009188598961525,0.0041493773460388,-0.0054650008678436,-0.006040334701538,1.2094154256938483,0.4800387867783665,2.1305199986967294,-0.0340574306151447,-0.0025213221633406,0.0439998696729876,0.0979902915717814,0.060349702835083,-0.0760741531848907,0.0131428241729736,14.524468037890074,-1.0373211925208956,0.05612946396368,-2.0714236829053347
0.06,1.2147502899169922,0.4819308817386627,2.126587390899658,0.0094757721830977,0.0773385419573682,0.0027132910414597,0.0062736868858337,-0.00755175948143,0.0030791759490966,1.2084150017278752,0.479845227273336,2.1317999955621434,-0.065984965982193,-0.0168346283397046,0.0839998168684189,0.4796684454893864,0.1062154769897461,-0.1043379306793212,0.4559755325317383,13.35393836203093,-1.0330540435404925,0.0516185967795864,-2.082453325430048
0.08,1.2148027420043943,0.4816658496856689,2.1272034645080566,0.0199763825676804,0.0565405916447941,0.0029439234294138,0.0048306584358215,-0.0099831819534301,0.0182819366455078,1.206695302450656,0.4792737534381202,2.1338799655593075,-0.1059849617397058,-0.0403127551818813,0.1239971828479976,0.7731721657193095,-0.0721514225006103,-0.1215711236000061,0.7601380348205566,13.515398769055537,-0.9842229705902252,0.0391613472544415,-1.984600339349177
0.1,1.2145776748657229,0.4812813997268677,2.128257751464844,0.0378660904116876,0.0260236509291499,0.0042150070030424,-0.0038838386535644,-0.0146133452653884,0.0375831127166748,1.2041756032599458,0.4782092931922032,2.136759849681798,-0.1459849573313224,-0.0661332694098112,0.1639912294009967,1.0838776101877357,-0.4357248544692993,-0.2315081655979156,0.9650588035583496,14.698163867240057,-0.9560027719071136,0.0485937168935457,-1.9038560716022013
0.12,1.2143268585205078,0.4810093939304352,2.1289124488830566,0.0483737355357217,0.0072536884579979,0.0031924292464987,-0.0081861019134521,-0.0175248831510543,0.0461715459823608,1.200855904159334,0.4766370823689888,2.140420233111471,-0.1859849527298538,-0.0910878129116291,0.2020471135662803,0.5018657887727301,-0.2151131629943847,-0.1455768942832946,0.4294216632843017,13.792265750947536,-0.967731731382885,0.0859255590341722,-2.043930910474316
0.14,1.2135272026062012,0.4803740978240967,2.130776882171631,0.0710628771798019,-0.0305841557533681,0.0033915346552094,-0.0269293785095214,-0.0254964083433151,0.0714647769927978,1.1967362051532069,0.474582030477824,2.1447569849729917,-0.2259849478828692,-0.1144173762048556,0.2316280725857633,1.623732710758563,-0.9371638298034668,-0.3985762596130371,1.2646615505218506,13.714439218585994,-0.8829912748658261,0.14144001344037,-2.3030599336970536
0.16,1.2121349573135376,0.4792168438434601,2.133429527282715,0.092970299435423,-0.0754291681061991,0.0017605153811888,-0.0493177771568298,-0.0403323769569397,0.1016342639923095,1.191816506246704,0.4720750854074227,2.1496100476831965,-0.2659849427674076,-0.1362771308352688,0.2536781984347618,2.019618964377289,-1.1194199323654177,-0.7417984306812286,1.508474349975586,13.981427631934366,-0.8361919008628328,0.1898221394783284,-2.2866154835118397
0.18,1.2099097967147827,0.4775319099426269,2.136688709259033,0.1142996475596486,-0.1190831004945315,-0.0016478794763656,-0.0813916325569152,-0.0639492273330688,0.1330161094665527,1.18609680744546,0.4691443367304197,2.1548367589865816,-0.3059849373569919,-0.1567977368650286,0.2689929319037678,2.535403344284365,-1.6036927700042725,-1.1808425188064575,1.5690922737121582,13.830352100347229,-0.7568140772772367,0.2348006610456468,-2.292967622961163
0.2,1.2083675861358645,0.4763897359371185,2.1383261680603027,0.136952374839738,-0.1491170747767241,-0.0023378562304364,-0.1044800877571106,-0.0771081447601318,0.1384824514389038,1.179577108755682,0.4658154654201059,2.1603090985788804,-0.3459849316208113,-0.1760893941663592,0.2782410273261191,1.356571750721626,-1.1544227600097656,-0.6579458713531494,0.2733170986175537,13.237471288537565,-0.6457223897531923,0.2684091880703733,-2.401280866586181
0.22,1.2044628858566284,0.4739950299263,2.142598867416382,0.1379984086936075,-0.178242841236085,-0.0076456005596046,-0.1502814888954162,-0.1001945883035659,0.1720207929611206,1.1722574101842465,0.4621121110203962,2.1659114168644447,-0.3859849255227541,-0.1942460458046058,0.2819908012302975,3.064136327652953,-2.290070056915283,-1.1543221771717072,1.6769170761108398,12.779291499923149,-0.6037394858205943,0.308648716439964,-2.5
0.24,1.1990931034088137,0.4704007804393768,2.147196054458618,0.1444710130950196,-0.2108427847160409,-0.0119757337872038,-0.2086758613586425,-0.1347514986991882,0.1995724439620971,1.1641377117388174,0.4580561650038833,2.171538624999213,-0.4259849190201508,-0.211348555846684,0.2807300122465178,3.6616854945314055,-2.919718623161316,-1.727845519781113,1.377582550048828,13.959416453763424,-0.4216012149752911,0.4115439834341498,-2.5
0.26,1.192287802696228,0.4665082395076751,2.152324914932251,0.1452524173818702,-0.2395973895313051,-0.0152552405792047,-0.2739393711090088,-0.1684527844190597,0.2188360691070556,1.1552180134279948,0.453668008131739,2.1770947350376493,-0.4659849120621143,-0.2274671313677461,0.2748809915971375,3.796771529152774,-3.2631754875183105,-1.685064285993576,0.9631812572479248,13.508812156787371,-0.3843040352642856,0.4011583421415124,-2.5
0.28,1.1838356256484983,0.4617984890937805,2.15737533569336,0.1386557105319258,-0.2628978054040631,-0.0177510400357479,-0.3432932496070862,-0.193551555275917,0.2290338277816772,1.1454983152615006,0.448966704868439,2.182491668135256,-0.5059849045873137,-0.2426631949622603,0.2648123181635216,3.722869539494008,-3.4676939249038696,-1.254938542842865,0.5098879337310791,12.301091203981288,-0.3346525873405562,0.3837018296269645,-2.5
0.3,1.1735743284225464,0.4564109146595001,2.1626813411712646,0.1293215405611651,-0.2776468176985504,-0.0205945036560464,-0.4210531711578369,-0.2271898090839386,0.2330195903778076,1.1349786172504182,0.4439701643937182,2.1876482708274767,-0.5459848965209344,-0.256990852509817,0.2508479510585268,4.240879573362257,-3.8879960775375366,-1.6819126904010773,0.1992881298065185,12.0997998326975,-0.3061026239130855,0.405523450870031,-2.5
0.32,1.167790770530701,0.4533680081367492,2.165436267852783,0.1225526542802683,-0.2821119241951083,-0.0209744216300224,-0.4612970352172851,-0.2424918115139007,0.235556960105896,1.1236589194075044,0.4386952752858014,2.192489494977595,-0.5859848877704402,-0.2704980582818596,0.2332744639532971,2.1564775201349407,-2.012193202972412,-0.7651001214981079,0.1268684864044189,11.864080379526058,-0.306671781012348,0.3415910327193669,-2.48687663282366
0.34,1.1549328565597534,0.4472683072090149,2.170809030532837,0.1086717288162577,-0.284638064698717,-0.0204058492130017,-0.5388209223747253,-0.2675369381904602,0.2414309978485107,1.1115392217476048,0.4331580191983241,2.196945708038465,-0.6259848782195224,-0.2832275504658768,0.2123468421336966,4.084028577778959,-3.876194357872009,-1.2522563338279724,0.2937018871307373,13.084585571021762,-0.0448738417934417,0.4149524420228992,-2.5
0.36,1.1403849124908447,0.4405681788921356,2.176266670227051,0.0924256896280508,-0.2802714021148183,-0.0194528671204278,-0.616631805896759,-0.2879961729049682,0.2436840534210205,1.0986195242882173,0.4273735675910668,2.200952108234686,-0.6659848677192228,-0.2952176102598453,0.1882931774884446,4.024360240769843,-3.890544176101685,-1.0229617357254028,0.1126527786254882,11.63981676210733,-0.0589998210063106,0.389043407465192,-2.5
0.38,1.124159336090088,0.4334719181060791,2.1812758445739746,0.0797814433961411,-0.26544062357192,-0.0177926205432406,-0.6924042105674744,-0.3104187548160553,0.2355033159255981,1.0848998270502803,0.4213563646501568,2.204448225105538,-0.7059848560744808,-0.306502683831163,0.1613185095967173,3.972138578622056,-3.788620233535767,-1.1211290955543518,-0.4090368747711181,12.08292284940353,-0.1088041611155329,0.3402780853866215,-2.5
0.4,1.1065222024917605,0.4261151850223541,2.1862268447875977,0.0669802658074917,-0.2456670489544357,-0.0139253848235322,-0.7619109749794006,-0.3251923620700836,0.2241039276123047,1.070380130059306,0.415120198844265,2.2073774902171364,-0.7459848430229514,-0.317113896758011,0.131608001563157,3.5984009727337747,-3.475338220596313,-0.738680362701416,-0.5699694156646729,11.678329225946072,-0.1839628088623131,0.2767283954256819,-2.5
0.42,1.0970925092697144,0.4223268032073974,2.188572406768799,0.0622467629891898,-0.2327769862601682,-0.0127199237526792,-0.798305869102478,-0.3332343101501465,0.2194046974182129,1.0550604333470757,0.4086782650352995,2.209686866272509,-0.7859848282000784,-0.3270794841385399,0.0993296039740951,1.878392937839088,-1.8197447061538696,-0.4020974040031433,-0.2349615097045898,10.926561910844612,-0.2389876905044738,0.2442140146389754,-2.5
0.44,1.0773768424987793,0.4146366417407989,2.1929471492767334,0.0557852242795649,-0.2064325466541308,-0.0102546289736878,-0.8606833219528198,-0.3434213399887085,0.2067607641220092,1.0389407369542936,0.4020432186211342,2.211326526000423,-0.825984811078127,-0.3364251572779905,0.0646363688173038,3.222805939793464,-3.11887264251709,-0.5093514919281006,-0.6321966648101807,11.24506392332114,-0.0529287636764504,0.2575373212485777,-2.5
0.46,1.0564264059066772,0.4068353474140167,2.1971874237060547,0.0498734651865124,-0.1767643923609732,-0.0071180830070026,-0.914987325668335,-0.3485577702522278,0.1938378810882568,1.022021040934994,0.3952272226161483,2.212249577910754,-0.8659847908518638,-0.3451744432205956,0.0276688222157913,2.802814942736465,-2.715200185775757,-0.2568215131759643,-0.6461441516876221,10.084130373041717,-0.1426886152678594,0.2411368542922287,-2.5
0.48,1.034373760223389,0.3988794386386871,2.2008204460144043,0.0464118434822245,-0.1484287684290804,-0.004522712149364,-0.9675693511962892,-0.3545370697975158,0.1771491765975952,1.0043013453644307,0.3882419841833506,2.212411896219543,-0.905984766204464,-0.3533494000591718,-0.0114369913368861,2.77449738207271,-2.629101276397705,-0.2989649772644043,-0.834435224533081,9.995946361343613,-0.1929058809091562,0.2484766421855332,-2.5
0.5,1.022965669631958,0.3947869837284088,2.2024028301239014,0.0526582806681291,-0.1214475435314316,0.0003896610690165,-0.9904271364212036,-0.3619942665100097,0.1641887426376342,0.9857816503499296,0.3810980052186098,2.2117832642720106,-0.9459847352456244,-0.3610484964149147,-0.0514262034163472,1.3657058400582285,-1.1428892612457275,-0.3728598356246948,-0.6480216979980469,9.626508167087197,-0.2945777108614966,0.2533478675708757,-2.5
0.52,0.9998143315315248,0.3865927755832672,2.205238342285156,0.0453352875071697,-0.1101889510604839,-0.0019387898458697,-1.024870753288269,-0.3652645647525787,0.1429510116577148,0.9664619560537192,0.3738041697945691,2.21035478016596,-0.985984694375436,-0.3683350459891545,-0.0914222071886715,2.029839162751555,-1.7221808433532717,-0.1635149121284485,-1.0618865489959717,8.779058050600725,-0.3775838763256062,0.2023747224638224,-2.5
0.54,0.9758371114730836,0.37830251455307,2.207319974899292,0.0462064258026459,-0.0906229387415787,-0.0003256734202276,-1.0603926181793213,-0.3709005713462829,0.110635757446289,0.94634226276553,0.3663687229019958,2.2081263606778325,-1.0259846344434722,-0.3752096432681743,-0.1314197416240989,2.4175623623867075,-1.7760932445526123,-0.2818003296852112,-1.615762710571289,8.53263867546275,-0.31966549888553,0.2251403116012978,-2.4971446601190714
0.56,0.9512978792190552,0.3699926435947418,2.20834755897522,0.048613838516215,-0.0753216143375947,0.0001803469104652,-1.0916202068328855,-0.3735029697418213,0.0699573755264282,0.9254225711937012,0.3587999008529174,2.2050979837532525,-1.0659845227394256,-0.3816725616396652,-0.1714179508338602,2.567423575368597,-1.5613794326782229,-0.1301199197769165,-2.033919095993042,8.64562570381986,-0.3918780177180632,0.2215603904415763,-2.427205717363552
0.58,0.926292359828949,0.3615001738071441,2.208585023880005,0.0529035237578049,-0.0678119302567937,0.00050274850306,-1.1147569417953491,-0.3780526518821716,0.02846360206604,0.9037028886242872,0.3511059350389979,2.201269638843012,-1.1059837342019485,-0.3877240197522871,-0.2114165401902435,2.3862844278729187,-1.156836748123169,-0.2274841070175171,-2.074688673019409,8.323259168204913,-0.4488443548972478,0.2378068030938853,-2.396213988920165
0.6,0.9006513357162476,0.3528459072113037,2.207882642745972,0.0578651596114136,-0.0644176157187339,0.0003808826999072,-1.1395472288131714,-0.3858015537261963,-0.010460615158081,0.8812100780511344,0.3432953156935792,2.196641313120944,-1.1432973231133434,-0.3933379147895863,-0.2514160320165554,2.3397107175487,-1.2395143508911133,-0.3874450922012329,-1.946210861206055,8.155395738846892,-0.4604591415184638,0.2454811795957057,-2.3433056551697464
0.62,0.887671947479248,0.3484886586666107,2.2069461345672607,0.0601025119003231,-0.0634062269952392,0.000508426127024,-1.1485459804534912,-0.385979950428009,-0.0401580333709716,0.8580028718533426,0.335376781991516,2.1912129955126955,-1.177423296665835,-0.3985154554167273,-0.2914157288082522,1.5515685651774338,-0.4499375820159912,-0.0089198350906372,-1.4848709106445312,8.155440806143815,-0.490651409844733,0.2315578467590657,-2.173608063415558
0.64,0.8616009950637817,0.3397326469421386,2.2043237686157227,0.0630056666149598,-0.0674228838717094,-0.0010641376353337,-1.167843222618103,-0.3940922617912292,-0.090985894203186,0.8341447320753924,0.3273589979332459,2.1849846831751867,-1.208390681129178,-0.4032629504102825,-0.3314155049426319,2.748483485302601,-0.9648621082305908,-0.4056155681610107,-2.5413930416107178,8.043723724239044,-0.4228781694663579,0.2650060658769121,-1.9242233381061555
0.66,0.8349580764770508,0.3307211697101593,2.2006216049194336,0.063766297327794,-0.0728295167952798,-0.0025697927312604,-1.1860620975494385,-0.3997685015201568,-0.1423019170761108,0.8096985835711563,0.3192505077634801,2.177956374902665,-1.2362241692944311,-0.4075860665662985,-0.3714153223095802,2.7374629242778985,-0.9109437465667723,-0.2838119864463806,-2.56580114364624,8.13917425396312,-0.4208426906430983,0.2515704348066594,-1.8681511438843803
0.68,0.808169960975647,0.3217145204544067,2.1953492164611816,0.064738168977171,-0.0789026712056219,-0.0042803224713353,-1.2021982669830322,-0.4054078459739685,-0.2019274234771728,0.7847268995348861,0.31105974845905,2.170128070037668,-1.2609442343325965,-0.4114898638767045,-0.4114151641900436,3.101362274647009,-0.8068084716796875,-0.2819672226905823,-2.9812753200531006,8.083310658726987,-0.4140804459406985,0.2534794773799643,-1.781669610104482
0.7000000000000001,0.7807726860046387,0.3125427961349487,2.188898086547852,0.0636421605177,-0.0842009067021808,-0.0055001961810236,-1.2191712856292725,-0.4090133905410766,-0.2637791633605957,0.7592917845919901,0.3027950615856917,2.1614997681795454,-1.2825672599569966,-0.4149788234591262,-0.4514150216222706,3.2119779887935187,-0.8486509323120117,-0.1802772283554077,-3.0925869941711426,8.409842471946831,-0.3858720942716884,0.2517062848973175,-1.7173582690308469
0.72,0.7669233679771423,0.307976633310318,2.185068130493164,0.0649626788658684,-0.0865114887083051,-0.0057027416488422,-1.2303466796875,-0.4134591817855835,-0.293009877204895,0.7334550555421636,0.2944647046426045,2.1520714690723777,-1.301105645025653,-0.4180568708496044,-0.491414889094482,1.5804185553151044,-0.558769702911377,-0.2222895622253418,-1.4615356922149658,8.753759056004583,-0.3602013225877448,0.2609941833802773,-1.670135665806717
0.74,0.7388225197792053,0.2985578179359436,2.17671799659729,0.0615276197684404,-0.0897526866396723,-0.0080233145615889,-1.2520403861999512,-0.4180973768234253,-0.3500336408615112,0.7072783202684616,0.2860768619805632,2.141843172553304,-1.3165678823445537,-0.4207273953545271,-0.5314147628129985,3.0593460808737585,-1.0846853256225586,-0.2319097518920898,-2.8511881828308105,8.682007856260043,-0.3014859994978903,0.2644208728472965,-1.4135593803995328
0.76,0.7104619145393372,0.2891208827495575,2.167055606842041,0.0597392757120221,-0.0887841774012069,-0.0082406498341895,-1.2703826427459717,-0.4242543876171112,-0.4052817821502685,0.6808230553198201,0.2776396553689226,2.1308148785264343,-1.3289586125195945,-0.4229932658095361,-0.5714146398739023,2.926902916469937,-0.9171128273010254,-0.3078505396842956,-2.762407064437866,8.773416196376274,-0.3110675478702332,0.2655926469793832,-1.3873664249252131
0.78,0.6816044449806213,0.2794891893863678,2.155953884124756,0.0596521441406591,-0.0830181234254764,-0.008370450481566,-1.2874066829681396,-0.4290441274642944,-0.467192530632019,0.6541506826589477,0.2691611542810972,2.1189865869497284,-1.3382786535676472,-0.4248568429730004,-0.6114145177966743,3.219355654032441,-0.8512020111083984,-0.2394869923591613,-3.0955374240875244,9.0539737629947,-0.3002990611390772,0.253117892624922,-1.335978186597918
0.8,0.6670106649398804,0.2745802998542785,2.1501307487487797,0.0631399721901319,-0.0738338623718636,-0.0070402225799913,-1.2979505062103271,-0.4344192743301391,-0.490613579750061,0.6273226460563335,0.2606493859642461,2.1063582978297304,-1.34452500669377,-0.4263199887121138,-0.6514143942031002,1.3120689331944697,-0.527191162109375,-0.2687573432922363,-1.1710524559020996,9.24720629866806,-0.2836900150946411,0.2559727226257787,-1.387980205266967
0.8200000000000001,0.6374695897102356,0.2649605274200439,2.1374552249908447,0.0582116137675595,-0.0706816712873562,-0.0098160124212807,-1.318962812423706,-0.4352574944496155,-0.5448639392852783,0.6004004876063151,0.2521123453562654,2.092930011222415,-1.3476908383080488,-0.4273840720859467,-0.6914142665284452,2.909175628538881,-1.050615310668945,-0.0419110059738159,-2.7125179767608643,9.4928457533465,-0.3007646108197359,0.2275253482842093,-1.375150781764391
0.84,0.6075559854507446,0.2549086511135101,2.1240596771240234,0.0566965462550103,-0.0593767781488046,-0.0099964708278681,-1.3377302885055542,-0.4426121115684509,-0.5865991115570068,0.5734459248431304,0.2435580049115832,2.0787017272404062,-1.3477654380104345,-0.4280499723822727,-0.7314141316724243,2.3173978704563587,-0.9383738040924072,-0.3677308559417724,-2.086758613586426,9.40236688656023,-0.2765422922625853,0.2597278069738976,-1.295799485528792
0.86,0.5774379372596741,0.2449643611907959,2.109517812728882,0.0573181879810593,-0.0440963300928489,-0.0100300341646706,-1.3507121801376345,-0.449913740158081,-0.628591775894165,0.5465209289439343,0.2349943243965591,2.0636734460690995,-1.344734151909167,-0.4283180791201426,-0.7714139854582341,2.2277943961131226,-0.6490945816040039,-0.3650814294815063,-2.09963321685791,9.623140175181106,-0.294909958468913,0.242571039567917,-1.2593347237068162
0.88,0.5468283295631409,0.2347759902477264,2.094167947769165,0.0586469499647735,-0.0270208125527998,-0.0092564394031766,-1.3663722276687622,-0.452984869480133,-0.672563910484314,0.5196878045224689,0.226429260715494,2.0478451679982896,-1.3385782902373873,-0.4281882889863684,-0.8114138216227513,2.3389193789034954,-0.7830023765563965,-0.1535564661026001,-2.1986067295074463,9.603646492865664,-0.2917678534304136,0.2309017977327306,-1.2673632516799411
0.9,0.5161330103874207,0.2244731038808822,2.0779616832733154,0.0598870872294271,-0.0082369802930005,-0.0083268009652968,-1.379360914230347,-0.4610532820224762,-0.7100129127502441,0.4930092715427315,0.2178707778293174,2.0312168934860475,-1.3292750077363422,-0.4276599996312903,-0.851413629601446,2.0225188690480547,-0.6494343280792236,-0.403420627117157,-1.8724501132965088,10.232323928031292,-0.3226946044632103,0.2491900605095261,-1.305919885584724
0.92,0.5007907748222351,0.2193116694688797,2.069504976272583,0.0613690191675229,0.0040616981709044,-0.0064548328222698,-1.380964756011963,-0.4623259902000427,-0.7271736860275269,0.4665485499207374,0.2093268568308794,2.013788623303322,-1.31679715446307,-0.4267321002125042,-0.891413388671037,0.864124172269245,-0.0801920890808105,-0.0636354088783264,-0.8580386638641357,10.387254174245754,-0.3548134640500576,0.2398497111279425,-1.3388949260467164
0.94,0.4697105586528778,0.2086186408996582,2.0524559020996094,0.0591737436748756,0.0289199600163445,-0.0067624919054583,-1.3886902332305908,-0.4696601629257202,-0.759655237197876,0.440369447453235,0.200805506242934,1.995560358941628,-1.3011130922871543,-0.4254029585820321,-0.9314130474984108,1.7091842017886918,-0.3862738609313965,-0.3667086362838745,-1.624077558517456,10.621796907917089,-0.3253223605126866,0.2713139598562492,-1.2149477223462943
0.96,0.4387232065200805,0.1981441676616668,2.0344879627227783,0.058454560033737,0.058458467815772,-0.0050400909002228,-1.3965202569961548,-0.4762687981128692,-0.7878828048706055,0.4145364519853103,0.1923147726022274,1.9765321044516688,-1.282186454505334,-0.4236704054886374,-0.97141240149751,1.5014816914673352,-0.3915011882781982,-0.3304317593574524,-1.4113783836364746,10.76577323208494,-0.3682494797713102,0.2627377330664299,-1.2359315876307375
0.98,0.4080924093723297,0.187335729598999,2.016211748123169,0.0543585684059294,0.088817678084545,-0.003679947860807,-1.3864083290100098,-0.4788655042648315,-0.8154934644699097,0.3892427015834469,0.1838588074592253,1.9572694718624504,-1.2471885856810043,-0.4219261088115695,-0.954850857424324,1.475925551937894,0.505596399307251,-0.129835307598114,-1.38053297996521,11.583747476896406,-0.4417339173804366,0.2611297145308302,-1.241693544981651
1.0,0.377579927444458,0.1763775497674942,1.997552514076233,0.0487708442174126,0.1153851834647655,-0.0019313339983031,-1.3757238388061523,-0.4897488951683044,-0.8310475945472717,0.3646989284888252,0.1754424947654801,1.9385471246805568,-1.2071887237811676,-0.4197051605629557,-0.9173838607650394,1.0891940723966749,0.5342245101928711,-0.544169545173645,-0.777706503868103,11.190437875385667,-0.4355296613104901,0.2829348361676675,-1.3098122349633714
1.02,0.3623098134994507,0.1708794981241226,1.9879666566848757,0.0459631119792022,0.1306801044848101,-0.0025532089506453,-1.3751463890075684,-0.4903664886951446,-0.8437612652778625,0.3409551533254698,0.1670768463685976,1.9205625004125333,-1.167188792554373,-0.4168596791252956,-0.8810785660373198,0.6370876970248314,0.0288724899291992,-0.0308796763420104,-0.635683536529541,11.208902409252914,-0.4645480523111984,0.2434519757878692,-1.3043072342222684
1.04,0.3323016166687011,0.1598375588655471,1.9688847064971924,0.0374298615334366,0.1583083159208072,-0.001036155285278,-1.3596426248550415,-0.4959602355957031,-0.8538275957107544,0.3180113770176875,0.1587742934809076,1.9032928392392667,-1.1271888382238484,-0.4133956096436957,-0.845887551289334,0.9656444941965556,0.7751882076263428,-0.2796873450279236,-0.5033165216445923,11.418825215342167,-0.5736727302650115,0.2669837999076629,-1.290458661755043
1.06,0.3028910160064697,0.1487354785203933,1.9492424726486208,0.0281480341695108,0.1839328407463692,-0.0003836056308251,-1.3369228839874268,-0.4982404410839081,-0.8712941408157349,0.2958675999120237,0.1505471521889243,1.8867163187952023,-1.0871888723425265,-0.409318519554643,-0.8117644931171054,1.4374162237016814,1.1359870433807373,-0.1140102744102478,-0.8733272552490234,11.81207814843492,-0.614448175865338,0.2509297301895154,-1.303619482824946
1.08,0.2741477191448211,0.1376227885484695,1.929651379585266,0.0143711574223425,0.2067677479460799,-0.0005480304978198,-1.3084627389907837,-0.4998323321342468,-0.8827498555183411,0.2745238221932866,0.1424076308690089,1.8708120289475407,-1.047188899531193,-0.4046336124368941,-0.7786644916489885,1.5360235754160838,1.423007249832153,-0.0795945525169372,-0.5727857351303101,11.612705114842356,-0.6585812617401896,0.2435578455141663,-1.4288857285711631
1.1,0.246109277009964,0.1266217678785324,1.9096750020980835,0.0033041363241747,0.2255899603987925,0.0002805919661658,-1.2775890827178955,-0.4975584745407104,-0.890268087387085,0.2539800439769732,0.1343678373123254,1.8555599432495289,-1.0071889221001462,-0.3993457432314562,-0.7465440781522668,1.592856624467757,1.5436828136444092,0.1136928796768188,-0.3759115934371948,11.859039932744054,-0.6814786562585049,0.2251861980344046,-1.4713265302445528
1.12,0.246109277009964,0.1266217678785324,1.9096750020980835,-0.012752925590806,0.2393367330402442,-0.005471168403528,-1.2775890827178955,-0.4975584745407104,-0.890268087387085,0.2342362653422765,0.1264397855521759,1.8409408908843885,-0.9671889413695196,-0.3934594327834973,-0.7153611583617446,0.0,0.0,0.0,0.0,11.859039932744054,-0.6814786562585049,0.2251861980344046,-1.4713265302445528
1.14,0.2058677226305008,0.1102579310536384,1.8798428773880005,-0.014150223336741,0.2466010375861064,0.0002648043763794,-1.2208346128463743,-0.4924192130565643,-0.8977621793746948,0.2152924863469375,0.1186354024105031,1.8269365299050488,-0.9271889581643818,-0.3869788813837811,-0.6850749395722331,2.873866417267237,2.83772349357605,0.2569630742073059,-0.3747045993804931,12.25149628874442,-0.7160868697698677,0.2127673315832536,-1.4552222623312343
1.16,0.1801826208829879,0.0995901897549629,1.8596903085708616,-0.0280109172743957,0.2541328611343489,-0.0009641998598849,-1.1787855625152588,-0.4860348701477051,-0.9038668870925904,0.1971487061677572,0.1109665334077747,1.8135293213200547,-0.8871889710347688,-0.3799079808982691,-0.6556458533625947,2.148342340298409,2.102452516555786,0.3192171454429626,-0.3052353858947754,12.361121551271026,-0.8026566508887514,0.1807088696070611,-1.4939900965315702
1.18,0.1554637551307678,0.0892079398036003,1.8395087718963623,-0.0390106191487211,0.2626345049839866,-0.0002336084235525,-1.1340892314910889,-0.4736247956752777,-0.9075173735618592,0.1798049266137525,0.1034449503208389,1.800702507916747,-0.8471889843656965,-0.3722503277953033,-0.627035486968192,2.326530682634383,2.234816551208496,0.6205037236213684,-0.1825243234634399,12.807210886582652,-0.7989121858735149,0.1574167260702835,-1.5170698702981036
1.2,0.1317699700593948,0.0792047455906868,1.819635033607483,-0.0501539650747532,0.2663871743062049,-0.0006858579342799,-1.0892846584320068,-0.4586724936962127,-0.9012436866760254,0.1632611468057238,0.0960823547275695,1.7884400880151672,-0.807188996437174,-0.3640092315316434,-0.599206503189775,2.3824253653688983,2.2402286529541016,0.7476150989532471,0.313684344291687,13.305939548147762,-0.8028950219331406,0.1543239167954507,-1.5368489302893962
1.22,0.1202883943915367,0.074229709804058,1.8098152875900269,-0.0587975077649765,0.2677324899430754,-0.0013061540092141,-1.0635745525360107,-0.4527887403964996,-0.8959060907363892,0.14751736676676,0.088890385155021,1.7767267971998926,-0.7671890074592035,-0.355187725723207,-0.5721225783377039,1.3454720625955408,1.285505294799805,0.2941876649856567,0.2668797969818115,14.16340068502177,-0.8189551901764289,0.152428752845289,-1.5509545518811958
1.24,0.098409466445446,0.0647927671670913,1.789998173713684,-0.0714487255449391,0.2685910092423238,-0.0008699565955399,-1.0136699676513672,-0.4356593191623688,-0.8913248777389526,0.1325735872234237,0.0818806224715134,1.765548088585239,-0.7271890195933202,-0.3457885772063997,-0.5457483377024597,2.6480521977732843,2.4952292442321777,0.856471061706543,0.2290606498718261,13.711780491462378,-0.9539267981812292,0.0830270479006932,-1.5729457821067925
1.26,0.0774776712059974,0.0558292903006076,1.7707446813583374,-0.0841001728434339,0.2693366083092889,-0.0014758149307997,-0.9632412791252136,-0.4140094518661499,-0.8790886402130127,0.118429806737826,0.0750645937771435,1.754890112313399,-0.6871890289664444,-0.3358142922305938,-0.5200492894815287,2.8113586080411905,2.5214344263076782,1.0824933648109436,0.6118118762969971,13.973313758889162,-0.9302816267075844,0.0659076900290313,-1.5844966175758943
1.28,0.0577189177274704,0.0472207702696323,1.7518545389175415,-0.0918504759600242,0.2735494110206024,-0.002425877212458,-0.9155373573303224,-0.3953699171543121,-0.858231782913208,0.1050860260713605,0.0684537795866941,1.7447397016692006,-0.6471890376801076,-0.3252671268143478,-0.494991774938319,2.7650067383784678,2.385196089744568,0.9319767355918884,1.0428428649902344,14.864927369389989,-0.9199975954666028,0.0590926738353192,-1.6185418817043205
1.3,0.039221066981554,0.039306916296482,1.7331959009170532,-0.0980168023896561,0.2763291412474613,-0.0035612654070001,-0.8607736229896545,-0.3717534244060516,-0.844847559928894,0.0925422452363914,0.0620596174023294,1.735084354834321,-0.6071890458168022,-0.3141490916221219,-0.4705429085496066,3.056117943387373,2.7381867170333862,1.180824637413025,0.6692111492156982,14.91689624915398,-0.9518158031744612,0.0144868038032793,-1.6389156984786304
1.32,0.0303813982754945,0.0357726886868476,1.723879098892212,-0.1001900880118891,0.2817780148583558,-0.002858829408346,-0.8341794013977051,-0.3529796302318573,-0.8385148644447327,0.0807984642437788,0.0558935069001581,1.7259122204735893,-0.5671890534444611,-0.3024619585950012,-0.4466705275236147,1.6581699263584553,1.3297110795974731,0.9386897087097168,0.3166347742080688,15.12725095494534,-0.9740706385324374,-0.0179330262918353,-1.7978520484605538
1.34,0.0135643938556313,0.0287311151623725,1.705758810043335,-0.1035317338527886,0.2922372311830121,-0.0033694714043161,-0.7836445569992065,-0.327578604221344,-0.8266890048980713,0.0698546831031372,0.0499668146489812,1.717212083772416,-0.5271890606196933,-0.2902072665226908,-0.4233431425937163,2.8891320386859243,2.5267422199249268,1.2700513005256653,0.5912929773330688,15.592467204640345,-1.1535562102777943,-0.0643206356958272,-1.945274657648595
1.36,-0.0014221854507923,0.0224797911942005,1.6884642839431765,-0.1079131959760711,0.3022638557952854,-0.0033415406666811,-0.7155807018280029,-0.2990902066230774,-0.796833336353302,0.0597109018230385,0.0442908787231648,1.7089733534345015,-0.4871890673901668,-0.2773863260589502,-0.4005298911976886,3.979836090449778,3.4031927585601807,1.42441987991333,1.4927834272384644,15.347362435638388,-1.1899182699308954,-0.0746812333170393,-2.063762458266242
1.38,-0.0151342237368226,0.0168993044644594,1.671701192855835,-0.1112542751637755,0.3159693010507905,-0.0049356946316789,-0.6457188725471497,-0.2662157416343689,-0.76629638671875,0.0503671204111729,0.0388770132204823,1.7011860495940725,-0.4471890737963997,-0.2640002242092991,-0.3782004928452395,4.151478932785301,3.493091464042664,1.6437232494354248,1.5268474817276,15.303142541297348,-1.1637148675979556,-0.0921426076573196,-2.1320433171343405
1.4,-0.0271624494343996,0.0119377812370657,1.6556159257888794,-0.1150614342222211,0.3310538730064984,-0.0069249365809804,-0.5791559219360352,-0.23719522356987,-0.7390880584716797,0.0418233388744777,0.0337365126952222,1.693840792600736,-0.4071890798731187,-0.2500498283167037,-0.3563252064884086,3.877212268108976,3.328147530555725,1.451025903224945,1.3604164123535156,15.348338083540511,-1.1523788032076978,-0.0815277456628563,-2.195855755738597
1.42,-0.0323847606778144,0.0097121363505721,1.64790678024292,-0.1177057881447097,0.3353686670114889,-0.0078129275925104,-0.5354158878326416,-0.2240547090768814,-0.718282163143158,0.0340795568720544,0.0288806562883772,1.6869287923142926,-0.3671890836503153,-0.2355357888142282,-0.3348747886684449,2.5093569818420995,2.1870017051696777,0.6570257246494293,1.0402947664260864,15.293166113207008,-1.2011737984039064,-0.1059397553583168,-2.2904383400563897
1.44,-0.0415070205926895,0.0058768060989677,1.6329829692840576,-0.1213911907662163,0.3485955999673146,-0.0111099358211607,-0.4517232775688171,-0.1908153593540191,-0.6833517551422119,0.0271357751440105,0.0243207129476364,1.6804418398414966,-0.3271890891540641,-0.220458545259847,-0.3138204586111336,4.829451517999667,4.184630513191223,1.6619674861431122,1.7465204000473022,15.24385312866616,-1.4140806833260855,-0.2386619012649298,-2.463803243968022
1.46,-0.0485485754907131,0.0026682501193135,1.619294047355652,-0.1241610287263034,0.362009571955554,-0.0153204470848542,-0.3636858463287353,-0.1584874391555786,-0.6437864899635315,0.0209919933083981,0.0200679442499986,1.6743722967130454,-0.2871890944071838,-0.2048183245039373,-0.2931338542339886,5.089472942350753,4.401871562004089,1.6163960099220276,1.978263258934021,15.439233651756696,-1.3634409859491787,-0.232432314840882,-2.485131734013028
1.48,-0.0533871352672576,0.0003055148990824,1.6063740253448486,-0.1248226485544078,0.3707963616537801,-0.0178017166976615,-0.2673025727272033,-0.1253540515899658,-0.5987012386322021,0.0156482115972178,0.0161336097271856,1.6687130884318178,-0.2471891014297509,-0.1886151466388741,-0.272787001167512,5.572305781570591,4.819163680076599,1.6566693782806396,2.2542625665664677,15.386806660416369,-1.3134262613215326,-0.2318865992206144,-2.4642927448325813
1.5,-0.0560009814798831,-0.0013795314589515,1.594233512878418,-0.1241672809828589,0.3773393842701377,-0.0209177262698969,-0.1676791310310363,-0.0910750851035118,-0.5638620257377625,0.0111044295205251,0.0125289700336391,1.6634576956936653,-0.2071891062395256,-0.1718488227157772,-0.2527522726477242,5.548343994804466,4.98117208480835,1.7139483243227005,1.7419606447219849,15.471226185577509,-1.229915862917338,-0.2308357709754345,-2.396828826216205
1.52,-0.0566012449562549,-0.0020893209148198,1.5886261463165283,-0.1224257035399084,0.3809020450061676,-0.0232424871322534,-0.1208771839737892,-0.0793331339955329,-0.5414092540740967,0.0073606473496069,0.009265292196023,1.6586001493504776,-0.1671891108522931,-0.154518961045834,-0.2330023616710473,2.6610254694159936,2.340097352862358,0.587097555398941,1.1226385831832886,15.84465524123425,-1.1412358056696328,-0.2151912846843786,-2.3957895771550994
1.54,-0.0559716634452343,-0.0030576649587601,1.5784258842468262,-0.1141005715383004,0.3806037978752271,-0.025874745776141,-0.0196315068751573,-0.0541905276477336,-0.4862469434738159,0.0044168650882625,0.0063538594010288,1.6541350189743425,-0.1271891152821467,-0.1366243184535813,-0.2135106759424754,5.900364034507251,5.062283854931593,1.257130317389965,2.758115530014038,15.67580235263904,-1.4274048269034345,-0.3419652746227926,-2.480601403833816
1.56,-0.0533838532865047,-0.003779212012887,1.5701662302017212,-0.0814510966521649,0.3518909962493531,-0.0177001641595932,0.0723913162946701,-0.0380225479602813,-0.4153481125831604,0.0022730827398314,0.0038728950199473,1.6499999215935175,-0.0871891195609603,-0.1114721196545674,-0.1999990621399975,5.864351578175752,4.601141158491373,0.8083989843726158,3.544941544532776,16.414258143813186,-1.316930376518655,-0.364884878853318,-2.326590576316085
1.58,-0.0498234219849109,-0.0041582789272069,1.5643051862716677,-0.0248988850567001,0.3126145659948129,-0.0011532458792203,0.1383354365825653,-0.0247638151049613,-0.3177157044410705,0.000917787537196,0.0020338816219221,1.6463999401444307,-0.0483404007025809,-0.0724292201479596,-0.1599990827687074,5.928007278398185,3.29720601439476,0.6629366427659988,4.881620407104492,16.93010796995941,-1.2246128633615947,-0.370239485908656,-2.125906724772926
1.6,-0.0469506159424781,-0.0044061536900699,1.5621849298477173,0.0055974758268569,0.2647654069742001,-0.0026386369784783,0.1744361221790313,-0.021693842485547,-0.2739098668098449,0.000226643315629,0.0008943925058998,1.643599958229872,-0.0207740214541189,-0.0415196914542649,-0.1199991086871522,2.84237385075932,1.8050342798233032,0.1534986309707164,2.1902918815612797,17.415989306990923,-1.243193868213308,-0.2760767598165433,-1.846137375135794
1.62,-0.0399649664759635,-0.0047468338161706,1.561055064201355,0.0203241244268883,0.2415872498347987,0.0052695502767819,0.2735754251480102,-0.0206118170171976,-0.1230812072753906,-1.9690502832829315e-05,0.0002896729143878,1.641599975691353,-0.0038593603920677,-0.0189522676969366,-0.0799991451647382,9.0248347227594,4.956965148448944,0.0541012734174728,7.541432976722717,15.754399245552122,-1.1494737813881282,-0.1886862202270726,-1.7425180314747053
1.64,-0.0314428359270095,-0.005401593632996,1.562786340713501,0.0256342716933072,0.1894957914190174,0.0039378097791192,0.3489250540733337,-0.0223973989486694,0.013531744480133,-2.914205337675328e-05,5.007511870924729e-05,1.6403999921198529,0.0029142053376753,-0.0050075118709247,-0.039999211985293,7.801258467288305,3.7674814462661743,-0.0892790965735912,6.830647587776184,15.63683455022874,-1.008777849519803,-0.1243080121538884,-1.4739283067255586
1.66,-0.0218948405236005,-0.0062839118763804,1.567391276359558,0.019326986850495,0.1330119907376953,0.0018487795909222,0.4065778255462646,-0.0345842577517032,0.1425647735595703,-2.914205337675328e-05,5.007511870924729e-05,1.6403999921198529,0.0029142053376753,-0.0050075118709247,-0.039999211985293,7.092581367071157,2.8826385736465454,-0.6093429401516914,6.451651453971863,12.628914128899396,-0.7189485790863248,-0.0565171540914882,-1.1552578704942271
1.68,-0.0118219340220093,-0.0074106785468757,1.5738815069198608,0.0107599144480415,0.080986917158919,-0.0017553217143262,0.4414703249931335,-0.0452044121921062,0.2496412396430969,-2.914205337675328e-05,5.007511870924729e-05,1.6403999921198529,0.0029142053376753,-0.0050075118709247,-0.039999211985293,5.655891571389161,1.7446249723434448,-0.5310077220201492,5.353823304176331,12.496920934742777,-0.4425633395217213,-0.0867313349002486,-1.007950987545862
1.7,-0.0066910265013575,-0.0078644296154379,1.5779823064804075,0.009227218598908,0.0405311590638952,-0.0041972006033215,0.4523306488990783,-0.045857947319746,0.29875248670578,-2.914205337675328e-05,5.007511870924729e-05,1.6403999921198529,0.0029142053376753,-0.0050075118709247,-0.039999211985293,2.515098572400789,0.5430161952972412,-0.0326767563819885,2.4555623531341557,11.257062853863772,-0.2790031892274172,-0.1271644599527876,-1.15985042565638
1.72,0.0035407848190516,-0.009020104072988,1.5868494510650637,-4.810463935347863e-05,0.0040062919474655,-0.0053483363736924,0.4606006741523742,-0.050474889576435,0.3732910752296448,-2.914205337675328e-05,5.007511870924729e-05,1.6403999921198529,0.0029142053376753,-0.0050075118709247,-0.039999211985293,3.756897208010147,0.4135012626647949,-0.2308471128344535,3.726929426193237,9.496430432172929,-0.1586981371506317,-0.0937066002219169,-1.1472124181352998
1.74,0.0135917486622929,-0.0100662326440215,1.5966588258743286,-0.01411351718316,-0.0429725133010753,-0.0078688236004423,0.4563624262809753,-0.0495405681431293,0.4202216863632202,-2.914205337675328e-05,5.007511870924729e-05,1.6403999921198529,0.0029142053376753,-0.0050075118709247,-0.039999211985293,2.3565429992528397,-0.2119123935699463,0.046716071665287,2.346530556678772,9.428335784645697,-0.0574304480891914,-0.0989512515619636,-1.4936763934976676
1.76,0.0231427252292633,-0.0110479807481169,1.6072075366973877,-0.0292524473611714,-0.0860979391536638,-0.0097798944121509,0.4410436749458313,-0.045627225190401,0.4580569267272949,-2.914205337675328e-05,5.007511870924729e-05,1.6403999921198529,0.0029142053376753,-0.0050075118709247,-0.039999211985293,2.050294984228461,-0.7659375667572021,0.1956671476364135,1.8917620182037356,8.777108785088785,-0.0250554980963448,-0.1058511285526769,-1.337754290760249
1.78,0.0320249013602733,-0.0117319328710436,1.6179249286651611,-0.0448557886440584,-0.1249992940756632,-0.0103969562103782,0.414745956659317,-0.0374782532453537,0.4784873127937317,-2.914205337675328e-05,5.007511870924729e-05,1.6403999921198529,0.0029142053376753,-0.0050075118709247,-0.039999211985293,1.7141881501615353,-1.314885914325714,0.4074485972523689,1.0215193033218384,7.877395913875262,0.0080394084158942,-0.1130833338320724,-1.279237108710995
1.8,0.0399288907647132,-0.0121920341625809,1.628145456314087,-0.054116190627969,-0.1576226168004029,-0.0108138234260505,0.3776887357234955,-0.0257412008941173,0.4711031913757324,-2.914205337675328e-05,5.007511870924729e-05,1.6403999921198529,0.0029142053376753,-0.0050075118709247,-0.039999211985293,1.9783334340409529,-1.8528610467910769,0.5868526175618172,-0.3692060708999634,7.352809914358204,0.0230616367432558,-0.1109968991704729,-1.1676319504292472
1.82,0.0437495820224285,-0.0123395575210452,1.6330158710479736,-0.0572314480664713,-0.1715776968784998,-0.0101550786344242,0.3617070615291595,-0.0222264397889375,0.4614472389221191,-2.914205337675328e-05,5.007511870924729e-05,1.6403999921198529,0.0029142053376753,-0.0050075118709247,-0.039999211985293,0.9500064124347112,-0.7990837097167969,0.1757380552589893,-0.482797622680664,7.422246308382455,-0.0131347975607557,-0.0897232837045546,-0.9836733608310876
1.84,0.0503056943416595,-0.0124230748042464,1.6419044733047483,-0.0575725877323395,-0.1938773766496042,-0.0097392202508384,0.3184841573238373,-0.0094121862202882,0.4227402806282043,-2.914205337675328e-05,5.007511870924729e-05,1.6403999921198529,0.0029142053376753,-0.0050075118709247,-0.039999211985293,2.9709649791065216,-2.1611452102661133,0.6407126784324646,-1.93534791469574,7.055494874070064,0.0752747009104976,-0.1251451012994261,-0.8728988822650163
1.86,0.0561170130968093,-0.0121253011748194,1.6497645378112793,-0.0569168628070488,-0.2070667203713442,-0.0084367260669494,0.2782672047615051,0.0048207677900791,0.3768450021743774,-2.914205337675328e-05,5.007511870924729e-05,1.6403999921198529,0.0029142053376753,-0.0050075118709247,-0.039999211985293,3.133032411904007,-2.010847628116608,0.7116477005183697,-2.294763922691345,7.361489450802765,0.0075433190624263,-0.0900727921493804,-0.8747616290358314
1.88,0.061103593558073,-0.0117218345403671,1.6560232639312744,-0.0517555134172844,-0.2083464553118636,-0.0072875835925228,0.2429527342319488,0.0157779064029455,0.3176727890968323,-2.914205337675328e-05,5.007511870924729e-05,1.6403999921198529,0.0029142053376753,-0.0050075118709247,-0.039999211985293,3.4887395703387183,-1.7657235264778135,0.5478569306433201,-2.9586106538772583,7.417080844157681,-0.0524827630247665,-0.0534553918888525,-0.7573287029635322
1.9,0.0652414709329605,-0.0110958339646458,1.6604974269866943,-0.0428120155587492,-0.1983251656167807,-0.0057851581694553,0.2053003013134002,0.0231630131602287,0.2414900064468383,-2.914205337675328e-05,5.007511870924729e-05,1.6403999921198529,0.0029142053376753,-0.0050075118709247,-0.039999211985293,4.264991758139305,-1.8826216459274288,0.3692553378641605,-3.809139132499695,7.380739090101542,-0.0947880337903133,-0.021955359593725,-0.7503085811307089
1.92,0.0669412985444068,-0.0106518045067787,1.6621731519699097,-0.0381903867041313,-0.1886869962642984,-0.0049854751776922,0.1832684725522995,0.0263405703008174,0.2031022310256958,-2.914205337675328e-05,5.007511870924729e-05,1.6403999921198529,0.0029142053376753,-0.0050075118709247,-0.039999211985293,2.218738182911772,-1.1015914380550385,0.158877857029438,-1.919388771057129,8.115033826739818,-0.1373260231805634,-0.0167807845066803,-0.7988426083471025
1.94,0.0698193237185478,-0.009612014517188,1.66436505317688,-0.0263674369152408,-0.1648544430607683,-0.0045858753681096,0.1466288268566131,0.0410936437547206,0.1322382688522339,-2.914205337675328e-05,5.007511870924729e-05,1.6403999921198529,0.0029142053376753,-0.0050075118709247,-0.039999211985293,4.056420203813804,-1.831982284784317,0.7376536726951599,-3.543198108673096,8.443547284728538,-0.1147041526622714,-0.034028242347242,-0.5712940689027513
1.96,0.0720027089118957,-0.0084303617477417,1.664743423461914,-0.0098095400288833,-0.1307750974856278,-0.0033854567586382,0.1138817369937896,0.0499824620783329,0.0578311085700988,-2.914205337675328e-05,5.007511870924729e-05,1.6403999921198529,0.0029142053376753,-0.0050075118709247,-0.039999211985293,4.088951114566348,-1.6373544931411743,0.4444409161806106,-3.7203580141067514,9.381616938627758,-0.1761830232575759,0.0312243357009828,-0.5936845324057356
