t,x,y,z,roll,pitch,yaw,v_x,v_y,v_z,ref_x,ref_y,ref_z,ref_v_x,ref_v_y,ref_v_z,a_com,a_x,a_y,a_z,thrust,wind_x,wind_y,wind_z
0.0,-1.451661229133606,-0.0958592742681503,2.71533751487732,0.0159042069053477,0.0642319682755318,0.0014960457117431,0.0023120641708374,0.0027690455317497,0.0173592567443847,-1.44,-0.0799999999999999,2.71,0.0,0.0,0.0,0.8865058496767536,0.1156032085418701,0.1384522765874862,0.8679628372192383,11.002081301204726,-0.7378063998351798,0.152855964130595,-1.2151016381742672
0.02,-1.4515538215637207,-0.0957900583744049,2.7156982421875,0.0189245452415874,0.0639588238787629,0.0010590313614338,0.0048333406448364,0.003114715218544,0.0162327289581298,-1.440122,-0.0799679999999999,2.71004,-0.0122,0.0032,0.004,0.1391526809292021,0.1260638236999511,0.017283484339714,-0.0563263893127441,11.22244559254068,-0.7220357817645098,0.1304302411769274,-1.2330873056588607
0.04,-1.4517673254013062,-0.0955641195178031,2.7159886360168457,0.025391219435424,0.0666525813883651,0.001653375524341,-0.0096076726913452,0.0101672485470771,0.0130677223205566,-1.4404246983196114,-0.0798135233240018,2.7097200028762733,-0.0180698319611561,0.0122476675998127,-0.0359997123726534,0.8189907806894561,-0.722050666809082,0.3526266664266586,-0.1582503318786621,11.69026291818318,-0.7102318273069178,0.1417064683592315,-1.2358364626020435
0.06,-1.45176100730896,-0.0955138579010963,2.716320276260376,0.0273956229836348,0.0693502289019413,0.0033922013091643,0.0002843141555786,0.0022617727518081,0.0149238109588623,-1.4407108194552434,-0.0793614368401002,2.7094000081914373,-0.0105422816020292,0.0329609807903504,0.0040002438890457,0.6399082285034035,0.4945993423461914,-0.3952737897634506,0.0928044319152832,11.275986996213303,-0.7945524977549959,0.2011379626962834,-1.2992080269316653
0.08,-1.4516918659210205,-0.0954736769199371,2.716543197631836,0.0255283755320067,0.0738468037214202,0.0031932802034693,0.0011909008026123,0.005044899880886,0.0140225887298583,-1.4407410208736042,-0.0784120686956822,2.7098800128623006,0.007522139765953,0.0619758336514332,0.0440002231972677,0.1531330913881779,0.0453293323516845,0.1391563564538955,-0.0450611114501953,10.957693610349908,-0.7323264000492574,0.1643608142748007,-1.238252875392994
0.1,-1.4516260623931885,-0.0953571572899818,2.7177493572235107,0.0111539815772545,0.084929977037318,0.001266890149089,0.0029611587524414,0.0052433833479881,0.0542771816253662,-1.440299284707422,-0.0768019366189842,2.711160017189072,0.0366514768522936,0.0990373740183702,0.0840002094798652,2.014699393258653,0.088512897491455,0.0099241733551025,2.01272964477539,10.853207115694204,-0.7405785537548623,0.1943083207422768,-1.2185589031670647
0.12,-1.4514433145523071,-0.0952921882271766,2.718561172485352,-0.0108234552365467,0.1055429222268931,-0.0005563652899922,0.0082236528396606,0.0029236078262329,0.0365316867828369,-1.439169082782091,-0.0744211892370108,2.7132400212501286,0.0763687156807554,0.1390373641789815,0.1240001966257974,0.9327081399017406,0.2631247043609619,-0.1159887760877609,-0.8872747421264648,10.038047638483022,-0.7551894035952692,0.1891753112680182,-1.0040364677069655
0.14,-1.451000094413757,-0.0948000103235244,2.719557762145996,-0.0396648769789565,0.1308774743403697,-0.0036194958833876,0.0199449062347412,0.0221480056643486,0.0448465347290039,-1.4372417084891451,-0.0712691728986802,2.7157120074428267,0.1163687136138301,0.1761642696540706,0.1231984226440231,1.2001061929655563,0.5860626697540283,0.9612198919057846,0.4157423973083496,9.64310099186605,-0.7871828557751684,0.1352516008759757,-1.185100486361215
0.16,-1.4502078294754028,-0.0939559787511825,2.7206318378448486,-0.0736060729960606,0.1577839233335959,-0.0088349096730707,0.0356519222259521,0.0379814207553863,0.0483334064483642,-1.434514334237965,-0.0674547192043993,2.7179244287798,0.156368711504231,0.2052810997740122,0.0980437110533144,1.1286780532779632,0.7853507995605469,0.7916707545518875,0.1743435859680175,9.435932890589356,-0.7885777178767318,0.1843564772379863,-1.191403163718713
0.18,-1.4497660398483276,-0.0935655832290649,2.720980167388916,-0.0902700247333435,0.1706363886521854,-0.0119970847608581,0.0411558151245117,0.0413258001208305,0.0321221351623535,-1.4309869600289338,-0.0631096478780012,2.719485305637439,0.1963687093988834,0.2292260328658031,0.0580439747106015,0.8721855122155201,0.2751946449279785,0.1672189682722091,-0.8105635643005371,9.3284655875691,-0.8138045467194535,0.1613104038543667,-1.1263229916392925
0.2,-1.4484487771987915,-0.0922684520483017,2.720963716506958,-0.1233073890443829,0.2014550125035204,-0.0208763317827969,0.0592768192291259,0.058370903134346,-0.0007402896881103,-1.4266595858628548,-0.0582917286333434,2.720246188000696,0.2363687072089939,0.2525658915999738,0.0180442616150694,2.0608525502526778,0.9060502052307128,0.8522551506757736,-1.6431212425231934,9.42209841798376,-0.9056088898260318,0.0448284827596135,-1.1810698079376525
0.22,-1.446518063545227,-0.0901284292340278,2.7206006050109863,-0.1509586714213905,0.2269776188375033,-0.0268063441130587,0.0868821144104003,0.0963010266423225,-0.0163400173187255,-1.421532211741478,-0.0530130536894192,2.7202070763844874,0.276368704928666,0.2753016027924505,-0.0219554232359391,2.471891023854524,1.3802647590637207,1.8965061753988264,-0.7799863815307617,9.709199055097542,-0.9356460185656424,-0.005659518943884,-1.199493850625587
0.24,-1.4439151287078855,-0.0875163152813911,2.719224214553833,-0.1734914992981729,0.2495363844549619,-0.0330069715939255,0.1171320676803588,0.1175451278686523,-0.0619375705718994,-1.415604837666678,-0.0472856978618195,2.7193679714213483,0.3163687025513682,0.2974339799675121,-0.0619550730779512,2.934922644817595,1.5124976634979248,1.0622050613164902,-2.2798776626586914,9.732849572858868,-0.9271944816212048,0.0558309632341005,-1.060105773334565
0.26,-1.440847396850586,-0.0840386226773262,2.7172200679779053,-0.1918693344352809,0.2712728857070077,-0.0382727522761093,0.1380479335784912,0.1564961671829223,-0.090186595916748,-1.408877463640466,-0.0411217199577265,2.7177288739065157,0.3563687000698347,0.3189638104417901,-0.1019546784053516,2.6232919885443384,1.0457932949066162,1.947551965713501,-1.4124512672424316,9.955246588509908,-0.9164705106087604,-0.0154858941567964,-1.08924656757482
0.28,-1.4388988018035889,-0.0819820165634155,2.715733528137207,-0.2280119861731639,0.2808828777255431,-0.0483750867573823,0.1587384939193725,0.1729679405689239,-0.1162683963775634,-1.4013500896650082,-0.0345331632970439,2.715289784869879,0.3963686974759516,0.3398918556264703,-0.1419542252583013,1.857201470611922,1.0345280170440674,0.8235886693000793,-1.3040900230407717,10.242398351766042,-0.9837698219462268,0.0188149988032198,-1.0057815663350362
0.3,-1.4344426393508911,-0.0771792456507682,2.7127625942230225,-0.2101260646251949,0.2924942048658714,-0.0466388460233582,0.2005273103713989,0.2161246836185455,-0.1336920261383056,-1.3930227157426425,-0.0275320562262233,2.7120507056980583,0.4363686947606189,0.3602188514555787,-0.181953691923761,3.127456044915592,2.0894408226013184,2.157837152481079,-0.8711814880371094,10.669551387805312,-1.0661970426545953,-0.1344454779512621,-0.89564262246216
0.32,-1.4290529489517212,-0.0715786516666412,2.708526849746704,-0.2162092955145662,0.302158262016318,-0.0506902369895821,0.2425360679626464,0.2520267367362976,-0.1906085014343261,-1.3838953418759006,-0.0201304126204302,2.7080116383599337,0.4763686919135847,0.3799455091237318,-0.221953041888727,3.966477748756636,2.100437879562378,1.7951026558876038,-2.8458237648010254,10.602330488456571,-1.029768802536687,-0.084064693444618,-0.7829767498738147
0.34,-1.422879338264465,-0.0650527849793434,2.703702211380005,-0.2188566331563344,0.3103216421469127,-0.0534210965827836,0.2778124809265136,0.2936640083789825,-0.2171087265014648,-1.373967968067532,-0.012340232362387,2.7031725858766924,0.5163686889232418,0.3990725166805896,-0.2619522064353838,3.0332942612171,1.7638206481933594,2.081863582134247,-1.3250112533569336,11.201610881483248,-1.0056127309646987,-0.0950631828738421,-0.9316442607773332
0.36,-1.415298581123352,-0.0576900988817215,2.6985552310943604,-0.2229987105735675,0.3109586612428156,-0.0582888166439931,0.3411340713500976,0.3313208818435669,-0.2316141128540039,-1.363240594320536,-0.0041735017594805,2.6975335535022547,0.5563686857763789,0.4176005436100643,-0.3019510310084288,3.7543541941778313,3.166079521179199,1.8828436732292173,-0.7252693176269531,11.31899713801613,-1.0473463743617228,-0.0734615513680884,-0.9025923549627392
0.38,-1.4114285707473757,-0.0533265247941017,2.695690393447876,-0.2462718666455324,0.3080037562894669,-0.0640241687952709,0.3584396839141845,0.3696848452091217,-0.2394783496856689,-1.3517132206381932,0.0043578062873982,2.6910945528873813,0.5963686824578723,0.4355302610778116,-0.3419490304788633,2.1407499458580115,0.8652806282043457,1.9181981682777405,-0.3932118415832519,11.390349517749655,-0.9167745566086356,-0.0878854349939168,-0.8531625217750035
0.4,-1.402444839477539,-0.0447835326194763,2.689568042755127,-0.2218425350803522,0.3153864646799482,-0.0623473134241274,0.4042679071426391,0.3844346404075622,-0.275505781173706,-1.3393858470241111,0.0132417349721561,2.6838556411574195,0.6363686789503343,0.4528626073979793,-0.3819421425173455,3.006558797985752,2.291411161422729,0.7374897599220276,-1.8013715744018557,11.524165735243514,-1.1113011657235592,-0.1383070584619852,-0.7984576405312236
0.42,-1.3923699855804443,-0.0346703231334686,2.6830878257751465,-0.2201751191955038,0.3175503433891494,-0.0643694018743187,0.4533684253692627,0.455094426870346,-0.2916097640991211,-1.326258473482166,0.0224670416025971,2.6758257026962187,0.6763686752441949,0.4696680556461098,-0.4210517036027735,4.376929454295344,2.4550259113311768,3.5329893231391907,-0.805199146270752,11.700609631828229,-1.102386614325194,-0.2959689258738118,-0.918492040958815
0.44,-1.3812114000320437,-0.0237986911088228,2.676435947418213,-0.2170326241328669,0.3212951287996276,-0.0659642543541671,0.5021363496780396,0.489223450422287,-0.2993345260620117,-1.312331100016459,0.0320236161316712,2.667028762994533,0.7163686713264688,0.4859893972613077,-0.4586422665657137,3.00115504322038,2.4383962154388428,1.706451177597046,-0.3862380981445312,11.73202174558537,-1.1078955793351914,-0.0920609023675774,-0.9845900507797652
0.46,-1.3689148426055908,-0.0119778886437416,2.669473171234131,-0.2143972636558153,0.3209196883993053,-0.0668508261190568,0.5533450841903687,0.5319361090660095,-0.3133249282836914,-1.2976037266314466,0.0419017227883565,2.657495841213348,0.756368667174759,0.5018212684072242,-0.4946499115528648,3.4067715850544453,2.560436725616455,2.1356329321861267,-0.6995201110839844,12.027002267837815,-1.1209926186371657,-0.1408368073415892,-1.0058614976600784
0.48,-1.3622043132781982,-0.0057210540398955,2.6660492420196533,-0.2345202512261791,0.3150637632616764,-0.0706051365121316,0.5805963277816772,0.5570883750915527,-0.3141725063323974,-1.28207635333207,0.052091512913091,2.6472592535956982,0.7963686627629029,0.5171577440662122,-0.529008850212045,1.8547136922185463,1.3625621795654297,1.2576133012771606,-0.0423789024353027,11.906396586377925,-1.1197321144556998,-0.127722268331505,-1.0682179565723138
0.5,-1.3480850458145142,0.0075627760961651,2.65885853767395,-0.2080739265890433,0.3220977379605571,-0.0675819470728703,0.6353670358657837,0.5977723598480225,-0.3235816955566406,-1.26574898012384,0.0625830147360824,2.6363526702100097,0.8363686580601073,0.5319924382329262,-0.5616494883568283,3.443671703849206,2.7385354042053223,2.0341992378234863,-0.4704594612121582,12.19628980652169,-1.2701833610300073,-0.2605585533685716,-1.054072142759248
0.52,-1.3327312469482422,0.0219005122780799,2.651639938354492,-0.2008031793981005,0.3220979585225204,-0.0664141808645788,0.6909209489822388,0.6451981067657471,-0.3248369693756103,-1.248621607012941,0.0733661239539608,2.624811196522197,0.8763686530297945,0.5463184835549172,-0.5924978804244555,3.652743641981769,2.777695655822754,2.3712873458862305,-0.0627636909484863,12.12688475256391,-1.239967049949018,-0.2403787308859905,-1.1182598220546218
0.54,-1.3163175582885742,0.036927293986082,2.6441166400909424,-0.1922012033001025,0.3252619995216548,-0.0659076430154229,0.7386159896850586,0.6762051582336426,-0.3385484218597412,-1.2306942340063625,0.0844305937509091,2.6126714650136345,0.9163686476280586,0.5601284961399146,-0.6214752704317819,2.925858026973002,2.384752035140991,1.5503525733947754,-0.685572624206543,12.13658231212412,-1.203016791926144,-0.1714588880805398,-1.1366814399019642
0.56,-1.298578858375549,0.0529124923050403,2.637105226516724,-0.1847756579525015,0.3242181258932334,-0.0649364671117294,0.7982414960861206,0.7193339467048645,-0.3155136108398437,-1.2119668611120662,0.0957660240464028,2.5999717362144947,0.956368641801571,0.5734145334094685,-0.6484976094821868,3.855481788084623,2.9812753200531006,2.156439423561096,1.151740550994873,12.269502503624608,-1.2492190685504654,-0.2125068583282826,-1.2566072176936476
0.58,-1.289177179336548,0.0612440593540668,2.633385181427002,-0.2000497362133678,0.3186535834928363,-0.0678357820268159,0.8368384838104248,0.7255348563194275,-0.3203094005584717,-1.1924394883392038,0.1073618498395155,2.586752009894496,0.9963686354846808,0.5861680459017975,-0.6734750225177496,1.9692500732914584,1.92984938621521,0.3100454807281494,-0.2397894859313964,12.045025344097212,-1.201112079865036,-0.1554371865951764,-1.1349608855981514
0.6,-1.2699272632598877,0.0786902531981468,2.6258933544158936,-0.1694565888064418,0.3285216460522837,-0.060486127877377,0.866246223449707,0.7850787043571472,-0.3371322154998779,-1.1721121156984038,0.11920732852497,2.573054147573744,1.036368628595305,0.5983798226436507,-0.6963112095574486,3.4253803045733737,1.470386981964111,2.9771924018859863,-0.8411407470703125,12.21073573755757,-1.304203618074601,-0.3727989776816524,-1.218612920889218
0.62,-1.2492012977600098,0.0965694636106491,2.6186556816101074,-0.157054897438623,0.3277531630480975,-0.058499639347437,0.9326684474945068,0.8045644760131836,-0.325695276260376,-1.1509847432021614,0.1312915260440876,2.558922007795379,1.0763686210289545,0.6100399292681118,-0.7169027682790271,3.50799469899002,3.3211112022399902,0.9742885828018188,0.5718469619750977,12.24320463155982,-1.4548147174436052,-0.1759086928114909,-1.3621768412296893
0.64,-1.2271090745925903,0.1150309965014457,2.611689567565918,-0.1470253405194599,0.3269735920414071,-0.0564824576645325,0.9941500425338744,0.8307690024375916,-0.3134751319885254,-1.129057370865374,0.1436033017144872,2.5444015958764084,1.1163686126497652,0.621137637771838,-0.7351384236180268,3.3970559532252107,3.074079751968384,1.310226321220398,0.6110072135925293,12.19792406201168,-1.3476333540705958,-0.2378784898810136,-1.3245992495843688
0.66,-1.204073429107666,0.1341990828514099,2.604422092437744,-0.128113143349683,0.3287459683902862,-0.0530846383014736,1.0366040468215942,0.8625639081001282,-0.3270363807678222,-1.1063299987061108,0.156131291557533,2.529541230163644,1.156368603276558,0.6316613465327393,-0.7508981476584331,2.737318932187712,2.1227002143859863,1.589745283126831,-0.6780624389648438,11.885644490674622,-1.3013099468271871,-0.2430989532444037,-1.2943960350510662
0.68,-1.192074418067932,0.144039437174797,2.6010186672210693,-0.1198576627260791,0.3270314565397872,-0.0515034785453762,1.0641825199127195,0.8752419948577881,-0.318378210067749,-1.0828026267467434,0.1688638899118479,2.5143917271893157,1.196368592660176,0.6415984888987458,-0.7640521497744044,1.5781872367880585,1.3789236545562744,0.6339043378829956,0.4329085350036621,11.97176760940556,-1.3567568520649929,-0.1769123743645132,-1.4124725913790417
0.7000000000000001,-1.1670658588409424,0.1638429164886474,2.5939276218414307,-0.0999409584315938,0.3250334983333899,-0.0474963200614554,1.1253851652145386,0.8911565542221069,-0.3190970420837402,-1.058475255015695,0.1817892290836586,2.499006608564609,1.236368580444642,0.6509354282823159,-0.7744597126962116,3.1621012440969896,3.0601322650909424,0.7957279682159424,-0.0359416007995605,11.521306416377229,-1.5069227100249136,-0.2315802165940115,-1.3932038696226252
0.72,-1.1408772468566897,0.1840831339359283,2.587205171585083,-0.0819852449828987,0.3202685799986547,-0.0446186996375437,1.1784875392913818,0.9108097553253174,-0.3025102615356445,-1.0333478835502894,0.1948951567387576,2.483442332990526,1.276368566095947,0.6596573372275941,-0.7819678447121777,2.950098191226401,2.655118703842163,0.9826600551605223,0.8293390274047852,11.53070143811192,-1.4323269201110884,-0.2337646745439325,-1.4342629921323464
0.74,-1.1137834787368774,0.2046514600515365,2.580207586288452,-0.0617342632447915,0.3199964878349116,-0.0423660862453932,1.2192195653915403,0.9255746603012084,-0.3148913383483886,-1.0074205124017337,0.2081692106842962,2.467758557430583,1.316368548759646,0.6677480573262558,-0.786409711282113,2.252993249110044,2.0366013050079346,0.7382452487945557,-0.619053840637207,10.99980985934326,-1.4033521514943732,-0.1853961082208148,-1.3688021959795291
0.76,-1.0998585224151611,0.2149466872215271,2.5766139030456543,-0.0650964336823446,0.3144195236170331,-0.04657795223317,1.2419003248214722,0.9217431545257568,-0.3170907497406006,-0.9806931416447324,0.2215985906185854,2.452018432311978,1.3563685269404762,0.6751899361026662,-0.7876028005783795,1.155351348397906,1.134037971496582,-0.191575288772583,-0.1099705696105957,10.757110764344816,-1.4421457078206044,-0.1426384497982318,-1.4535636778406824
0.78,-1.0710828304290771,0.2357622534036636,2.569547414779663,-0.0483955021588144,0.3127245662588022,-0.0442045180072903,1.2949061393737793,0.9367004632949828,-0.3179919719696045,-0.953165771398846,0.2351701263397185,2.436288936638465,1.3963684976481694,0.6819636360106349,-0.7853467667728599,2.7541557978251667,2.6502907276153564,0.7478654384613037,-0.0450611114501953,10.606075786536168,-1.449984579080858,-0.2454696734348802,-1.487414644794271
0.8,-1.041179060935974,0.256721556186676,2.562565326690674,-0.0132647301619983,0.312384650866908,-0.0348553627571801,1.3456696271896362,0.9431686401367188,-0.3141939640045166,-0.9248384018882768,0.2488702417936776,2.42064126012501,1.4363684534087346,0.688047909385281,-0.7794208845726819,2.56573277612337,2.5381743907928467,0.323408842086792,0.1899003982543945,10.133662763872508,-1.4884151175594886,-0.2035568651123906,-1.4427823571807177
0.8200000000000001,-1.0103272199630735,0.2775700092315674,2.555157423019409,0.0034599194443043,0.3106501663303354,-0.0317818681093872,1.3883328437805176,0.9381803870201112,-0.3333556652069092,-0.8957110337107355,0.2626849141997772,2.4051512405523776,1.4763683643453955,0.6934193312246709,-0.769581072690539,2.3517033784076453,2.1331608295440674,-0.2494126558303833,-0.9580850601196288,9.45003807019475,-1.427775336576103,-0.1426272567787379,-1.3855479397197124
0.84,-0.9787405729293824,0.2982395589351654,2.547340154647827,0.0180237194487555,0.3076235809771719,-0.0302683040855834,1.4213991165161133,0.9301297664642334,-0.3517770767211914,-0.865784694679356,0.2765995994426045,2.389895831649015,1.5162655387925523,0.6980491930580642,-0.7559598176457293,1.934902637174575,1.6533136367797852,-0.4025310277938843,-0.9210705757141112,9.2571057215182,-1.3999787966182384,-0.1375269067629266,-1.412591433529218
0.86,-0.9461525678634644,0.3187664449214935,2.538979768753052,0.0325450606827622,0.3055678881134306,-0.0289339604855054,1.4664602279663086,0.9237098693847656,-0.3762173652648926,-0.8352525431092244,0.2905973539217508,2.374376639178568,1.5369496182206197,0.7017262548565595,-0.7959594293989977,2.583140795493566,2.2530555725097656,-0.3209948539733886,-1.2220144271850586,9.175979782299692,-1.426720702267133,-0.136215946775099,-1.3961587644986342
0.88,-0.9296046495437622,0.3291560709476471,2.534515142440796,0.021031522314572,0.3019155501234606,-0.0353476744591879,1.4828405380249023,0.9275306463241576,-0.3878045082092285,-0.8043618902628556,0.3046629403072666,2.358057452728937,1.5521156664162483,0.7048323836950279,-0.835959215564029,1.021242840426228,0.8190155029296875,0.1910388469696045,-0.5793571472167969,8.687267943348616,-1.3662801822284818,-0.1075392127508078,-1.3987391362910826
0.9,-0.8958521485328674,0.3493318259716034,2.525320529937744,0.0539247698789815,0.3031614480771672,-0.0255912466640514,1.51886248588562,0.9079089760780334,-0.4137575626373291,-0.7732220668326178,0.3187850097719398,2.3409382700030865,1.5618666766075333,0.707374562772295,-0.8759590570210745,2.4270103548789503,1.801097393035889,-0.9810835123062134,-1.2976527214050293,8.553760382657401,-1.4608062615800628,-0.0305553243242265,-1.2932965274949249
0.92,-0.8611775636672974,0.3692713677883148,2.5152103900909424,0.0676976826809033,0.3011484898881478,-0.0234068003767759,1.560356378555298,0.8972793817520142,-0.4549562931060791,-0.7419405675008705,0.3329523310895252,2.323019090200537,1.5662832565672054,0.709357568986239,-0.9159589232338547,2.971559690068158,2.0746946334838867,-0.5314797163009644,-2.0599365234375,8.381802634996347,-1.404987751177634,-0.07718694896352,-1.1892919762092038
0.94,-0.8258314728736877,0.3889278471469879,2.504290580749512,0.080579489929368,0.2985336239160908,-0.0219682431930989,1.590574026107788,0.8845415711402893,-0.4913914203643799,-0.7106234831320807,0.3471537476826959,2.304299912957965,1.5654251803117565,0.7107840903308245,-0.9559588010233214,2.45095723193779,1.5108823776245115,-0.6368905305862427,-1.821756362915039,8.17604381289857,-1.315271857145378,-0.0519116451580137,-1.1550444909142057
0.96,-0.7898845076560974,0.4082338213920593,2.4924936294555664,0.0920371727848403,0.2946361416131428,-0.0206181725787514,1.617613434791565,0.8687688112258911,-0.5308628082275391,-0.6793759063481994,0.3613781365978269,2.284780738123023,1.5593324980763832,0.7116548011822835,-0.9959586824709076,2.51887873722094,1.3519704341888428,-0.7886379957199097,-1.973569393157959,8.143595639563046,-1.2940063229567935,-0.0248011171232613,-1.1120886908053624
0.98,-0.7717288732528687,0.4177269637584686,2.486079692840576,0.0990288265253389,0.2943799096125649,-0.0202080849681687,1.630598068237305,0.8591772317886353,-0.5605602264404297,-0.6483023187394836,0.3756143686069402,2.264461565688029,1.5480262627951928,0.7119683997290482,-1.035958561028494,1.690070819768169,0.6492316722869873,-0.4795789718627929,-1.4848709106445312,8.01724725157419,-1.278150589277564,-0.0164481086962487,-1.0151609320858566
1.0,-0.7347438931465149,0.436335951089859,2.472616672515869,0.1083639877020578,0.2888137199051693,-0.0185869291978416,1.6643240451812744,0.8374044299125671,-0.6058359146118164,-0.6175069670544276,0.389851268700611,2.2433423957864407,1.5315089057104048,0.711721609638032,-1.0759584291303204,3.025468708213795,1.6862988471984863,-1.0886400938034058,-2.263784408569336,8.009946577847131,-1.3394258914283594,0.0381686333383072,-0.8724131204109874
1.02,-0.6971783638000488,0.4545307457447052,2.457933187484741,0.1170665771596257,0.2791974110105988,-0.017682161765949,1.690448760986328,0.8187657594680786,-0.6607568264007568,-0.5870942352252575,0.4040775762614596,2.221423228747778,1.509764277206613,0.7109091464468256,-1.115958274735935,3.1804902780709963,1.3062357902526855,-0.9319335222244264,-2.746045589447021,8.094399994907235,-1.2558437586594022,0.0107122179879125,-0.8081021232948128
1.04,-0.6590660810470581,0.4723369479179382,2.4421725273132324,0.1282135201310148,0.2635906980455205,-0.0183946424894969,1.7150527238845823,0.8012790679931641,-0.7092297077178955,-0.5571690189084901,0.4182819042013805,2.198704065285891,1.4827573544701214,0.7095236475452698,-1.1559580714527813,2.855153057290861,1.2301981449127195,-0.8743345737457275,-2.4236440658569336,8.84239243783668,-1.209142807032282,0.0178298284874711,-0.8008207095948314
1.06,-0.6207429766654968,0.4896501898765564,2.425078153610229,0.1382569644304764,0.2411161941062252,-0.0193588427337712,1.7245397567749023,0.7790958881378174,-0.7692468166351318,-0.5278371093427986,0.4324526962963327,2.1751849072975364,1.4504336020990367,0.7075555619499521,-1.195957727382711,3.2342505408286155,0.4743516445159912,-1.109158992767334,-3.0008554458618164,8.424247462573021,-1.1712604575903036,0.0345018568040642,-0.7183892316814169
1.08,-0.6012547612190247,0.4981659650802612,2.416260242462158,0.1263779622772206,0.2083605516559334,-0.0302269077483331,1.7400107383728027,0.7695284485816956,-0.7890629768371582,-0.499205590950244,0.4465781812346518,2.150865775740597,1.412718237156419,0.7049929318819561,-1.2359554283112095,1.3449603864194206,0.7735490798950195,-0.4783719778060913,-0.9908080101013184,9.148591925087205,-1.196331322897602,0.0369965927597449,-0.7359336865497421
1.1,-0.5622931122779846,0.5144388675689697,2.3976378440856934,0.1573352250698239,0.1943714483024168,-0.0233826660377523,1.7532742023468018,0.7322806119918823,-0.838007926940918,-0.4713512254724447,0.4606404510991257,2.125898204556036,1.3727183106235097,0.7012340545654318,-1.2608016901448824,3.14600101234509,0.6631731986999512,-1.8623918294906616,-2.4472475051879883,8.678309065520807,-1.1537112659050208,0.1000610877111573,-0.4981004408293469
1.12,-0.5231277942657471,0.5302257537841797,2.378248691558838,0.169901106197916,0.1538679028068221,-0.0275656804656595,1.762439250946045,0.7104098796844482,-0.8725118637084961,-0.4442968589285884,0.4746170452401012,2.100530100859934,1.3327183437621195,0.6964253595321128,-1.2760086794652217,2.093351797925375,0.4582524299621582,-1.093536615371704,-1.7251968383789062,9.332304198726431,-1.1127239876841928,0.0173309801911307,-0.4938061004950186
1.14,-0.4838957190513611,0.5451288819313049,2.358205556869507,0.1802310532574059,0.1040753313368621,-0.034328485816457,1.7654433250427246,0.670640766620636,-0.9019410610198976,-0.4180424918415105,0.4884853221512108,2.074973788765731,1.2927183649456755,0.6904023315788494,-1.2796225299551889,2.47824760135767,0.1502037048339843,-1.9884556531906128,-1.4714598655700684,8.610770075873916,-1.07950903996521,0.0654952880453091,-0.4731547353623553
1.16,-0.4445419907569885,0.5594168305397034,2.3372609615325928,0.1906779156539896,0.0480403052173451,-0.0408926226212397,1.7709177732467651,0.6429576873779297,-0.9425067901611328,-0.392588123155481,0.5022187420676476,2.049488230042244,1.252718378385452,0.6829395917708765,-1.2689332155001447,2.4707796544090845,0.2737224102020263,-1.384153962135315,-2.028286457061768,8.346152960398285,-1.0252261107775034,0.0033146240794452,-0.4142317152746779
1.18,-0.4251640141010284,0.5664721131324768,2.326587915420532,0.1789535428369336,-0.007236944676193,-0.0506090658828557,1.7610552310943604,0.6248500943183899,-0.9569263458251952,-0.3679337554672193,0.5157852660265559,2.024398991640519,1.2127183904407142,0.6737128041199522,-1.239990624672383,1.2580523137640698,-0.4931271076202392,-0.9053796529769896,-0.720977783203125,7.931741230489933,-0.9132232663958204,0.0453884888873622,-0.4934457983679782
1.2,-0.3867397606372833,0.5794250965118408,2.304749727249145,0.2008936001488402,-0.0489748383486896,-0.0540497097739609,1.7290914058685305,0.5828842520713806,-0.9827184677124025,-0.3440793875576759,0.5291525100602957,1.999999143650884,1.172718400513629,0.6630115992540385,-1.1999941742911684,2.9360056156336043,-1.598191261291504,-2.098292112350464,-1.2896060943603516,7.589777231381959,-0.8436475848258108,0.1189467206189464,-0.3760316426350901
1.22,-0.3491213619709015,0.5915930271148682,2.282020092010498,0.2036720167596509,-0.1183513759981184,-0.0652514271739651,1.6928279399871826,0.5475568771362305,-1.0228335857391355,-0.3210250194592098,0.5422970958686272,1.9763992482665735,1.1327184093329834,0.6514469815790986,-1.159995364139833,3.229661387759981,-1.8131732940673828,-1.766368746757507,-2.00575590133667,7.333057580502555,-0.8674451869588693,0.0705364420732749,-0.3922287824035563
1.24,-0.3305099904537201,0.5976726412773132,2.2703661918640137,0.1843247240286191,-0.2156488891037933,-0.0761609418050914,1.6768110990524292,0.5373108386993408,-1.0397100448608398,-0.2987706522669305,0.5552017496229465,1.9535993349641196,1.0927184191667685,0.6390184577546738,-1.1199960781051814,1.271156333487312,-0.8008420467376709,-0.5123019218444824,-0.8438229560852051,7.137689292489995,-0.8418316982945717,0.0540460596609118,-0.4367278728993813
1.26,-0.277167797088623,0.6143555641174316,2.2337958812713623,0.1934920011401586,-0.2687571812216117,-0.0883005885712003,1.5903340578079224,0.4961979389190674,-1.106475591659546,-0.2773162838132096,0.567849188247388,1.9315994083363064,1.0527184262053222,0.6257254046894718,-1.079996584676126,5.836563079004019,-4.323852062225342,-2.055644989013672,-3.3382773399353027,6.268501604108678,-0.7076523328058095,0.0928114847270311,-0.3637746143011063
1.28,-0.2600803971290588,0.6195995807647705,2.2210700511932373,0.1658311557128996,-0.3627258271322001,-0.0944298703313883,1.5541845560073853,0.4798606038093567,-1.1391878128051758,-0.2566619152252694,0.5802221138432672,1.910399472719574,1.0127184325886975,0.611567154898442,-1.0399969769970907,2.570887206391315,-1.8074750900268557,-0.8168667554855347,-1.635611057281494,7.034354731982603,-0.7053240153672066,0.0729729316855475,-0.2836463540475034
1.3,-0.2272163182497024,0.6298996210098267,2.1940698623657227,0.1785613626941215,-0.3904802579796591,-0.1080403175154979,1.4788835048675537,0.4635018110275268,-1.2150084972381592,-0.236807546515153,0.5923032154058956,1.889999529983929,0.9727184384229428,0.5965430013644041,-0.999997296567433,5.405236949461241,-3.765052556991577,-0.8179396390914917,-3.79103422164917,6.656836730689975,-0.497512505385684,0.0844708034866451,-0.0837096817642162
1.32,-0.1956230551004409,0.6399625539779663,2.165234327316284,0.1691257602147604,-0.4766992774868645,-0.1182388915209816,1.4216969013214111,0.4528319835662842,-1.2975990772247314,-0.2177531776930207,0.6040751674171249,1.8703995813606984,0.932718443790286,0.5806521997585213,-0.9599975657556552,5.05107828728549,-2.859330177307129,-0.5334913730621338,-4.129528999328613,8.136114669334347,-0.5416298446511291,0.0945562140073249,-0.141258876225749
1.34,-0.166767418384552,0.6495377421379089,2.1348397731781006,0.1574065894335332,-0.5617799954777476,-0.1331869453178949,1.2985036373138428,0.4308834671974182,-1.3677549362182615,-0.1994988087675601,0.6155206291034112,1.8515996277232216,0.8927184487557724,0.5638939688701217,-0.9199977979919642,7.172893805632584,-6.159663200378418,-1.0974258184432983,-3.5077929496765137,8.639728063282746,-0.4064172377597191,0.1143720177713738,-0.1683319672842063
1.36,-0.1400424838066101,0.65897536277771,2.102288246154785,0.1488449886676462,-0.6380801377425407,-0.1459053047602571,1.2026220560073853,0.4246929287910461,-1.4648187160491943,-0.1820444397462848,0.6266222436989773,1.8335996697235952,0.8527184533717395,0.5462674906864765,-0.8799980019706928,6.828795236836318,-4.794079065322876,-0.3095269203186035,-4.853188991546631,9.7825270342164,-0.6950907115987415,0.0280826321894781,0.000502900007618
1.38,-0.1277272254228592,0.6637642979621887,2.0852670669555664,0.1453936192590973,-0.6712511290670059,-0.1520483458880686,1.1412564516067505,0.4219624400138855,-1.5060603618621826,-0.1653900706357582,0.6373626377092281,1.816399707867461,0.8127184576809263,0.5277719103385912,-0.8399981836427294,3.699346672650922,-3.0682802200317383,-0.1365244388580322,-2.062082290649414,11.999246667586704,-0.6667532271883567,0.0376212028388945,-0.0577649959726361
1.4,-0.1049380898475647,0.6730763912200928,2.049983024597168,0.1284452437070046,-0.7415308164452162,-0.1653341572476962,1.0255111455917358,0.4190441966056824,-1.5877819061279297,-0.1495357014417621,0.6477244201724651,1.799999742558435,0.7727184617186834,0.5084063359851163,-0.7999983472598686,7.085884349584984,-5.787265300750732,-0.1459121704101562,-4.0860772132873535,13.997504714187016,-0.4268357456391923,0.055865261438391,0.306972568926493
1.42,-0.085003912448883,0.6826919913291931,2.0125391483306885,0.1152111447436434,-0.7873758636959205,-0.1742578275690886,0.8970379829406738,0.4327020049095154,-1.6849744319915771,-0.1344813314567112,0.6576901823965582,1.784399773386184,0.7327184635145854,0.4881698376072164,-0.7599984939654134,8.083668154524013,-6.423658132553101,0.6828904151916504,-4.859626293182373,14.500540381876815,-0.3992044324297008,0.0456617696110269,0.2470910147497426
1.44,-0.0679703578352928,0.6923348307609558,1.973145127296448,0.0938385703196134,-0.8125354234767296,-0.17783730313544,0.7665099501609802,0.4339277744293213,-1.7727309465408323,-0.120226962150629,0.6672424952827876,1.7695998021450434,0.6927184670936195,0.4670614510157181,-0.7199986301486455,7.864520916445915,-6.52640163898468,0.0612884759902954,-4.3878257274627686,16.080198282223137,-0.3659522188047723,0.1179464499423791,0.0960424194602924
1.46,-0.0541932061314582,0.7022337913513184,1.9324990510940552,0.0789187035017702,-0.7972730290123049,-0.1703319229816505,0.6199718117713928,0.4454532265663147,-1.829073429107666,-0.1067725927749219,0.6763639115075794,1.7555998282868752,0.6527184704770949,0.4450801714634707,-0.6799987556681535,7.870949337824811,-7.32690691947937,0.5762726068496704,-2.817124128341675,16.28495302981537,-0.2068984962328299,0.0594806725454754,-0.0608818632321498
1.48,-0.0482738055288791,0.7072737812995911,1.91133975982666,0.0529288735297184,-0.7494225700375653,-0.1225063246867622,0.5616872310638428,0.4556241631507873,-1.87366783618927,-0.0941182239260362,0.6850369623872368,1.7423998526302116,0.6127184756833248,0.4222249587247607,-0.6399988739981219,3.7044572619413807,-2.9142290353775024,0.5085468292236328,-2.2297203540802,15.337454293965491,0.0536257598151131,0.06133772919998,-0.2675642464482159
1.5,-0.0394568629562854,0.7170770764350891,1.8682560920715328,0.0856876219846793,-0.7231424602355803,-0.1448906477048123,0.3967624306678772,0.4411482810974121,-1.938765048980713,-0.0822638543819213,0.6932441592862169,1.729999874066955,0.5727184787281661,0.3984947311732453,-0.5999989823275113,8.89485638727331,-8.246240019798279,-0.7237941026687622,-3.254860639572144,15.694037313674926,1.0448319530347483,0.0675212346772458,-0.6468646964108437
1.52,-0.0342975705862045,0.7266343235969543,1.8249080181121824,0.1029545608082305,-0.6516539926988518,-0.1216619860970141,0.2321681529283523,0.4300761222839355,-1.9506633281707764,-0.0712094847783852,0.7009679903234777,1.7183998934073887,0.532718481625438,0.3738883725528365,-0.5599990836291422,8.269739719766182,-8.229713886976242,-0.5536079406738281,-0.5949139595031738,15.314732306154838,1.153966402695129,-0.0723225621012536,-1.2547389626288257
1.54,-0.0327261127531528,0.7361266016960144,1.7809932231903076,0.1334739886627502,-0.5808069194229275,-0.1027945336900188,0.0707156062126159,0.4271525144577026,-1.976165771484375,-0.0609551151182583,0.7081909213203893,1.7075999107840063,0.4927184843872583,0.3484047271383318,-0.5199991787090972,8.17402088000177,-8.07262733578682,-0.1461803913116455,-1.2751221656799316,15.586641642186803,1.254509996658627,-0.0732461413678721,-1.6525581626691837
1.56,-0.0351814366877079,0.7452867031097412,1.7374825477600098,0.1601358798104666,-0.5166688824256611,-0.0848739734141419,-0.1104895770549774,0.4122045636177063,-1.9579803943634035,-0.0515007454041426,0.7148953945982404,1.697599926314488,0.4527184870243107,0.3220426006467672,-0.4799992682427526,9.13639256194547,-9.06025916337967,-0.7473975419998169,0.909268856048584,15.466259848743904,1.2342628170943435,0.1048039858250935,-2.2022236623726794
1.58,-0.0378005020320415,0.7497122287750244,1.715849995613098,0.1626288096053099,-0.4675686551705252,-0.06412183377634,-0.1949766427278518,0.4025137424468994,-1.9426113367080688,-0.0428463756384388,0.721063828204713,1.6883999401040446,0.412718489546063,0.2948007600005027,-0.4399993528015811,4.320932831632006,-4.2243532836437225,-0.4845410585403442,0.7684528827667236,17.262819890913306,0.8668617015548185,0.2583929914079226,-2.3323228020450903
1.6,-0.0460257492959499,0.757735013961792,1.6739695072174072,0.1851202482934296,-0.4442571285931099,-0.070624213826177,-0.3701361417770386,0.361025333404541,-1.8846219778060915,-0.0349920058233688,0.7266786151355841,1.6799999522472948,0.3727184919609447,0.2666779330866011,-0.3999994328734181,9.455805615849243,-8.757974952459335,-2.07442045211792,2.899467945098877,16.717917143967043,1.174443236440005,0.470330443380956,-2.5
1.62,-0.0579786151647567,0.7648207545280457,1.6339906454086304,0.1963376603016572,-0.3964400868378461,-0.0631496672810459,-0.5378789901733398,0.3188583254814148,-1.7990487813949585,-0.0279376359609944,0.7317221225516025,1.6723999628297803,0.3327184942764935,0.2376728085152454,-0.3599995088780174,9.64863872384491,-8.387142419815063,-2.108350396156311,4.278659820556641,16.025601845675737,0.7020344283392774,0.4544904495612492,-2.342379427328673
1.64,-0.0730883553624153,0.7693544626235962,1.5995962619781494,0.1747535021426708,-0.318791181871527,-0.0389579612376236,-0.6799383163452148,0.2040168642997741,-1.547747254371643,-0.0216832660532347,0.7361766909905713,1.6655999719292087,0.2927184964994767,0.2077840353816217,-0.3199995811791515,15.5339845856586,-7.10296630859375,-5.742073059082031,12.565076351165771,16.074595608031814,0.2449720719727167,0.4938585407393769,-2.0831732841665143
1.66,-0.0857535377144813,0.7763361930847168,1.5707697868347168,0.0616731403906156,-0.1428568518154394,0.0254484282948943,-0.5699331760406494,0.3141778707504272,-1.2971913814544678,-0.01622889610188,0.7400246335747745,1.659599979616476,0.2527184986359928,0.1770102230387094,-0.2799996500941369,14.749137575544514,5.500257015228272,5.508050322532654,12.527793645858765,14.822666189981192,-0.0621074465995461,-0.054427108582212,-0.6091372206891226
1.68,-0.0926124081015586,0.7795632481575012,1.562793254852295,-0.120499377015196,0.0253218752102065,0.0753718283428637,-0.5920838713645935,0.3306224942207336,-0.9877073764801024,-0.011574525915886,0.743248235343178,1.6543999857365208,0.2127184986915574,0.1453499392666474,-0.2399997139014216,15.535558268001449,-1.1075347661972046,0.8222311735153198,15.474200248718262,15.650009603109083,0.9573184030265348,0.8226003333650006,0.1796640314736441
1.7,-0.104184404015541,0.7845045924186707,1.5523422956466677,-0.0411978164066606,0.0253149470616111,0.0708187488201604,-0.5207397937774658,0.2223604917526245,-0.4702931642532348,-0.0077201560749772,0.7458297518055907,1.6499999910090395,0.1727185026711729,0.1128017182548016,-0.199999778846663,26.67058799499521,3.5672038793563843,-5.4131001234054565,25.870710611343384,14.438623170053688,0.5422010563685856,0.5773193838957642,1.4182236760710345
1.72,-0.1158455088734626,0.7854406833648682,1.557435154914856,0.0828072438443649,-0.0556381488197594,0.0460280115907275,-0.5247496962547302,0.0421240925788879,0.2291786670684814,-0.0046657860024715,0.7477514094956241,1.6463999948290962,0.1327185045793944,0.0793640507485273,-0.1599998391477102,36.1165502822995,-0.2004951238632202,-9.011819958686829,34.973591566085815,16.08226170722446,0.8805907104801193,-0.3877152862480116,2.5
1.74,-0.1246431544423103,0.7879559397697449,1.5691046714782717,0.0958394245553333,-0.0710115087094205,0.0453241669840319,-0.3958940505981445,0.1131865382194519,0.5251282453536987,-0.0024114158924727,0.7489999924099894,1.6435999974676956,0.0927185064204846,0.0454942406880047,-0.1199998969923486,16.525722486868133,6.442782282829285,3.5531222820281982,14.797478914260864,6.877141392185877,0.7469580154240124,-1.6183450980142249,2.5
1.76,-0.1298003494739532,0.7882357835769653,1.5803916454315186,0.0552919609432317,-0.082957156289976,0.0537338340628628,-0.4472744464874267,0.0681737065315246,0.829993486404419,-0.0009570457462617,0.7496665463984873,1.6415999989613987,0.0527185082006138,0.0211611581617784,-0.0799999536373239,15.621212764956724,-2.5690197944641118,-2.2506415843963623,15.24326205253601,5.7793638879684295,1.7013885907124504,-0.530821881717199,2.5
1.78,-0.1398546546697616,0.7881984114646912,1.603157639503479,0.0481329125983865,-0.082871069198347,0.0596065466947181,-0.4524437189102173,-0.0016817450523376,1.0244697332382202,-0.0002149303321278,0.7499390789900525,1.6403999997125127,0.0214930332127817,0.006092100994749,-0.039999971251279,10.335317614365795,-0.2584636211395263,-3.4927725791931152,9.723812341690063,5.7793638879684295,0.8054402079341431,-1.0048276747209277,2.5
1.8,-0.1505917608737945,0.787767231464386,1.628614068031311,0.059998178520855,-0.0841928653486707,0.0608704607393136,-0.4831697940826416,-0.0194031000137329,1.1455392837524414,-0.0002149303321278,0.7499390789900525,1.6403999997125127,0.0214930332127817,0.006092100994749,-0.039999971251279,6.30792639836674,-1.5363037586212158,-0.8860677480697632,6.05347752571106,5.766800594327833,0.8270159722442982,-1.0875489265068028,2.5
1.82,-0.161951869726181,0.7869942784309387,1.6538186073303225,0.0592037414002458,-0.0712852853061636,0.0692650544675574,-0.5112048983573914,-0.0347828865051269,1.1342042684555054,-0.0002149303321278,0.7499390789900525,1.6403999997125127,0.0214930332127817,0.006092100994749,-0.039999971251279,1.6963103165390558,-1.4017552137374878,-0.7689893245697021,-0.5667507648468018,5.7793638879684295,0.6267070974574276,-0.8864678354881539,2.5
1.84,-0.173568919301033,0.7859572768211365,1.6781823635101318,0.0678888520396779,-0.049269248613793,0.0786243045321796,-0.5227672457695007,-0.046665072441101,1.0963690280914309,-0.0002149303321278,0.7499390789900525,1.6403999997125127,0.0214930332127817,0.006092100994749,-0.039999971251279,2.0654174116281445,-0.5781173706054688,-0.594109296798706,-1.8917620182037356,5.7714883743456085,0.4573706262361082,-0.8312671316842064,2.5
1.86,-0.1793019622564315,0.7853345274925232,1.6898512840270996,0.0576047521130709,-0.0189234926091855,0.0931387076004439,-0.5254051685333252,-0.0595477223396301,1.0742247104644775,-0.0002149303321278,0.7499390789900525,1.6403999997125127,0.0214930332127817,0.006092100994749,-0.039999971251279,1.2877229011702798,-0.1318961381912231,-0.6441324949264526,-1.1072158813476562,5.7793638879684295,0.3549315421598579,-0.75412381258644,2.5
1.88,-0.1911218911409378,0.7840220928192139,1.711917519569397,0.0620811830402708,0.0123440643700269,0.103723826047811,-0.5318968296051025,-0.0590595602989196,0.9929805994033812,-0.0002149303321278,0.7499390789900525,1.6403999997125127,0.0214930332127817,0.006092100994749,-0.039999971251279,4.07522562190014,-0.3245830535888672,0.0244081020355224,-4.06220555305481,5.77921350567749,0.3029841321004636,-0.7653293791573631,2.5
1.9,-0.2031060457229614,0.7825935482978821,1.7317229509353638,0.0802866475492441,0.0298352103698708,0.1091827525129458,-0.5392869710922241,-0.0642845034599304,0.8912444114685059,-0.0002149303321278,0.7499390789900525,1.6403999997125127,0.0214930332127817,0.006092100994749,-0.039999971251279,5.106898804009086,-0.3695070743560791,-0.2612471580505371,-5.086809396743774,5.765850162642437,0.2177861263897192,-0.6312135741218731,2.5
1.92,-0.2147826850414276,0.7811988592147827,1.7497892379760742,0.0797041840972926,0.0754485166428783,0.1235401534586798,-0.5254487991333008,-0.0627610087394714,0.8129829168319702,-0.0002149303321278,0.7499390789900525,1.6403999997125127,0.0214930332127817,0.006092100994749,-0.039999971251279,3.9745054981948686,0.691908597946167,0.0761747360229492,-3.9130747318267822,5.772829397728856,0.1350214489999419,-0.5318452693310015,2.5
1.94,-0.226303830742836,0.7797044515609741,1.7657674551010132,0.0623153030560509,0.1289810120876334,0.1342838109994589,-0.5184515714645386,-0.0672483444213867,0.7190197706222534,-0.0002149303321278,0.7499390789900525,1.6403999997125127,0.0214930332127817,0.006092100994749,-0.039999971251279,4.716505650955827,0.3498613834381103,-0.2243667840957641,-4.69815731048584,5.777441512414043,0.1598083356865021,-0.4039432629867512,2.5
1.96,-0.2316632568836212,0.7789360880851746,1.773104548454285,0.0046697499846576,0.1949642613925819,0.1391640666012797,-0.5003345608711243,-0.0684982538223266,0.689590573310852,-0.0002149303321278,0.7499390789900525,1.6403999997125127,0.0214930332127817,0.006092100994749,-0.039999971251279,1.7290647766537246,0.9058505296707152,-0.062495470046997,-1.4714598655700684,5.781583077467076,0.0641725781427923,-0.3106881814271363,2.5
1.98,-0.2425971031188964,0.7777257561683655,1.7858210802078247,-0.0335765523936311,0.2453942968957946,0.1412701684407745,-0.4920230805873871,-0.0544649362564086,0.5722439289093018,-0.0002149303321278,0.7499390789900525,1.6403999997125127,0.0214930332127817,0.006092100994749,-0.039999971251279,5.923733969954413,0.4155740141868591,0.7016658782958984,-5.867332220077515,5.771945316525944,0.1577353357124987,-0.3204414814268842,2.5
2.0,-0.2528784573078155,0.7767643332481384,1.796129584312439,-0.037084609706047,0.2682525815825674,0.1456763304668874,-0.462660938501358,-0.0432640314102172,0.4638826847076416,-0.0002149303321278,0.7499390789900525,1.6403999997125127,0.0214930332127817,0.006092100994749,-0.039999971251279,5.641310774586306,1.4681071043014526,0.5600452423095703,-5.418062210083008,5.787228311894069,0.0220757439932757,-0.2523949527274496,2.5
2.02,-0.26261767745018,0.7759536504745483,1.8039942979812624,-0.0808089296088941,0.325735508800579,0.1434130960048764,-0.4382649064064026,-0.0364807248115539,0.3539121150970459,-0.0002149303321278,0.7499390789900525,1.6403999997125127,0.0214930332127817,0.006092100994749,-0.039999971251279,5.642407688848007,1.2198016047477722,0.3391653299331665,-5.498528480529785,5.80410751127738,0.0308900714602301,-0.2017675398042993,2.19404288514147
2.04,-0.2713389694690704,0.7762601971626282,1.8099181652069087,-0.1179520187752198,0.3678074458756932,0.142234719780609,-0.3924581408500671,0.0137946009635925,0.2665740251541137,-0.0002149303321278,0.7499390789900525,1.6403999997125127,0.0214930332127817,0.006092100994749,-0.039999971251279,5.534846453924872,2.2903382778167725,2.513766288757324,-4.3669044971466064,5.779283584000496,0.0081251810844935,-0.2326089115810701,1.8197702653198429
2.06,-0.2791789174079895,0.7767952680587769,1.8132060766220093,-0.151511084461105,0.4040875743375671,0.1404641797760391,-0.352797657251358,0.0240781903266906,0.1479560136795044,-0.0002149303321278,0.7499390789900525,1.6403999997125127,0.0214930332127817,0.006092100994749,-0.039999971251279,6.27473880246478,1.9830241799354555,0.5141794681549072,-5.930900573730469,5.770940441147104,0.0978654505956322,-0.0859555784663917,1.1598189054265189
2.08,-0.2833129465579986,0.7775850296020508,1.813313603401184,-0.1987452430046404,0.4433288691118318,0.1295551312275093,-0.3567136824131012,0.0551167130470275,0.0734764337539672,-0.0002149303321278,0.7499390789900525,1.6403999997125127,0.0214930332127817,0.006092100994749,-0.039999971251279,4.039162342495269,-0.1958012580871582,1.5519261360168457,-3.723978996276856,5.974875043271823,0.0978654505956322,-0.0859555784663917,1.1598189054265189
2.1,-0.2899197936058044,0.7791261076927185,1.8124961853027344,-0.1798864417576701,0.4510702535762905,0.1376106671431746,-0.2973081171512604,0.0693485140800476,-0.0367838144302368,-0.0002149303321278,0.7499390789900525,1.6403999997125127,0.0214930332127817,0.006092100994749,-0.039999971251279,6.302556559517055,2.970278263092041,0.711590051651001,-5.513012409210205,6.561991943735848,-0.211084884736269,-0.0046997064728897,0.8072303333783202
2.12,-0.2956252694129944,0.7807589769363403,1.8089423179626465,-0.1818181340958908,0.4708080212544299,0.1318725722902343,-0.2567464113235473,0.0734791159629821,-0.159924030303955,-0.0002149303321278,0.7499390789900525,1.6403999997125127,0.0214930332127817,0.006092100994749,-0.039999971251279,6.485720202297345,2.02808529138565,0.2065300941467285,-6.157010793685913,7.644625175172678,-0.0724595270896255,-0.0734213668359551,0.5037676747419197
2.14,-0.3004800379276275,0.783351719379425,1.8029649257659912,-0.1671016832187245,0.480010430857791,0.1299590423885618,-0.218464583158493,0.1166734099388122,-0.2689826488494873,-0.0002149303321278,0.7499390789900525,1.6403999997125127,0.0214930332127817,0.006092100994749,-0.039999971251279,6.169486947629657,1.914091408252716,2.159714698791504,-5.452930927276611,8.628911042318123,-0.0716518427373567,-0.1815082342064661,0.0135797043554882
2.16,-0.3043105900287628,0.7864752411842346,1.794546604156494,-0.1375717417199355,0.4824815790511365,0.1276069360406188,-0.1723748445510864,0.1405584812164306,-0.3788244724273681,-0.0002149303321278,0.7499390789900525,1.6403999997125127,0.0214930332127817,0.006092100994749,-0.039999971251279,6.07453431172923,2.304486930370331,1.1942535638809204,-5.492091178894043,10.066568085253492,-0.1197668019125823,-0.0417010232020898,-0.1087940501795019
2.18,-0.3055505752563476,0.7882052659988403,1.789844632148743,-0.1360788659302818,0.4786389943569465,0.1154935379186224,-0.1415133476257324,0.1485460996627807,-0.409514307975769,-0.0002149303321278,0.7499390789900525,1.6403999997125127,0.0214930332127817,0.006092100994749,-0.039999971251279,2.21252121283955,1.5430748462677002,0.3993809223175049,-1.534491777420044,11.124110234792624,-0.1254564120820407,0.0181838776984749,-0.5357321568793934
2.2,-0.3072839677333832,0.791637122631073,1.778202772140503,-0.0786160744545231,0.4721976115458345,0.1214812125670391,-0.0780026614665985,0.1544335484504699,-0.5238837003707886,-0.0002149303321278,0.7499390789900525,1.6403999997125127,0.0214930332127817,0.006092100994749,-0.039999971251279,6.547638357919139,3.175534307956696,0.2943724393844604,-5.718469619750977,11.083294326326268,-0.2777685921162348,-0.1223805949170739,0.0361684581532295
2.22,-0.3077729940414428,0.7961879968643188,1.765482783317566,-0.0349886876433993,0.4624033346793602,0.117700273219919,-0.0220061838626861,0.2047893404960632,-0.5723994970321655,-0.0002149303321278,0.7499390789900525,1.6403999997125127,0.0214930332127817,0.006092100994749,-0.039999971251279,4.479144399958704,2.7998238801956177,2.517789602279663,-2.425789833068848,12.923924223026916,-0.2571475380208182,-0.192319246668082,-0.3703736079100869
2.24,-0.3064378499984741,0.8013635277748108,1.751943826675415,0.0032562970622178,0.4463655559541718,0.1161928768744384,0.0600814819335937,0.2328988909721374,-0.6092530488967896,-0.0002149303321278,0.7499390789900525,1.6403999997125127,0.0214930332127817,0.006092100994749,-0.039999971251279,4.713468995571955,4.104383289813995,1.405477523803711,-1.8426775932312007,12.937459646745992,-0.3508822443609305,0.0443597712780224,-0.300042355856256
2.26,-0.30351322889328,0.8066115379333496,1.7378484010696411,0.0314639563245787,0.4278180921283214,0.1085747092242141,0.1316079497337341,0.2361604571342468,-0.6342941522598267,-0.0002149303321278,0.7499390789900525,1.6403999997125127,0.0214930332127817,0.006092100994749,-0.039999971251279,3.7926673553821737,3.576323390007019,0.1630783081054687,-1.2520551681518557,13.610748950968627,-0.4436027443973189,0.2362084505852484,-1.0984571375990986
2.28,-0.3013300895690918,0.8093267679214478,1.730793595314026,0.0276922383028009,0.4085162362261706,0.0874566450144637,0.1832753419876098,0.2454301714897155,-0.6331032514572144,-0.0002149303321278,0.7499390789900525,1.6403999997125127,0.0214930332127817,0.006092100994749,-0.039999971251279,2.6252929699699727,2.5833696126937866,0.4634857177734375,0.0595450401306152,13.927419007321989,-0.4436027443973189,0.2362084505852484,-1.0984571375990986
2.3000000000000003,-0.2956743538379669,0.8148473501205444,1.7163801193237305,0.0662375042364035,0.3973475746986868,0.0953978910533543,0.2545081079006195,0.2484261989593505,-0.6486064195632935,-0.0002149303321278,0.7499390789900525,1.6403999997125127,0.0214930332127817,0.006092100994749,-0.039999971251279,3.64809242671488,3.561638295650482,0.1498013734817505,-0.7751584053039551,14.321442814147304,-0.6282034243579125,0.249771751108601,-0.9623201983128707
2.32,-0.2882676720619201,0.8203497529029846,1.7022755146026611,0.0897037862014315,0.3718305823034094,0.0869289102799971,0.3333006799221039,0.2476081252098083,-0.6347072124481201,-0.0002149303321278,0.7499390789900525,1.6403999997125127,0.0214930332127817,0.006092100994749,-0.039999971251279,4.000664510069226,3.9396286010742183,-0.0409036874771118,0.694960355758667,15.557130021463308,-0.7493282034958015,0.3033000274445855,-1.30101406974528
2.34,-0.2789298593997955,0.8253134489059448,1.6887567043304443,0.1107149057432466,0.3414978465060805,0.0781010440434617,0.4202015697956085,0.2233663201332092,-0.6083464622497559,-0.0002149303321278,0.7499390789900525,1.6403999997125127,0.0214930332127817,0.006092100994749,-0.039999971251279,4.699552884370855,4.345044493675232,-1.212090253829956,1.318037509918213,14.967012765790969,-0.7579815001350916,0.3609874328794972,-1.3611785459809744
2.36,-0.2737687826156616,0.8279052972793579,1.681975483894348,0.1041415816608777,0.3062859781028811,0.0591709456898231,0.4488609731197357,0.224219262599945,-0.6034219264984131,-0.0002149303321278,0.7499390789900525,1.6403999997125127,0.0214930332127817,0.006092100994749,-0.039999971251279,1.4545961313306244,1.43297016620636,0.0426471233367919,0.2462267875671386,15.062361271489864,-0.7297214492039794,0.3311383911745167,-1.5154561168819236
2.38,-0.2624042630195617,0.8323216438293457,1.6696100234985352,0.1180413842919416,0.269569945735331,0.052527196885334,0.5114033818244934,0.1987355947494506,-0.5564457178115845,-0.0002149303321278,0.7499390789900525,1.6403999997125127,0.0214930332127817,0.006092100994749,-0.039999971251279,4.113312046361102,3.1271204352378845,-1.2741833925247192,2.3488104343414307,14.951658582393064,-0.8297412985794086,0.4536461808663714,-1.6958946328385405
2.4,-0.2496015131473541,0.8359491229057312,1.657928705215454,0.1513586842115906,0.2472440664126254,0.0564327388080751,0.5761237144470215,0.1632365584373474,-0.5256593227386475,-0.0002149303321278,0.7499390789900525,1.6403999997125127,0.0214930332127817,0.006092100994749,-0.039999971251279,3.9989702285231066,3.236016631126404,-1.7749518156051636,1.5393197536468506,16.033942903211027,-0.9683291948781576,0.4981108712468561,-1.8869858918812907
2.42,-0.2357633560895919,0.8388335108757019,1.6478021144866943,0.1644968149970605,0.1933188842542455,0.0464422571246997,0.6227170825004578,0.1297974586486816,-0.4556965827941894,-0.0002149303321278,0.7499390789900525,1.6403999997125127,0.0214930332127817,0.006092100994749,-0.039999971251279,4.52324560514217,2.329668402671814,-1.6719549894332886,3.4981369972229004,16.232616754178252,-0.9517969242701004,0.5090706775594885,-2.2579841766343587
2.44,-0.2212133258581161,0.8407204747200012,1.638852834701538,0.1752887886234889,0.1355553899868305,0.0371148690570804,0.6547513604164124,0.0849133729934692,-0.4027175903320312,-0.0002149303321278,0.7499390789900525,1.6403999997125127,0.0214930332127817,0.006092100994749,-0.039999971251279,3.823463661722992,1.6017138957977295,-2.24420428276062,2.64894962310791,15.327134055226908,-0.9272668146067607,0.5277892056532698,-2.111243097202552
2.46,-0.2063547819852829,0.8416085839271545,1.6309579610824585,0.187550629920474,0.0794200048395707,0.027026217338195,0.6686344742774963,0.0399649143218994,-0.3552693128585815,-0.0002149303321278,0.7499390789900525,1.6403999997125127,0.0214930332127817,0.006092100994749,-0.039999971251279,3.340824682105871,0.6941556930541992,-2.247422933578491,2.3724138736724854,15.104885462580114,-0.9023148622873796,0.5037289220134956,-2.129708949120734
2.48,-0.1987026035785675,0.841688871383667,1.627420425415039,0.1930004733778885,0.0471627008051804,0.0214850251300206,0.6753628253936768,0.0133734941482543,-0.3181207180023193,-0.0002149303321278,0.7499390789900525,1.6403999997125127,0.0214930332127817,0.006092100994749,-0.039999971251279,2.3088917446410586,0.336417555809021,-1.329571008682251,1.8574297428131104,13.548980315175868,-0.8684993839973385,0.4906800613574493,-2.085268811938602
2.5,-0.1837402135133743,0.8408266305923462,1.6217143535614014,0.1992747574371152,-0.0104775083279481,0.0095504057724114,0.6733075380325317,-0.038800835609436,-0.2567732334136963,-0.0002149303321278,0.7499390789900525,1.6403999997125127,0.0214930332127817,0.006092100994749,-0.039999971251279,4.027995393850533,-0.1027643680572509,-2.608716487884521,3.0673742294311523,13.640511748690187,-0.8410199702222175,0.6521822225381735,-2.333622117814397
2.52,-0.1689419448375702,0.8386517763137817,1.617165207862854,0.2004435978495982,-0.0619529709789097,0.0011450745562223,0.6659221053123474,-0.0978684425354003,-0.2047115564346313,-0.0002149303321278,0.7499390789900525,1.6403999997125127,0.0214930332127817,0.006092100994749,-0.039999971251279,3.954094401470804,-0.3692716360092163,-2.9533803462982178,2.603083848953247,12.897256450124132,-0.7422708819386646,0.6304398685312596,-2.3278816357003467
2.54,-0.1553570628166198,0.8352595567703247,1.6143791675567627,0.1918396427612088,-0.1118756367980604,-0.0101405866318919,0.6113196611404419,-0.1526498794555664,-0.1253718137741089,-0.0002149303321278,0.7499390789900525,1.6403999997125127,0.0214930332127817,0.006092100994749,-0.039999971251279,5.540132558437144,-2.730122208595276,-2.739071846008301,3.966987133026123,11.674091360766395,-0.5815433435843158,0.5399768837823552,-2.2223363751203644
2.56,-0.1423506885766983,0.8309757113456726,1.6122515201568604,0.1772658083715575,-0.1531928646010524,-0.0182078543195844,0.5852868556976318,-0.1927730441093444,-0.0957441329956054,-0.0002149303321278,0.7499390789900525,1.6403999997125127,0.0214930332127817,0.006092100994749,-0.039999971251279,2.8130831703712067,-1.301640272140503,-2.006158232688904,1.481384038925171,10.821660270496976,-0.6529774357217503,0.4624875377382862,-1.909602160120273
2.58,-0.1364207863807678,0.82841956615448,1.611306071281433,0.1689768494382087,-0.1707508749951391,-0.0218822682721005,0.5532907843589783,-0.2155020833015442,-0.0851279497146606,-0.0002149303321278,0.7499390789900525,1.6403999997125127,0.0214930332127817,0.006092100994749,-0.039999971251279,2.032892736449325,-1.5998035669326782,-1.1364519596099854,0.5308091640472412,10.708896187864411,-0.4551886908725588,0.4061754092972847,-1.683355686651704
2.6,-0.1252543330192566,0.822723388671875,1.6103594303131104,0.1416863540244911,-0.2024125988664423,-0.0265321613095366,0.5024904012680054,-0.2563279867172241,-0.0425988435745239,-0.0002149303321278,0.7499390789900525,1.6403999997125127,0.0214930332127817,0.006092100994749,-0.039999971251279,3.891066107436061,-2.540019154548645,-2.0412951707839966,2.126455307006836,10.662778436374085,-0.26836779019016,0.4075711352700726,-1.7359150618706995
2.62,-0.115555502474308,0.8164469003677368,1.6100269556045532,0.1029285750310894,-0.2251192551111831,-0.0326517628601894,0.4364473819732666,-0.2824419736862182,-0.0149613618850708,-0.0002149303321278,0.7499390789900525,1.6403999997125127,0.0214930332127817,0.006092100994749,-0.039999971251279,3.810331713616575,-3.3021509647369385,-1.305699348449707,1.3818740844726562,10.065194910964692,-0.26836779019016,0.4075711352700726,-1.7359150618706995
2.64,-0.1072657778859138,0.8097321391105652,1.6100884675979614,0.0566813281463579,-0.236770331263613,-0.0340608678198051,0.3730376064777374,-0.3021642565727234,0.0027680397033691,-0.0002149303321278,0.7499390789900525,1.6403999997125127,0.0214930332127817,0.006092100994749,-0.039999971251279,3.4366043383450915,-3.1704887747764587,-0.9861141443252563,0.8864700794219971,9.770760992264968,-0.3090586886979669,0.3103547998644933,-1.4093599339617144
2.66,-0.100258357822895,0.802967369556427,1.6105784177780151,0.0058752154052868,-0.2364360935505669,-0.0335182369336683,0.3153339028358459,-0.3044146299362182,0.0220477581024169,-0.0002149303321278,0.7499390789900525,1.6403999997125127,0.0214930332127817,0.006092100994749,-0.039999971251279,3.044047115195883,-2.885185182094574,-0.1125186681747436,0.9639859199523926,9.6991495346183,-0.3345688467224308,0.195117961950957,-1.1089622784738706
