t,x,y,z,roll,pitch,yaw,v_x,v_y,v_z,ref_x,ref_y,ref_z,ref_v_x,ref_v_y,ref_v_z,a_com,a_x,a_y,a_z,thrust,wind_x,wind_y,wind_z
0.0,1.216269850730896,0.4860022366046905,2.127239465713501,0.001521564599261,0.0815891591780695,-0.0007573136317648,-0.0014269351959228,-0.0039032846689224,0.0048494338989257,1.21,0.48,2.13,-0.2788597530599562,-0.1106220508006438,0.0,0.3193304886792785,-0.0713467597961425,-0.1951642334461212,0.242471694946289,11.586115235262696,-0.998949959306428,0.0578660839284794,-2.008014216148972
0.02,1.2162034511566162,0.4859595894813537,2.1273133754730225,0.0017423794923339,0.0847568316645295,-0.0005827595135528,-0.0024837255477905,-0.0028136372566223,0.0034600496292114,1.2044228049388008,0.4777875589839871,2.13,-0.2788597530599562,-0.1106220508006438,0.0,0.102889819465565,-0.0528395175933837,0.0544823706150054,-0.0694692134857177,11.834326063838487,-1.0024741380315996,0.0520539235047456,-1.9603794262945808
0.04,1.2161312103271484,0.4858307242393493,2.1274259090423584,0.0013255009832655,0.0859965179660652,-0.0012066950756725,-0.0035083293914794,-0.0046442449092864,0.0049996376037597,1.1988456098776017,0.4755751179679742,2.13,-0.2788597530599562,-0.1106220508006438,0.0,0.1301083062862315,-0.0512301921844482,-0.0915303826332092,0.0769793987274169,11.655707563023498,-1.006393818307849,0.0567036439023736,-1.9313110267322688
0.06,1.2160139083862305,0.4858454763889313,2.127385139465332,0.0025300623380015,0.089463357835539,-0.0004888174823396,-0.0048011541366577,-0.0031898170709609,0.0015664100646972,1.1932684148164026,0.4733626769519614,2.13,-0.2788597530599562,-0.1106220508006438,0.0,0.1973183182931736,-0.0646412372589111,0.072721391916275,-0.171661376953125,11.53895134331151,-1.010240276248726,0.0392113189032097,-1.912100504718638
0.08,1.2159923315048218,0.4857867956161499,2.1273860931396484,0.0045983653055854,0.0887496607468776,0.0003272682540009,-0.0031247735023498,-0.0009883940219879,-0.0008958578109741,1.1876912197552034,0.4711502359359485,2.13,-0.2788597530599562,-0.1106220508006438,0.0,0.1851977224697678,0.083819031715393,0.1100711524486541,-0.1231133937835693,12.56142945128522,-1.0196696470978963,0.0478158615044849,-1.902802119730216
0.1,1.2158857583999634,0.4857246279716491,2.1273863315582275,0.0120896138210663,0.0794786779963939,0.0021583424881546,-0.0028833746910095,-0.0027190893888473,2.682209014892578e-05,1.1821140246940045,0.4689377949199356,2.13,-0.2788597530599562,-0.1106220508006438,0.0,0.0988043273207413,0.0120699405670166,-0.0865347683429718,0.0461339950561523,11.475965608366096,-1.0095398126083022,0.0622224449173709,-1.8763452237104363
0.12,1.2157152891159058,0.48553067445755,2.127601385116577,0.0236290635930345,0.05966185843615,0.0031303917975134,-0.0062334537506103,-0.0057627260684967,0.0048440694808959,1.1765368296328051,0.4667253539039228,2.13,-0.2788597530599562,-0.1106220508006438,0.0,0.3305019907918195,-0.1675039529800415,-0.1521818339824676,0.2408623695373535,12.119707871544506,-0.9982298476396848,0.0575326689283729,-1.918674807571721
0.14,1.2155654430389404,0.4854465425014496,2.1275885105133057,0.0441468458754066,0.0333950468414502,0.004009096428005,-0.0092321634292602,-0.0067886710166931,0.004044771194458,1.170959634571606,0.4645129128879099,2.13,-0.2788597530599562,-0.1106220508006438,0.0,0.1634296524828117,-0.1499354839324951,-0.0512972474098205,-0.0399649143218994,11.6663632607233,-0.9802929622228906,0.0615853214595596,-1.90015126454798
0.16,1.2150288820266724,0.4850555658340454,2.1279122829437256,0.0468064773266588,0.0199010967391184,0.0044671722517467,-0.0144249200820922,-0.0115402042865753,0.010884404182434,1.1653824395104069,0.462300471871897,2.13,-0.2788597530599562,-0.1106220508006438,0.0,0.4907198016193643,-0.2596378326416015,-0.2375766634941101,0.3419816493988037,12.001464702811973,-0.9433856109601184,0.1077900716131379,-1.8544892078639543
0.18,1.214147925376892,0.4844216704368591,2.128426551818848,0.0629075247183487,-0.0116119750116739,0.0044398165243235,-0.0318941473960876,-0.0230596214532852,0.0188559293746948,1.1598052444492075,0.4600880308558842,2.13,-0.2788597530599562,-0.1106220508006438,0.0,1.1196161046309354,-0.8734613656997681,-0.575970858335495,0.3985762596130371,12.120393855125258,-0.8782970405006991,0.1406277843632922,-1.9813116453268804
0.2,1.2129160165786743,0.4836415350437164,2.129159927368164,0.0734175114237286,-0.0456648578767813,0.0047764144781183,-0.047539472579956,-0.031815692782402,0.0280719995498657,1.1542280491091488,0.4578755897292492,2.13,-0.2788597530599562,-0.1106220508006438,0.0,1.0079446099653036,-0.7822662591934204,-0.437803566455841,0.4608035087585449,11.956224568965808,-0.8608529317143929,0.1403282097293256,-1.897926217789932
0.22,1.2109830379486084,0.4826519787311554,2.129890918731689,0.081826274760653,-0.075734058583666,0.0015223364752584,-0.071209967136383,-0.039818063378334,0.0329482555389404,1.1486508540479496,0.4556631487132364,2.13,-0.2788597530599562,-0.1106220508006438,0.0,1.2728983857435994,-1.18352472782135,-0.4001185297966003,0.2438127994537353,12.134787638974103,-0.7855602511099407,0.1815651523328632,-1.8589045316867816
0.24,1.2096256017684937,0.4818268120288849,2.130290985107422,0.0915040554512233,-0.1031024530085016,0.0004867252074371,-0.0912219285964965,-0.0521153211593627,0.0374221801757812,1.1430736589867505,0.4534507076972235,2.13,-0.2788597530599562,-0.1106220508006438,0.0,1.1955303760991107,-1.0005980730056765,-0.6148628890514374,0.223696231842041,11.79158555724598,-0.7252914150386152,0.2236801205262962,-1.8468700919946253
0.26,1.2065337896347046,0.4800882637500763,2.13159728050232,0.0822804819239458,-0.1146580978374019,-0.0010195760996148,-0.1221558451652526,-0.0691165030002594,0.0438272953033447,1.1374964639255514,0.4512382666812106,2.13,-0.2788597530599562,-0.1106220508006438,0.0,1.7937202109493962,-1.5466958284378052,-0.8500590920448303,0.3202557563781738,12.535242195850516,-0.7223890416651434,0.1868450411828777,-1.8109404879460187
0.28,1.2023422718048096,0.4780564606189728,2.132544755935669,0.0773091486165884,-0.1317954295611867,-0.0032479113189525,-0.1638749241828918,-0.0848329067230224,0.050709843635559,1.131919269143212,0.4490258257758198,2.13,-0.2788597530599562,-0.1106220508006438,0.0,2.25546911506352,-2.085953950881958,-0.7858201861381531,0.3441274166107178,11.45969822684765,-0.5852623132300911,0.2109598125013355,-1.8796265978678963
0.3,1.197207808494568,0.4756613075733185,2.133583068847656,0.0685607675963147,-0.1369155547808589,-0.0037538544992331,-0.2098345756530761,-0.0996065139770507,0.0446802377700805,1.126342074082013,0.446813384759807,2.13,-0.2788597530599562,-0.1106220508006438,0.0,2.432542487527252,-2.2979825735092163,-0.738680362701416,-0.3014802932739258,12.49085672651563,-0.5812622217851336,0.204231605207052,-1.8188937852808096
0.32,1.1942566633224487,0.4741957187652588,2.1341323852539062,0.0649269379795628,-0.1322836047150892,-0.0024624402665623,-0.2298545837402343,-0.1081741601228714,0.0455814599990844,1.1207648790208138,0.4446009437437941,2.13,-0.2788597530599562,-0.1106220508006438,0.0,1.0897447932841036,-1.0010004043579102,-0.4283823072910309,0.0450611114501953,11.575889966720752,-0.5775550935894574,0.1806835601896111,-1.987370598857226
0.34,1.187609076499939,0.4713922142982483,2.135063648223877,0.0571177692744153,-0.123714517343823,-0.0018946226564918,-0.2765277028083801,-0.1223938912153244,0.0460749864578247,1.1151876839596149,0.4423885027277812,2.13,-0.2788597530599562,-0.1106220508006438,0.0,2.4396845924506625,-2.333655953407288,-0.7109865546226501,0.0246763229370117,11.60442408910285,-0.5681375589280536,0.1534582585093618,-1.8935300282136085
0.36,1.1799728870391846,0.4683645069599151,2.136099576950073,0.0419392511395017,-0.1135891489456526,-0.0032322666559333,-0.3213849663734436,-0.1312022656202316,0.0442618131637573,1.1096104888984155,0.4401760617117684,2.13,-0.2788597530599562,-0.1106220508006438,0.0,2.287492705779034,-2.242863178253174,-0.4404187202453613,-0.0906586647033691,11.721082295882296,-0.5843962395656536,0.128223304436946,-2.042959961354285
0.38,1.1714669466018677,0.4651691615581512,2.136930227279663,0.0342021223046674,-0.0874213550145058,-0.0011868454461496,-0.363197922706604,-0.1400186866521835,0.0419980287551879,1.1040332938372164,0.4379636206957555,2.13,-0.2788597530599562,-0.1106220508006438,0.0,2.139612883782896,-2.09064781665802,-0.4408210515975952,-0.1131892204284668,11.98241747119846,-0.5368158479406978,0.1347240482069111,-1.9844051588839615
0.4,1.1623668670654297,0.4617648720741272,2.137669086456299,0.0269951818220003,-0.0569825699805647,0.0019425586441582,-0.3961354494094848,-0.1484917849302292,0.0353139638900756,1.0984560987760172,0.4357511796797426,2.13,-0.2788597530599562,-0.1106220508006438,0.0,1.7330253769444914,-1.646876335144043,-0.4236549139022827,-0.3342032432556152,11.829369991530712,-0.5917738304557502,0.1106343036863889,-2.124149093825352
0.42,1.152550458908081,0.4584010541439056,2.138320207595825,0.0204232827647456,-0.0160705254782136,0.0039518087891617,-0.425620973110199,-0.1522824168205261,0.0312745571136474,1.092878903714818,0.4335387386637298,2.13,-0.2788597530599562,-0.1106220508006438,0.0,1.5000681693997808,-1.4742761850357056,-0.1895315945148468,-0.2019703388214111,12.081329126003313,-0.6415526920367711,0.0837309356197163,-2.1040817901108806
0.44,1.1475359201431274,0.4565792679786682,2.138756275177002,0.0190652940038544,0.0209260049001448,0.0055710638877783,-0.4383909702301025,-0.1560871303081512,0.0344449281692504,1.087301708653619,0.4313262976477169,2.13,-0.2788597530599562,-0.1106220508006438,0.0,0.6848356076378245,-0.6384998559951782,-0.1902356743812561,0.1585185527801513,11.437887521717585,-0.72383419106971,0.0825508593098108,-2.0543893531891024
0.46,1.137186884880066,0.4530818164348602,2.13934326171875,0.0096766575307441,0.0458693048572864,0.0055599446692277,-0.4569196701049804,-0.1562413573265075,0.0279593467712402,1.0817245135924198,0.429113856631704,2.13,-0.2788597530599562,-0.1106220508006438,0.0,0.9815794301745392,-0.9264349937438964,-0.0077113509178161,-0.3242790699005127,11.216173238488407,-0.8175612597237883,0.0484696514833267,-2.041229552857433
0.48,1.1268205642700195,0.4497294425964355,2.139874219894409,0.004432741943009,0.0880887886011869,0.0071925012812571,-0.466095507144928,-0.1541210711002349,0.0251537561416625,1.0761473185312207,0.4269014156156911,2.13,-0.2788597530599562,-0.1106220508006438,0.0,0.4913322141020466,-0.4587918519973755,0.1060143113136291,-0.1402795314788818,11.230158566006594,-0.8607644383738573,0.0578555454944887,-2.0627227033330784
0.5,1.1165341138839722,0.4462535977363586,2.1403982639312744,-0.0023661984987467,0.1267453526198891,0.0077228502607644,-0.4646873474121094,-0.1536349207162857,0.0237375497817993,1.0705701234700216,0.4246889745996783,2.13,-0.2788597530599562,-0.1106220508006438,0.0,0.1027727649071362,0.0704079866409301,0.0243075191974639,-0.070810317993164,11.174846716642604,-0.9387806592191196,0.0683539926998902,-2.072425500675177
0.52,1.1064949035644531,0.4428166151046753,2.140571355819702,-0.0076166110313303,0.1611226133698635,0.0090722504822011,-0.4573273658752441,-0.1555386185646057,0.0156855583190917,1.0649929284088224,0.4224765335836654,2.13,-0.2788597530599562,-0.1106220508006438,0.0,0.5536875478015786,0.3679990768432617,-0.0951848924160003,-0.402599573135376,10.900973806718866,-1.0026215199403556,0.0550472379266458,-2.11893936389682
0.54,1.1016833782196045,0.441272497177124,2.140582799911499,-0.0115139096320583,0.185763153275048,0.0055638966564247,-0.4497796297073364,-0.1500307023525238,0.0102943181991577,1.0594157333476233,0.4202640925676525,2.13,-0.2788597530599562,-0.1106220508006438,0.0,0.5393767984684821,0.3773868083953857,0.2753958106040954,-0.2695620059967041,10.701792350976577,-1.056192423722602,0.0294273877014792,-2.0417237775485715
0.56,1.0922716856002808,0.4381458163261413,2.140733480453491,-0.0158657935741577,0.1990218652964274,0.0080075407169711,-0.4319322109222412,-0.1442337781190872,0.0060242414474487,1.0538385382864242,0.4180516515516397,2.13,-0.2788597530599562,-0.1106220508006438,0.0,0.9622476855314585,0.8923709392547607,0.2898462116718292,-0.2135038375854492,10.738186140934886,-1.0884790615572015,0.0728514562109814,-2.0257920405232297
0.58,1.0834516286849976,0.4351100325584411,2.140133619308472,-0.0167364290530323,0.2172530262468023,0.0087750917190935,-0.410214364528656,-0.1386554539203643,-0.0101065635681152,1.048261343225225,0.4158392105356268,2.13,-0.2788597530599562,-0.1106220508006438,0.0,1.3811095388233714,1.0858923196792605,0.2789162099361419,-0.8065402507781982,10.698274536567167,-1.1531274302055894,0.062867531380949,-1.945777102755972
0.6,1.0752155780792236,0.4320499300956726,2.139347076416016,-0.0163155295866042,0.2238754256499466,0.0083060345714762,-0.3837624192237854,-0.1371574401855468,-0.0311940908432006,1.042684148164026,0.4136267695196139,2.13,-0.2788597530599562,-0.1106220508006438,0.0,1.6930986844680973,1.3225972652435305,0.0749006867408752,-1.0543763637542725,10.593052166795133,-1.1708916323645204,0.0654761133947221,-1.9242638103918988
0.62,1.0675556659698486,0.4291906058788299,2.1379334926605225,-0.0145299946055743,0.223195645372122,0.0074302092547768,-0.3576591610908508,-0.1331871002912521,-0.0495028495788574,1.0371069531028267,0.4114143285036011,2.13,-0.2788597530599562,-0.1106220508006438,0.0,1.6065135624009916,1.3051629066467283,0.1985169947147369,-0.9154379367828368,10.679915585898016,-1.1603159827184473,0.0440547637975656,-1.9041004759294695
0.64,1.063913345336914,0.4277246594429016,2.137002944946289,-0.011435448698159,0.216779687990208,0.0041516644559153,-0.3432261943817138,-0.1296606659889221,-0.0612080097198486,1.0315297580416276,0.4092018874875882,2.13,-0.2788597530599562,-0.1106220508006438,0.0,0.9457233221745606,0.7216483354568481,0.1763217151165008,-0.5852580070495605,11.647436040347657,-1.1454999048793753,0.0456775482660837,-1.8207006050236647
0.66,1.057314395904541,0.4250228703022003,2.135159730911255,-0.0076765215549027,0.2081168208356247,0.0077354527548375,-0.3146606683731079,-0.1263005286455154,-0.078052282333374,1.0259525629804285,0.4069894464715753,2.13,-0.2788597530599562,-0.1106220508006438,0.0,1.666590320829973,1.428276300430298,0.1680068671703338,-0.8422136306762695,11.136199648359252,-1.1163204583809585,0.0603484701918333,-1.870564645390382
0.68,1.0513230562210083,0.4224119186401367,2.1331348419189453,-0.003478622670488,0.1930449166137421,0.0069457096007067,-0.2832815051078796,-0.11953666806221,-0.0870323181152343,1.0203753679192291,0.4047770054555625,2.13,-0.2788597530599562,-0.1106220508006438,0.0,1.6666153874392673,1.5689581632614136,0.3381930291652679,-0.4490017890930176,11.444726118068502,-1.129104520906261,0.0598551599193403,-1.739332697547398
0.7000000000000001,1.0458881855010986,0.4198824167251587,2.131004810333252,0.002399101735461,0.1680202627555007,0.0062443768823406,-0.2570897340774536,-0.1156602054834365,-0.0934857130050659,1.0147981728580302,0.4025645644395496,2.13,-0.2788597530599562,-0.1106220508006438,0.0,1.362609754697763,1.3095885515213013,0.1938231289386749,-0.3226697444915771,11.509786834559236,-1.0451589339204372,0.0899414957327949,-1.6299023484473696
0.72,1.0407633781433103,0.4173694550991058,2.128472089767456,0.0087914697593685,0.1432178762188,0.0057370795925926,-0.2375927567481994,-0.1134554296731948,-0.1049119234085083,1.009220977796831,0.4003521234235367,2.13,-0.2788597530599562,-0.1106220508006438,0.0,1.1352878990971984,0.9748488664627076,0.1102387905120849,-0.5713105201721191,11.79808257325385,-0.9753779495698356,0.1036207694420038,-1.5645686333305195
0.74,1.0383851528167725,0.4160941839218139,2.1273343563079834,0.0105048274169755,0.1293974593374226,0.0057134282274796,-0.2300825715065002,-0.1118554919958114,-0.1079267263412475,1.003643782735632,0.3981396824075239,2.13,-0.2788597530599562,-0.1106220508006438,0.0,0.4124673310075631,0.3755092620849609,0.0799968838691711,-0.1507401466369629,11.96985732063422,-0.9359175517057208,0.1195102709704514,-1.618582119889949
0.76,1.0337045192718506,0.4135280251502991,2.1249196529388428,0.013332805179646,0.1003178444884965,0.0045157978131475,-0.215306282043457,-0.1130926609039306,-0.1090210676193237,0.9980665876744328,0.395927241391511,2.13,-0.2788597530599562,-0.1106220508006438,0.0,0.7434159334379378,0.7388144731521606,-0.06185844540596,-0.0547170639038085,12.073969990502974,-0.9523650691588386,0.1256205688995194,-1.6065064282060482
0.78,1.0291848182678225,0.4109421968460083,2.1226966381073,0.0143485382689592,0.0701363363731807,0.0027963577264,-0.2070075273513794,-0.1159197092056274,-0.1043486595153808,0.9924893926132335,0.3937148003754981,2.13,-0.2788597530599562,-0.1106220508006438,0.0,0.4967215744992315,0.4149377346038818,-0.1413524150848388,0.2336204051971435,12.292186330390903,-0.8856437883979129,0.1206088514076359,-1.60960790300913
0.8,1.0245734453201294,0.4084445238113403,2.1205945014953613,0.0149027646977371,0.0448182969416534,0.0012060994338652,-0.2054491639137268,-0.1143787801265716,-0.0973159074783325,0.9869121975520344,0.3915023593594853,2.13,-0.2788597530599562,-0.1106220508006438,0.0,0.3683156263488548,0.0779181718826294,0.0770464539527893,0.351637601852417,12.604706501423152,-0.8237636278498583,0.1100060218369416,-1.5751379168981208
0.8200000000000001,1.0198814868927002,0.4057149589061737,2.1185343265533447,0.014242443772105,0.0219459631688091,-0.000177546760618,-0.2093249559402465,-0.1176128536462783,-0.0936520099639892,0.9813350024908354,0.3892899183434724,2.13,-0.2788597530599562,-0.1106220508006438,0.0,0.3118699262485614,-0.1937896013259887,-0.1617036759853363,0.183194875717163,12.631420633661492,-0.7770395857408813,0.1279270688134598,-1.5743680290940776
0.84,1.017522931098938,0.4044082462787628,2.117862701416016,0.0119164499881757,0.0116101748992886,-0.0004191955525546,-0.211886465549469,-0.1184094697237014,-0.0815284252166748,0.9757578074296362,0.3870774773274595,2.13,-0.2788597530599562,-0.1106220508006438,0.0,0.6208406312779943,-0.1280754804611206,-0.0398308038711547,0.6061792373657227,13.065203513793676,-0.734085241324312,0.1162879691038217,-1.5985103757484296
0.86,1.0123775005340576,0.4017966985702514,2.1160542964935303,0.010402439043375,-0.0058047352897098,-0.0008447267028138,-0.2230337262153625,-0.1188225299119949,-0.0778698921203613,0.9701806123684372,0.3848650363114467,2.13,-0.2788597530599562,-0.1106220508006438,0.0,0.5869772216392892,-0.5573630332946777,-0.0206530094146728,0.1829266548156738,12.685088909283875,-0.6763935297445739,0.1149129225195855,-1.603012032320421
0.88,1.0068087577819824,0.3991506993770599,2.1146559715271,0.0092894502104084,-0.0164552640762453,-0.0015695851818167,-0.2410688996315002,-0.1182948052883148,-0.0721514225006103,0.964603417307238,0.3826525952954338,2.13,-0.2788597530599562,-0.1106220508006438,0.0,0.9463705249803231,-0.9017586708068848,0.0263862311840057,0.2859234809875488,12.672043712512732,-0.6596042193267617,0.1084695294875896,-1.7308467619518102
0.9,1.0008145570755005,0.3963700830936432,2.1134438514709477,0.0060651515668692,-0.0235459194987293,-0.0019187599664462,-0.2601662278175354,-0.1220988482236862,-0.0587350130081176,0.9590262222460388,0.3804401542794209,2.13,-0.2788597530599562,-0.1106220508006438,0.0,1.182348013667644,-0.9548664093017578,-0.1902021467685699,0.6708204746246338,12.812757582566064,-0.6642718466874591,0.1119217094941288,-1.8285299578386267
0.92,0.9943754076957704,0.3935849964618683,2.1125099658966064,0.0041289212556652,-0.0257313260773048,-0.0021840308332381,-0.2797503769397735,-0.1252283155918121,-0.0482851266860961,0.9534490271848396,0.3782277132634081,2.13,-0.2788597530599562,-0.1106220508006438,0.0,1.1208619306067522,-0.979207456111908,-0.1564733684062957,0.5224943161010742,12.74907912398612,-0.6641723820971106,0.0833044331087728,-1.876975391820271
0.94,0.9909286499023438,0.3922763466835022,2.1120121479034424,0.0023694518869349,-0.0240410984186929,-0.001554325802399,-0.2897939085960388,-0.1224971562623977,-0.0452220439910888,0.9478718321236406,0.3760152722473952,2.13,-0.2788597530599562,-0.1106220508006438,0.0,0.5424809559088292,-0.5021765828132629,0.1365579664707183,0.1531541347503662,12.334237810383913,-0.6679740991971691,0.0549551294952336,-2.0256239005827616
0.96,0.9838464260101318,0.3896648287773132,2.111313581466675,0.0028136116345049,-0.0187101103948154,-0.0021252965990857,-0.3118014335632324,-0.120742991566658,-0.0343859195709228,0.9422946370624414,0.3738028312313823,2.13,-0.2788597530599562,-0.1106220508006438,0.0,1.2296644272023445,-1.1003762483596802,0.0877082347869873,0.5418062210083008,12.927219457469164,-0.6055049563158031,0.0724108362545232,-2.074768015157688
0.98,0.9761649966239928,0.3871037662029266,2.110800266265869,0.0044678728507774,-0.0075888002776855,-0.0014105010122737,-0.3321821987628937,-0.1163830608129501,-0.0272673368453979,0.9367174420012424,0.3715903902153695,2.13,-0.2788597530599562,-0.1106220508006438,0.0,1.1012025316909153,-1.0190382599830627,0.2179965376853943,0.3559291362762451,12.49855496049986,-0.6376704899984567,0.0775032734645032,-2.1090311699036506
1.0,0.9681654572486876,0.3844139575958252,2.1103687286376958,0.00652838710221,0.0052339358022415,-0.0010751341602172,-0.352821797132492,-0.1181446015834808,-0.0212591886520385,0.9311402469400432,0.3693779491993566,2.13,-0.2788597530599562,-0.1106220508006438,0.0,1.078417696741316,-1.0319799184799194,-0.088077038526535,0.3004074096679687,12.083003161615125,-0.6740169094789384,0.09931791573781,-2.191666874384383
1.02,0.9598965644836426,0.3816931843757629,2.1101150512695312,0.0064618385616005,0.0212010753914997,-0.0001235273883612,-0.3660397231578827,-0.1217380911111831,-0.0154173374176025,0.925563051878844,0.3671655081833437,2.13,-0.2788597530599562,-0.1106220508006438,0.0,0.7445702808393694,-0.6608963012695312,-0.1796744763851165,0.2920925617218017,11.84765199976755,-0.7201249391190764,0.0903066752189986,-2.2141954034776
1.04,0.9557814598083496,0.3804698884487152,2.1100447177886963,0.0136992780055893,0.0361822157457908,0.0010949232463735,-0.372711718082428,-0.1173412799835205,-0.0108790397644042,0.9199858568176448,0.3649530671673309,2.13,-0.2788597530599562,-0.1106220508006438,0.0,0.4594660214709052,-0.3335997462272644,0.2198405563831329,0.2269148826599121,12.235162654691068,-0.7470679878480914,0.0650062366819543,-2.232329693680676
1.06,0.946926772594452,0.377746045589447,2.1098992824554443,0.0094466211417422,0.0465544081917667,0.0014391930927964,-0.388067364692688,-0.119432732462883,-0.0070917606353759,0.9144086617564458,0.362740626151318,2.13,-0.2788597530599562,-0.1106220508006438,0.0,0.797674024106644,-0.7677823305130005,-0.1045726239681243,0.189363956451416,11.902147986519594,-0.799302614724345,0.1259528199907823,-2.330195195672384
1.08,0.938176929950714,0.3751072883605957,2.109767436981201,0.0117660076576668,0.0651445391580769,0.0022093630490413,-0.3961019217967987,-0.1206585019826889,-0.0062388181686401,0.9088314666952466,0.3605281851353051,2.13,-0.2788597530599562,-0.1106220508006438,0.0,0.4086077875740458,-0.4017278552055359,-0.0612884759902954,0.0426471233367919,11.891134912589678,-0.8317758494033929,0.118151956260808,-2.335483712634963
1.1,0.9293885231018066,0.3725332021713257,2.109841823577881,0.0126311903037157,0.0829422236552737,0.0027147214155667,-0.3946106135845184,-0.1172889769077301,-0.0012928247451782,0.9032542716340476,0.3583157441192923,2.13,-0.2788597530599562,-0.1106220508006438,0.0,0.3083851097236992,0.0745654106140136,0.16847625374794,0.2472996711730957,11.70402030740388,-0.8793155732216227,0.1106315653178621,-2.343645159348167
1.12,0.9206676483154296,0.3699157238006592,2.1098594665527344,0.0128114171443216,0.099410550169478,0.0032345212125106,-0.3939588367938995,-0.1168102025985717,0.002070665359497,0.8976770765728483,0.3561033031032794,2.13,-0.2788597530599562,-0.1106220508006438,0.0,0.172967507845752,0.0325888395309448,0.0239387154579162,0.1681745052337646,11.836787309915962,-0.876173341511021,0.1386509871244228,-2.237690229967718
1.14,0.9162976741790771,0.3685332834720611,2.109747886657715,0.0163852396112791,0.114217212683218,0.0030255103569463,-0.3928671777248382,-0.120093896985054,-0.0011587142944335,0.8920998815116492,0.3538908620872665,2.13,-0.2788597530599562,-0.1106220508006438,0.0,0.236660417561218,0.0545829534530639,-0.1641847193241119,-0.1614689826965332,11.515888354166236,-0.91639143994787,0.1411223238845481,-2.2511899155243924
1.16,0.9076849818229676,0.3659261763095855,2.109867811203003,0.0157009906565596,0.1220879950911868,0.0045701001389216,-0.3907576203346252,-0.1176738739013671,0.0017166137695312,0.8865226864504501,0.3516784210712537,2.13,-0.2788597530599562,-0.1106220508006438,0.0,0.2154893012634459,0.1054778695106506,0.1210011541843414,0.1437664031982422,11.6248049417909,-0.9527317098950516,0.1103090512030763,-2.2408659617282165
1.18,0.8993785381317139,0.3631960749626159,2.1098790168762207,0.0140510363987011,0.1329500315237601,0.0038827830599531,-0.3806805610656738,-0.1200871914625167,0.0029504299163818,0.8809454913892509,0.3494659800552408,2.13,-0.2788597530599562,-0.1106220508006438,0.0,0.5217603076249234,0.5038529634475708,-0.1206658780574798,0.0616908073425293,11.44667324321199,-1.0006168655169267,0.1297215130582616,-2.1835968791397558
1.2,0.8913482427597046,0.360531598329544,2.1097700595855717,0.0113906218473822,0.1423059877496837,0.0039947157280894,-0.3675766289234161,-0.1213780045509338,-0.0021994113922119,0.8753682963280518,0.3472535390392279,2.13,-0.2788597530599562,-0.1106220508006438,0.0,0.7069301619004199,0.6551966071128845,-0.0645406544208526,-0.2574920654296875,11.31509409427872,-1.0105433795496357,0.1159388202777911,-2.154008764848784
1.22,0.8836184740066528,0.3577395677566528,2.1095781326293945,0.0103483779952112,0.1461057901691804,0.0033138370194463,-0.3546014428138733,-0.1227714121341705,-0.0067698955535888,0.8697911012668527,0.3450410980232151,2.13,-0.2788597530599562,-0.1106220508006438,0.0,0.6913507878416223,0.6487593054771423,-0.0696703791618347,-0.2285242080688476,11.31509409427872,-1.000839337024273,0.1150162077875944,-2.0990987634384144
1.24,0.8798176050186157,0.356443852186203,2.109389305114746,0.0100803325778758,0.1478312834517597,0.00132284025315,-0.3496836125850677,-0.1220371574163436,-0.0090229511260986,0.8642139062056535,0.3428286570072022,2.13,-0.2788597530599562,-0.1106220508006438,0.0,0.2729489126321162,0.2458915114402771,0.0367127358913421,-0.1126527786254882,11.227832087861316,-1.0076887065794355,0.1037935095509331,-2.085330552401694
1.26,0.8726415038108826,0.3536848425865173,2.1090281009674072,0.0094852838709424,0.1477182163849877,0.0029328693489014,-0.3300672769546509,-0.1231610029935836,-0.0136470794677734,0.8586367111444544,0.3406162159911893,2.13,-0.2788597530599562,-0.1106220508006438,0.0,1.009264850481434,0.9808167815208436,-0.0561922788619995,-0.2312064170837402,11.258769442631092,-1.0310708143826763,0.1148743117082392,-2.053882261869036
1.28,0.8657132387161255,0.3510969579219818,2.108619213104248,0.0108142607676386,0.1448604621109479,0.0028283716733634,-0.3173482418060303,-0.1203051209449768,-0.017327070236206,0.8530595160832553,0.3384037749751765,2.13,-0.2788597530599562,-0.1106220508006438,0.0,0.6772596426835698,0.6359517574310303,0.1427941024303436,-0.1839995384216308,11.3637075362858,-1.0310917688943169,0.1084947958000521,-2.0097604801521376
1.3,0.8591483235359192,0.3483676016330719,2.107978343963623,0.0121594314537598,0.1402358814537647,0.0023689175841569,-0.303596556186676,-0.1196379214525222,-0.023619532585144,0.8474823210220561,0.3361913339591636,2.13,-0.2788597530599562,-0.1106220508006438,0.0,0.7568835692315697,0.6875842809677124,0.0333599746227264,-0.3146231174468994,11.295929065662676,-1.0219467701094227,0.1287630785670207,-1.9337402359954148
1.32,0.8528486490249634,0.3457368910312652,2.107212781906128,0.0153105573744146,0.1339267184241159,0.002958145200301,-0.2894532680511474,-0.1206015050411224,-0.0316447019577026,0.841905125960857,0.3339788929431507,2.13,-0.2788597530599562,-0.1106220508006438,0.0,0.8145005157687979,0.7071644067764282,-0.0481791794300079,-0.4012584686279297,11.760964209124722,-1.0089538660630566,0.1325351650928938,-1.924705498682301
1.34,0.8498424291610718,0.3443265855312347,2.1068789958953857,0.017973000426203,0.1205430837353396,-0.0003951373792976,-0.2821201086044311,-0.1212499290704727,-0.0298100709915161,0.8363279308996578,0.3317664519271379,2.13,-0.2788597530599562,-0.1106220508006438,0.0,0.3793466487755427,0.3666579723358154,-0.032421201467514,0.0917315483093261,11.869359424016691,-0.986785188678025,0.1283188941302282,-1.9213044600892688
1.36,0.8439784646034241,0.3415751755237579,2.106024742126465,0.0163549975952742,0.1188414919630863,0.0009516228137116,-0.2709943056106567,-0.1217756420373916,-0.0352978706359863,0.8307507358384586,0.329554010911125,2.13,-0.2788597530599562,-0.1106220508006438,0.0,0.6208377632637085,0.5562901496887207,-0.0262856483459472,-0.2743899822235107,11.682642752264655,-0.9375389935661094,0.1310681786946471,-1.811345389851249
1.38,0.8383103609085083,0.3388083875179291,2.105421781539917,0.015782906125543,0.1070703771967928,0.0001671592274401,-0.2594715356826782,-0.1241594552993774,-0.0327873229980468,0.8251735407772595,0.3273415698951121,2.13,-0.2788597530599562,-0.1106220508006438,0.0,0.6015805056754845,0.5761384963989258,-0.1191906630992889,0.1255273818969726,11.720536449187875,-0.9384118555998336,0.136922044904072,-1.7750228000143278
1.4,0.8328261375427246,0.335934042930603,2.1048271656036377,0.0135300348069958,0.0931129925463787,-0.0002739189078151,-0.2509273588657379,-0.1269254833459854,-0.0269454717636108,0.8195963457160603,0.3251291288790993,2.13,-0.2788597530599562,-0.1106220508006438,0.0,0.5356796955248629,0.4272088408470154,-0.1383014023303985,0.2920925617218017,11.84774929838477,-0.9010429732062388,0.1269337357756499,-1.720364048976839
1.42,0.8273218274116516,0.3331863284111023,2.1041431427001958,0.0127843028441797,0.0810510650741297,-0.001076389280517,-0.2472420036792755,-0.1264963299036026,-0.0287693738937377,0.8140191506548613,0.3229166878630864,2.13,-0.2788597530599562,-0.1106220508006438,0.0,0.2067161974046542,0.1842677593231201,0.0214576721191406,-0.0911951065063476,11.712797289123046,-0.8695985938128212,0.1151987299409978,-1.6935452512753533
1.44,0.824678361415863,0.3317308127880096,2.103875160217285,0.0133870206489247,0.0699871636130977,-0.0021378404756924,-0.2437444031238556,-0.1272265613079071,-0.0265324115753173,0.8084419555936622,0.3207042468470735,2.13,-0.2788597530599562,-0.1106220508006438,0.0,0.2107750457427248,0.1748800277709961,-0.0365115702152252,0.1118481159210205,12.03770269004326,-0.8563676107351573,0.123033367826153,-1.7357519468924885
1.46,0.8192368149757385,0.3289375901222229,2.103304624557495,0.0084293527501755,0.0643890180900757,-0.0021562970245225,-0.2411024272441864,-0.1260316371917724,-0.0258350372314453,0.802864760532463,0.3184918058310607,2.13,-0.2788597530599562,-0.1106220508006438,0.0,0.149115820484992,0.1320987939834594,0.0597462058067321,0.0348687171936035,11.773968062232598,-0.8093894511778855,0.1186668706093717,-1.7186816479970486
1.48,0.8137392401695251,0.3260299563407898,2.102956771850586,0.0054944831341597,0.0556824394739417,-0.0025612133610656,-0.2461302280426025,-0.1282692700624466,-0.0206637382507324,0.7972875654712639,0.3162793648150478,2.13,-0.2788597530599562,-0.1106220508006438,0.0,0.3775848079584158,-0.2513900399208069,-0.1118816435337066,0.2585649490356445,11.773137084682276,-0.792376835320614,0.1208807133993294,-1.7402896481550174
1.5,0.8082266449928284,0.3232324123382568,2.102396011352539,0.0035727469843281,0.0484390149117175,-0.0024930081786512,-0.2477288246154785,-0.1283665001392364,-0.0204437971115112,0.7917103704100648,0.3140669237990349,2.13,-0.2788597530599562,-0.1106220508006438,0.0,0.080829122155404,-0.0799298286437988,-0.0048615038394927,0.0109970569610595,12.022811774425463,-0.8074301125717893,0.1001154803547818,-1.7480270507065605
1.52,0.8024244904518127,0.3203544020652771,2.1021265983581543,0.0019394298719289,0.0417016355227189,-0.0036570492592533,-0.254581868648529,-0.1276999711990356,-0.0186789035797119,0.7861331753488656,0.3118544827830221,2.13,-0.2788597530599562,-0.1106220508006438,0.0,0.3553987989767335,-0.3426522016525268,0.0333264470100402,0.0882446765899658,11.890531742743406,-0.791358473689177,0.090592537594027,-1.7819599676838664
1.54,0.7995508909225464,0.3189343214035034,2.1018285751342773,0.0047955349318216,0.0364906611019179,-0.0033832862354453,-0.2572506666183471,-0.127364695072174,-0.0188988447189331,0.7805559802876665,0.3096420417670092,2.13,-0.2788597530599562,-0.1106220508006438,0.0,0.1349376410575502,-0.1334398984909057,0.0167638063430786,-0.0109970569610595,12.357892919199005,-0.7937718255493306,0.0882427671481258,-1.8057609190487327
1.56,0.7937470078468323,0.3162297904491424,2.101715087890625,0.0016561814411934,0.034482276497116,-0.0040917643968256,-0.2608716487884521,-0.1235901564359664,-0.0101441144943237,0.7749787852264673,0.3074296007509963,2.13,-0.2788597530599562,-0.1106220508006438,0.0,0.5099116469990925,-0.181049108505249,0.188726931810379,0.4377365112304687,12.504679797193148,-0.7723608232282047,0.0925754547130166,-1.783919313417486
1.58,0.7875251173973083,0.3134009540081024,2.1016790866851807,0.0029312683100883,0.0334715114480356,-0.0037787183569922,-0.2705799043178558,-0.1245007663965225,-0.0033634901046752,0.7694015901652682,0.3052171597349835,2.13,-0.2788597530599562,-0.1106220508006438,0.0,0.5938356317996512,-0.4854127764701843,-0.0455304980278015,0.3390312194824219,11.983136236750395,-0.7493941266457566,0.0953792767612676,-1.803616133986592
1.6,0.7811665534973145,0.3107975423336029,2.1015095710754395,0.0045244236000895,0.0329104077839333,-0.0042168175751324,-0.283060222864151,-0.1222255825996398,-0.0046241283416748,0.7638243951040691,0.3030047187189706,2.13,-0.2788597530599562,-0.1106220508006438,0.0,0.6374245466939236,-0.6240159273147583,0.1137591898441314,-0.0630319118499755,12.429533658411856,-0.7674998315819611,0.0821413510215718,-1.8175645478084568
1.62,0.774617612361908,0.308061420917511,2.1015753746032715,0.001472424929326,0.0333394005182958,-0.0035922158740492,-0.2904188632965088,-0.1201394945383071,-0.0023335218429565,0.7582472000428699,0.3007922777029577,2.13,-0.2788597530599562,-0.1106220508006438,0.0,0.3992124451477433,-0.3679320216178894,0.1043044030666351,0.114530324935913,11.914978232040085,-0.800598014053099,0.0904477731534867,-1.873454051591591
1.64,0.7712080478668213,0.3067280948162079,2.1017167568206787,0.0014987875762971,0.0329385543454052,-0.0034392454825914,-0.2972745895385742,-0.120730921626091,0.0031810998916625,0.7526700049816708,0.2985798366869449,2.13,-0.2788597530599562,-0.1106220508006438,0.0,0.4409133168272502,-0.3427863121032715,-0.0295713543891906,0.275731086730957,12.341392469616949,-0.7943136602008037,0.0961350001352015,-1.923781487431622
1.66,0.7643048763275146,0.3040525913238525,2.101888418197632,-0.004312759097384,0.0358512539918206,-0.0038318964809403,-0.3044843673706054,-0.1203265786170959,0.0071829557418823,0.7470928099204717,0.296367395670932,2.13,-0.2788597530599562,-0.1106220508006438,0.0,0.4127930471256458,-0.3604888916015625,0.0202171504497528,0.2000927925109863,12.272133307071272,-0.8255916694147531,0.0811399741503086,-1.935635584589892
1.68,0.7572750449180603,0.3016369342803955,2.102184772491455,-0.0090280942902071,0.0393904265670394,-0.00351591624739,-0.3134925663471222,-0.1145511120557785,0.0105303525924682,0.7415156148592726,0.2941549546549191,2.13,-0.2788597530599562,-0.1106220508006438,0.0,0.5605995194359462,-0.4504099488258362,0.2887733280658722,0.1673698425292968,11.991121827954885,-0.807499323873337,0.0663682644800737,-1.9508344395291928
1.7,0.7499821186065674,0.2991539537906647,2.102494478225708,-0.0111330855140323,0.044234993266785,-0.0030275471650272,-0.3222620487213135,-0.1102193444967269,0.0136363506317138,0.7359384197980734,0.2919425136389063,2.13,-0.2788597530599562,-0.1106220508006438,0.0,0.5131161055665185,-0.4384741187095642,0.2165883779525756,0.1552999019622802,12.166854009207327,-0.8232458499511079,0.0796215979376525,-2.0111557308173533
1.72,0.7426196932792664,0.2967546582221985,2.102782249450684,-0.0100626529732211,0.0510201514560618,-0.0037904673693122,-0.3297454118728637,-0.1098512113094329,0.0134432315826416,0.7303612247368743,0.2897300726228934,2.13,-0.2788597530599562,-0.1106220508006438,0.0,0.3747450502297614,-0.3741681575775146,0.0184066593647003,-0.0096559524536132,11.976620505909068,-0.8426437120866712,0.0789117960582288,-2.0137940161537338
1.74,0.7387792468070984,0.2954947650432586,2.1030006408691406,-0.0037606051694611,0.0590379409729008,-0.0026725837389888,-0.3348389267921448,-0.1084779202938079,0.0141137838363647,0.7247840296756751,0.2875176316068805,2.13,-0.2788597530599562,-0.1106220508006438,0.0,0.2658921904245578,-0.2546757459640503,0.06866455078125,0.0335276126861572,11.646828098262633,-0.8702336217543372,0.0525283380160701,-2.115073637542577
1.76,0.7311890125274658,0.2933367490768432,2.103292226791382,-0.0049237087158092,0.063815055280378,-0.002844417874236,-0.3394845128059387,-0.1040026545524597,0.0123810768127441,0.719206834614476,0.2853051905908677,2.13,-0.2788597530599562,-0.1106220508006438,0.0,0.3339601267252857,-0.2322793006896972,0.2237632870674133,-0.0866353511810302,11.939897573593498,-0.9042193460850184,0.0612794342768904,-2.105701209325022
1.78,0.7236647605895996,0.2911208868026733,2.103482246398926,-0.0006939033111306,0.0739601073254248,-0.0024507478853625,-0.3400759398937225,-0.0984122604131698,0.010836124420166,0.7136296395532769,0.2830927495748548,2.13,-0.2788597530599562,-0.1106220508006438,0.0,0.2915011600667469,-0.0295713543891906,0.2795197069644928,-0.0772476196289062,11.542917828078773,-0.8998853679402243,0.0675787358345618,-2.0915258872079523
1.8,0.7160770893096924,0.2889681160449981,2.103760242462158,0.00505995535401,0.0829377891109682,-0.0011434696673672,-0.3400182723999023,-0.0982942432165145,0.0105303525924682,0.7080524444920777,0.2808803085588419,2.13,-0.2788597530599562,-0.1106220508006438,0.0,0.0166395619806754,0.0028833746910095,0.0059008598327636,-0.0152885913848876,11.690062236700667,-0.9118318937813902,0.0880880791833547,-2.170402842640961
1.82,0.7085861563682556,0.2868977189064026,2.1039600372314453,0.0106151812067166,0.0919940424060935,-0.0005556201661884,-0.3392685949802398,-0.0950212776660919,0.0107502937316894,0.7024752494308785,0.2786678675428291,2.13,-0.2788597530599562,-0.1106220508006438,0.0,0.1682460536872058,0.0374838709831237,0.1636482775211334,0.0109970569610595,11.728587060746122,-0.9197075769048352,0.0857794350943454,-2.161695625697248
1.84,0.7047685980796814,0.2858481705188751,2.103994607925415,0.017482975600556,0.0997621860894135,-0.0012649152207424,-0.3416597843170166,-0.0924470275640487,0.00873863697052,0.6968980543696793,0.2764554265268162,2.13,-0.2788597530599562,-0.1106220508006438,0.0,0.2024309324000573,-0.1195594668388366,0.1287125051021576,-0.1005828380584716,11.773343940361883,-0.9253488677138874,0.113471893853081,-2.079880652844638
1.86,0.6972576379776001,0.2837503552436828,2.104123592376709,0.0182330833067693,0.1031187752179926,0.0004893515750824,-0.3395073115825653,-0.0970128178596496,0.0064533948898315,0.6913208593084802,0.2742429855108033,2.13,-0.2788597530599562,-0.1106220508006438,0.0,0.2770465270640876,0.1076236367225647,-0.2282895147800445,-0.1142621040344238,11.58477182619754,-0.9891100304184044,0.1532703564060849,-2.121506434320324
1.88,0.6900275349617004,0.2815554440021515,2.104238271713257,0.021824378487312,0.1072727997331183,0.0011675925677278,-0.3316739201545715,-0.0965863466262817,0.0054824352264404,0.6857436642472811,0.2720305444947904,2.13,-0.2788597530599562,-0.1106220508006438,0.0,0.3952425256883085,0.3916695713996887,0.0213235616683959,-0.0485479831695556,11.328983733670611,-1.008569671043665,0.1392218791665135,-2.097110514395637
1.9,0.6827123761177063,0.2792733013629913,2.104281187057495,0.024342921285078,0.1100880038239664,0.0003757387027467,-0.3272683918476105,-0.1007337123155593,0.0035458803176879,0.6801664691860819,0.2698181034787776,2.13,-0.2788597530599562,-0.1106220508006438,0.0,0.3176458985200573,0.2202764153480529,-0.2073682844638824,-0.096827745437622,11.539127833113524,-0.98224390487111,0.15911926069959,-2.0326915041535574
1.92,0.67573481798172,0.2769931256771087,2.104281425476074,0.0276227104991427,0.1134466195225359,0.000778629226199,-0.3215861320495605,-0.1026521623134613,0.0009709596633911,0.6745892741248829,0.2676056624627647,2.13,-0.2788597530599562,-0.1106220508006438,0.0,0.3263385633927934,0.2841129899024963,-0.0959224998950958,-0.1287460327148437,11.509262456490433,-0.9907581191713531,0.1494377105762541,-2.015073118372777
1.94,0.6723138093948364,0.275816410779953,2.104048013687134,0.0290332061224097,0.1127918469001748,-0.0012280980747007,-0.3137326240539551,-0.1054088026285171,-0.0031274557113647,0.6690120790636838,0.2653932214467518,2.13,-0.2788597530599562,-0.1106220508006438,0.0,0.4638794623812996,0.3926753997802734,-0.1378320157527923,-0.2049207687377929,11.689365800748874,-0.9996960684055156,0.1573775721224949,-2.0266451527790883
1.96,0.665309727191925,0.2734235227108001,2.104043960571289,0.0266264283159995,0.112911933805454,-3.2003100118235085e-05,-0.311800092458725,-0.1070550084114074,-0.0015342235565185,0.6634348840024846,0.263180780430739,2.13,-0.2788597530599562,-0.1106220508006438,0.0,0.1498587713934354,0.0966265797615051,-0.0823102891445159,0.0796616077423095,11.610479650551495,-0.9365181223859108,0.1501658995980211,-1.999390131286878
1.98,0.6587488055229187,0.2710675597190857,2.103902816772461,0.0222137137698125,0.1106330370503644,-6.132579154428685e-05,-0.3052125871181488,-0.1068491488695144,-0.0032669305801391,0.6578576889412855,0.2609683394147261,2.13,-0.2788597530599562,-0.1106220508006438,0.0,0.3407340546262296,0.3293752670288086,0.0102929770946502,-0.0866353511810302,11.654689627192056,-0.9799230212528331,0.1570041855209574,-1.9722639021520727
2.0,0.6522009372711182,0.2685858607292175,2.103870391845703,0.0183545401156465,0.1052548993001477,-0.0006479053943877,-0.2949477732181549,-0.1088473945856094,-0.0039052963256835,0.6522804938800864,0.2587558983987132,2.13,-0.2788597530599562,-0.1106220508006438,0.0,0.5238485018793227,0.5132406949996948,-0.0999122858047485,-0.0319182872772216,11.84554589452273,-0.9724898025706769,0.1709009227882116,-1.9338303795755432
2.02,0.6458559036254883,0.2659456729888916,2.103600263595581,0.0150269303264049,0.100088000000776,-0.0010617437655464,-0.2900902926921844,-0.115242451429367,-0.0068074464797973,0.6467032988188872,0.2565434573827004,2.13,-0.2788597530599562,-0.1106220508006438,0.0,0.4269494835811847,0.2428740262985229,-0.3197528421878814,-0.1451075077056884,11.638900352646488,-0.9399500786585924,0.1628545084731608,-1.9072857587611136
2.04,0.6426714062690735,0.2646510601043701,2.1035544872283936,0.0143601181515062,0.0967986033582398,-0.002014793549709,-0.2883777022361755,-0.1142473518848419,-0.0081324577331542,0.6411261037576881,0.2543310163666875,2.13,-0.2788597530599562,-0.1106220508006438,0.0,0.1191516260385215,0.0856295228004455,0.0497549772262573,-0.0662505626678466,11.608321464763776,-0.9332081405443372,0.1276529429189677,-1.894613230178058
2.06,0.6364877223968506,0.2620608210563659,2.103422164916992,0.0117116427299808,0.0909193526851995,-0.0017871149153139,-0.2822783589363098,-0.1171649247407913,-0.0064051151275634,0.635548908696489,0.2521185753506746,2.13,-0.2788597530599562,-0.1106220508006438,0.0,0.3489195198626716,0.3049671649932861,-0.1458786427974701,0.086367130279541,11.686866325716435,-0.9473057813890352,0.1375736246259963,-1.8937552954629175
2.08,0.6302700042724609,0.2595264613628387,2.10311222076416,0.0113651789431237,0.0856938875658415,-0.001399229617495,-0.2790315449237823,-0.1153034716844558,-0.0099509954452514,0.6299717136352898,0.2499061343346618,2.13,-0.2788597530599562,-0.1106220508006438,0.0,0.2577793433357896,0.1623407006263733,0.0930726528167724,-0.1772940158843994,11.78422487700118,-0.9179688840809312,0.1219455009659262,-1.8481279567561089
2.1,0.6240727305412292,0.2568934857845306,2.1029207706451416,0.0119713653249423,0.0816673319281456,-0.0016737993979992,-0.2793373167514801,-0.1162650436162948,-0.0112813711166381,0.6243945185740907,0.2476936933186489,2.13,-0.2788597530599562,-0.1106220508006438,0.0,0.0834867716727005,-0.0152885913848876,-0.0480785965919494,-0.0665187835693359,11.903825871397204,-0.9054370192028414,0.1362899427102122,-1.870179320553332
2.12,0.6180559396743774,0.2542654871940613,2.102692127227783,0.01161390077348,0.0755265277628652,-0.0023867283752926,-0.2748164534568786,-0.1183719187974929,-0.0094521045684814,0.6188173235128915,0.245481252302636,2.13,-0.2788597530599562,-0.1106220508006438,0.0,0.2656282367418253,0.226043164730072,-0.105343759059906,0.0914633274078369,12.073114577217892,-0.9142366616535916,0.129757170319863,-1.8773790189294013
2.14,0.6148537397384644,0.2529293298721313,2.102324247360229,0.0165184443423984,0.072174773062218,-0.002915258561926,-0.2752617001533508,-0.1184919476509094,-0.0146931409835815,0.6132401284516924,0.2432688112866232,2.13,-0.2788597530599562,-0.1106220508006438,0.0,0.2630642233884015,-0.0222623348236084,-0.0060014426708221,-0.2620518207550049,11.656254715832802,-0.8910327224430217,0.1139858200498404,-1.8921693728161368
2.16,0.6087149381637573,0.2503677904605865,2.102041721343994,0.0139681742328207,0.0712394758948188,-0.0019974593652353,-0.2784642577171325,-0.1166962087154388,-0.0134164094924926,0.6076629333904933,0.2410563702706103,2.13,-0.2788597530599562,-0.1106220508006438,0.0,0.1943649696707115,-0.1601278781890869,0.089786946773529,0.0638365745544433,11.68579267324276,-0.8819987270511066,0.1255537541939528,-1.9132367960275776
2.18,0.6024659872055054,0.247644618153572,2.101862907409668,0.0138946766324782,0.0657764127981059,-0.0016420445007393,-0.2787244319915771,-0.1189060136675834,-0.0103801488876342,0.6020857383292941,0.2388439292545974,2.13,-0.2788597530599562,-0.1106220508006438,0.0,0.1882140207331852,-0.013008713722229,-0.1104902476072311,0.1518130302429199,12.1072986688705,-0.8853256828083294,0.1393367306965907,-1.8938831282381228
2.2,0.5961034297943115,0.2450049370527267,2.1016736030578613,0.0137622180628249,0.0636135352375971,-0.0016085544390615,-0.2837589383125305,-0.1206642016768455,-0.0082826614379882,0.596508543268095,0.2366314882385846,2.13,-0.2788597530599562,-0.1106220508006438,0.0,0.2865175935830767,-0.2517253160476684,-0.0879094004631042,0.1048743724822998,12.10562650328302,-0.8783776197835007,0.1268829476998105,-1.9155450996829495
2.22,0.5897293090820312,0.242224782705307,2.101502656936645,0.0140067347664624,0.0616011859780208,-0.0013500251288985,-0.2865752577781677,-0.1219462975859642,-0.0081056356430053,0.5909313482068959,0.2344190472225717,2.13,-0.2788597530599562,-0.1106220508006438,0.0,0.154973896066363,-0.1408159732818603,-0.0641047954559326,0.0088512897491455,11.900554879799529,-0.8947996461945598,0.1209837477589659,-1.9418543837639863
2.24,0.5865515470504761,0.2408430278301239,2.101520299911499,0.0133129247802365,0.0585943920864033,-0.0014662605118721,-0.2880088984966278,-0.1241031289100647,-0.0042915344238281,0.5853541531456967,0.2322066062065588,2.13,-0.2788597530599562,-0.1106220508006438,0.0,0.2305136394032747,-0.0716820359230041,-0.1078415662050247,0.1907050609588623,11.95095949189681,-0.8883439973587791,0.1189782940652048,-1.91866850290917
2.26,0.5799790024757385,0.2382074445486068,2.101418256759644,0.0120163370665906,0.0605052885586152,-0.0008493034296793,-0.2912852168083191,-0.1206658780574798,-0.0025159120559692,0.5797769580844975,0.2299941651905459,2.13,-0.2788597530599562,-0.1106220508006438,0.0,0.2534846637193246,-0.1638159155845642,0.1718625426292419,0.0887811183929443,12.091523777391105,-0.8668531563629197,0.1125815253729344,-1.8659617885897493
2.28,0.5733547806739807,0.2353074848651886,2.101381063461304,0.0099609024327143,0.0609990187238211,-0.00158095034967,-0.2969272434711456,-0.1245497167110443,-0.0031328201293945,0.5741997630232984,0.2277817241745331,2.13,-0.2788597530599562,-0.1106220508006438,0.0,0.3438649557676102,-0.2821013331413269,-0.1941919326782226,-0.0308454036712646,11.823200458791687,-0.8720821743755112,0.1361759502445354,-1.913470337480448
2.3000000000000003,0.5666925311088562,0.2326256781816482,2.10153603553772,0.0089471420215149,0.0626450881095309,-0.0007498628941626,-0.2989456057548523,-0.1255897432565689,0.0026500225067138,0.5686225679620992,0.2255692831585202,2.13,-0.2788597530599562,-0.1106220508006438,0.0,0.3106312543743729,-0.1009181141853332,-0.0520013272762298,0.2891421318054199,11.66124127720468,-0.8915484470373523,0.1098371472319733,-1.9692734460315149
2.32,0.5598718523979187,0.2299349308013916,2.1014673709869385,0.0093800447213159,0.0688328020390358,-0.0012859386308322,-0.3033658862113952,-0.1208824664354324,0.0019419193267822,0.5630453729009002,0.2233568421425074,2.13,-0.2788597530599562,-0.1106220508006438,0.0,0.3248028036314254,-0.2210140228271484,0.2353638410568237,-0.035405158996582,11.785553898846956,-0.8880947507051625,0.1020719163930399,-1.9570113810678396
2.34,0.5564514994621277,0.2284514009952545,2.101499557495117,0.0099915319207208,0.0715603851012206,-0.0017171560054779,-0.3037802875041961,-0.123862400650978,0.0029611587524414,0.557468177839701,0.2211444011264945,2.13,-0.2788597530599562,-0.1106220508006438,0.0,0.1588284087252089,-0.0207200646400451,-0.1489967107772827,0.0509619712829589,12.04338011261234,-0.9038287060022372,0.1326038246790276,-1.9689354973901128
2.36,0.5496328473091125,0.2257980704307556,2.1015400886535645,0.0040939514256257,0.0738745820841875,-0.0006005067584614,-0.3053359687328338,-0.1231167465448379,0.0029987096786499,0.5518909827785019,0.2189319601104816,2.13,-0.2788597530599562,-0.1106220508006438,0.0,0.0862779549363342,-0.0777840614318847,0.0372827053070068,0.0018775463104248,11.659714932582574,-0.9042578672684886,0.0951234864833792,-1.993667437787836
2.38,0.5426751971244812,0.2231485992670059,2.1016666889190674,0.0015437331735348,0.0781387954243073,-0.0012155822914056,-0.3099668025970459,-0.1193130388855934,0.0037604570388793,0.5463137877173028,0.2167195190944688,2.13,-0.2788597530599562,-0.1106220508006438,0.0,0.3020474849909577,-0.2315416932106018,0.1901853829622268,0.0380873680114746,11.656469329137508,-0.9033408735585062,0.0938433972801451,-1.979056771379718
2.4,0.5358434319496155,0.2204446494579315,2.1017677783966064,-0.000129420699336,0.0810984845532594,-0.0008768610178816,-0.3102618455886841,-0.1204519718885421,0.0051230192184448,0.5407365926561036,0.2145070780784559,2.13,-0.2788597530599562,-0.1106220508006438,0.0,0.0900110332862419,-0.0147521495819091,-0.056946650147438,0.0681281089782714,11.825631793880348,-0.9322004226637396,0.1076138734864664,-1.9557406047292707
2.42,0.5289589762687683,0.217697337269783,2.101600646972656,0.0007369370264204,0.0847432434210583,-0.0006350266628246,-0.30861496925354,-0.1226533949375152,-0.0014859437942504,0.5351593975949045,0.212294637062443,2.13,-0.2788597530599562,-0.1106220508006438,0.0,0.3578996270149709,0.0823438167572021,-0.1100711524486541,-0.3304481506347656,11.709637945093164,-0.9340362186215712,0.0882975409620374,-1.9355573708501053
2.44,0.5255733728408813,0.2164670079946518,2.101712942123413,0.0051784867377805,0.0875631647813648,-0.0015785005682346,-0.3086686134338379,-0.1191822811961174,0.0023496150970458,0.5295822025337054,0.2100821960464302,2.13,-0.2788597530599562,-0.1106220508006438,0.0,0.2586649392186909,-0.0026822090148925,0.1735556870698928,0.1917779445648193,11.477875262373344,-0.9406875968045312,0.062159762884854,-2.0353388639753685
2.46,0.5187239050865173,0.2138486951589584,2.1016414165496826,0.0033814617223283,0.0894576615851946,-0.0008543090339963,-0.307965874671936,-0.1171116158366203,-0.0001823902130126,0.5240050074725062,0.2078697550304173,2.13,-0.2788597530599562,-0.1106220508006438,0.0,0.1672763259450168,0.0351369380950927,0.1035332679748535,-0.1266002655029297,11.858673043662748,-0.9438339421531384,0.1071832287744972,-1.9322478706048092
2.48,0.5119020938873291,0.2113784551620483,2.101569414138794,0.0065137188936313,0.0920211515841226,-0.0008653696304884,-0.3076037764549255,-0.1144924387335777,-0.0032293796539306,0.5184278124113071,0.2056573140144044,2.13,-0.2788597530599562,-0.1106220508006438,0.0,0.2017135869799703,0.0181049108505249,0.1309588551521301,-0.1523494720458984,11.883866807792856,-0.957870458953409,0.1042791377442773,-1.950664304932474
2.5,0.5051637887954712,0.2086597234010696,2.101421594619751,0.0092769315422306,0.0958031186217664,0.000798499219374,-0.3051026165485382,-0.1167518645524978,-0.0049459934234619,0.512850617350108,0.2034448729983916,2.13,-0.2788597530599562,-0.1106220508006438,0.0,0.1891267349045785,0.1250579953193664,-0.1129712909460067,-0.0858306884765625,11.724485353023285,-0.9737122621422016,0.1155715139139661,-1.9834895902835297
2.52,0.4985052943229675,0.2060254216194152,2.101288318634033,0.0125444141140475,0.0946905130751928,0.0004508970137299,-0.3014279901981354,-0.1204432547092437,-0.0063246488571166,0.5072734222889088,0.2012324319823787,2.13,-0.2788597530599562,-0.1106220508006438,0.0,0.2693971552798085,0.1837313175201416,-0.1845695078372955,-0.0689327716827392,11.66798045572432,-0.9679058011241504,0.1041951178636243,-1.9426839407512264
2.54,0.4951813519001007,0.2047784775495529,2.1012072563171387,0.0170241587967022,0.0966622137315114,-0.0014413749284536,-0.3004161119461059,-0.1170378550887107,-0.0058525800704956,0.5016962272277097,0.1990199909663658,2.13,-0.2788597530599562,-0.1106220508006438,0.0,0.1791890978251624,0.0505939126014709,0.1702699810266494,0.0236034393310546,11.90337852319999,-0.9604719302253504,0.0860173840599935,-1.915774032079896
2.56,0.4885638356208801,0.2022586464881897,2.1010117530822754,0.0164199408193602,0.0974079039630014,0.0003898120578225,-0.2975937724113464,-0.1158945634961128,-0.0067591667175292,0.4961190321665105,0.196807549950353,2.13,-0.2788597530599562,-0.1106220508006438,0.0,0.1588601229364339,0.141116976737976,0.057164579629898,-0.0453293323516845,11.929243167623554,-0.9727447386408292,0.139651327412518,-1.930957121679305
2.58,0.4820930063724518,0.1995117962360382,2.1008756160736084,0.0161535817125884,0.0953945809440005,-0.0001478407947983,-0.2944877743721008,-0.1185003295540809,-0.0074619054794311,0.4905418371053114,0.1945951089343401,2.13,-0.2788597530599562,-0.1106220508006438,0.0,0.2057369821892488,0.1552999019622802,-0.1302883028984069,-0.0351369380950927,11.961022948884874,-0.9791688051219032,0.1522145644676282,-1.9284933840690588
2.6,0.4757609367370605,0.1968491226434707,2.1007068157196045,0.0160165392234957,0.093822365149865,-0.0003535143972231,-0.2880652248859405,-0.121714286506176,-0.0068610906600952,0.4849646420441122,0.1923826679183272,2.13,-0.2788597530599562,-0.1106220508006438,0.0,0.3603458048848054,0.3211274743080139,-0.1606978476047516,0.0300407409667968,11.88292294252551,-0.9706216159668364,0.1431478645651148,-1.8990022697815687
2.62,0.4694718420505523,0.1941453367471695,2.100481510162353,0.0141564403366594,0.0926673308005072,-6.0130760368442826e-05,-0.2839761972427368,-0.120745338499546,-0.0088673830032348,0.4793874469829131,0.1901702269023144,2.13,-0.2788597530599562,-0.1106220508006438,0.0,0.2328315714877238,0.2044513821601867,0.0484474003314971,-0.1003146171569824,11.777824582663923,-0.9433717895544784,0.1300964783196824,-1.8717284946901904
2.64,0.4663799107074737,0.1927317678928375,2.1003589630126958,0.0150820108215602,0.0914104967823055,-0.0013516869868922,-0.280636191368103,-0.1242771372199058,-0.0099241733551025,0.473810251921714,0.1879577858863015,2.13,-0.2788597530599562,-0.1106220508006438,0.0,0.2487269953760747,0.1670002937316894,-0.1765899360179901,-0.0528395175933837,12.337514933626151,-0.9448524301529198,0.1372616656182577,-1.9366185313414968
2.66,0.4600715339183807,0.1899902671575546,2.0999903678894043,0.011624190396302,0.0905537742037415,-0.0002861925760457,-0.2808232605457306,-0.1234654337167739,-0.0126975774765014,0.4682330568605148,0.1857453448702886,2.13,-0.2788597530599562,-0.1106220508006438,0.0,0.144789743031122,-0.0093534588813781,0.0405851751565933,-0.1386702060699463,11.9356237483521,-0.9156132856131048,0.1023167969570249,-1.938583841650188
2.68,0.4538623094558716,0.1871947348117828,2.099799156188965,0.0077592459983169,0.0906060474976021,-0.0001343724302056,-0.2816460132598877,-0.1245832443237304,-0.0125956535339355,0.4626558617993157,0.1835329038542758,2.13,-0.2788597530599562,-0.1106220508006438,0.0,0.0695846799185259,-0.0411376357078552,-0.0558905303478241,0.0050961971282958,11.883500934140557,-0.9357299858891096,0.1100900912755389,-1.9682292834667567
2.7,0.4477098286151886,0.1843814849853515,2.0995469093322754,0.0052599923282805,0.0884774214411913,-0.0003406651285946,-0.2781383693218231,-0.1261976063251495,-0.0099778175354003,0.4570786667381166,0.1813204628382629,2.13,-0.2788597530599562,-0.1106220508006438,0.0,0.2332530599107624,0.1753821969032287,-0.0807181000709533,0.1308917999267578,12.191015536118355,-0.9599181260800856,0.0998059648105008,-1.9862935857830275
2.72,0.4415960907936096,0.1815637499094009,2.0992777347564697,0.003243534525036,0.0873197390448333,-0.0006665785556932,-0.2759899199008941,-0.126697152853012,-0.0117319822311401,0.4515014716769173,0.17910802182225,2.13,-0.2788597530599562,-0.1106220508006438,0.0,0.1409119887338299,0.1074224710464477,-0.0249773263931274,-0.0877082347869873,11.765187330530807,-0.952953738748137,0.0833788634984889,-1.9832876089380784
2.74,0.4387103617191314,0.1802077144384384,2.0993521213531494,0.0052627336427178,0.0846732768244357,-0.0008578342386259,-0.2718110382556915,-0.1230651140213012,-0.0106000900268554,0.4459242766157183,0.1768955808062371,2.13,-0.2788597530599562,-0.1106220508006438,0.0,0.2825594532208539,0.2089440822601318,0.1816019415855407,0.0565946102142334,11.749026275740109,-0.9508790143003348,0.0765338350276604,-2.0389544296327275
2.76,0.4325999915599823,0.177532285451889,2.099100351333618,0.002772425781959,0.0828530863076684,-0.0004061246497828,-0.2728919684886932,-0.1243384927511215,-0.0087654590606689,0.440347081554519,0.1746831397902242,2.13,-0.2788597530599562,-0.1106220508006438,0.0,0.1240541649871767,-0.0540465116500854,-0.0636689364910125,0.0917315483093261,11.89569944794357,-0.9010240482559286,0.1210129978827839,-2.004114591419061
2.78,0.4265093207359314,0.1745960265398025,2.0987813472747803,0.0037850823136131,0.0827263503817562,0.0006256715084918,-0.2745234370231628,-0.1262629777193069,-0.0128424167633056,0.43476988649332,0.1724706987742114,2.13,-0.2788597530599562,-0.1106220508006438,0.0,0.2397233618195405,-0.0815734267234802,-0.0962242484092712,-0.2038478851318359,11.93464935879183,-0.9181841521967714,0.1035774373079738,-2.013770814460069
2.8000000000000003,0.4204970002174377,0.1719300597906112,2.098620891571045,0.0027358566537826,0.0779726111366553,0.0010104747131092,-0.2723172903060913,-0.1260500848293304,-0.0107878446578979,0.4291926914321208,0.1702582577581985,2.13,-0.2788597530599562,-0.1106220508006438,0.0,0.1511098380001078,0.1103073358535766,0.010644644498825,0.1027286052703857,12.06530903489238,-0.9352561382918904,0.0858696405616723,-2.064412300497518
2.82,0.4147006273269653,0.1693301200866699,2.098629713058472,0.0001342354833054,0.0746154525588933,0.0012929353036626,-0.2656956017017364,-0.1184828951954841,-0.0034117698669433,0.4236154963709218,0.1680458167421857,2.13,-0.2788597530599562,-0.1106220508006438,0.0,0.6235294665238152,0.3310844302177429,0.3783594816923141,0.3688037395477295,11.937623730261294,-0.9166684904114828,0.0814320737454275,-2.023467630771953
