t,x,y,z,roll,pitch,yaw,v_x,v_y,v_z,ref_x,ref_y,ref_z,ref_v_x,ref_v_y,ref_v_z,a_com,a_x,a_y,a_z,thrust,wind_x,wind_y,wind_z
0.0,-1.0760438442230225,0.0454263128340244,2.426187753677368,0.0039171027012708,0.0736148181332309,0.0021920542847511,-0.0092536211013793,-0.0113274715840816,0.0139582157135009,-1.07,0.06,2.42,0.0,0.0,0.0,1.010906649845445,-0.4626810550689697,-0.5663735792040825,0.6979107856750488,10.764680478517676,-0.7695601098483172,0.1453054789110545,-0.7933925507476084
0.02,-1.0762088298797607,0.0452410541474819,2.426051616668701,0.0032872461821399,0.0779389172093154,0.0024442143130001,-0.0074243545532226,-0.0083366408944129,-0.0061261653900146,-1.070122,0.060032,2.42004,-0.0122,0.0032,0.004,1.0194038069255538,0.0914633274078369,0.1495415344834327,-1.0042190551757812,11.371687145252054,-0.7743476850311132,0.1261668405450733,-0.8136987912330449
0.04,-1.0762652158737185,0.0452409982681274,2.4263112545013428,0.0020870752514008,0.078423973053808,0.0021160362224734,-0.0092107057571411,-0.0072810240089893,0.008711814880371,-1.070391425636925,0.0600387866708711,2.420519999165667,-0.0147425636924742,-0.0025213329128968,0.0439999165667407,0.7491178747982339,-0.0893175601959228,0.052780844271183,0.7418990135192871,11.359661222562409,-0.7648893607299091,0.1392108108794652,-0.9247480441306826
0.06,-1.07652747631073,0.0451427549123764,2.426115036010742,0.0040706144910354,0.0830769718430063,0.0017597642702458,-0.0118017196655273,-0.0044209510087966,-0.0088298320770263,-1.0706110013682093,0.0598452266948267,2.4217999973505324,-0.0072150094359832,-0.0168346646915412,0.0839999019197803,0.8980572763162902,-0.1295506954193115,0.1430036500096321,-0.877082347869873,10.835138342242317,-0.7882023939778408,0.1275570565927938,-0.8587146058648563
0.08,-1.0765838623046875,0.0450128503143787,2.426163911819458,0.0105690535493461,0.0888113043766058,0.0032268971570118,-0.0025373697280883,-0.0058457069098949,0.0021994113922119,-1.0705746572993633,0.059282384620048,2.4238799953089614,0.0108494163205855,-0.0394495427863238,0.1239998939231031,0.7237097495625835,0.4632174968719482,-0.0712377950549125,0.5514621734619141,10.9875967528601,-0.8191663183240496,0.1309663465884646,-0.9784228517789256
0.1,-1.0764952898025513,0.0449706465005874,2.426485061645508,0.0221395256639203,0.0979963820165786,0.004529242056536,0.0039857625961303,-0.0018991716206073,0.0144517421722412,-1.070066375536661,0.0581867779835784,2.4267599931325763,0.0399787599496482,-0.0701111208606402,0.163999888438395,0.7215365646523275,0.3261566162109375,0.1973267644643783,0.6126165390014648,10.371095195258931,-0.7786032332614743,0.1193093598928571,-0.9027979363110856
0.12,-1.0762925148010254,0.0449337251484394,2.4263675212860107,0.0408535255321686,0.1126601902754769,0.008147819403019,0.0091248750686645,-0.0016614608466625,-0.0052893161773681,-1.0688668003440869,0.0564059229489144,2.430405274675376,0.0799787593077989,-0.1079743826057565,0.2005282658416192,1.0200200588469914,0.256955623626709,0.0118855386972427,-0.9870529174804688,10.109616706466568,-0.7715475562834377,0.1619424647096824,-0.8799890036866971
0.14,-1.076145887374878,0.0447582677006721,2.426372528076172,0.0510637883509735,0.1212762517615297,0.0102495039329157,0.0139153003692626,-0.0096695311367511,0.0061583518981933,-1.0668672251644875,0.0538843737316208,2.434349057327686,0.1199787586520921,-0.1441805391236075,0.1938499993893525,0.7384552604928782,0.2395212650299072,-0.4004035145044327,0.5723834037780762,10.118222560032793,-0.8062701621035742,0.1954976276614312,-1.0846671795765963
0.16,-1.075573444366455,0.0443017445504665,2.4263482093811035,0.0732342721237406,0.1395945752084697,0.0160334303535391,0.0257599353790283,-0.0205435417592525,-0.0010943412780761,-1.0640676499982609,0.0506461753582082,2.4378598029001246,0.1599787579705938,-0.1796392982176505,0.1572245578545231,0.8819595283259103,0.5922317504882812,-0.5437005311250687,-0.3626346588134765,9.776479755220862,-0.8374851066699316,0.1898726558535136,-0.9936798869770388
0.18,-1.074666142463684,0.0437171496450901,2.4263389110565186,0.0958962801879527,0.1594629669659267,0.0221300489004219,0.0408285856246948,-0.0263067707419395,-0.0004184246063232,-1.060468074845795,0.0466783313819422,2.4406042955883303,0.1999787572759964,-0.2171450994089555,0.1172247109660031,0.8073659205717413,0.7534325122833252,-0.2881614491343498,0.0337958335876464,9.732734146927667,-0.8449486912111971,0.201321109452629,-1.0244938516057074
0.2,-1.0734422206878662,0.0425502844154834,2.4259843826293945,0.1182972223039925,0.1768083453880268,0.0272581560836009,0.0550764799118042,-0.0525089353322982,-0.015953779220581,-1.0560684997076115,0.0419721940870579,2.4425487913946635,0.2399787565423589,-0.2534686300794635,0.07722486966732,1.681445184824378,0.7123947143554688,-1.3101082295179367,-0.7767677307128906,9.588116066093336,-0.8526748923315995,0.2573161268472144,-0.9443692744567792
0.22,-1.0718966722488403,0.0409878604114055,2.425353765487671,0.1386559865691871,0.1911372094468861,0.0320726778802655,0.0695496797561645,-0.070309080183506,-0.0283777713775634,-1.05086892458452,0.0365513537326209,2.443693290439996,0.2799787557668018,-0.2886154053642407,0.0372250348659782,1.3044867300738732,0.7236599922180176,-0.8900072425603867,-0.6211996078491211,9.683812471636427,-0.927676311906986,0.2313850096216202,-0.9167982816500216
0.24,-1.070796251296997,0.0402421467006206,2.424870014190674,0.1522504523006244,0.1993330032598095,0.0345884593986699,0.0909054279327392,-0.0764380991458892,-0.0392889976501464,-1.0448693494773909,0.0304392879645538,2.444037792865062,0.3199787549461145,-0.3225911714424724,-0.0027747923594495,1.237626470703129,1.0677874088287354,-0.3064509481191635,-0.5455613136291504,9.798132450147024,-0.927676311906986,0.2313850096216202,-0.9167982816500216
0.26,-1.0683934688568115,0.037758469581604,2.423682451248169,0.1713493508418622,0.2107913034062054,0.040089640034781,0.1081252098083496,-0.1117654740810394,-0.0534403324127197,-1.0380697743871623,0.0236593613224138,2.4435822988344174,0.3599787540767034,-0.3554014927715165,-0.0427746107049648,2.0885429030873937,0.8609890937805176,-1.766368746757507,-0.7075667381286621,10.127012742895204,-0.9150857150285672,0.3498495556458406,-0.7958627710154804
0.28,-1.0653455257415771,0.0348579324781894,2.421804666519165,0.1888969844814974,0.2225843006265291,0.041594512713994,0.1371574401855468,-0.1305241733789444,-0.0845003128051757,-1.0304701993148502,0.016234829055057,2.44232680854169,0.3999787531545276,-0.387051733964166,-0.0827744185677704,2.32351112650856,1.4516115188598633,-0.9379349648952484,-1.5529990196228027,9.747992509849157,-0.9529935803100588,0.2831215520564472,-0.7341845336262899
0.3,-1.0616015195846558,0.0311844833195209,2.419752597808838,0.2046438654793635,0.2344734227283483,0.0453019991150477,0.1684802770614624,-0.1653052121400833,-0.0923430919647216,-1.0220706242615547,0.0081888411275286,2.4402713222165997,0.4399787521750215,-0.4175470587886766,-0.122774213941333,2.372946455466531,1.5661418437957764,-1.7390519380569458,-0.3921389579772949,10.070489905530849,-0.9246714564035808,0.3410083024622012,-0.7684099230578558
0.32,-1.0571484565734863,0.0266088861972093,2.416786193847656,0.219595733745398,0.245391510535802,0.0486798591754291,0.2003878355026245,-0.2059018760919571,-0.1334881782531738,-1.0128710492284745,-0.0004555537845851,2.4374158401345785,0.4799787511330005,-0.4468924324226959,-0.1627739942607852,3.301173857653409,1.5953779220581057,-2.029833197593689,-2.0572543144226074,10.00563461706679,-0.8992214035626848,0.3175537293808931,-0.6431045267835578
0.34,-1.0545568466186523,0.0242021176964044,2.415283679962158,0.2248000684901029,0.247537759345109,0.0499458854764744,0.2208584547042846,-0.2159310728311538,-0.1300013065338134,-1.0028714742169191,-0.0096754043544754,2.433760362630297,0.5199787500225431,-0.4750926245663371,-0.2027737561673709,1.1530278749017386,1.0235309600830078,-0.5014598369598389,0.1743435859680175,10.283847517165668,-0.8937928188453128,0.2750076078992117,-0.7623935268140232
0.36,-1.0491056442260742,0.0186321977525949,2.4114675521850586,0.2386240075258995,0.2601898026862629,0.0532640376266291,0.2453041076660156,-0.2506464123725891,-0.1717257499694824,-0.9920718992283252,-0.0194478527279758,2.4293048901172734,0.5599787488368446,-0.5021522127837043,-0.2427734951349748,2.976438277631026,1.222282648086548,-1.735766977071762,-2.0862221717834477,10.235360692451197,-0.9722199344709778,0.4393819303067767,-0.628933496559381
0.38,-1.042577862739563,0.011950047686696,2.407395839691162,0.2490151665796428,0.2690009585501394,0.0569096381996984,0.2937501668930053,-0.3006967604160309,-0.1832270622253418,-0.9804723242642766,-0.0297501307145335,2.4240494231174354,0.5999787475680323,-0.5280755858720638,-0.2827732048488413,3.5299922724778856,2.4223029613494877,-2.5025174021720886,-0.5750656127929688,10.790511003532629,-1.0188590772004438,0.4390845441084216,-0.7324475084487168
0.4,-1.0353230237960815,0.0044818655587732,2.4025447368621826,0.2590892326161788,0.279223013392733,0.0580633791816599,0.326467752456665,-0.33606818318367,-0.2182996273040771,-0.968072749326527,-0.0405595560452922,2.417993962307859,0.6399787462069293,-0.5528669472038059,-0.3227728761088125,2.9797914251355664,1.6358792781829834,-1.768571138381958,-1.7536282539367676,10.763737909576776,-0.9305332300655812,0.3648998262923906,-0.6602941155393577
0.42,-1.0271843671798706,-0.0041637676768004,2.397385835647583,0.2666045301797644,0.2882509855209508,0.0613906156186543,0.3662395477294922,-0.3890534937381744,-0.2321505546569824,-0.9548731744170302,-0.0518535286980302,2.411138508599358,0.6799787447427507,-0.5765303180699914,-0.3627724947412978,3.384186394953893,1.9885897636413572,-2.64926552772522,-0.6925463676452637,10.94865849503458,-0.9624053491526858,0.3967395072930056,-0.73882358530194
0.44,-1.0226123332977295,-0.0086801825091242,2.394674062728882,0.270799460180842,0.28991210076898,0.0625851883589248,0.3937160968780517,-0.4047216176986694,-0.2457976341247558,-0.9408735995379756,-0.0636095272904463,2.4034830632798703,0.719978743162703,-0.5990695411716184,-0.4027720372074572,1.7224209993163475,1.3738274574279783,-0.7834061980247498,-0.6823539733886719,11.435564133374555,-0.9665438061653954,0.335393615373683,-0.6927537121940437
0.46,-1.0130521059036257,-0.0187614001333713,2.3888745307922363,0.2768666353109836,0.2949281573458152,0.064497608369995,0.4302102327346802,-0.453654795885086,-0.2609789371490478,-0.926074024691834,-0.0758051055494711,2.3950276283078598,0.7599787414514537,-0.6204882847308625,-0.4427714599936303,3.145135068983933,1.824706792831421,-2.4466589093208317,-0.7590651512145996,11.458176936634572,-1.045561971635307,0.5199107405747374,-0.6337028417664388
0.48,-1.00241219997406,-0.0299094188958406,2.382481336593628,0.2841327845751437,0.3007823495552779,0.0660903596588889,0.4787957668304443,-0.5016608238220215,-0.2876937389373779,-0.9104744498814152,-0.0884178888869418,2.385772207027427,0.7999787395904112,-0.6407900490161944,-0.4827706680495733,3.667019728690538,2.429276704788208,-2.4003013968467712,-1.335740089416504,11.479940981751495,-1.0861769054415402,0.4921802366828535,-0.6643696515541393
0.5,-0.9906922578811646,-0.0420800670981407,2.3759615421295166,0.2888355375523667,0.3019777143298603,0.0678503960830427,0.5273973941802979,-0.5476791858673096,-0.2933907508850097,-0.894074875109944,-0.101425571229753,2.3757168065445446,0.8399787375567318,-0.6599781852649291,-0.5227693802386639,3.358669294347353,2.430081367492676,-2.3009181022644043,-0.2848505973815918,11.843255558491364,-1.054812993994486,0.4788918927079779,-0.7626052607049408
0.52,-0.977869749069214,-0.0555441342294216,2.369448184967041,0.2911437563801219,0.3020368545825653,0.0692835909211051,0.5770128965377808,-0.605883002281189,-0.2931010723114013,-0.8768753003811574,-0.1148059137586208,2.364861455396287,0.8799787353219224,-0.6780560676218426,-0.5627657345871385,3.824090164013519,2.480775117874145,-2.9101908206939697,0.0144839286804199,12.345299814313876,-1.034920039384893,0.4917297907938647,-0.7329011602032827
0.54,-0.9709156155586244,-0.0627414509654045,2.366049528121948,0.2906920009826074,0.3018561513541981,0.068949024664551,0.6013968586921692,-0.631344735622406,-0.3048169612884521,-0.8588757256993812,-0.1285379340275693,2.353216259830557,0.919978732855698,-0.6951459592730057,-0.6017538219858947,1.8575114599972664,1.2191981077194214,-1.273086667060852,-0.5857944488525391,11.86498426867456,-1.0288638428504997,0.4523773985831787,-0.7112539993793631
0.56,-0.9564558267593384,-0.0779430866241455,2.359180212020874,0.29256194332807,0.3034332525900509,0.0695378875541562,0.650690495967865,-0.6840736269950867,-0.3091192245483398,-0.8400761510696038,-0.1426031695254237,2.340813848849802,0.9599787301220436,-0.7113775905124321,-0.6384872760895968,3.615490329961208,2.46468186378479,-2.636444568634033,-0.2151131629943847,12.385356476224842,-1.181009293570723,0.6111903167743771,-0.7866462752168397
0.58,-0.9409313201904296,-0.0942988917231559,2.352212905883789,0.2911469881618704,0.3044906671257533,0.0687329411536384,0.6986027956008911,-0.7360112071037292,-0.3135287761688232,-0.8204765764977145,-0.1569843670185384,2.327700960158161,0.999978727066884,-0.726742158799039,-0.6728015930744256,3.539966394317977,2.395614981651306,-2.596879005432129,-0.2204775810241699,12.127493474943549,-1.1594601562925848,0.58612518577525,-0.7986101143269985
0.6,-0.9241381883621216,-0.1118316203355789,2.345271348953247,0.2921266450481032,0.3056860400828424,0.0697535325774332,0.7556909322738647,-0.788972795009613,-0.3123700618743896,-0.8000770019908663,-0.1716640783491303,2.31392776017566,1.0399787236179292,-0.7412289742601613,-0.7045184051757472,3.8940107091278326,2.8544068336486816,-2.648079395294189,0.0579357147216796,12.343026832427768,-1.168513084781715,0.5818170020421723,-0.8545697033527522
0.62,-0.906427264213562,-0.1305505931377411,2.3380911350250244,0.2908505939756168,0.3073034283214372,0.0705334593414055,0.7969915866851807,-0.8423537611961365,-0.3231096267700195,-0.7788774275579321,-0.186624622995997,2.2995481632248413,1.0799787196754909,-0.7548254904265037,-0.7334412899060871,3.417093011595219,2.065032720565796,-2.669048309326172,-0.5369782447814941,12.292290692282675,-1.139504551436722,0.5923915695709647,-0.9146953784873384
0.64,-0.8972167372703552,-0.140369176864624,2.3345351219177246,0.2895636234879539,0.3093726099408403,0.0711616938577855,0.8204233646392822,-0.869522213935852,-0.3160715103149414,-0.7568778532102107,-0.2018480489248036,2.284620223354202,1.1199787150966465,-0.7675171024541586,-0.7593526971577839,1.8280509604464807,1.171588897705078,-1.3584226369857788,0.3519058227539062,12.479715770310577,-1.1957702760965947,0.5787326795471663,-0.9938843264387972
0.66,-0.8776258826255798,-0.1608324348926544,2.32751202583313,0.2831703071477624,0.3109488788824158,0.0703984016156091,0.8815884590148926,-0.9208465814590454,-0.3160393238067627,-0.7340782789625838,-0.2173160888003357,2.2692065926210243,1.159978709666034,-0.779286885099038,-0.7820103761600068,3.992292733381552,3.0582547187805176,-2.566218376159668,0.0016093254089355,12.854380571255206,-1.376016297134146,0.7394499473640215,-1.0140693708989026
0.68,-0.8568411469459534,-0.1824855804443359,2.3205926418304443,0.2746479965768975,0.3132851720080259,0.07083736755314,0.9353131055831908,-0.9743915796279908,-0.3113722801208496,-0.7104787048355538,-0.2330101103516382,2.253375058446395,1.1999787030369748,-0.7901152700312115,-0.8011430413029494,3.7997321532468407,2.686232328414917,-2.6772499084472656,0.2333521842956543,12.252393635917542,-1.2933422359230775,0.7151913633074543,-1.0425131440992474
0.7000000000000001,-0.83487868309021,-0.2051020115613937,2.313668727874756,0.2622379510949874,0.3151271802855278,0.0722927228657509,0.9883108735084534,-1.0177394151687622,-0.3115761280059814,-0.6860791308592085,-0.2489110595406773,2.2371991776737574,1.2399786945975386,-0.799979648872706,-0.8164450359608093,3.423390061433995,2.6498883962631226,-2.167391777038574,-0.0101923942565917,12.239356661470085,-1.2829149110516866,0.677206263063278,-1.0704131211782348
0.72,-0.8115465044975281,-0.2289674282073974,2.307315826416016,0.2458039967714948,0.3140632017438877,0.0728105581876,1.04994797706604,-1.0739437341690063,-0.2858805656433105,-0.6608795570821591,-0.2649993959084288,2.2207590378663205,1.2799786831074145,-0.8088539879024473,-0.8275689447828893,4.364149382864826,3.081855177879333,-2.810215950012207,1.284778118133545,11.988607966009567,-1.2757280896507246,0.6851520742447994,-1.1151691019416148
0.74,-0.7997146248817444,-0.2410844564437866,2.303731203079224,0.2401802124741248,0.3170048931153948,0.0726137615356762,1.060802936553955,-1.0897245407104492,-0.296255350112915,-0.634879983598867,-0.2812826471340131,2.204333049862884,1.3199786652217909,-0.8194711346559818,-0.8150298555607549,1.0891512215636878,0.542747974395752,-0.7890403270721436,-0.5187392234802246,11.322752780852625,-1.2244405082458871,0.5945659724973913,-1.0292246236623863
0.76,-0.7746821641921997,-0.266204684972763,2.297182083129883,0.2213845004291972,0.316434299551791,0.0734384963532318,1.1264607906341553,-1.1304103136062622,-0.2947103977203369,-0.6080938266749543,-0.2978568198844037,2.188432450736207,1.358637027169485,-0.8379461403830827,-0.7750300571069199,3.862859302525095,3.2828927040100098,-2.0342886447906494,0.0772476196289062,11.07386519319516,-1.505200105376345,0.7625360701001591,-1.2116081478963576
0.78,-0.7485882639884949,-0.2920740842819214,2.2907135486602783,0.2013568807514842,0.3173282800956327,0.0754004890094771,1.1742255687713623,-1.1641229391098022,-0.2910840511322021,-0.5807855966259785,-0.3146966113695407,2.1725318541781733,1.372185977728087,-0.8460330081306177,-0.8150295986964402,2.9288075809174567,2.388238906860352,-1.685631275177002,0.1813173294067382,10.890673086001698,-1.3935058573233687,0.7120417328786545,-1.241998769688154
0.8,-0.7212882041931152,-0.318447083234787,2.284105062484741,0.1798982355430964,0.3174401282518848,0.0769359749436393,1.2285027503967283,-1.1867849826812744,-0.2973818778991699,-0.5532812155176899,-0.3316690588509207,2.155831263606166,1.3782521331007684,-0.8512117400073771,-0.8550294585043229,2.9577201042420453,2.7138590812683105,-1.1331021785736084,-0.3148913383483886,10.294982877002894,-1.407520295501803,0.6858551823976279,-1.2522829715109152
0.8200000000000001,-0.6929728984832764,-0.345389187335968,2.27737045288086,0.1580007023770577,0.3185656023737996,0.0787096194911722,1.274188756942749,-1.2123947143554688,-0.3030574321746826,-0.5257294610173019,-0.3487164510966101,2.138330675442194,1.376923316938027,-0.853527484561553,-0.8950293578928813,2.634047013096744,2.2843003273010254,-1.2804865837097168,-0.2837777137756347,10.16239763034855,-1.3707374775424896,0.6866311462495063,-1.3104597940000893
0.84,-0.6784402132034302,-0.3589937090873718,2.273775100708008,0.1463999539598705,0.3192131045252774,0.0801418695903791,1.3019952774047852,-1.2224624156951904,-0.3102028369903564,-0.4982776687283404,-0.3657818913436566,2.120030089225984,1.3682559119581317,-0.8530165401431087,-0.935029263728079,1.5211985409959827,1.3903260231018066,-0.503385066986084,-0.3572702407836914,9.721204681890868,-1.367187457818666,0.6303902121050052,-1.28150139814014
0.86,-0.6487552523612976,-0.3863368332386017,2.26633358001709,0.1233144679865251,0.3210180330110877,0.0828671470305647,1.3358232975006104,-1.230440616607666,-0.3348684310913086,-0.4710723521355062,-0.3828091203963578,2.1009295050399066,1.3522757473252858,-0.8497063651270161,-0.9750291548796932,2.1309494161971,1.6914010047912598,-0.3989100456237793,-1.2332797050476074,9.600453211336117,-1.462725565588873,0.6554501141709127,-1.2381671005213766
0.88,-0.6176193356513977,-0.4139860570430755,2.258970260620117,0.0927757481196423,0.3157786062782569,0.0829238772874411,1.4011162519454956,-1.2442150115966797,-0.3313493728637695,-0.4442598090338885,-0.3997423423574271,2.081028923713073,1.3289785628364903,-0.8436158309799177,-1.0150289778036037,3.3411403847578884,3.2646477222442627,-0.6887197494506836,0.1759529113769531,9.520334134357654,-1.3157426333751656,0.5763331301778207,-1.0951473759356656
0.9,-0.5857459306716919,-0.4414849877357483,2.2508256435394287,0.0643964814400694,0.3122180505418042,0.0824468288643746,1.4343032836914062,-1.2374519109725952,-0.3665077686309814,-0.4180428340449231,-0.4165064675486716,2.060784202886785,1.2927189360600542,-0.8327966881445245,-1.0094431048252377,2.440917552417265,1.6593515872955322,0.3381550312042236,-1.7579197883605957,9.152844862563144,-1.3157426333751656,0.5763331301778207,-1.0951473759356656
0.92,-0.5529869198799133,-0.4689737856388092,2.242211103439331,0.0342949011055887,0.3024856938152988,0.0810696199867581,1.4741554260253906,-1.2369959354400637,-0.3876543045043945,-0.3925884551174945,-0.4331018889363007,2.0404356442313567,1.2527189566828043,-0.8267454506183863,-1.0254127607176058,2.2558685365840603,1.9926071166992188,0.0227987766265869,-1.0573267936706543,9.403311837215824,-1.3388449395846578,0.5933098697339171,-1.1617208018465337
0.94,-0.5363786816596985,-0.4827065169811249,2.237452983856201,0.0200478896504276,0.2957582626450362,0.0806496898968516,1.4914772510528564,-1.2296319007873535,-0.4081892967224121,-0.367934075872634,-0.4495894307726655,2.019527426225284,1.2127189678032302,-0.8220087330180791,-1.0654090398896945,1.3928034086353474,0.866091251373291,0.368201732635498,-1.026749610900879,9.29204389710776,-1.2835634579917958,0.5408634110892845,-1.0668675421561624
0.96,-0.5024070143699646,-0.5097545981407166,2.2281081676483154,-0.0123514566166841,0.2748222129630021,0.0778489887564815,1.528725028038025,-1.2171636819839478,-0.4205167293548584,-0.3440796964381977,-0.465970518722562,1.997900224541584,1.1727189756404106,-0.8161000619715931,-1.0973111284802293,2.0584089521848834,1.8623888492584229,0.6234109401702881,-0.6163716316223145,9.268763277478683,-1.3639087483531631,0.5135190348631165,-0.9921369020175448
0.98,-0.4680987298488617,-0.536456286907196,2.217740058898926,-0.0411107199728361,0.2516932196784571,0.0737732520107867,1.5438728332519531,-1.2015759944915771,-0.4665648937225342,-0.3210253168660818,-0.482219117067992,1.9757817664917825,1.132718981571184,-0.8087597725713982,-1.1145346764999422,2.54600935082307,0.7573902606964111,0.7793843746185303,-2.302408218383789,9.579085169578777,-1.2811414315408187,0.4876066416085469,-0.8672598795162685
1.0,-0.4330445826053619,-0.5626405477523804,2.2071852684021,-0.0726933027984823,0.2163507562976567,0.0699824192303053,1.5774366855621338,-1.1782917976379397,-0.4749655723571777,-0.2987709371874212,-0.4983030738494086,1.953517948961356,1.0927189862948683,-0.7996359055702621,-1.111847076542705,2.085220256076758,1.6781926155090332,1.1642098426818848,-0.4200339317321777,9.294857939789836,-1.3043506950268613,0.460312678050586,-0.9176069001428306
1.02,-0.3978231847286224,-0.5881894826889038,2.1959035396575928,-0.1041487113510604,0.1723690822147649,0.0650173590248712,1.5849628448486328,-1.149702072143555,-0.5076777935028076,-0.2773165574226589,-0.5141806667513609,1.9315995219172344,1.0527189901813665,-0.7881233846249655,-1.07999562786947,2.2046002413876677,0.3763079643249511,1.4294862747192385,-1.635611057281494,8.559011832446686,-1.1753625965252803,0.447694122662023,-0.7649411025407626
1.04,-0.3800539374351501,-0.6006516218185425,2.1900863647460938,-0.1175385973952648,0.1480126920758275,0.0641813077477233,1.599460244178772,-1.1325976848602295,-0.5099737644195557,-0.2566621775854619,-0.5298092885221285,1.9103995957470128,1.0127189935383358,-0.7747387924517996,-1.0399969891526937,1.126949570883774,0.724869966506958,0.8552193641662598,-0.1147985458374023,8.087212834561797,-1.1689351445250569,0.4363997250472267,-0.7805259204520807
1.06,-0.3447001874446869,-0.6249381303787231,2.177888870239258,-0.1475927496056225,0.0990240505988794,0.0617007581528622,1.590918779373169,-1.09289288520813,-0.5488872528076172,-0.2368077976850752,-0.5451544611917819,1.8899996500237408,0.972718996500333,-0.7597784745135405,-0.9999975831745296,2.812333246152793,-0.4270732402801513,1.9852399826049805,-1.945674419403076,7.86247351646989,-1.09041366574306,0.3438212680029464,-0.6050740245282741
1.08,-0.3094424903392792,-0.6484398245811462,2.165322780609131,-0.1789795197898726,0.0463602682162879,0.0603167779631712,1.5865963697433472,-1.0575761795043943,-0.5654740333557129,-0.217753417728647,-0.5601846544617722,1.870399694586787,0.9327189991424863,-0.7432408524854869,-0.9599979605208434,1.9628259065203129,-0.2161204814910888,1.7658352851867676,-0.8293390274047852,7.570425210667963,-1.1122559605087514,0.3649636533361209,-0.7215724393391847
1.1,-0.2745356261730194,-0.6710036396980286,2.151904344558716,-0.2075374451191364,-0.0073174695883058,0.0594395255778713,1.5708088874816897,-1.0153716802597046,-0.6038296222686768,-0.1994990377220186,-0.5748683041319117,1.851599732625028,0.8927190015203508,-0.7251241145284626,-0.9199982356550502,2.958722508751652,-0.7893741130828857,2.110224962234497,-1.9177794456481931,6.9465183892843925,-1.038925850645015,0.3309233993582317,-0.6489370185652644
1.12,-0.2402705401182174,-0.6923887133598328,2.137730121612549,-0.2396804773227476,-0.0621319628895939,0.0608353147582583,1.5419288873672483,-0.962328314781189,-0.6378400325775146,-0.1820446576700534,-0.5891738075549986,1.8335997657553669,0.8527190036761628,-0.7054262277802307,-0.8799984513111032,3.4656749116416696,-1.444000005722046,2.652168273925781,-1.7005205154418943,6.707001369681166,-0.9859118289185542,0.3337528504626292,-0.6239972222545129
1.14,-0.2234390676021576,-0.7027460336685181,2.130153179168701,-0.2566433784019749,-0.0882594054015478,0.0618245319949084,1.5275154113769531,-0.9412488341331482,-0.6574738025665283,-0.165390277576864,-0.6030695192214303,1.816399794961555,0.8127190056427834,-0.6841449388629377,-0.8399986280700925,1.61057266096212,-0.7206737995147705,1.0539740324020386,-0.9816884994506836,6.492348763305927,-0.966039542923381,0.3870301621751192,-0.5105255513323387
1.16,-0.1904564201831817,-0.7228184938430786,2.114625930786133,-0.2948839528362566,-0.147292846243808,0.0698121559521418,1.4842190742492676,-0.9032607078552246,-0.6987261772155762,-0.1495358966932544,-0.6165237469876875,1.799999820126699,0.772719005446282,-0.661277771635014,-0.7999987754156466,3.542396420845314,-2.1648168563842773,1.8994063138961792,-2.0626187324523926,6.656836730689975,-0.838566496324574,0.2305041356668264,-0.2945044640900603
1.18,-0.1585866659879684,-0.741258442401886,2.097451686859131,-0.3271137286014041,-0.2005855974117799,0.0765138805436955,1.4341388940811155,-0.8297976851463318,-0.7728409767150879,-0.1344815165677148,-0.6295047450092047,1.7843998433284736,0.732719007107686,-0.636822030516705,-0.7599989044068713,5.787452733296116,-2.5040090084075928,3.673151135444641,-3.705739974975586,6.427664467266368,-0.8547132890756772,0.1783658062086208,-0.1901453715279162
1.2,-0.127795860171318,-0.7583914399147034,2.078474283218384,-0.360726221461064,-0.2585912699934777,0.0829216902725807,1.3855862617492676,-0.7709848880767822,-0.8539831638336182,-0.1202271364101958,-0.6419807132310759,1.7695998641074804,0.6927190086442038,-0.6107747916704064,-0.7199990176924447,5.567844676325441,-2.4276316165924072,2.940639853477478,-4.057109355926514,6.9465183892843925,-0.8751732655281046,0.3457601094238333,-0.2057761392980161
1.22,-0.0984041392803192,-0.7744470238685608,2.0580272674560547,-0.4013768597192447,-0.3251397470634622,0.097053994623254,1.3226274251937866,-0.722501277923584,-0.9201157093048096,-0.1067727562230529,-0.6539197902055366,1.7555998827455987,0.6527190100700964,-0.5831329057756757,-0.6799991184957306,5.169136563393899,-3.147941827774048,2.424180507659912,-3.3066272735595703,7.552596487057599,-0.8492804169254136,0.3935411193952402,-0.2229728144711421
1.24,-0.0842052698135376,-0.7819876074790955,2.04699182510376,-0.4206147427232325,-0.3555910844355604,0.1039612004790503,1.2873989343643188,-0.6896361708641052,-0.9722793102264404,-0.0941183766010977,-0.6652900486739433,1.7423999000892072,0.612719013397313,-0.5538929964542801,-0.6399992111433065,3.5504235977077663,-1.761424541473389,1.643255352973938,-2.608180046081543,7.883812889271667,-0.8726854835306072,0.357696284912714,-0.101486988339611
1.26,-0.0571568980813026,-0.7959059476852417,2.023494243621826,-0.4606678867003799,-0.4234515867971425,0.1259211278459208,1.2171766757965088,-0.6263253092765808,-1.0573911666870115,-0.0822639963207649,-0.6760594931605987,1.729999915044081,0.5727190146359677,-0.5230514522112562,-0.5999992933693142,6.360711222710071,-3.511112928390503,3.1655430793762207,-4.2555928230285645,9.023487742998896,-0.6914729201079337,0.2127129318748053,0.0957907285601172
1.28,-0.0323060452938079,-0.8085901141166687,1.997873067855835,-0.494644343773219,-0.4931803519160632,0.1544121041035791,1.1182883977890017,-0.5707874894142151,-1.1529529094696045,-0.0712096160164582,-0.6861960520198354,1.71839992842538,0.532719015794694,-0.4906044337124139,-0.5599993685007664,7.415421034236873,-4.944413900375366,2.776890993118286,-4.778087139129639,10.178333086625573,-0.7144086780482117,0.2647417573833342,0.1007520000323575
1.3,-0.0093410247936844,-0.8196362853050232,1.9703751802444456,-0.5225390724215612,-0.5565468950457932,0.1858172441028588,1.0334259271621704,-0.4970777034759521,-1.2374049425125122,-0.0609552356897021,-0.6956675750273207,1.7075999403646158,0.4927190168809218,-0.4565478670361187,-0.5199994375756886,7.029743478434097,-4.243123531341553,3.685489296913147,-4.222601652145386,12.08815989634786,-0.8269985258579647,0.2275063427136877,0.030219819644617
1.32,0.0106863174587488,-0.8293367028236389,1.941263198852539,-0.5479892993584977,-0.6198538974936507,0.2151700198687918,0.9012304544448853,-0.4365187883377075,-1.3100391626358032,-0.0515008553418819,-0.7044418281745624,1.697599950974646,0.4527190179010914,-0.4208774476880512,-0.4799995014212998,8.12692364037375,-6.609773635864258,3.0279457569122314,-3.631711006164551,12.783673503023692,-0.7495357442422101,0.2764533892539422,0.0161290320938458
1.34,0.0197369810193777,-0.8335986733436584,1.9255791902542116,-0.5537233861723542,-0.6390196932087939,0.2247290289578748,0.83612459897995,-0.4134330153465271,-1.3749808073043823,-0.0428464749742628,-0.7124864892446053,1.6883999603533586,0.412719018860821,-0.3835886593162452,-0.4399995607074482,4.74055443558065,-3.255292773246765,1.154288649559021,-3.247082233428955,15.63350844956176,-0.906163837531634,0.2222045250603277,0.0776848179822439
1.36,0.0363649912178516,-0.8407841324806213,1.892352104187012,-0.5538192284881729,-0.663851980774666,0.2363144306483123,0.7482604384422302,-0.3233456611633301,-1.4952188730239868,-0.0349920945880041,-0.7197691454693896,1.6799999685864415,0.3727190197650412,-0.3446769631621737,-0.399999615984247,8.702447147026936,-4.393208026885986,4.504367709159851,-6.011903285980225,15.940486737874837,-0.5102023101384096,-0.1171656360208828,0.1050296767029807
1.38,0.0493990145623683,-0.8457398414611816,1.8582078218460083,-0.5444000410157068,-0.6820046537688065,0.2422300767574388,0.5865310430526733,-0.2230069041252136,-1.5364927053451538,-0.0279377141841724,-0.7262626965463316,1.672399975745875,0.3327190206181289,-0.3046781445320194,-0.3599996680724039,9.737529554705032,-8.086469769477844,5.016937851905823,-2.0636916160583496,16.176039849252447,-0.1914551593793217,-0.0362278387031047,-0.3425953613769506
1.4,0.0586273968219757,-0.8490203619003296,1.8228453397750852,-0.5184990707117931,-0.6790370792138517,0.230060279181276,0.4152772128582001,-0.1476234197616577,-1.5913116931915283,-0.0216833337637513,-0.731956262382174,1.6655999818854457,0.2927190214239873,-0.2646784390522339,-0.3199997179705181,9.748803195722145,-8.562691509723663,3.7691742181777954,-2.7409493923187256,15.82838284276113,-0.1975244453419506,0.0298645639951378,-0.347983055254899
1.42,0.0632265508174896,-0.849817156791687,1.7873307466506958,-0.4892509145188075,-0.6684023501613101,0.2129554237124175,0.2069619297981262,-0.0358557701110839,-1.5981566905975342,-0.016228953094932,-0.7368498330483998,1.6595999867871962,0.2527190201860482,-0.2246786051024882,-0.2799997638544536,11.82519753051723,-10.415764153003693,5.588382482528687,-0.3422498703002929,15.53070180074974,-0.2209853724404362,-0.0908348453236713,-0.5642277880270438
1.44,0.0643080621957779,-0.8495820164680481,1.769114375114441,-0.4620325336711031,-0.6500414982269531,0.1968916032984987,0.1398378014564514,-0.0014564394950866,-1.627575159072876,-0.0115745726839976,-0.7409434063253734,1.6543999910498584,0.2127190209073796,-0.1846787225948601,-0.2399998098793479,4.047965180153172,-3.35620641708374,1.7199665307998655,-1.4709234237670898,15.280888576129655,-0.260208818483222,-0.0570717087895147,-0.6999293524549635
1.46,0.0631636083126068,-0.8473325967788696,1.7325979471206665,-0.4262397260324626,-0.6191801134649999,0.165009417576755,-0.0515004247426986,0.101223886013031,-1.6432392597198486,-0.0077201922590164,-0.7442369816800375,1.6499999944092345,0.1727190215907415,-0.1446788128715601,-0.1999998541830634,10.885647672574269,-9.566911309957504,5.134016275405884,-0.7832050323486328,15.562517101524463,0.659594060250959,-0.5357415726225843,-1.023726618246788
1.48,0.0586012974381446,-0.8431844115257263,1.695412516593933,-0.3928533561016216,-0.5761910924042404,0.1331767773277378,-0.2053039968013763,0.1866683363914489,-1.673344373703003,-0.0046658119334418,-0.7467305585854876,1.6463999970385168,0.1327190242386206,-0.104678888141344,-0.1599998988886631,8.925050527366427,-7.690178602933884,4.272222518920898,-1.5052556991577148,15.40286382060458,0.5709733270764854,-0.4793708269171095,-1.3208557437380593
1.5,0.0496275909245014,-0.8369301557540894,1.65916109085083,-0.3606230674751445,-0.5390904251973913,0.107653429263976,-0.4038167893886566,0.2814415097236633,-1.6313141584396362,-0.002411431442523,-0.7484241369648109,1.643599998648576,0.0927190248532674,-0.0646789497909802,-0.119999940105404,11.197747786870297,-9.925639629364014,4.738658666610718,2.101510763168335,15.371532010211013,0.6596053378568664,-0.5302286246955086,-1.759666898619597
1.52,0.0368914753198623,-0.8283188939094543,1.6247237920761108,-0.3362903067361538,-0.4984101331124502,0.0837320128267252,-0.5731251835823059,0.3875067830085754,-1.5496784448623655,-0.0009570509396153,-0.7494105421829932,1.641599999478358,0.0527190254375001,-0.03396157202725,-0.0799999769163937,10.791149645972084,-8.465419709682465,5.3032636642456055,4.081785678863525,15.319550626912132,0.2913248466326896,-0.4535465891140903,-1.63984518589974
1.54,0.0298973862081766,-0.8236531615257263,1.6079795360565186,-0.2692317760681192,-0.4313362010135093,0.0423608112463915,-0.6202374696731567,0.413408875465393,-1.5223950147628784,-0.0002149303426201,-0.7498750789516329,1.640399999854597,0.0214930342620165,-0.0124921048367142,-0.0399999854597052,3.014494755486114,-2.355614304542541,1.2951046228408811,1.3641715049743652,15.067158807269609,0.0725811293717755,-0.2638160220597582,-1.2394564702341464
1.56,0.0181489773094654,-0.8179861307144165,1.5866727828979492,-0.1513110872565092,-0.3364033046698167,-0.0215158529098517,-0.5286784172058105,0.2550163865089416,-0.95880389213562,-0.0002149303426201,-0.7498750789516329,1.640399999854597,0.0214930342620165,-0.0124921048367142,-0.0399999854597052,29.627107273187807,4.57795262336731,-7.919624447822571,28.179556131362915,17.610974888489636,0.6302741245296576,-0.5819276777321947,-1.3983839066881931
1.58,0.0040192091837525,-0.8112773299217224,1.5686110258102417,0.0276904561826903,-0.1777620340572144,-0.0840737108828819,-0.635839581489563,0.3018960356712341,-0.8127790689468384,-0.0002149303426201,-0.7498750789516329,1.640399999854597,0.0214930342620165,-0.0124921048367142,-0.0399999854597052,9.354740191948675,-5.358058214187622,2.343982458114624,7.301241159439087,17.43232836422021,1.8332938408269184,-1.902063437903749,2.072696902574322
1.6,-0.0124630937352776,-0.8045541048049927,1.5577303171157837,0.1429572100684124,-0.064074481854958,-0.1189103028206477,-0.7417036294937134,0.3025451302528381,-0.4896318912506103,-0.0002149303426201,-0.7498750789516329,1.640399999854597,0.0214930342620165,-0.0124921048367142,-0.0399999854597052,17.002331930991,-5.29320240020752,0.0324547290802001,16.1573588848114,16.70423009524211,1.255578464861805,-1.330926965474767,2.166155306351013
1.62,-0.0301748756319284,-0.7988923192024231,1.5525929927825928,0.1945209545234962,0.0207884260304714,-0.1471898777320656,-0.7970301508903503,0.2547803521156311,-0.2311795949935913,-0.0002149303426201,-0.7498750789516329,1.640399999854597,0.0214930342620165,-0.0124921048367142,-0.0399999854597052,13.42945339923363,-2.766326069831848,-2.388238906860352,12.922614812850952,14.932326217539412,0.4864123438680792,-0.8327103675299781,2.5
1.64,-0.0385697372257709,-0.7965700030326843,1.5533820390701294,0.1662863224229903,0.0408676138638596,-0.1604250305581096,-0.7864528298377991,0.2194449305534362,-0.0273209810256958,-0.0002149303426201,-0.7498750789516329,1.640399999854597,0.0214930342620165,-0.0124921048367142,-0.0399999854597052,10.35842727282214,0.5288660526275635,-1.7667710781097412,10.192930698394775,10.2962996192241,0.0376725076274911,-0.6552990583131105,2.5
1.66,-0.0556618385016918,-0.7926902174949646,1.559185266494751,0.0762249390825236,0.0653610555145492,-0.1888500678734551,-0.7691445350646973,0.1745903491973877,0.2611452341079712,-0.0002149303426201,-0.7498750789516329,1.640399999854597,0.0214930342620165,-0.0124921048367142,-0.0399999854597052,14.622266223992266,0.8654147386550903,-2.242729067802429,14.42331075668335,8.898315060608638,0.0460761446489176,-0.3597450705991364,2.5
1.68,-0.07231105864048,-0.789654552936554,1.568533182144165,-0.0129843677536934,0.0843239538188284,-0.2214601995225146,-0.7492148876190186,0.136604905128479,0.4206562042236328,-0.0002149303426201,-0.7498750789516329,1.640399999854597,0.0214930342620165,-0.0124921048367142,-0.0399999854597052,8.25890949152198,0.9964823722839355,-1.8992722034454343,7.975548505783081,6.41158748124144,0.0031223875351085,-0.3694430693988562,2.5
1.7,-0.0883628278970718,-0.7862606048583984,1.5805546045303345,-0.0884537590229458,0.11087864036361,-0.2519041865411233,-0.7223296165466309,0.1527276635169983,0.5409640073776245,-0.0002149303426201,-0.7498750789516329,1.640399999854597,0.0214930342620165,-0.0124921048367142,-0.0399999854597052,6.216254627673715,1.3442635536193848,0.8061379194259644,6.015390157699585,5.774409101649326,-0.0954358354289531,-0.5399802469283445,2.5
1.72,-0.1035512685775756,-0.782293438911438,1.5936440229415894,-0.1514774061301726,0.1335480624019637,-0.2817211550822758,-0.6834798455238342,0.1785224676132202,0.5890238285064697,-0.0002149303426201,-0.7498750789516329,1.640399999854597,0.0214930342620165,-0.0124921048367142,-0.0399999854597052,3.348291741255081,1.9424885511398315,1.2897402048110962,2.4029910564422607,5.885832017220309,-0.1906501130409758,-0.4496369248651686,2.5
1.74,-0.1107745841145515,-0.7799906730651855,1.5997614860534668,-0.1809783628137141,0.1450173770783317,-0.2951122796995878,-0.6623191833496094,0.1935750246047973,0.5810147523880005,-0.0002149303426201,-0.7498750789516329,1.640399999854597,0.0214930342620165,-0.0124921048367142,-0.0399999854597052,1.3587663484828645,1.058033108711243,0.7526278495788574,-0.4004538059234619,5.83642276004548,-0.1491407037854497,-0.3380881088717908,2.5
1.76,-0.1248179227113723,-0.7752189040184021,1.612267255783081,-0.2293218849674813,0.1713193648627288,-0.3255923074295347,-0.6319502592086792,0.2147296071052551,0.5627596378326416,-0.0002149303426201,-0.7498750789516329,1.640399999854597,0.0214930342620165,-0.0124921048367142,-0.0399999854597052,2.063393516561687,1.5184462070465088,1.0577291250228882,-0.9127557277679444,5.787584318414702,-0.217276195924633,-0.3471791183708124,2.5
1.78,-0.1377265900373459,-0.769352912902832,1.6230924129486084,-0.2708819553791444,0.1934182549883189,-0.3531596476206229,-0.5808900594711304,0.2639696002006531,0.4871320724487304,-0.0002149303426201,-0.7498750789516329,1.640399999854597,0.0214930342620165,-0.0124921048367142,-0.0399999854597052,5.184411626011908,2.5530099868774414,2.461999654769897,-3.7813782691955566,5.796717465546863,-0.1759180859183869,-0.3054566309274614,2.5
1.8,-0.1497592180967331,-0.7626861929893494,1.6322165727615356,-0.2941021049547913,0.2153306757424387,-0.3787538637404807,-0.5414682626724243,0.3000023961067199,0.4105871915817261,-0.0002149303426201,-0.7498750789516329,1.640399999854597,0.0214930342620165,-0.0124921048367142,-0.0399999854597052,4.66678669712647,1.9710898399353027,1.8016397953033447,-3.82724404335022,5.7793638879684295,-0.022490770540735,-0.0724306481105101,2.5
1.82,-0.1609838753938675,-0.7553707361221313,1.6391409635543823,-0.308674769596457,0.2425382384152098,-0.403733896139794,-0.5051095485687256,0.3291955590248108,0.3115975856781006,-0.0002149303426201,-0.7498750789516329,1.640399999854597,0.0214930342620165,-0.0124921048367142,-0.0399999854597052,5.471091968106499,1.8179357051849363,1.459658145904541,-4.949480295181274,5.779760059017008,0.0229464472969196,-0.0042423195959709,2.412584723933896
1.84,-0.1661557555198669,-0.7515691518783569,1.6416823863983154,-0.313126811795631,0.2552522441393539,-0.4166437733036754,-0.4801080226898193,0.3352090716361999,0.2533990144729614,-0.0002149303426201,-0.7498750789516329,1.640399999854597,0.0214930342620165,-0.0124921048367142,-0.0399999854597052,3.181317463143457,1.2500762939453125,0.300675630569458,-2.909928560256958,6.221006371168642,0.0069677965769458,0.0561792593814884,1.9575008464195136
1.86,-0.1760082095861435,-0.7432089447975159,1.644872546195984,-0.3086310646425156,0.2807256888266775,-0.4383726690015317,-0.4433604478836059,0.3762093186378479,0.1435571908950805,-0.0002149303426201,-0.7498750789516329,1.640399999854597,0.0214930342620165,-0.0124921048367142,-0.0399999854597052,6.143417354219208,1.837378740310669,2.050012350082397,-5.492091178894043,6.740664223903877,-0.0767468976740157,-0.0543180116138681,1.8846701314993684
1.88,-0.1845649480819702,-0.7342017889022827,1.6461048126220703,-0.2984389683767454,0.3001297802396462,-0.4575161804425581,-0.3850532174110412,0.4053220152854919,0.0554519891738891,-0.0002149303426201,-0.7498750789516329,1.640399999854597,0.0214930342620165,-0.0124921048367142,-0.0399999854597052,5.479463660297957,2.915361523628235,1.455634832382202,-4.40526008605957,7.589119188992299,-0.0757325506440066,0.0455805064283124,1.5829754813376653
1.9,-0.1921719163656234,-0.7246291637420654,1.6447744369506836,-0.2767668994366974,0.3222316632706205,-0.4745640937204397,-0.3423135876655578,0.4307681322097778,-0.0598669052124023,-0.0002149303426201,-0.7498750789516329,1.640399999854597,0.0214930342620165,-0.0124921048367142,-0.0399999854597052,6.279456230395689,2.13698148727417,1.2723058462142944,-5.765944719314575,8.645973659519768,0.0146782166639036,0.1386045254870433,1.318163393273741
1.92,-0.1984726190567016,-0.7144591212272644,1.6416455507278442,-0.2443818672763673,0.3372689832655471,-0.4812374007041831,-0.2835316061973572,0.4576519131660461,-0.140799880027771,-0.0002149303426201,-0.7498750789516329,1.640399999854597,0.0214930342620165,-0.0124921048367142,-0.0399999854597052,5.178852536107202,2.939099073410034,1.3441890478134155,-4.046648740768433,9.983933981569407,0.0281097642517754,0.1797699902077102,0.8984880041689759
1.94,-0.201075792312622,-0.709275484085083,1.6393067836761477,-0.2279655770664058,0.3460746259505162,-0.4823614479977095,-0.2542425692081451,0.4633542895317077,-0.1825082302093505,-0.0002149303426201,-0.7498750789516329,1.640399999854597,0.0214930342620165,-0.0124921048367142,-0.0399999854597052,2.564152520249311,1.4644518494606018,0.285118818283081,-2.0854175090789795,10.022161524362671,0.1075005516482355,0.2300850308987009,0.850732199493196
1.96,-0.2053726017475128,-0.6986274123191833,1.6337404251098633,-0.1901056850683455,0.366907743483544,-0.4788938239133397,-0.1933564245700836,0.4791632294654846,-0.2504861354827881,-0.0002149303426201,-0.7498750789516329,1.640399999854597,0.0214930342620165,-0.0124921048367142,-0.0399999854597052,4.630885659374768,3.044307231903076,0.7904469966888428,-3.398895263671875,10.3903019736631,-0.0350790717390444,0.2703184190273041,0.6273182445944633
1.98,-0.2076016217470169,-0.6879320740699768,1.6275235414505005,-0.1486843611908086,0.3863961779330197,-0.4676940348601393,-0.100305899977684,0.4812902212142944,-0.2797597646713257,-0.0002149303426201,-0.7498750789516329,1.640399999854597,0.0214930342620165,-0.0124921048367142,-0.0399999854597052,4.878490951792436,4.65252622961998,0.1063495874404907,-1.46368145942688,12.018495470601463,-0.0350790717390444,0.2703184190273041,0.6273182445944633
2.0,-0.2084486484527588,-0.6772171258926392,1.620064377784729,-0.1068994412309504,0.4069811093878572,-0.4485176821954945,-0.0381162017583847,0.4821726679801941,-0.3356623649597168,-0.0002149303426201,-0.7498750789516329,1.640399999854597,0.0214930342620165,-0.0124921048367142,-0.0399999854597052,4.181338899176254,3.109484910964966,0.0441223382949829,-2.795130014419556,13.117199697442176,0.1180713929118325,0.3343191455751111,0.3943901309086182
2.02,-0.2075200080871582,-0.6669878363609314,1.6122958660125732,-0.0628537279682648,0.4226935158613124,-0.4236070866664573,0.0417888164520263,0.4603180289268493,-0.3495830297470093,-0.0002149303426201,-0.7498750789516329,1.640399999854597,0.0214930342620165,-0.0124921048367142,-0.0399999854597052,4.2000660981341325,3.9952509105205536,-1.0927319526672363,-0.696033239364624,12.333552499950656,-0.0184627820898463,0.3984339636637433,0.0834436858713492
2.04,-0.2061610072851181,-0.6621207594871521,1.608304500579834,-0.0405334697647018,0.4292837651526002,-0.4079148174770229,0.0953471660614013,0.4505869746208191,-0.3537672758102417,-0.0002149303426201,-0.7498750789516329,1.640399999854597,0.0214930342620165,-0.0124921048367142,-0.0399999854597052,2.72978852015345,2.67791748046875,-0.4865527153015136,-0.2092123031616211,13.209068065484644,0.0328206416451811,0.3036854097092298,-0.0414161976985804
2.06,-0.2024831026792526,-0.6525881290435791,1.6002116203308103,0.0086719556743659,0.4339891814313731,-0.372504977956859,0.1655057072639465,0.4289683699607849,-0.3641796112060547,-0.0002149303426201,-0.7498750789516329,1.640399999854597,0.0214930342620165,-0.0124921048367142,-0.0399999854597052,3.707425555392508,3.5079270601272583,-1.080930233001709,-0.5206167697906494,13.746143645104894,-0.1944406642812762,0.4191087678425703,-0.0491463268271726
2.08,-0.1965169161558151,-0.6442061066627502,1.5922343730926514,0.0592067385157531,0.4271051219659272,-0.3344224091960578,0.2684783935546875,0.3771910071372986,-0.3589761257171631,-0.0002149303426201,-0.7498750789516329,1.640399999854597,0.0214930342620165,-0.0124921048367142,-0.0399999854597052,5.7687402619894845,5.148634314537048,-2.5888681411743164,0.2601742744445801,14.251229978979154,-0.285036349087867,0.4416974014709907,-0.3573223752720003
2.1,-0.1891544759273529,-0.6366006731987,1.584643840789795,0.1019642895251978,0.4093250700036113,-0.3028908667860084,0.3313097953796386,0.3422445058822632,-0.34157395362854,-0.0002149303426201,-0.7498750789516329,1.640399999854597,0.0214930342620165,-0.0124921048367142,-0.0399999854597052,3.698607372599422,3.1415700912475586,-1.74732506275177,0.8701086044311523,15.28863102134801,-0.219778176172289,0.3923043108834028,-0.6247449540182466
2.12,-0.1807877868413925,-0.6305692791938782,1.580310583114624,0.0782089340326056,0.3474174366977114,-0.3058494777973339,0.3765010237693786,0.27141273021698,-0.1949965953826904,-0.0002149303426201,-0.7498750789516329,1.640399999854597,0.0214930342620165,-0.0124921048367142,-0.0399999854597052,8.447530632913205,2.2595614194869995,-3.54158878326416,7.32886791229248,14.267671583714671,-0.3799449745142355,0.5155459448268521,-0.7194205018127241
2.14,-0.1763913035392761,-0.6279587745666504,1.5786153078079224,0.0732607345349177,0.3183163115642548,-0.3094960888418551,0.403907835483551,0.2368068695068359,-0.1552945375442505,-0.0002149303426201,-0.7498750789516329,1.640399999854597,0.0214930342620165,-0.0124921048367142,-0.0399999854597052,2.96856544497204,1.3703405857086182,-1.730293035507202,1.985102891921997,11.875415126532062,-0.5901969993537708,0.3155824527099191,0.0955781557378185
2.16,-0.1659424006938934,-0.6234411597251892,1.5760160684585571,0.073344184809737,0.2588801223463384,-0.3074841119758777,0.470200628042221,0.2032926678657531,-0.1169657707214355,-0.0002149303426201,-0.7498750789516329,1.640399999854597,0.0214930342620165,-0.0124921048367142,-0.0399999854597052,4.179422933559049,3.314639627933502,-1.6757100820541382,1.916438341140747,12.723984282269612,-0.8345806465394358,0.3520735870553915,-0.0022080284536448
2.18,-0.1546962112188339,-0.6197103261947632,1.5740395784378052,0.0979856268891316,0.2110952126623478,-0.2952513257202186,0.5060785412788391,0.1678875088691711,-0.0889420509338378,-0.0002149303426201,-0.7498750789516329,1.640399999854597,0.0214930342620165,-0.0124921048367142,-0.0399999854597052,2.883608335281223,1.793895661830902,-1.7702579498291016,1.4011859893798828,11.5176785968888,-0.7097752797295943,0.3672375598186483,-0.0413173951683715
2.2,-0.142377495765686,-0.6174507737159729,1.573589563369751,0.1182333468717599,0.1642525852836571,-0.2770369831763939,0.5543422102928162,0.1016798615455627,-0.0202506780624389,-0.0002149303426201,-0.7498750789516329,1.640399999854597,0.0214930342620165,-0.0124921048367142,-0.0399999854597052,5.345872009732275,2.4131834506988525,-3.31038236618042,3.4345686435699463,11.291451211544429,-0.7375683943780913,0.4044674409792114,-0.6587248259315612
2.22,-0.1359944194555282,-0.616446316242218,1.5734931230545044,0.1302386990913455,0.1122453413924082,-0.2575683438498967,0.5622352361679077,0.0943788886070251,-0.0049889087677001,-0.0002149303426201,-0.7498750789516329,1.640399999854597,0.0214930342620165,-0.0124921048367142,-0.0399999854597052,0.9334421049534276,0.3946512937545776,-0.3650486469268799,0.7630884647369385,10.547165798797778,-0.5714317286873759,0.229958295912769,-0.5889981535855023
2.24,-0.1229536831378936,-0.6152962446212769,1.5740798711776731,0.1625368774818261,0.1077189091411018,-0.2425022004056872,0.586833119392395,0.0517532229423522,0.0264036655426025,-0.0002149303426201,-0.7498750789516329,1.640399999854597,0.0214930342620165,-0.0124921048367142,-0.0399999854597052,2.918688470147963,1.2298941612243652,-2.1312832832336426,1.5696287155151367,10.011981773025129,-0.5191752542768715,0.347377923970309,-0.5707232726393101
2.26,-0.1098030135035514,-0.615325927734375,1.57508385181427,0.1871277670855711,0.0721076359274167,-0.2184259428760756,0.5917801260948181,-0.0013357400894165,0.0451791286468505,-0.0002149303426201,-0.7498750789516329,1.640399999854597,0.0214930342620165,-0.0124921048367142,-0.0399999854597052,2.8264062366728675,0.2473503351211547,-2.65444815158844,0.9387731552124025,9.818805986310052,-0.4515935827893418,0.4157293744703831,-0.6313539336891769
2.28,-0.0965032055974006,-0.6160835027694702,1.5767205953598022,0.2107327051416028,0.0396963897049494,-0.1941954863406653,0.598491370677948,-0.0340908765792846,0.0736534595489502,-0.0002149303426201,-0.7498750789516329,1.640399999854597,0.0214930342620165,-0.0124921048367142,-0.0399999854597052,2.195863890731133,0.3355622291564941,-1.6377568244934082,1.4237165451049805,9.442760933087357,-0.4077760892435188,0.3177979620786038,-0.6377095766189964
2.3000000000000003,-0.0836869478225708,-0.6181608438491821,1.5786024332046509,0.2244811679822435,0.0065593080247723,-0.1705254261786761,0.5767316222190857,-0.0934803485870361,0.0846827030181884,-0.0002149303426201,-0.7498750789516329,1.640399999854597,0.0214930342620165,-0.0124921048367142,-0.0399999854597052,3.210233733646271,-1.0879874229431152,-2.969473600387573,0.5514621734619141,9.112561547340192,-0.3092810939480447,0.3717309509665453,-0.4434660665732364
2.32,-0.0711179301142692,-0.6212210059165955,1.5806047916412354,0.22850166388216,-0.0307205584294538,-0.1504424358966975,0.5656058192253113,-0.1377072930335998,0.0901061296463012,-0.0002149303426201,-0.7498750789516329,1.640399999854597,0.0214930342620165,-0.0124921048367142,-0.0399999854597052,2.2963120779448927,-0.5562901496887207,-2.211347222328186,0.2711713314056396,10.014386080974418,-0.3582953842660553,0.2401949176724495,-0.3762874250243104
2.34,-0.0650745630264282,-0.6232843995094299,1.5814861059188845,0.2282756449872846,-0.05015305582397,-0.1402348985703319,0.5488976240158081,-0.1641082763671875,0.0849723815917968,-0.0002149303426201,-0.7498750789516329,1.640399999854597,0.0214930342620165,-0.0124921048367142,-0.0399999854597052,1.583138557759842,-0.8354097604751587,-1.3200491666793823,-0.2566874027252197,9.024667886323186,-0.3084263517124156,0.210531589616786,-0.4188516794887968
2.36,-0.0534565858542919,-0.6277465224266052,1.5831298828125,0.2144726468842789,-0.0779069015024409,-0.1224381686280819,0.5228089690208435,-0.2007955312728881,0.0739699602127075,-0.0002149303426201,-0.7498750789516329,1.640399999854597,0.0214930342620165,-0.0124921048367142,-0.0399999854597052,2.3171242242083143,-1.30443274974823,-1.8343627452850344,-0.5501210689544678,9.708110250040136,-0.2655387321077533,0.2733775368554089,-0.2729194815319793
2.38,-0.0424066111445426,-0.6333534717559814,1.5846434831619265,0.1868437795226811,-0.1083172206553542,-0.1064490252374116,0.4972488582134247,-0.2523127198219299,0.0681120157241821,-0.0002149303426201,-0.7498750789516329,1.640399999854597,0.0214930342620165,-0.0124921048367142,-0.0399999854597052,2.890352700846253,-1.2780055403709412,-2.5758594274520874,-0.2928972244262695,9.193246897199517,-0.2678863256244025,0.2369148223694199,-0.2861451744744591
2.4,-0.0322714336216449,-0.6394424438476562,1.5857741832733154,0.149660279624185,-0.128614481627261,-0.0904471401450282,0.4560829997062683,-0.2740037441253662,0.0508815050125122,-0.0002149303426201,-0.7498750789516329,1.640399999854597,0.0214930342620165,-0.0124921048367142,-0.0399999854597052,2.480936789475124,-2.0582929253578186,-1.084551215171814,-0.8615255355834961,8.95593909297122,-0.2355040413463208,0.0716950972879495,-0.0971060799121798
2.42,-0.0229942556470632,-0.6461125612258911,1.5866228342056274,0.1039106341913181,-0.1426882816008781,-0.0753862069598971,0.4174730181694031,-0.3001552820205688,0.0381892919540405,-0.0002149303426201,-0.7498750789516329,1.640399999854597,0.0214930342620165,-0.0124921048367142,-0.0399999854597052,2.4164674014369267,-1.9304990768432615,-1.3075768947601318,-0.634610652923584,9.521017680549903,-0.2851724414948269,0.0956347977771624,-0.2131861039865979
2.44,-0.0186532270163297,-0.6495760083198547,1.5870909690856934,0.0802433790551211,-0.1482436868968275,-0.0690319271124746,0.3995800614356994,-0.311286449432373,0.0363653898239135,-0.0002149303426201,-0.7498750789516329,1.640399999854597,0.0214930342620165,-0.0124921048367142,-0.0399999854597052,1.057576720153298,-0.8946478366851807,-0.55655837059021,-0.0911951065063476,8.950288985102361,-0.3096435094259416,0.0115890942906584,-0.1996271725866987
2.46,-0.0108059188351035,-0.6564851403236389,1.5872851610183716,0.0328882828295236,-0.1514666093002414,-0.0559406985983849,0.3531288802623749,-0.3109109401702881,0.00873863697052,-0.0002149303426201,-0.7498750789516329,1.640399999854597,0.0214930342620165,-0.0124921048367142,-0.0399999854597052,2.702355783767852,-2.322559058666229,0.018775463104248,-1.3813376426696775,9.85779107890312,-0.1919837405294175,0.0175062838876622,-0.0764759219144339
2.48,-0.0035739436279982,-0.6634452939033508,1.5879178047180176,-0.0175230409954434,-0.1525755089508783,-0.0445449062773933,0.3254388868808746,-0.3132069110870361,0.0284689664840698,-0.0002149303426201,-0.7498750789516329,1.640399999854597,0.0214930342620165,-0.0124921048367142,-0.0399999854597052,1.7038875539713108,-1.3844996690750122,-0.1147985458374023,0.9865164756774902,9.28816844342873,-0.2901156781979821,0.0495238854387041,-0.3114253808169183
2.5,0.0025568297132849,-0.6700042486190796,1.587668538093567,-0.0604878977928847,-0.1433641011933452,-0.0349374951673294,0.2758848071098327,-0.2951529622077942,-0.0112169981002807,-0.0002149303426201,-0.7498750789516329,1.640399999854597,0.0214930342620165,-0.0124921048367142,-0.0399999854597052,3.300199871628759,-2.477703988552093,0.9026974439620972,-1.9842982292175293,8.857517359356734,-0.2454734012521563,-0.0081776065879858,0.0823258935002665
2.52,0.0081531349569559,-0.6760938167572021,1.587158203125,-0.0963412154706541,-0.1330998705300382,-0.0265533945320616,0.2518337368965149,-0.2740305662155151,-0.0229650735855102,-0.0002149303426201,-0.7498750789516329,1.640399999854597,0.0214930342620165,-0.0124921048367142,-0.0399999854597052,1.7048657340588749,-1.2025535106658936,1.0561197996139526,-0.5874037742614746,9.187749396477102,-0.3411111133659436,0.0101299397298446,-0.1088172572832337
2.54,0.0106158424168825,-0.678983211517334,1.5868490934371948,-0.109444438070014,-0.1224830618637846,-0.0224096609880063,0.2370773255825042,-0.2627921104431152,-0.039149522781372,-0.0002149303426201,-0.7498750789516329,1.640399999854597,0.0214930342620165,-0.0124921048367142,-0.0399999854597052,1.230844180623487,-0.737820565700531,0.5619227886199951,-0.8092224597930908,9.236520914629182,-0.3002663900251771,0.0240118263437552,-0.0483881573501654
2.56,0.0151615133509039,-0.6841930150985718,1.5858519077301023,-0.1358636547141694,-0.103719338123421,-0.0163271184485079,0.2045551985502243,-0.2344411611557006,-0.0448733568191528,-0.0002149303426201,-0.7498750789516329,1.640399999854597,0.0214930342620165,-0.0124921048367142,-0.0399999854597052,2.176136110341771,-1.6261063516139984,1.4175474643707275,-0.2861917018890381,9.381862812932924,-0.2078000473580031,-0.0479500798577757,-0.1372767307805375
2.58,0.0191519483923912,-0.688661515712738,1.5840299129486084,-0.1479466767138797,-0.0840179431979348,-0.0114699225813411,0.1795695722103119,-0.2010825276374817,-0.0819897651672363,-0.0002149303426201,-0.7498750789516329,1.640399999854597,0.0214930342620165,-0.0124921048367142,-0.0399999854597052,2.7904783292754,-1.2492813169956207,1.6679316759109497,-1.8558204174041748,9.485868775640938,-0.2566571504756521,-0.0355057559885359,0.0008910285916693
2.6,0.0226702708750963,-0.6923772692680359,1.581679105758667,-0.1535193564736438,-0.062809958955556,-0.0088831368605032,0.158324509859085,-0.1672089099884033,-0.1057863235473632,-0.0002149303426201,-0.7498750789516329,1.640399999854597,0.0214930342620165,-0.0124921048367142,-0.0399999854597052,2.326505339389026,-1.0622531175613403,1.6936808824539185,-1.1898279190063477,9.775132764152204,-0.2936598982409066,0.0137926716555101,-0.1849810239737488
2.62,0.0261280238628387,-0.6952801942825317,1.5791356563568115,-0.1511617884473883,-0.0460564402625526,-0.0040597002844624,0.1555988788604736,-0.1306316256523132,-0.1144552230834961,-0.0002149303426201,-0.7498750789516329,1.640399999854597,0.0214930342620165,-0.0124921048367142,-0.0399999854597052,1.884460541449022,-0.1362815499305725,1.8288642168045044,-0.4334449768066406,9.984259083831605,-0.2946719121164532,0.0194888502205031,-0.1339982653359907
2.64,0.0275294203311204,-0.6966791749000549,1.5776106119155884,-0.1444612024907377,-0.03629263691189,-0.0044431508031561,0.1350688338279724,-0.1212653517723083,-0.1295667886734008,-0.0002149303426201,-0.7498750789516329,1.640399999854597,0.0214930342620165,-0.0124921048367142,-0.0399999854597052,1.3579113097048938,-1.026502251625061,0.4683136940002441,-0.7555782794952393,10.27701706265134,-0.2327571139267306,0.0801632790844163,-0.1275443785453121
2.66,0.0306014027446508,-0.6982806921005249,1.5743112564086914,-0.1288282255633372,-0.0233685708342259,-0.0026114897501413,0.1382392048835754,-0.0720682740211486,-0.1484709978103637,-0.0002149303426201,-0.7498750789516329,1.640399999854597,0.0214930342620165,-0.0124921048367142,-0.0399999854597052,2.6399681981881367,0.1585185527801513,2.4598538875579834,-0.9452104568481444,10.414917821728524,-0.2928283631566312,-0.0343172981514432,-0.1828313161385775
