t,x,y,z,roll,pitch,yaw,v_x,v_y,v_z,ref_x,ref_y,ref_z,ref_v_x,ref_v_y,ref_v_z,a_com,a_x,a_y,a_z,thrust,wind_x,wind_y,wind_z
0.0,-0.4197423160076141,0.460751324892044,2.413349151611328,0.0089406645976992,0.0831456524966701,0.0018451176611777,0.0118486583232879,0.0044135749340057,-0.0127243995666503,-0.4192384406924248,0.4606160297989845,2.413301467895508,0.0581774339079856,-0.1007443144917488,-0.1066089645028114,0.8969123314068627,0.5924329161643982,0.2206787467002868,-0.6362199783325195,10.049328344433434,0.0118486583232879,0.0044135749340057,-0.0127243995666503
0.02,-0.4195955395698547,0.460784375667572,2.4131786823272705,0.0105060002579167,0.0810493054534273,0.0024940813234358,0.0115241110324859,0.0040380656719207,-0.0125849246978759,-0.4192384406924248,0.4606160297989845,2.413301467895508,0.0581774339079856,-0.1007443144917488,-0.1066089645028114,0.0257774799436519,-0.0162273645401,-0.018775463104248,0.0069737434387207,9.623978603729483,0.0115241110324859,0.0040380656719207,-0.0125849246978759
0.04,-0.4191856682300567,0.4608731567859649,2.412885904312134,0.0147515633844948,0.0767708787880364,0.0019119575263439,0.0184442102909088,0.0039951503276824,-0.0131750106811523,-0.4192384406924248,0.4606160297989845,2.413301467895508,0.0581774339079856,-0.1007443144917488,-0.1066089645028114,0.3472672491786939,0.3460049629211426,-0.002145767211914,-0.0295042991638183,9.623978603729483,0.0184442102909088,0.0039951503276824,-0.0131750106811523
0.06,-0.4186570346355438,0.46109339594841,2.4124844074249268,0.0345613447172425,0.0887499381974312,9.851198666672606e-05,0.0237885117530822,0.009910762310028,-0.0180673599243164,-0.4186566663533449,0.459608586654067,2.41223537825048,0.0667442053556442,-0.120744314789772,-0.1266089648008346,0.4676833981481168,0.2672150731086731,0.295780599117279,-0.2446174621582031,9.30237797457312,0.0237885117530822,0.009910762310028,-0.0180673599243164
0.08,-0.418183296918869,0.4611506462097168,2.4118645191192627,0.0482487700760392,0.0787838423616902,0.0037025582946237,0.0213181972503662,0.0025762617588043,-0.0278949737548828,-0.4174931176751852,0.4575937003642321,2.410103198960424,0.0838777482509613,-0.1607443153858185,-0.1666089653968811,0.6254585231671461,-0.1235157251358032,-0.3667250275611877,-0.4913806915283203,9.30237797457312,0.0213181972503662,0.0025762617588043,-0.0278949737548828
0.1,-0.4175323843955993,0.4610140323638916,2.410675287246704,0.0866389427494451,0.0873308426360006,0.0053261682181008,0.0292910635471344,-0.0061476230621337,-0.0535154342651367,-0.4163295689970255,0.4555788140743971,2.4079710196703674,0.1010112911462783,-0.2007443159818649,-0.2066089659929275,1.4107451578090002,0.3986433148384094,-0.4361942410469055,-1.281023025512695,8.66375784412412,0.0292910635471344,-0.0061476230621337,-0.0535154342651367
0.12,-0.4172672927379608,0.460841566324234,2.4099576473236084,0.1084039263097464,0.0930472241067321,0.0063784128472761,0.0235149264335632,-0.011584460735321,-0.0601029396057128,-0.4143093431740999,0.4515639277547598,2.4038388403505087,0.1181448340415954,-0.2407443165779113,-0.246608966588974,0.5155535628125415,-0.2888068556785583,-0.2718418836593628,-0.3293752670288086,8.66375784412412,0.0235149264335632,-0.011584460735321,-0.0601029396057128
0.14,-0.41647469997406,0.460171639919281,2.4082999229431152,0.1768791358725731,0.1300117716112707,0.0053343249000156,0.035666674375534,-0.0301466882228851,-0.0745975971221923,-0.4122891173511744,0.4475490414351225,2.3997066610306503,0.1352783769369125,-0.2807443171739578,-0.2866089671850205,1.3250626059410433,0.6075873970985413,-0.9281113743782043,-0.7247328758239746,8.652103356916086,0.035666674375534,-0.0301466882228851,-0.0745975971221923
0.16,-0.4156203866004944,0.4589700400829315,2.406123161315918,0.200412598714677,0.1180343832655067,0.0124759317874054,0.0384441018104553,-0.0540719926357269,-0.0979542732238769,-0.4098405529558659,0.4425341551005841,2.3945744816958907,0.1524119198322296,-0.3207443177700043,-0.3266089677810669,1.6775492637493568,0.1388713717460632,-1.1962652206420898,-1.1678338050842283,8.651276115223027,0.0384441018104553,-0.0540719926357269,-0.0979542732238769
0.18,-0.4146996140480041,0.457064151763916,2.4033777713775635,0.236172699645192,0.1316824745319403,0.0154900831919811,0.0414347648620605,-0.0857649743556976,-0.1235425472259521,-0.4069636499881744,0.4365192687511444,2.38844230234623,0.1695454627275466,-0.3607443183660507,-0.3666089683771133,2.042148943022956,0.1495331525802612,-1.5846490859985352,-1.2794137001037598,8.651276115223027,0.0414347648620605,-0.0857649743556976,-0.1235425472259521
0.2,-0.4132985770702362,0.4541012346744537,2.400530338287353,0.2511939298422373,0.1633406100483188,0.0080065315374686,0.0630466639995575,-0.1333312690258026,-0.1281344890594482,-0.404086747020483,0.4305043824017048,2.382310122996569,0.1866790056228637,-0.4007443189620971,-0.4066089689731598,2.622361770796895,1.0805949568748474,-2.378314733505249,-0.2295970916748047,8.987471950881627,0.0630466639995575,-0.1333312690258026,-0.1281344890594482
0.22,-0.4126426875591278,0.4524671733379364,2.398723840713501,0.260640850947604,0.1456774123596306,0.0159766075380675,0.0625692307949066,-0.1449130475521087,-0.1448714733123779,-0.4101462438702583,0.4474346712231636,2.394123613834381,0.1073311381042003,-0.2333312705159187,-0.2281344905495643,1.0179540487911596,-0.0238716602325439,-0.5790889263153076,-0.8368492126464844,9.053717764316843,0.0625692307949066,-0.1449130475521087,-0.1448714733123779
0.24,-0.41072478890419,0.4480678737163543,2.395127773284912,0.2567296596458054,0.1492546052641287,0.0150469181989504,0.0863054394721984,-0.1979684829711914,-0.161823034286499,-0.4101462438702583,0.4474346712231636,2.394123613834381,0.1073311381042003,-0.2333312705159187,-0.2281344905495643,3.027227382168269,1.1868104338645935,-2.652771770954132,-0.8475780487060547,9.733971407610625,0.0863054394721984,-0.1979684829711914,-0.161823034286499
0.26,-0.4086717367172241,0.4426915347576141,2.390822410583496,0.2417507043242389,0.1542753885823587,0.0119987826594341,0.0923873484134674,-0.2419352531433105,-0.1937413215637207,-0.4101462438702583,0.4474346712231636,2.394123613834381,0.1073311381042003,-0.2333312705159187,-0.2281344905495643,2.733515848888151,0.304095447063446,-2.198338508605957,-1.595914363861084,9.71446821780046,0.0923873484134674,-0.2419352531433105,-0.1937413215637207
0.28,-0.4061906039714813,0.436572790145874,2.386241912841797,0.2149907357902077,0.1537971752086394,0.0082698307242186,0.1116509735584259,-0.275343507528305,-0.2061223983764648,-0.4090729324892163,0.4451013585180044,2.3918422689288854,0.1161880329251289,-0.2533312708139419,-0.2481344908475875,2.025148005591846,0.9631812572479248,-1.6704127192497251,-0.619053840637207,9.71446821780046,0.1116509735584259,-0.275343507528305,-0.2061223983764648
0.3,-0.4034032821655273,0.4294029772281647,2.3814961910247803,0.1811503134449452,0.1496107714520608,0.0036786377127242,0.125429481267929,-0.3226415812969208,-0.213557481765747,-0.4069263097271323,0.440434733107686,2.3872795791178945,0.133901822566986,-0.2933312714099884,-0.288134491443634,2.491101925819091,0.6889253854751587,-2.364903688430786,-0.3717541694641113,9.904012311338647,0.125429481267929,-0.3226415812969208,-0.213557481765747
0.32,-0.4017987549304962,0.4257046282291412,2.378806829452514,0.1276995100133659,0.1559509410400794,-0.0079362124605869,0.1386326551437378,-0.3315934538841247,-0.2285993099212646,-0.4047796869650483,0.4357681076973677,2.382716889306903,0.1516156122088432,-0.3333312720060348,-0.3281344920396805,1.0962623060569183,0.6601586937904358,-0.447593629360199,-0.7520914077758789,9.694215014147176,0.1386326551437378,-0.3315934538841247,-0.2285993099212646
0.34,-0.3983806371688843,0.4175438582897186,2.3737056255340576,0.1280695384508831,0.1389239578521826,-0.0029297732521069,0.1538152992725372,-0.3672346472740173,-0.2295541763305664,-0.4017473747208714,0.429101482257247,2.376154199466109,0.1693294018507004,-0.3733312726020812,-0.3681344926357269,1.9376010417892424,0.7591322064399719,-1.782059669494629,-0.0477433204650878,9.652992605094369,0.1538152992725372,-0.3672346472740173,-0.2295541763305664
0.36,-0.3947559297084808,0.4090472161769867,2.3683865070343018,0.0932129811544587,0.1302578603935656,-0.0061710988856894,0.1631118357181549,-0.382348895072937,-0.2393603324890136,-0.3987150624766946,0.4224348568171263,2.369591509625316,0.1870431914925575,-0.4133312731981278,-0.4081344932317734,1.0136897639511055,0.4648268222808838,-0.7557123899459839,-0.4903078079223633,9.652992605094369,0.1631118357181549,-0.382348895072937,-0.2393603324890136
0.38,-0.3908063769340515,0.4002332389354706,2.362769842147827,0.0647936974577366,0.1234610634379413,-0.0077028034027494,0.1777298748493194,-0.3966289758682251,-0.2527499198913574,-0.3952399054914712,0.4147682313621044,2.362028819769621,0.2047569811344146,-0.4533312737941742,-0.4481344938278198,1.2215654161415346,0.7309019565582275,-0.7140040397644043,-0.6694793701171875,9.523179322498436,0.1777298748493194,-0.3966289758682251,-0.2527499198913574
0.4,-0.3865780532360077,0.3911861777305603,2.3570265769958496,0.042350509788092,0.1135984521387961,-0.009004683115357,0.190274566411972,-0.4071177542209625,-0.2584469318389892,-0.3913219037652015,0.4061016058921814,2.353466129899025,0.2224707707762718,-0.4933312743902206,-0.4881344944238662,0.865794003886606,0.6272345781326294,-0.5244389176368713,-0.2848505973815918,9.253072279754631,0.190274566411972,-0.4071177542209625,-0.2584469318389892
0.42,-0.3844567239284515,0.3867804706096649,2.3540101051330566,0.0363201305680292,0.1123324865569563,-0.0087847872417871,0.1892901957035064,-0.4048539698123932,-0.26192307472229,-0.3770643249154091,0.3708302900195122,2.3441042304039,0.2152997385710477,-0.4441473819315433,-0.3584469333291054,0.2131740772543023,-0.0492185354232788,0.1131892204284668,-0.173807144165039,9.253072279754631,0.1892901957035064,-0.4048539698123932,-0.26192307472229
0.44,-0.3800373375415802,0.3776155114173889,2.347791910171509,0.025150289125843,0.1022395299142748,-0.0078814088583364,0.1988723874092102,-0.41242316365242,-0.2798187732696533,-0.3770643249154091,0.3708302900195122,2.3441042304039,0.2152997385710477,-0.4441473819315433,-0.3584469333291054,1.0832441088818094,0.4791095852851867,-0.3784596920013428,-0.8947849273681641,9.337910449873108,0.1988723874092102,-0.41242316365242,-0.2798187732696533
0.46,-0.3753417134284973,0.3685218393802643,2.341439247131348,0.0105743134447279,0.1001940285984093,-0.0083985955893021,0.2113030850887298,-0.4092152416706085,-0.285869836807251,-0.3770643249154091,0.3708302900195122,2.3441042304039,0.2152997385710477,-0.4441473819315433,-0.3584469333291054,0.7096273285624094,0.6215348839759827,0.1603960990905761,-0.3025531768798828,9.612157187981666,0.2113030850887298,-0.4092152416706085,-0.285869836807251
0.48,-0.370642215013504,0.3594162166118622,2.3349814414978027,0.0165628435312966,0.0845137042576958,-0.0059813794820624,0.2114774286746978,-0.4097530245780945,-0.2906012535095215,-0.3749113275296986,0.3663888162001967,2.340519761070609,0.2203047730028629,-0.4515533074736595,-0.3784469336271286,0.2382535946847212,0.0087171792984008,-0.026889145374298,-0.2365708351135254,9.612157187981666,0.2114774286746978,-0.4097530245780945,-0.2906012535095215
0.5,-0.3661024570465088,0.3504951000213623,2.3281242847442627,0.0076973104304963,0.0865675362558481,-0.0064246857382138,0.2042891085147857,-0.4014502465724945,-0.3085720539093017,-0.3706053327582777,0.3575058685615658,2.333350822404027,0.2303148418664932,-0.4663651585578918,-0.418446934223175,1.0530405219416017,-0.3594160079956054,0.4151389002799988,-0.8985400199890137,9.35182522659079,0.2042891085147857,-0.4014502465724945,-0.3085720539093017
0.52,-0.3636008501052856,0.3459760248661041,2.324770927429199,0.0137414330848323,0.0738313068813576,-0.0042971511434133,0.2126763761043548,-0.4026626050472259,-0.3049993515014648,-0.3662993379868567,0.348622920922935,2.326181883737445,0.2403249107301235,-0.4811770096421242,-0.4584469348192215,0.4598376702306286,0.4193633794784546,-0.0606179237365722,0.1786351203918457,9.392832690029536,0.2126763761043548,-0.4026626050472259,-0.3049993515014648
0.54,-0.3588829338550567,0.3371776044368744,2.317746162414551,0.0105956990781788,0.0689897376829395,-0.0030465042676795,0.2123062312602996,-0.3959289193153381,-0.3161144256591797,-0.3614928397722542,0.3389993807300925,2.3170129450410606,0.2503349795937538,-0.4959888607263565,-0.4984469354152679,0.6500469295999146,-0.0185072422027587,0.3366842865943908,-0.5557537078857422,9.42652252917469,0.2123062312602996,-0.3959289193153381,-0.3161144256591797
0.56,-0.3541740775108337,0.3282883167266845,2.3107192516326904,0.0020372758992527,0.0613631463789435,-0.0019238980015604,0.211898535490036,-0.4000179469585418,-0.3162109851837158,-0.3566863415576518,0.32937584053725,2.307844006344676,0.2603450484573841,-0.5108007118105888,-0.5384469360113144,0.2055218154464011,-0.0203847885131835,-0.2044513821601867,-0.0048279762268066,9.42652252917469,0.211898535490036,-0.4000179469585418,-0.3162109851837158
0.58,-0.3493866920471191,0.3195928037166595,2.303708791732788,-0.006703650980741,0.0576761617428789,-0.0029276069027696,0.2154323458671569,-0.3912980854511261,-0.3154706954956054,-0.3516295916214585,0.3193820040673018,2.2976750676333904,0.2703551173210144,-0.5256125628948212,-0.5784469366073608,0.4718893655092304,0.1766905188560485,0.4359930753707886,0.0370144844055175,9.134350727777472,0.2154323458671569,-0.3912980854511261,-0.3154706954956054
0.6,-0.3448118865489959,0.3111402988433838,2.296136379241944,-0.0127143971369761,0.0561790775810454,-0.0020086136653082,0.2058662474155426,-0.380362719297409,-0.3407585620880127,-0.3463225899636745,0.3090178713202476,2.286506128907204,0.2803651861846447,-0.5404244139790535,-0.6184469372034073,1.458225522079168,-0.478304922580719,0.546768307685852,-1.264393329620361,9.096477333259829,0.2058662474155426,-0.380362719297409,-0.3407585620880127
0.62,-0.3426177501678467,0.3070068061351776,2.2923707962036133,-0.0268525754810893,0.0646207991696912,-0.0024487715639287,0.2049100399017334,-0.3806175291538238,-0.3387415409088135,-0.3345185741782188,0.2921221628785133,2.2790984511375427,0.2337270174175501,-0.4047231581062078,-0.4407585635781288,0.1123347153569357,-0.0478103756904602,-0.0127404928207397,0.1008510589599609,8.951754062458349,0.2049100399017334,-0.3806175291538238,-0.3387415409088135
0.64,-0.3381713926792145,0.2989356219768524,2.284515619277954,-0.0219345926358233,0.0528538348030162,-0.0016907209049026,0.2000860869884491,-0.3632032871246338,-0.3534829616546631,-0.3345185741782188,0.2921221628785133,2.2790984511375427,0.2337270174175501,-0.4047231581062078,-0.4407585635781288,1.1660144003902342,-0.2411976456642151,0.8707121014595032,-0.7370710372924805,8.951754062458349,0.2000860869884491,-0.3632032871246338,-0.3534829616546631
0.66,-0.3338355720043182,0.2909570634365082,2.2763984203338623,-0.0305687224775732,0.0624026285424845,-0.0008020948891202,0.1951119303703308,-0.3590351343154907,-0.3652739524841308,-0.3345185741782188,0.2921221628785133,2.2790984511375427,0.2337270174175501,-0.4047231581062078,-0.4407585635781288,0.6729472428105533,-0.2487078309059143,0.2084076404571533,-0.5895495414733887,9.981158975011112,0.1951119303703308,-0.3590351343154907,-0.3652739524841308
0.68,-0.3294672966003418,0.2831972539424896,2.267862558364868,-0.0237373729110408,0.0509583677188863,0.0005584763692356,0.1965723931789398,-0.3491914272308349,-0.3841137886047363,-0.3321813040040433,0.2880749312974512,2.274690865501761,0.2392991714179516,-0.4095952458679676,-0.460758563876152,1.0653296975996476,0.0730231404304504,0.4921853542327881,-0.9419918060302734,9.981158975011112,0.1965723931789398,-0.3491914272308349,-0.3841137886047363
0.7000000000000001,-0.3273659348487854,0.2793967723846435,2.263615608215332,-0.0232025341370325,0.0518644486694686,0.0004742994129907,0.1891721785068512,-0.3418394923210144,-0.3892099857330322,-0.3275067636556923,0.279980468135327,2.265875694230199,0.2504434794187545,-0.4193394213914871,-0.5007585644721985,0.5804854633875108,-0.3700107336044311,0.3675967454910278,-0.2548098564147949,9.44558720212899,0.1891721785068512,-0.3418394923210144,-0.3892099857330322
0.72,-0.3232450485229492,0.2720682024955749,2.254683017730713,-0.0211601792697184,0.0695952788080699,0.0015085654989993,0.1854398846626281,-0.3297856450080871,-0.4019665718078613,-0.3228322233073413,0.2718860049732029,2.2570605229586365,0.2615877874195575,-0.4290835969150066,-0.5407585650682449,0.8971562582230481,-0.1866146922111511,0.6026923656463623,-0.6378293037414551,9.365877441579867,0.1854398846626281,-0.3297856450080871,-0.4019665718078613
0.74,-0.3190757930278778,0.2650138735771179,2.2457125186920166,-0.0138059286461126,0.0586384873181698,0.0032620868594162,0.1876164972782135,-0.3174448013305664,-0.403672456741333,-0.3176004675589502,0.2633043330349028,2.246245351657272,0.2727320954203606,-0.4388277724385261,-0.5807585656642914,0.6323450572226662,0.1088306307792663,0.6170421838760376,-0.0852942466735839,9.365877441579867,0.1876164972782135,-0.3174448013305664,-0.403672456741333
0.76,-0.3151676952838897,0.2579121589660644,2.236609697341919,-0.0092946860011687,0.0667674181046929,0.0026487256312792,0.1758643984794616,-0.319577157497406,-0.4096269607543945,-0.3123687118105591,0.2547226610966026,2.2354301803559067,0.2838764034211635,-0.4485719479620457,-0.6207585662603379,0.6672984471723444,-0.5876049399375916,-0.1066178083419799,-0.2977252006530761,9.426576130935246,0.1758643984794616,-0.319577157497406,-0.4096269607543945
0.78,-0.3112504780292511,0.2511837780475616,2.227135181427002,-0.0024633326792047,0.0737305443196177,0.0033671697025327,0.1762747764587402,-0.3027771413326263,-0.4263532161712646,-0.3068583483621478,0.2458973847702145,2.2236150090396407,0.2950207114219665,-0.4583161234855651,-0.6607585668563842,1.185513152070773,0.0205188989639282,0.8400008082389832,-0.8363127708435059,9.457936371176402,0.1762747764587402,-0.3027771413326263,-0.4263532161712646
0.8,-0.3071868121623993,0.2444700896739959,2.217574119567871,0.0016253418596289,0.0802919599519847,0.0041483402582569,0.1828649640083313,-0.3021159768104553,-0.4302477836608886,-0.3010693772137165,0.2368285040557384,2.210799837708473,0.3061650194227695,-0.4680602990090847,-0.7007585674524307,0.3841723779613751,0.3295093774795532,0.033058226108551,-0.1947283744812011,9.421033714638725,0.1828649640083313,-0.3021159768104553,-0.4302477836608886
0.8200000000000001,-0.3053121268749237,0.2412689179182052,2.212642192840576,0.0054795677494874,0.0854012783044434,0.0044333724753115,0.1743878424167633,-0.2935442924499511,-0.4381871223449707,-0.2980435639619827,0.2293642908334732,2.1960617303848267,0.2187795788049698,-0.3106495728716254,-0.5302477851510048,0.7217486785490174,-0.4238560795783996,0.4285842180252075,-0.3969669342041015,9.30864626543098,0.1743878424167633,-0.2935442924499511,-0.4381871223449707
0.84,-0.3012026250362396,0.2346164435148239,2.202846050262451,0.008955147492021,0.0900592736881966,0.0046164405997894,0.1849275827407837,-0.2993613481521606,-0.440826416015625,-0.2980435639619827,0.2293642908334732,2.1960617303848267,0.2187795788049698,-0.3106495728716254,-0.5302477851510048,0.6162185777391511,0.5269870162010193,-0.2908527851104736,-0.1319646835327148,9.30864626543098,0.1849275827407837,-0.2993613481521606,-0.440826416015625
0.86,-0.2971436679363251,0.2282695770263672,2.1929256916046143,0.0109845733696856,0.0950135688646195,0.0042236873732257,0.1826530694961547,-0.2856090068817138,-0.4464161396026611,-0.2980435639619827,0.2293642908334732,2.1960617303848267,0.2187795788049698,-0.3106495728716254,-0.5302477851510048,0.7509083011564962,-0.1137256622314453,0.6876170635223389,-0.2794861793518066,9.96389257403598,0.1826530694961547,-0.2856090068817138,-0.4464161396026611
0.88,-0.2929672598838806,0.2219424694776535,2.1827375888824463,0.0127140621537059,0.1000396822110872,0.004480426097562,0.1879383623600006,-0.2847198247909546,-0.4584646224975586,-0.295855768173933,0.2262577951047569,2.190759252533317,0.2259625017642974,-0.3123562920838594,-0.550247785449028,0.6593385047071484,0.2642646431922912,0.0444591045379638,-0.602424144744873,9.915032993410025,0.1879383623600006,-0.2847198247909546,-0.4584646224975586
0.9,-0.2907931208610534,0.2187631428241729,2.177667617797852,0.0122577614423407,0.1016275005702198,0.0037230198299491,0.1923036575317382,-0.2877547740936279,-0.4569518566131592,-0.2914801765978336,0.2200448036473244,2.1801542968302967,0.2403283476829529,-0.3157697305083274,-0.5902477860450744,0.2763836998956177,0.2182647585868835,-0.151747465133667,0.0756382942199707,9.856829442763685,0.1923036575317382,-0.2877547740936279,-0.4569518566131592
0.92,-0.2864790260791778,0.2126832008361816,2.1674721240997314,-0.0065637484698657,0.1163904747572844,0.0005034174758372,0.1941342651844024,-0.27359738945961,-0.4587972164154053,-0.2871045850217342,0.2138318121898919,2.1695493411272766,0.2546941936016083,-0.3191831689327955,-0.6302477866411209,0.719701356211842,0.0915303826332092,0.7078692317008972,-0.0922679901123046,9.715395742293367,0.1941342651844024,-0.27359738945961,-0.4587972164154053
0.94,-0.2820311486721039,0.2065721601247787,2.1575777530670166,-0.0013769717602493,0.1041769420920139,0.0018839671868137,0.2001544833183288,-0.274996817111969,-0.4452466964721679,-0.2820107011497021,0.207448148811236,2.1569443853944543,0.2690600395202637,-0.3225966073572636,-0.6702477872371674,0.7446778076227247,0.3010109066963196,-0.0699713826179504,0.6775259971618652,9.715395742293367,0.2001544833183288,-0.274996817111969,-0.4452466964721679
0.96,-0.2775306701660156,0.2005253136157989,2.147199869155884,-0.0246830732503181,0.116166901101689,-0.0006127263481077,0.2025215327739715,-0.2721080780029297,-0.4670047760009765,-0.2769168172776699,0.2010644854325801,2.144339429661632,0.283425885438919,-0.3260100457817316,-0.7102477878332139,1.1038135729681793,0.118352472782135,0.1444369554519653,-1.0879039764404297,9.472985650256303,0.2025215327739715,-0.2721080780029297,-0.4670047760009765
0.98,-0.2725790739059448,0.1947895884513855,2.137225389480591,-0.0205641917415853,0.1042390853611043,0.0013387010559051,0.222821831703186,-0.2581076323986053,-0.4488515853881836,-0.2714637872576714,0.1945954860933125,2.130734473913908,0.2977917313575745,-0.3294234842061996,-0.7502477884292602,1.5310559617136028,1.015014946460724,0.700022280216217,0.9076595306396484,9.472985650256303,0.222821831703186,-0.2581076323986053,-0.4488515853881836
1.0,-0.2677229642868042,0.1891878098249435,2.126957654953003,-0.0282287381603488,0.1051828182768582,0.0003679195727215,0.2185249328613281,-0.2520800232887268,-0.4620480537414551,-0.2656516110897064,0.1880411507934332,2.116129518151284,0.3121575772762298,-0.3328369226306676,-0.7902477890253067,0.7565417837726255,-0.2148449420928955,0.301380455493927,-0.6598234176635742,9.239080504010415,0.2185249328613281,-0.2520800232887268,-0.4620480537414551
1.02,-0.2652965784072876,0.1864418685436248,2.121734857559204,-0.0407940718120309,0.1148639029640226,-0.0010631537993096,0.2238652110099792,-0.2476859092712402,-0.4572200775146484,-0.2567967176437378,0.1765838086605072,2.10385525226593,0.2318985583260655,-0.2446662918664515,-0.5444058403372765,0.4217112849754045,0.2670139074325561,0.2197057008743286,0.241398811340332,9.32658079055136,0.2238652110099792,-0.2476859092712402,-0.4572200775146484
1.04,-0.2601698935031891,0.1812463700771331,2.111336231231689,-0.0349693276901769,0.1032753173721165,0.0002578149745124,0.2307008206844329,-0.2337974309921264,-0.4679381847381592,-0.2567967176437378,0.1765838086605072,2.10385525226593,0.2318985583260655,-0.2446662918664515,-0.5444058403372765,0.9413995047077166,0.3417804837226867,0.6944239139556885,-0.5359053611755371,9.32658079055136,0.2307008206844329,-0.2337974309921264,-0.4679381847381592
1.06,-0.2549928724765777,0.1763763278722763,2.100646734237671,-0.0342316866921898,0.1012211350296758,0.0005532444653332,0.2329659461975097,-0.2191518992185592,-0.4810273647308349,-0.2567967176437378,0.1765838086605072,2.10385525226593,0.2318985583260655,-0.2446662918664515,-0.5444058403372765,0.9886215496857502,0.1132562756538391,0.73227658867836,-0.6544589996337891,10.03097195754208,0.2329659461975097,-0.2191518992185592,-0.4810273647308349
1.08,-0.2496657818555832,0.1716729998588562,2.089895486831665,-0.0334741720609011,0.0951963514492427,0.0018987187950262,0.2397190779447555,-0.2116497606039047,-0.4838061332702636,-0.2544777320604771,0.1741371457418427,2.0984111938625576,0.234573283419013,-0.2431835455819964,-0.5608773976564407,0.5234702159265331,0.3376565873622894,0.375106930732727,-0.1389384269714355,10.00880199485846,0.2397190779447555,-0.2116497606039047,-0.4838061332702636
1.1,-0.244234099984169,0.1671166718006134,2.079305648803711,-0.0373121670374822,0.0906585153465883,0.0010027209216034,0.2444256842136383,-0.2050347626209259,-0.4765427112579345,-0.2498397608939558,0.1692438199045136,2.087523077055812,0.2399227336049079,-0.2402180530130863,-0.5938205122947693,0.5446733888631957,0.2353303134441375,0.330749899148941,0.3631711006164551,10.04457200801744,0.2444256842136383,-0.2050347626209259,-0.4765427112579345
1.12,-0.2415897846221923,0.1650643646717071,2.073739528656006,-0.0297892340932948,0.0805468521649932,0.0011393094688545,0.2378797531127929,-0.1915439218282699,-0.4862844944000244,-0.2452017897274345,0.1643504940671846,2.0766349602490664,0.2452721837908029,-0.2372525604441762,-0.6267636269330978,0.8940838020808086,-0.3272965550422668,0.6745420396327972,-0.4870891571044922,10.04457200801744,0.2378797531127929,-0.1915439218282699,-0.4862844944000244
1.14,-0.2362444847822189,0.1610683053731918,2.0631797313690186,-0.0282523383238545,0.0675917585904895,0.0013690399042052,0.2405384927988052,-0.1798226684331894,-0.4751908779144287,-0.2402963460516184,0.1596054428583011,2.0640996877104043,0.2506216339766979,-0.234287067875266,-0.6597067415714264,0.8178095814417087,0.1329369843006134,0.5860626697540283,0.5546808242797852,9.937456218947318,0.2405384927988052,-0.1798226684331894,-0.4751908779144287
1.16,-0.2309374511241912,0.1573415547609329,2.0525553226470947,-0.027597133398708,0.0530163206364993,0.0018688365829833,0.2388165146112442,-0.167703777551651,-0.4780983924865722,-0.2353909023758023,0.1548603916494176,2.0515644151717423,0.2559710841625929,-0.2313215753063559,-0.6926498562097549,0.629059548183432,-0.0860989093780517,0.6059445440769196,-0.1453757286071777,9.937456218947318,0.2388165146112442,-0.167703777551651,-0.4780983924865722
1.18,-0.2255982309579849,0.153893381357193,2.0424726009368896,-0.0281028354915145,0.0374524740345112,0.0019125895404183,0.2402649074792862,-0.1551678031682968,-0.4537224769592285,-0.2303517224453389,0.1501894777547568,2.0382055647671224,0.2613205343484878,-0.2283560827374458,-0.7255929708480835,1.3724373878582816,0.0724196434020996,0.6267987191677094,1.2187957763671875,9.856466598176668,0.2402649074792862,-0.1551678031682968,-0.4537224769592285
1.2,-0.2206739634275436,0.1505242884159088,2.032073497772217,-0.027069343472599,0.0269466074306221,0.0015867401685188,0.2215920388698578,-0.151609182357788,-0.4679596424102783,-0.2251788062602281,0.1455927011743188,2.024023136496544,0.2666699845343828,-0.2253905901685357,-0.758536085486412,1.1874728252243594,-0.9336434304714204,0.1779310405254364,-0.7118582725524902,9.841771116570726,0.2215920388698578,-0.151609182357788,-0.4679596424102783
1.22,-0.2181868702173233,0.1490663737058639,2.027116060256958,-0.0318663894949717,0.0219093642012857,0.0023194338363221,0.2218669652938842,-0.1386286318302154,-0.4564905166625976,-0.2095943614840507,0.1429438292980194,2.008675515651703,0.2017640341073274,-0.1576084378175437,-0.5033156052231789,0.8661857796593143,0.0137463212013244,0.6490275263786316,0.5734562873840332,9.434626829391618,0.2218669652938842,-0.1386286318302154,-0.4564905166625976
1.24,-0.2135291844606399,0.146147221326828,2.016875982284546,-0.0261101003109055,0.01006488939197,0.0021407946358555,0.2095958590507507,-0.1313618570566177,-0.4608035087585449,-0.2095943614840507,0.1429438292980194,2.008675515651703,0.2017640341073274,-0.1576084378175437,-0.5033156052231789,0.7449630273714442,-0.6135553121566772,0.3633387386798858,-0.2156496047973632,10.60013185734715,0.2095958590507507,-0.1313618570566177,-0.4608035087585449
1.26,-0.2091880142688751,0.1433275640010833,2.006779193878174,-0.0243512872438745,0.0035916534475626,0.0024473538902634,0.1953526586294174,-0.1268845796585083,-0.4543554782867431,-0.2095943614840507,0.1429438292980194,2.008675515651703,0.2017640341073274,-0.1576084378175437,-0.5033156052231789,0.8131602980150578,-0.7121600210666656,0.2238638699054718,0.3224015235900879,10.60013185734715,0.1953526586294174,-0.1268845796585083,-0.4543554782867431
1.28,-0.2051438391208648,0.1408397257328033,1.99663507938385,-0.019073355628722,-0.0005450632691746,0.0019619516915606,0.1819878816604614,-0.1119527220726013,-0.4564851522445678,-0.2075767211429774,0.1413677449198439,2.0036423595994712,0.1977984331548214,-0.1588082889094949,-0.510386797785759,1.0076124572006606,-0.6682388484477997,0.7465928792953491,-0.1064836978912353,10.389432375098297,0.1819878816604614,-0.1119527220726013,-0.4564851522445678
1.3,-0.2014644145965576,0.1386278569698333,1.986583352088928,-0.0121226435511767,0.0067062440188543,0.0030967541789266,0.1655741035938263,-0.0995340943336486,-0.4523277282714844,-0.2035414404608309,0.1382155761634931,1.9935760474950075,0.1898672312498092,-0.1612079910933971,-0.5245291829109192,1.0499030900890398,-0.8206889033317566,0.6209313869476318,0.2078711986541748,10.396733588535426,0.1655741035938263,-0.0995340943336486,-0.4523277282714844
1.32,-0.1998024731874466,0.1374750286340713,1.9816514253616333,-0.0080733100636807,-0.0050348634541288,0.0030157224391812,0.1544315367937088,-0.1040328294038772,-0.4426395893096924,-0.1995061597786843,0.1350634074071422,1.983509735390544,0.1819360293447971,-0.1636076932772994,-0.5386715680360794,0.7717762769581887,-0.5571283400058746,-0.2249367535114288,0.4844069480895996,10.396733588535426,0.1544315367937088,-0.1040328294038772,-0.4426395893096924
1.34,-0.1966851502656936,0.135482907295227,1.9717097282409668,0.003550717068912,-0.0064153452089042,0.0030465091547689,0.1402795314788818,-0.0896454602479934,-0.4473763704299927,-0.1958674391917884,0.1317912535415962,1.9727363040298225,0.174004827439785,-0.1660073954612016,-0.5528139531612396,1.0364756883788933,-0.7076002657413483,0.7193684577941895,-0.2368390560150146,10.509782735051886,0.1402795314788818,-0.0896454602479934,-0.4473763704299927
1.36,-0.1939973980188369,0.1334106624126434,1.962260603904724,0.0141640455064155,-0.0095786750139228,0.003907792454173,0.120948851108551,-0.0932510197162628,-0.4252105951309204,-0.1922287186048925,0.1285190996760502,1.961962872669101,0.1660736255347728,-0.1684070976451039,-0.5669563382863998,1.481550587448908,-0.9665340185165404,-0.1802779734134674,1.1082887649536133,10.509782735051886,0.120948851108551,-0.0932510197162628,-0.4252105951309204
1.38,-0.1917172074317932,0.1314077526330948,1.952783703804016,0.0249661418110158,-0.0085616240338597,0.0040325457587473,0.1026085764169693,-0.090130940079689,-0.4264605045318603,-0.1887882780656218,0.1251869532559067,1.9508358816802505,0.1581424236297607,-0.1708067998290062,-0.5810987234115601,0.9322859623149348,-0.9170137345790864,0.1560039818286895,-0.062495470046997,10.39060637550483,0.1026085764169693,-0.090130940079689,-0.4264605045318603
1.4,-0.1899050921201706,0.1293474584817886,1.9437328577041624,0.0317524491116479,0.0073189033900848,0.0028332696724737,0.0815451890230178,-0.0927132368087768,-0.4072880744934082,-0.1855461175739765,0.1217948142811656,1.9393553310632707,0.1502112217247486,-0.1732065020129084,-0.5952411085367203,1.4299620785916591,-1.0531693696975708,-0.1291148364543914,0.9586215019226074,10.411425441212486,0.0815451890230178,-0.0927132368087768,-0.4072880744934082
1.42,-0.1889735609292984,0.1283630132675171,1.9392203092575075,0.0377720513758319,-0.0043113734386079,0.0037480357864656,0.0823746621608734,-0.0887724012136459,-0.4017895460128784,-0.1858278326690197,0.1247117966413497,1.923368453979492,0.1028010547161102,-0.1231306344270706,-0.4172715116292238,0.3407786170135677,0.0414736568927764,0.197041779756546,0.2749264240264892,10.411425441212486,0.0823746621608734,-0.0887724012136459,-0.4017895460128784
1.44,-0.1877997368574142,0.1262552887201309,1.9305124282836916,0.0417683111957135,-0.0005680179890429,0.0027934206287317,0.0528220832347869,-0.0948476046323776,-0.3918546438217163,-0.1858278326690197,0.1247117966413497,1.923368453979492,0.1028010547161102,-0.1231306344270706,-0.4172715116292238,1.5882107065102338,-1.4776289463043213,-0.3037601709365845,0.4967451095581054,10.416334486936648,0.0528220832347869,-0.0948476046323776,-0.3918546438217163
1.46,-0.1868034899234771,0.1240370795130729,1.922041893005371,0.0438768415273379,0.0087411577440993,0.0035451006254266,0.0448311120271682,-0.0998194143176078,-0.381174087524414,-0.1858278326690197,0.1247117966413497,1.923368453979492,0.1028010547161102,-0.1231306344270706,-0.4172715116292238,0.7117738320684867,-0.3995485603809356,-0.2485904842615127,0.5340278148651123,10.876679729261925,0.0448311120271682,-0.0998194143176078,-0.381174087524414
1.48,-0.1859811842441558,0.1216858103871345,1.9138901233673096,0.0430768843395652,0.0207368956542317,0.0040637628755351,0.037003755569458,-0.1058071106672287,-0.3668296337127685,-0.1847998221218586,0.123480490297079,1.9191957388632,0.1070522278547286,-0.1292141139507293,-0.4192681990563869,0.8701772403449662,-0.3913678228855133,-0.2993848174810409,0.7172226905822754,10.876679729261925,0.037003755569458,-0.1058071106672287,-0.3668296337127685
1.5,-0.185580164194107,0.1191885396838188,1.9059340953826904,0.0441496402507329,0.037272816428509,0.0026034107603822,0.0180459022521972,-0.112377181649208,-0.3580212593078613,-0.1827438010275364,0.1210178776085376,1.9108503086306157,0.1155545741319656,-0.1413810729980468,-0.4232615739107132,1.095620252144928,-0.9478926658630372,-0.3285035490989685,0.4404187202453613,10.785267928372832,0.0180459022521972,-0.112377181649208,-0.3580212593078613
1.52,-0.1853053420782089,0.1179878488183021,1.902027010917664,0.0393548622993915,0.0811379044601556,0.0015812138993646,0.0184220820665359,-0.1105988770723342,-0.3547704219818115,-0.1806877799332142,0.1185552649199962,1.902504878398031,0.1240569204092025,-0.1535480320453643,-0.4272549487650394,0.1862244730243903,0.0188089907169342,0.0889152288436889,0.1625418663024902,10.691457585623994,0.0184220820665359,-0.1105988770723342,-0.3547704219818115
1.54,-0.1849389970302581,0.1153153255581855,1.8944374322891235,0.047540508292714,0.0707921405180298,0.0040204426540973,0.0164855271577835,-0.1202635467052459,-0.3415310382843017,-0.1782066415250301,0.1154843042790889,1.89395977942273,0.1325592666864395,-0.1657149910926818,-0.4312483236193657,0.8252838371097331,-0.096827745437622,-0.4832334816455841,0.6619691848754883,10.691457585623994,0.0164855271577835,-0.1202635467052459,-0.3415310382843017
1.56,-0.1844830214977264,0.112420342862606,1.887385606765747,0.049036544888287,0.0931022990724448,0.004654852604524,0.0205188989639282,-0.1302742213010788,-0.3173321485519409,-0.1757255031168461,0.1124133436381816,1.8854146804474288,0.1410616129636764,-0.1778819501399994,-0.4352416984736919,1.3248282513869625,0.2016685903072357,-0.5005337297916412,1.209944486618042,10.553211592220578,0.0205188989639282,-0.1302742213010788,-0.3173321485519409
1.58,-0.1839943528175354,0.109585978090763,1.880415439605713,0.0510192542020967,0.1187675065985952,0.0051137608447402,0.0219900906085968,-0.127546414732933,-0.3136575222015381,-0.1730318060517311,0.1090382090210914,1.8767697471007705,0.1495639592409134,-0.1900489091873169,-0.4392350733280182,0.2403550100561489,0.0735595822334289,0.1363903284072876,0.1837313175201416,10.553211592220578,0.0219900906085968,-0.127546414732933,-0.3136575222015381
1.6,-0.1831325590610504,0.1063510775566101,1.873769760131836,0.0424060451636968,0.1663694136483789,0.0025035303142492,0.0387807190418243,-0.1455705165863037,-0.2990555763244629,-0.1828948482871055,0.1032086573541164,1.864732563495636,0.0751118175685405,-0.140348526649177,-0.3360252659767866,1.4317910760655883,0.839531421661377,-0.9012050926685332,0.7300972938537598,10.403668685628872,0.0387807190418243,-0.1455705165863037,-0.2990555763244629
1.62,-0.1825506836175918,0.1048088073730468,1.87033486366272,0.0419571806581424,0.1786741373311654,0.0025950339978706,0.0484856218099594,-0.1428467333316803,-0.3015875816345215,-0.1828948482871055,0.1032086573541164,1.864732563495636,0.0751118175685405,-0.140348526649177,-0.3360252659767866,0.5196517676465836,0.4852451384067535,0.1361891627311706,-0.1266002655029297,10.409776302751196,0.0484856218099594,-0.1428467333316803,-0.3015875816345215
1.64,-0.1811427026987075,0.1013466045260429,1.8642557859420776,0.0486764672330255,0.1673762270176062,0.0068429693766438,0.0633591413497924,-0.1557991206645965,-0.273558497428894,-0.1828948482871055,0.1032086573541164,1.864732563495636,0.0751118175685405,-0.140348526649177,-0.3360252659767866,1.7136331889656544,0.7436759769916534,-0.647619366645813,1.401454210281372,10.409776302751196,0.0633591413497924,-0.1557991206645965,-0.273558497428894
1.66,-0.1793785989284515,0.0979154035449028,1.857878804206848,0.0366395544188744,0.1972800312169986,0.0018369341611227,0.0793846696615219,-0.1544040441513061,-0.2869641780853271,-0.1821437301114201,0.1018051720876246,1.861372310835868,0.0857361629605293,-0.1429089490324258,-0.3404988147318363,1.0469910100022837,0.8012764155864716,0.0697538256645202,-0.6702840328216553,10.23052344597727,0.0793846696615219,-0.1544040441513061,-0.2869641780853271
1.68,-0.1769631803035736,0.0943845584988594,1.8519097566604612,0.0446976078742748,0.1867438205946049,0.0067357490542628,0.1086938381195068,-0.1588880270719528,-0.2686071395874023,-0.1806414937600493,0.0989982015546411,1.8546518055163324,0.1069848537445068,-0.1480297937989235,-0.3494459122419357,1.743641534938792,1.4654584228992462,-0.2241991460323333,0.9178519248962402,10.23052344597727,0.1086938381195068,-0.1588880270719528,-0.2686071395874023
1.7,-0.1739580035209655,0.0906947776675224,1.846169352531433,0.0370429281877793,0.1839725140762348,0.0051993947623594,0.1352329552173614,-0.1660401374101638,-0.2583181858062744,-0.1791392574086785,0.0961912310216575,1.8479313001967967,0.1282335445284843,-0.1531506385654211,-0.3583930097520351,1.467429715977712,1.3269558548927307,-0.357605516910553,0.5144476890563965,10.452135148546404,0.1352329552173614,-0.1660401374101638,-0.2583181858062744
1.72,-0.172406256198883,0.0886966288089752,1.8433926105499268,0.0107425230554304,0.1869724414211233,-0.0010263360000621,0.1401185989379882,-0.1692366600036621,-0.2552014589309692,-0.1765745865181088,0.0931282182503491,1.840763440001756,0.1494822353124618,-0.1582714833319187,-0.3673401072621345,0.3309125929565638,0.2442821860313415,-0.1598261296749115,0.1558363437652588,10.268169417818171,0.1401185989379882,-0.1692366600036621,-0.2552014589309692
1.74,-0.1685817539691925,0.0849735215306282,1.8379079103469849,0.0202934990501926,0.1756874205719924,0.0035211887097794,0.1721026003360748,-0.1675398349761963,-0.2468115091323852,-0.1740099156275391,0.0900652054790407,1.8335955798067156,0.1707309260964393,-0.1633923280984163,-0.376287204772234,1.655480910664176,1.5992000699043274,0.084841251373291,0.4194974899291992,10.268169417818171,0.1721026003360748,-0.1675398349761963,-0.2468115091323852
1.76,-0.1643193960189819,0.0811948329210281,1.832746505737305,0.0079068182952488,0.1623420855055077,0.0021049239576779,0.1918061077594757,-0.1700409948825836,-0.2322632074356079,-0.17091402746737,0.0868741715885698,1.826204042173922,0.1919796168804168,-0.1685131728649139,-0.3852343022823333,1.2309925750403488,0.985175371170044,-0.1250579953193664,0.7274150848388672,10.216044731685544,0.1918061077594757,-0.1700409948825836,-0.2322632074356079
1.78,-0.1596368998289108,0.0773938745260238,1.827489733695984,-0.0041233336465865,0.149661645442633,0.0002244932178096,0.2107123285531997,-0.1710431277751922,-0.236554741859436,-0.1672869220376014,0.0835551165789365,1.8185888271033763,0.2132283076643943,-0.1736340176314115,-0.3941813997924328,0.9706527735838316,0.945311039686203,-0.0501066446304321,-0.2145767211914062,10.216044731685544,0.2107123285531997,-0.1710431277751922,-0.236554741859436
1.8,-0.1546151489019394,0.0740113630890846,1.8224122524261477,-0.0126698058059456,0.1365173783758414,-0.0010433355244913,0.2259787917137146,-0.1522130072116851,-0.2284866571426391,-0.1636598166078329,0.0802360615693032,1.8109736120328308,0.2344769984483719,-0.1787548623979091,-0.4031284973025322,1.277431337553001,0.7633231580257416,0.941506028175354,0.4034042358398437,10.121590224377089,0.2259787917137146,-0.1522130072116851,-0.2284866571426391
1.82,-0.1519716531038284,0.0721106603741645,1.8199646472930908,-0.0283632182301706,0.1267743860212664,-0.0021263733917277,0.2349722385406494,-0.1594137400388717,-0.2315336465835571,-0.1433162093162536,0.0664007127285003,1.8109879195690155,0.2116638328880071,-0.1303700227290392,-0.2548923920840025,0.5958539748346318,0.4496723413467407,-0.3600366413593292,-0.1523494720458984,10.0043355623975,0.2349722385406494,-0.1594137400388717,-0.2315336465835571
1.84,-0.1464681327342987,0.0688659474253654,1.815074443817139,-0.0207625701168715,0.11229726896933,-0.0004224973773461,0.2476584166288375,-0.146012082695961,-0.2200591564178466,-0.1433162093162536,0.0664007127285003,1.8109879195690155,0.2116638328880071,-0.1303700227290392,-0.2548923920840025,1.0865167492784058,0.6343089044094086,0.6700828671455383,0.5737245082855225,10.319440410142306,0.2476584166288375,-0.146012082695961,-0.2200591564178466
1.86,-0.1407490074634552,0.0657350942492485,1.810210943222046,-0.0298966825081212,0.0966331338657756,-0.0012213137899435,0.2573606371879577,-0.1408883929252624,-0.2188575267791748,-0.1433162093162536,0.0664007127285003,1.8109879195690155,0.2116638328880071,-0.1303700227290392,-0.2548923920840025,0.5518813152134929,0.4851110279560089,0.2561844885349273,0.0600814819335937,10.244747041685514,0.2573606371879577,-0.1408883929252624,-0.2188575267791748
1.88,-0.134965568780899,0.0627529770135879,1.8056086301803589,-0.0222235384326652,0.0766414720654296,-0.000346406946144,0.2602547407150268,-0.1341952681541443,-0.2071040868759155,-0.1411995709873736,0.0650970125012099,1.8084389956481757,0.2088008411228656,-0.12600142583251,-0.2601735390722751,0.6915871311459547,0.1447051763534546,0.3346562385559082,0.5876719951629639,10.244747041685514,0.2602547407150268,-0.1341952681541443,-0.2071040868759155
1.9,-0.1291126012802124,0.0601085610687732,1.8010051250457764,-0.021244496109284,0.0579275618282401,0.0011951834220537,0.263383537530899,-0.1189987212419509,-0.2071577310562133,-0.1369662943296134,0.0624896120466292,1.803341147806496,0.2030748575925827,-0.1172642320394516,-0.2707358330488205,0.775769432994726,0.1564398407936096,0.7598273456096649,-0.0026822090148925,10.053970290151028,0.263383537530899,-0.1189987212419509,-0.2071577310562133
1.92,-0.126303032040596,0.0588310956954956,1.7989275455474854,-0.0314568311030325,0.0405282294204635,-0.0001804781947505,0.2560544013977051,-0.1186626031994819,-0.2007633447647094,-0.1327330176718533,0.0598822115920484,1.7982432999648157,0.1973488740622997,-0.1085270382463932,-0.2812981270253658,0.4866142924389288,-0.3664568066596985,0.0168059021234512,0.3197193145751953,10.051231374256076,0.2560544013977051,-0.1186626031994819,-0.2007633447647094
1.94,-0.1207470744848251,0.0564875230193138,1.7944529056549072,-0.03423974709885,0.0209848434435726,0.0001383798272158,0.2500180900096893,-0.1054607704281807,-0.2013587951660156,-0.1287860401906073,0.0577116708271205,1.7926173374243082,0.1916228905320167,-0.0997898444533348,-0.2918604210019112,0.7264296333350334,-0.3018155694007873,0.6600916385650635,-0.0297725200653076,9.949036310171778,0.2500180900096893,-0.1054607704281807,-0.2013587951660156
1.96,-0.1152020841836929,0.0542356632649898,1.79050612449646,-0.0306137730140679,0.0021911289730949,-1.537558532338204e-05,0.2495245635509491,-0.1013336926698684,-0.1776051521301269,-0.1248390627093613,0.0555411300621926,1.7869913748838009,0.1858969070017337,-0.0910526506602764,-0.3024227149784565,1.205727888730553,-0.0246763229370117,0.2063538879156112,1.1876821517944336,9.920224974858227,0.2495245635509491,-0.1013336926698684,-0.1776051521301269
1.98,-0.1101275309920311,0.0524850450456142,1.7863858938217163,-0.0359065229013532,-0.0134345532801443,0.0002111181922566,0.2283549010753631,-0.0787778198719024,-0.1854103803634643,-0.1210352348163723,0.0535890191420912,1.78110135499388,0.1801709234714508,-0.082315456867218,-0.3129850089550018,1.5951830575068346,-1.0584831237792969,1.1277936398983002,-0.3902614116668701,9.920224974858227,0.2283549010753631,-0.0787778198719024,-0.1854103803634643
2.0,-0.1055301502346992,0.0507678985595703,1.7825191020965576,-0.0491868470089425,-0.0187156743356282,0.0008061125753803,0.2068821340799331,-0.0772715955972671,-0.1740056276321411,-0.1173745565116405,0.0518553380668163,1.7749472777545452,0.1744449399411678,-0.0735782630741596,-0.3235473029315471,1.2180074085038988,-1.0736383497714996,0.0753112137317657,0.5702376365661621,9.693923907829683,0.2068821340799331,-0.0772715955972671,-0.1740056276321411
2.02,-0.1032511815428733,0.0501003973186016,1.7803276777267456,-0.0449072794821712,-0.031457889751029,0.000159063589943,0.2009272873401641,-0.0614918209612369,-0.1872503757476806,-0.0951860435307025,0.0469043187797069,1.7738188207149506,0.1544451899826526,-0.0678014708682894,-0.1994377318769693,1.0722462868927638,-0.2977423369884491,0.7889887318015099,-0.6622374057769775,9.693923907829683,0.2009272873401641,-0.0614918209612369,-0.1872503757476806
2.04,-0.0993155911564827,0.0488162077963352,1.7760164737701416,-0.0486956874513995,-0.0367702612200555,-0.0004253547092394,0.1771015673875808,-0.0577885285019874,-0.1940041780471801,-0.0951860435307025,0.0469043187797069,1.7738188207149506,0.1544451899826526,-0.0678014708682894,-0.1994377318769693,1.251991565265503,-1.1912859976291656,0.1851646229624748,-0.3376901149749756,10.025334405786907,0.1771015673875808,-0.0577885285019874,-0.1940041780471801
2.06,-0.095646433532238,0.0481357164680957,1.771508812904358,-0.0485208984928476,-0.0352031505373238,0.0008682508091893,0.165112093091011,-0.0306221097707748,-0.2028447389602661,-0.0951860435307025,0.0469043187797069,1.7738188207149506,0.1544451899826526,-0.0678014708682894,-0.1994377318769693,1.5491266231700291,-0.5994737148284912,1.3583209365606308,-0.4420280456542969,10.047230669487362,0.165112093091011,-0.0306221097707748,-0.2028447389602661
2.08,-0.0924094319343566,0.047597549855709,1.766624927520752,-0.0430015231680997,-0.0328061329502867,0.0020339499093359,0.1456650793552398,-0.0242174975574016,-0.219774842262268,-0.093641591630876,0.046226304071024,1.771824443396181,0.1439578011631965,-0.0659074459224939,-0.204524152725935,1.328376639605104,-0.972350686788559,0.3202306106686592,-0.8465051651000977,10.047230669487362,0.1456650793552398,-0.0242174975574016,-0.219774842262268
2.1,-0.0896631702780723,0.0472841188311576,1.7615150213241575,-0.0315700294259599,-0.0107289899436234,0.0040456538939592,0.1235817745327949,-0.0141043961048126,-0.2299457788467407,-0.090552687831223,0.0448702746536582,1.7678356887586415,0.1229830235242843,-0.0621193960309028,-0.2146969944238662,1.3166198425103026,-1.1041652411222458,0.5056550726294518,-0.5085468292236328,10.22783254193746,0.1235817745327949,-0.0141043961048126,-0.2299457788467407
2.12,-0.0884616449475288,0.0472844876348972,1.7589635848999023,-0.0184847164316375,-0.0033110976725785,0.004352703409021,0.1159609481692314,-0.0047476775944232,-0.2310937643051147,-0.0874637840315699,0.0435142452362924,1.763846934121102,0.1020082458853721,-0.0583313461393117,-0.2248698361217975,0.6061003348433441,-0.3810413181781769,0.4678359255194664,-0.0573992729187011,10.321848411292194,0.1159609481692314,-0.0047476775944232,-0.2310937643051147
2.14,-0.0862243622541427,0.0473117567598819,1.7537661790847778,-0.0037129055308738,0.0035122445638298,0.0050396592540718,0.1006777212023735,0.0012271106243133,-0.233883261680603,-0.0854236191138625,0.0423476183135062,1.759349537398666,0.0810334682464599,-0.0545432962477207,-0.2350426778197288,0.8322505878446453,-0.7641613483428955,0.2987394109368324,-0.139474868774414,10.47083987947235,0.1006777212023735,0.0012271106243133,-0.233883261680603
2.16,-0.0842906013131141,0.047567218542099,1.748344898223877,0.008665309080322,-0.0065249940587256,0.0060815383791544,0.0870192423462867,0.0114957801997661,-0.2439576387405395,-0.083383454196155,0.04118099139072,1.75485214067623,0.0600586906075477,-0.0507552463561296,-0.2452155195176601,0.9918325118912136,-0.6829239428043365,0.5134334787726402,-0.5037188529968262,10.37328875157982,0.0870192423462867,0.0114957801997661,-0.2439576387405395
2.18,-0.0826845914125442,0.0477259010076522,1.7430442571640017,0.0261734476409849,-0.0018460802857396,0.0066293039963425,0.0722704455256462,0.0071407109498977,-0.2385288476943969,-0.0818676587194204,0.0401090657152235,1.750100422911346,0.0390839129686355,-0.0469671964645385,-0.2553883612155914,0.8154222955781321,-0.7374398410320282,-0.2177534624934196,0.2714395523071289,10.37328875157982,0.0722704455256462,0.0071407109498977,-0.2385288476943969
2.2,-0.0820445865392685,0.0478521399199962,1.7403420209884644,0.0424421820375304,0.0184804730153001,0.0064022348718001,0.0625313445925712,0.0128856673836708,-0.245094895362854,-0.0808762326836586,0.0391318412870168,1.7450943841040134,0.0181091353297233,-0.0431791465729475,-0.2655612029135227,0.653772883719992,-0.4869550466537475,0.287247821688652,-0.3283023834228515,10.54441160329361,0.0625313445925712,0.0128856673836708,-0.245094895362854
2.22,-0.0808266103267669,0.0479547791182994,1.735579490661621,0.0498699864537883,0.0044437200284376,0.0082486542220913,0.0548089295625686,0.004618763923645,-0.2143138647079467,-0.0789180193096399,0.0484964232891798,1.7280872762203217,0.0663614836521446,0.0061406567692756,-0.2392533659003675,1.639702133690243,-0.3861207515001297,-0.4133451730012893,1.539051532745361,10.54441160329361,0.0548089295625686,0.004618763923645,-0.2143138647079467
2.24,-0.0797792971134185,0.0478312075138092,1.730682611465454,0.0594028039504029,0.0071076009174802,0.0070171567677365,0.0471290946006774,-0.0055607222020626,-0.2203595638275146,-0.0789180193096399,0.0484964232891798,1.7280872762203217,0.0663614836521446,0.0061406567692756,-0.2392533659003675,0.7056066196360827,-0.3839917480945587,-0.5089743062853813,-0.3022849559783935,10.498078021384572,0.0471290946006774,-0.0055607222020626,-0.2203595638275146
2.26,-0.0789329782128334,0.0476760640740394,1.726144552230835,0.061084140519974,0.0215082288248414,0.0039957371188307,0.0380843505263328,-0.0069814547896385,-0.2042126655578613,-0.0789180193096399,0.0484964232891798,1.7280872762203217,0.0663614836521446,0.0061406567692756,-0.2392533659003675,0.9281004797250212,-0.4522372037172317,-0.0710366293787956,0.807344913482666,10.719235363032569,0.0380843505263328,-0.0069814547896385,-0.2042126655578613
2.28,-0.0784215480089187,0.0470233410596847,1.7220637798309326,0.0666054695638252,0.0079749388396943,0.0054754351204299,0.0230143591761589,-0.0293725356459617,-0.1836347579956054,-0.0782544044731184,0.0485578298568725,1.725694742561318,0.0671275114640593,0.0047916546463966,-0.2380850600078702,1.6969939752761865,-0.7534995675086975,-1.119554042816162,1.028895378112793,10.719235363032569,0.0230143591761589,-0.0293725356459617,-0.1836347579956054
2.3000000000000003,-0.0782878696918487,0.0466520711779594,1.7198216915130615,0.0694592541523565,0.0105726475162417,0.0056685798506117,0.0199469178915023,-0.0313233397901058,-0.1867085695266723,-0.0769271748000755,0.048680642992258,1.7209096752433106,0.0686595670878887,0.0020936504006385,-0.2357484482228756,0.2380291482788647,-0.1533720642328262,-0.0975402072072029,-0.1536905765533447,10.689175554103258,0.0199469178915023,-0.0313233397901058,-0.1867085695266723
2.32,-0.077862948179245,0.0456431061029434,1.7160465717315674,0.0518779168801171,0.0484908320520541,0.0044269046615159,0.0191214680671691,-0.0454034283757209,-0.1698803901672363,-0.0755999451270326,0.0488034561276435,1.7161246079253032,0.070191622711718,-0.0006043538451194,-0.233411836437881,1.0978591468679064,-0.0412724912166595,-0.7040044292807579,0.8414089679718018,10.455622960284018,0.0191214680671691,-0.0454034283757209,-0.1698803901672363
2.34,-0.077564813196659,0.0443439595401287,1.7123541831970217,0.0570369814889609,0.0381289371622097,0.0064522931704617,0.0134160742163658,-0.058461595326662,-0.1661574840545654,-0.0741961126727983,0.0487913690507412,1.7114563711965456,0.0717236783355474,-0.0033023580908775,-0.2310752246528863,0.736422557087976,-0.2852696925401687,-0.6529083475470543,0.1861453056335449,10.316564458184985,0.0134160742163658,-0.058461595326662,-0.1661574840545654
2.36,-0.077258713543415,0.0429533794522285,1.709115505218506,0.0394021960370556,0.0571857846658806,0.0075167655031461,0.0137744843959808,-0.0625761002302169,-0.1457405090332031,-0.0727922802185639,0.0487792819738388,1.706788134467788,0.0732557339593768,-0.0060003623366355,-0.2287386128678918,1.0415258967989722,0.017920508980751,-0.2057252451777458,1.0208487510681152,10.316564458184985,0.0137744843959808,-0.0625761002302169,-0.1457405090332031
2.38,-0.076875127851963,0.0413824021816253,1.706032395362854,0.0166313848060792,0.0792028594104483,0.0081987437211671,0.0172613561153411,-0.0706939771771431,-0.1387399435043335,-0.0713501463737338,0.0486997447907924,1.7021783130336552,0.0747877895832061,-0.0086983665823936,-0.2264020010828971,0.5636180405130482,0.1743435859680175,-0.4058938473463058,0.3500282764434814,10.429024028242113,0.0172613561153411,-0.0706939771771431,-0.1387399435043335
2.4,-0.0762279406189918,0.0399133563041687,1.7029849290847778,-0.0062698831040699,0.1041922133482433,0.006811035518625,0.0291234254837036,-0.0661070644855499,-0.1371359825134277,-0.069869711138308,0.0485527575016021,1.6976269068941474,0.0763198452070355,-0.0113963708281517,-0.2240653892979026,0.640939054435927,0.5931034684181213,0.2293456345796585,0.080198049545288,10.217288950197144,0.0291234254837036,-0.0661070644855499,-0.1371359825134277
2.42,-0.075745590031147,0.0393319725990295,1.7014063596725464,-0.0140005429671526,0.1161575214796396,0.0068436562699991,0.038003884255886,-0.0610437244176864,-0.1359236240386963,-0.0747717693448066,0.0366080030798912,1.6961281299591064,0.0598968509584665,-0.0515402304008603,-0.1497807726264,0.5147081059166381,0.4440229386091232,0.2531670033931732,0.0606179237365722,10.312378791115862,0.038003884255886,-0.0610437244176864,-0.1359236240386963
2.44,-0.0745048224925994,0.0379457026720047,1.6982481479644775,-0.0330837512267416,0.1313811064439601,0.0062746711757851,0.0558345392346382,-0.0623821467161178,-0.1421195268630981,-0.0747717693448066,0.0366080030798912,1.6961281299591064,0.0598968509584665,-0.0515402304008603,-0.1497807726264,0.94619348315985,0.8915327489376068,-0.0669211149215698,-0.3097951412200928,10.286180681578571,0.0558345392346382,-0.0623821467161178,-0.1421195268630981
2.46,-0.072954274713993,0.037035945802927,1.6950777769088743,-0.0587563206729462,0.1590083137227319,0.0012134237916956,0.0697746500372886,-0.0409390591084957,-0.1426666975021362,-0.0747717693448066,0.0366080030798912,1.6961281299591064,0.0598968509584665,-0.0515402304008603,-0.1497807726264,1.279093517932285,0.6970055401325226,1.072154380381107,-0.0273585319519042,10.313860534321066,0.0697746500372886,-0.0409390591084957,-0.1426666975021362
2.48,-0.0708185881376266,0.0363388955593109,1.6917600631713867,-0.0496716425600123,0.147510265447771,0.0032650927607803,0.0961058959364891,-0.0313672609627246,-0.1492971181869506,-0.074172800835222,0.0360926007758826,1.6946303222328425,0.0660515360534191,-0.0486268635839223,-0.1523097306489944,1.4395453351711096,1.316562294960022,0.4785899072885513,-0.3315210342407226,10.313860534321066,0.0961058959364891,-0.0313672609627246,-0.1492971181869506
2.5,-0.0682038515806198,0.0358522683382034,1.68846333026886,-0.0462204473593843,0.1448460386002571,0.0015309540660244,0.1176631450653076,-0.0218982249498367,-0.1483529806137085,-0.0729748638160526,0.0350617961678653,1.6916347067803144,0.0783609062433242,-0.0428001299500465,-0.1573676466941833,1.1782073552356171,1.0778624564409256,0.4734518006443977,0.0472068786621093,10.52357468752325,0.1176631450653076,-0.0218982249498367,-0.1483529806137085
2.52,-0.0668910816311836,0.0358543023467063,1.686532735824585,-0.0356783925582204,0.1447771210437148,-0.0004589909547926,0.1268285810947418,-0.0072488375008106,-0.1562118530273437,-0.0717769267968833,0.0340309915598481,1.6886390913277864,0.0906702764332294,-0.0369733963161706,-0.1624255627393722,0.9491728581443049,0.4582718014717102,0.7324693724513054,-0.3929436206817627,10.498515347082504,0.1268285810947418,-0.0072488375008106,-0.1562118530273437
2.54,-0.0635239034891128,0.0357282049953937,1.683037519454956,-0.0244052210649133,0.1297214608386893,0.0022007267161794,0.1515230238437652,-0.0056743808090686,-0.1572847366333007,-0.0699635212682187,0.0332915236335247,1.685390580072999,0.1029796466231346,-0.0311466626822948,-0.1674834787845611,1.2383915937526573,1.234722137451172,0.0787228345870971,-0.0536441802978515,10.562340947037228,0.1515230238437652,-0.0056743808090686,-0.1572847366333007
2.56,-0.0600551441311836,0.0358685553073883,1.6796756982803345,-0.0043311682258159,0.1112360848438938,0.0011739470281207,0.1560941636562347,0.0063157640397548,-0.1512819528579712,-0.0681501157395541,0.0325520557072013,1.6821420688182116,0.1152890168130398,-0.0253199290484189,-0.17254139482975,0.7083295591288591,0.2285569906234741,0.5995072424411774,0.3001391887664795,10.976429741944685,0.1560941636562347,0.0063157640397548,-0.1512819528579712
2.58,-0.0559793338179588,0.0358701646327972,1.6765018701553345,0.0152522751634003,0.0852619368414502,2.2031359210944613e-05,0.1834114640951156,7.241964340209961e-05,-0.142822265625,-0.0660289759561419,0.0319582561217248,1.6787671096622945,0.1275983870029449,-0.0194931954145431,-0.1775993108749389,1.4635407071544415,1.365865021944046,-0.3121672198176384,0.4229843616485595,10.976429741944685,0.1834114640951156,7.241964340209961e-05,-0.142822265625
2.6,-0.0517198331654071,0.0358778685331344,1.6735121011734009,0.0365967571050386,0.0585243734485913,-0.0012773416465562,0.191677525639534,0.0003466755151748,-0.1345396041870117,-0.0636001019179821,0.0315101248770952,1.6752657026052475,0.1399077571928501,-0.0136664617806673,-0.1826572269201278,0.5852466792636494,0.4133030772209167,0.0137127935886383,0.414133071899414,10.587067317184848,0.191677525639534,0.0003466755151748,-0.1345396041870117
2.62,-0.049613133072853,0.0357518270611763,1.672127366065979,0.0474597178929962,0.0454957011340314,-0.0054352224455461,0.1922151446342468,-0.004309806972742,-0.1290732622146606,-0.0421359568834304,0.0358952023088932,1.6667851209640503,0.1447399593889713,0.0123334899544715,-0.1353412658208981,0.3600442955472294,0.0268809497356414,-0.2328241243958473,0.2733170986175537,10.610143714060996,0.1922151446342468,-0.004309806972742,-0.1290732622146606
2.64,-0.04523591324687,0.0354139730334281,1.6701807975769043,0.0571704080132729,0.0247250640785387,-0.0030959286692659,0.1969748884439468,-0.0152034312486648,-0.0875955820083618,-0.0421359568834304,0.0358952023088932,1.6667851209640503,0.1447399593889713,0.0123334899544715,-0.1353412658208981,2.1573850874930427,0.2379871904850006,-0.5446812137961388,2.0738840103149414,10.535632204816013,0.1969748884439468,-0.0152034312486648,-0.0875955820083618
