t,x,y,z,roll,pitch,yaw,v_x,v_y,v_z,ref_x,ref_y,ref_z,ref_v_x,ref_v_y,ref_v_z,a_com,a_x,a_y,a_z,thrust,wind_x,wind_y,wind_z
0.0,1.4498625993728638,0.362076461315155,2.388885736465454,0.0020735859628726,0.066158238266938,-0.0030151694691416,0.0167101621627807,-0.0040380656719207,0.0080680847167968,1.4504493474960327,0.3619030714035034,2.3893340826034546,-0.0808383002877235,-0.1052624955773353,-0.0874472633004188,0.9495123549414538,0.8355081081390381,-0.2019032835960388,0.4034042358398437,10.218999880335105,0.0167101621627807,-0.0040380656719207,0.0080680847167968
0.02,1.4501482248306274,0.3621356189250946,2.388734817504883,0.0048389501122559,0.0654129841797927,-0.0018502781580351,0.0128531455993652,0.0026620924472808,-0.006791353225708,1.4506981074810028,0.361874558031559,2.389289140701294,-0.0832898393273353,-0.1040380671620369,-0.0919319167733192,0.8375135693824898,-0.1928508281707763,0.335007905960083,-0.7429718971252441,10.147972178350756,0.0128531455993652,0.0026620924472808,-0.006791353225708
0.04,1.4503427743911743,0.3622981011867523,2.3885626792907715,0.007935005306394,0.0647874064893291,-0.0005111128613233,0.0087547302246093,0.0073117017745971,-0.0077462196350097,1.4506981074810028,0.361874558031559,2.389289140701294,-0.0832898393273353,-0.1040380671620369,-0.0919319167733192,0.3135587877109914,-0.2049207687377929,0.2324804663658142,-0.0477433204650878,10.0623703529277,0.0087547302246093,0.0073117017745971,-0.0077462196350097
0.06,1.450398325920105,0.3622314035892486,2.388216495513916,0.0066405500135472,0.0661666105860497,0.0028506003576345,0.0083470344543457,0.001971423625946,-0.0118660926818847,1.4506981074810028,0.361874558031559,2.389289140701294,-0.0832898393273353,-0.1040380671620369,-0.0919319167733192,0.3378540382636363,-0.0203847885131835,-0.2670139074325561,-0.20599365234375,9.722073156627175,0.0083470344543457,0.001971423625946,-0.0118660926818847
0.08,1.450658917427063,0.3622255623340606,2.387772798538208,0.0244173721484424,0.055270795552955,0.0036572745551819,0.0117266178131103,-0.0002628564834594,-0.0199663639068603,1.4498652090877295,0.3608341773599386,2.3883698215335607,-0.1032898396253585,-0.1240380674600601,-0.1119319170713424,0.4528465115364464,0.1689791679382324,-0.1117140054702758,-0.4050135612487793,8.939911430192296,0.0117266178131103,-0.0002628564834594,-0.0199663639068603
0.1,1.4506947994232178,0.3621538877487182,2.386751890182495,0.0515242111366277,0.037436621257885,0.0088837317901823,0.0016146898269653,-0.0032253563404083,-0.04594087600708,1.4481994123011828,0.3587534160166979,2.3865311831980947,-0.143289840221405,-0.1640380680561065,-0.1519319176673889,1.4015195073953357,-0.505596399307251,-0.1481249928474426,-1.2987256050109863,8.883756411035847,0.0016146898269653,-0.0032253563404083,-0.04594087600708
0.12,1.4505196809768677,0.3619220554828644,2.3852245807647705,0.0829235005911897,0.0150975066482718,0.0101777892451866,-0.0078803300857543,-0.0104324519634246,-0.0687289237976074,1.446533615514636,0.3566726546734571,2.384692544862628,-0.1832898408174514,-0.204038068652153,-0.1919319182634353,1.2858778641122997,-0.4747509956359863,-0.3603547811508178,-1.1394023895263672,9.167970722877726,-0.0078803300857543,-0.0104324519634246,-0.0687289237976074
0.14,1.4499622583389282,0.3614640831947326,2.383394718170166,0.1269064934156081,-0.0167036003561485,0.0121986427550793,-0.0250840187072753,-0.0206087529659271,-0.0823438167572021,1.4428678186982868,0.3525918933004141,2.3808539064973595,-0.2232898414134979,-0.2440380692481994,-0.2319319188594818,1.2092242498612542,-0.8601844310760498,-0.5088150501251221,-0.6807446479797363,9.167970722877726,-0.0250840187072753,-0.0206087529659271,-0.0823438167572021
0.16,1.4494706392288208,0.3610965609550476,2.3822686672210693,0.1492426510932226,-0.0305796426478509,0.0139370803039332,-0.0365638732910156,-0.0313402712345123,-0.0973641872406005,1.439202021881938,0.348511131927371,2.377015268132091,-0.2632898420095444,-0.2840380698442459,-0.2719319194555283,1.0869269467992624,-0.5739927291870117,-0.5365759134292603,-0.7510185241699219,9.207042381360225,-0.0365638732910156,-0.0313402712345123,-0.0973641872406005
0.18,1.448168158531189,0.3597758114337921,2.3799049854278564,0.1946863311371128,-0.0658769584554069,0.0123793076175457,-0.0586116313934326,-0.0594337284564971,-0.10636568069458,1.4345362250506877,0.3434303705394268,2.372176629751921,-0.3032898426055908,-0.3240380704402923,-0.3119319200515747,1.8414483840364784,-1.1023879051208496,-1.4046728610992432,-0.4500746726989746,9.207042381360225,-0.0586116313934326,-0.0594337284564971,-0.10636568069458
0.2,1.4464586973190308,0.3574081361293793,2.377589225769043,0.2312489445247592,-0.1065094012056305,0.0050993994724038,-0.0769257545471191,-0.1065453886985778,-0.1042091846466064,1.4288704282045364,0.3373496091365814,2.3663379913568496,-0.3432898432016372,-0.3640380710363388,-0.3519319206476211,2.5296077328602595,-0.9157061576843262,-2.3555830121040344,0.1078248023986816,9.474117766067138,-0.0769257545471191,-0.1065453886985778,-0.1042091846466064
0.22,1.443731665611267,0.3544291853904724,2.374927282333374,0.2638327117122537,-0.1346886633527894,0.0006037145642268,-0.1227164268493652,-0.1340527832508087,-0.1197874546051025,1.4426124095916748,0.3520808666944504,2.3723787665367126,-0.1769257560372352,-0.206545390188694,-0.2042091861367225,2.7821416749707266,-2.2895336151123047,-1.3753697276115415,-0.7789134979248047,9.283711738574766,-0.1227164268493652,-0.1340527832508087,-0.1197874546051025
0.24,1.4401257038116455,0.3501802682876587,2.371968507766724,0.2777942592145612,-0.1574722952318022,-0.0067518144881509,-0.1622682809829712,-0.1912012696266174,-0.1331448554992675,1.4426124095916748,0.3520808666944504,2.3723787665367126,-0.1769257560372352,-0.206545390188694,-0.2042091861367225,3.538615131340041,-1.9775927066802976,-2.857424318790436,-0.667870044708252,9.283711738574766,-0.1622682809829712,-0.1912012696266174,-0.1331448554992675
0.26,1.4376801252365112,0.3477506041526794,2.3704075813293457,0.2775306219646453,-0.1654368857789393,-0.0106621458822725,-0.1964879035949707,-0.2179683744907379,-0.1361596584320068,1.4426124095916748,0.3520808666944504,2.3723787665367126,-0.1769257560372352,-0.206545390188694,-0.2042091861367225,2.177469581439511,-1.7109811305999756,-1.3383552432060242,-0.1507401466369629,11.083849873395591,-0.1964879035949707,-0.2179683744907379,-0.1361596584320068
0.28,1.4323474168777466,0.3416056334972381,2.367234468460083,0.2627966966104786,-0.1739354613164855,-0.0151662270896434,-0.2399718761444091,-0.2765236794948578,-0.1427900791168213,1.4408431520313023,0.3500154127925634,2.3703366746753454,-0.1969257563352584,-0.2265453904867172,-0.2242091864347457,3.6618103757784346,-2.174198627471924,-2.9277652502059937,-0.3315210342407226,11.083849873395591,-0.2399718761444091,-0.2765236794948578,-0.1427900791168213
0.3,1.4256932735443115,0.334482342004776,2.364376783370972,0.2363021567771873,-0.1717491413158784,-0.0179445323943102,-0.2994364500045776,-0.3205481171607971,-0.1285958290100097,1.4373046369105578,0.3458845049887896,2.3662524909526117,-0.2369257569313049,-0.2665453910827636,-0.2642091870307922,3.7668499413529615,-2.973228693008423,-2.2012218832969666,0.7097125053405762,11.221427620491797,-0.2994364500045776,-0.3205481171607971,-0.1285958290100097
0.32,1.4180431365966797,0.3260363042354584,2.3620851039886475,0.1962650950440869,-0.1580492703955355,-0.0205267046795027,-0.3442561626434326,-0.3800716996192932,-0.1031255722045898,1.433766121789813,0.3417535971850157,2.3621683072298767,-0.2769257575273514,-0.3065453916788101,-0.3042091876268387,3.937193636162997,-2.240985631942749,-2.9761791229248047,1.273512840270996,11.07547465724474,-0.3442561626434326,-0.3800716996192932,-0.1031255722045898
0.34,1.4090529680252075,0.3171592056751251,2.359669685363769,0.1540283215711278,-0.1308128980329706,-0.0182862584914388,-0.4045575857162475,-0.3994694352149963,-0.1086938381195068,1.4282276066392658,0.3356226893514395,2.35608412347734,-0.3169257581233978,-0.3465453922748565,-0.3442091882228851,3.179441521771808,-3.015071153640747,-0.9698867797851562,-0.2784132957458496,10.839329474085387,-0.4045575857162475,-0.3994694352149963,-0.1086938381195068
0.36,1.4041662216186523,0.3124085366725921,2.3586180210113525,0.1274923814278215,-0.1111791975487067,-0.0175628963339729,-0.4302155971527099,-0.4198770225048065,-0.0992524623870849,1.422689091488719,0.3294917815178633,2.3499999397248037,-0.3569257587194443,-0.386545392870903,-0.3842091888189316,1.7058302564921444,-1.28290057182312,-1.020379364490509,0.4720687866210937,10.839329474085387,-0.4302155971527099,-0.4198770225048065,-0.0992524623870849
0.38,1.3939727544784546,0.3026376366615295,2.356849431991577,0.0724503495135447,-0.0711904025734426,-0.0178776540852614,-0.4587060213088989,-0.439690500497818,-0.0795865058898925,1.416150576323271,0.3223608736693859,2.342915755957365,-0.3969257593154907,-0.4265453934669495,-0.424209189414978,1.9943846317401823,-1.4245212078094482,-0.9906738996505736,0.9832978248596193,9.8264699968272,-0.4587060213088989,-0.439690500497818,-0.0795865058898925
0.4,1.3831279277801514,0.2926273643970489,2.355358362197876,0.0173828892012917,-0.0198570714557449,-0.0168066856148352,-0.488017201423645,-0.4504622519016266,-0.0670981407165527,1.4086120611429214,0.3142299658060074,2.334831572175026,-0.4369257599115371,-0.4665453940629959,-0.4642091900110244,1.6816176532785527,-1.465559005737305,-0.5385875701904297,0.6244182586669922,9.35743692839742,-0.488017201423645,-0.4504622519016266,-0.0670981407165527
0.42,1.371882438659668,0.2828190922737121,2.3535420894622803,-0.0696213736947848,0.0846333481125113,-0.0170158222888104,-0.5060470104217529,-0.4413722455501556,-0.0817322731018066,1.3587270677089691,0.2701042518019676,2.3520034551620483,-0.5880172029137611,-0.5504622533917427,-0.1670981422066688,1.2468561050169065,-0.9014904499053956,0.4545003175735473,-0.7317066192626953,8.031376207494759,-0.5060470104217529,-0.4413722455501556,-0.0817322731018066
0.44,1.3607112169265747,0.273031622171402,2.351805686950684,-0.0633450955620497,0.0975399003191667,-0.0187824994890757,-0.5027049779891968,-0.4404361546039581,-0.0781381130218505,1.3587270677089691,0.2701042518019676,2.3520034551620483,-0.5880172029137611,-0.5504622533917427,-0.1670981422066688,0.2498171016972209,0.1671016216278076,0.0468045473098754,0.1797080039978027,8.699846512494787,-0.5027049779891968,-0.4404361546039581,-0.0781381130218505
0.46,1.3550267219543457,0.2684494853019714,2.3505055904388428,-0.0749316810358316,0.126144142278958,-0.0186096533321392,-0.5096143484115601,-0.423697829246521,-0.0980615615844726,1.3587270677089691,0.2701042518019676,2.3520034551620483,-0.5880172029137611,-0.5504622533917427,-0.1670981422066688,1.3461563226760656,-0.345468521118164,0.8369162678718567,-0.9961724281311036,8.699846512494787,-0.5096143484115601,-0.423697829246521,-0.0980615615844726
0.48,1.3444862365722656,0.2594177424907684,2.348391056060791,-0.0944204873926048,0.1727536933367346,-0.0212064138909398,-0.4743218421936035,-0.4064284265041351,-0.0951540470123291,1.3528468956798314,0.2645996292680502,2.3503324737399818,-0.6080172032117843,-0.5704622536897659,-0.187098142504692,1.9699282393087651,1.7646253108978271,0.8634701371192932,0.1453757286071777,8.42857858801699,-0.4743218421936035,-0.4064284265041351,-0.0951540470123291
0.5,1.333710551261902,0.2508783936500549,2.344562768936157,-0.1266237053370283,0.2421963755669493,-0.0252658189642202,-0.4849058389663696,-0.3842706978321075,-0.1722729206085205,1.3410865516215562,0.2535903842002153,2.346990510895848,-0.6480172038078308,-0.6104622542858124,-0.2270981431007385,4.046698219639829,-0.5291998386383057,1.1078864336013794,-3.8559436798095694,7.786689745586045,-0.4849058389663696,-0.3842706978321075,-0.1722729206085205
0.52,1.323743462562561,0.242944911122322,2.340268611907959,-0.1005461641866527,0.2339505171443057,-0.0201414807273658,-0.4485189914703369,-0.3570067286491394,-0.1932370662689209,1.329326207563281,0.2425811391323805,2.343648548051715,-0.6880172044038773,-0.6504622548818588,-0.267098143696785,2.503408720914277,1.819342374801636,1.363198459148407,-1.0482072830200195,7.776615421197221,-0.4485189914703369,-0.3570067286491394,-0.1932370662689209
0.54,1.3143253326416016,0.235375165939331,2.335205078125,-0.1044631680047347,0.2413249042182202,-0.0198447293320102,-0.4238158464431762,-0.340638518333435,-0.2278590202331543,1.3155658634752034,0.2295718940347433,2.33830658517778,-0.7280172049999237,-0.6904622554779053,-0.3070981442928314,2.278619856115516,1.2351572513580322,0.8184105157852173,-1.73109769821167,7.963243197607426,-0.4238158464431762,-0.340638518333435,-0.2278590202331543
0.56,1.3098407983779907,0.2317233979701995,2.3321149349212646,-0.0828768060621911,0.2280704768571266,-0.0163318457272094,-0.4135429859161377,-0.3325442969799042,-0.2627384662628174,1.301805519387126,0.2165626489371061,2.332964622303844,-0.7680172055959702,-0.7304622560739518,-0.3470981448888779,1.862541166031051,0.5136430263519287,0.4047110676765442,-1.7439723014831543,7.963243197607426,-0.4135429859161377,-0.3325442969799042,-0.2627384662628174
0.58,1.3012285232543943,0.2247466593980789,2.3253769874572754,-0.0569176148335582,0.2031896143407809,-0.0082576999387129,-0.3875523805618286,-0.3139532208442688,-0.3032076358795166,1.2870451752841472,0.2025534038245678,2.3266226594150066,-0.8080172061920166,-0.7704622566699981,-0.3870981454849243,2.578222919003321,1.299530267715454,0.9295538067817688,-2.023458480834961,8.241164998536988,-0.3875523805618286,-0.3139532208442688,-0.3032076358795166
0.6,1.292954683303833,0.2179940789937973,2.317260980606079,-0.0184231371526694,0.1640630422403949,-0.0021480671541138,-0.3723227977752685,-0.3038661181926727,-0.365220308303833,1.2712848311662672,0.1875441586971283,2.3192806965112687,-0.848017206788063,-0.8104622572660446,-0.4270981460809707,3.232360350023685,0.7614791393280029,0.5043551325798035,-3.1006336212158203,8.675914846397973,-0.3723227977752685,-0.3038661181926727,-0.365220308303833
0.62,1.2851415872573853,0.2115422785282135,2.3082494735717773,0.0272975582549205,0.1176794888594554,0.0043068034507847,-0.3515893220901489,-0.2903310060501098,-0.4055178165435791,1.2743385434150696,0.2028007730841636,2.2989999651908875,-0.4723227992653847,-0.4038661196827888,-0.4652203097939491,2.364828453096336,1.0366737842559814,0.6767556071281433,-2.0148754119873047,9.707484176567505,-0.3515893220901489,-0.2903310060501098,-0.4055178165435791
0.64,1.2775987386703491,0.2050434648990631,2.29853892326355,0.076817266167796,0.0674179671204897,0.0091117174861868,-0.339428186416626,-0.2924466133117676,-0.4369747638702392,1.2743385434150696,0.2028007730841636,2.2989999651908875,-0.4723227992653847,-0.4038661196827888,-0.4652203097939491,1.6896068700053295,0.6080567836761475,-0.1057803630828857,-1.5728473663330078,9.707484176567505,-0.339428186416626,-0.2924466133117676,-0.4369747638702392
0.66,1.273682713508606,0.2017758637666702,2.293320655822754,0.0980309308331428,0.0428216207497997,0.0080844760395408,-0.3346216678619385,-0.2911437153816223,-0.4558145999908447,1.2743385434150696,0.2028007730841636,2.2989999651908875,-0.4723227992653847,-0.4038661196827888,-0.4652203097939491,0.9743454067785748,0.240325927734375,0.0651448965072631,-0.9419918060302734,9.690544840267194,-0.3346216678619385,-0.2911437153816223,-0.4558145999908447
0.68,1.2661848068237305,0.1948051452636718,2.283158779144287,0.1543562650666908,-0.0076422523978266,0.008772074907713,-0.337405800819397,-0.3136823177337646,-0.4572844505310058,1.2696153154224157,0.1987621118873357,2.294347762092948,-0.4923227995634079,-0.4238661199808121,-0.4852203100919723,1.137871316233974,-0.1392066478729248,-1.1269301176071167,-0.0734925270080566,9.885921641844106,-0.337405800819397,-0.3136823177337646,-0.4572844505310058
0.7000000000000001,1.2582619190216064,0.1872787922620773,2.272915840148926,0.1921750248701439,-0.0458986870835604,0.0057693959826955,-0.356529951095581,-0.3386858701705932,-0.4609322547912597,1.260168859437108,0.19068478949368,2.285043355897069,-0.5323228001594543,-0.4638661205768585,-0.5252203106880188,1.584469338744392,-0.956207513809204,-1.2501776218414309,-0.1823902130126953,11.922940113992809,-0.356529951095581,-0.3386858701705932,-0.4609322547912597
0.72,1.2498691082000732,0.1790048480033874,2.263183832168579,0.2093772007804618,-0.0738358233396542,0.0005379082414176,-0.3776764869689941,-0.3723275065422058,-0.4379403591156006,1.2507224034518003,0.1826074671000242,2.27573894970119,-0.5723228007555008,-0.503866121172905,-0.5652203112840652,2.295410063564758,-1.0573267936706543,-1.6820818185806274,1.149594783782959,10.580000363538602,-0.3776764869689941,-0.3723275065422058,-0.4379403591156006
0.74,1.2408943176269531,0.1697413027286529,2.2539479732513428,0.2091019315108171,-0.094327463820928,-0.0060307468530981,-0.4038655757904053,-0.4168595373630523,-0.4156136512756347,1.2392759474366903,0.1725301446765661,2.2644345434755087,-0.6123228013515473,-0.5438661217689514,-0.6052203118801117,2.8140060524525263,-1.3094544410705566,-2.226601541042328,1.116335391998291,10.580000363538602,-0.4038655757904053,-0.4168595373630523,-0.4156136512756347
0.76,1.236093282699585,0.1648280024528503,2.2493739128112797,0.205665352685398,-0.1001846455879224,-0.0079448625321325,-0.4200285673141479,-0.4344977438449859,-0.4077816009521484,1.2278294914215802,0.162452822253108,2.253130137249828,-0.6523228019475937,-0.5838661223649979,-0.6452203124761582,1.258659639423546,-0.8081495761871338,-0.8819103240966797,0.3916025161743164,10.67547647705851,-0.4200285673141479,-0.4344977438449859,-0.4077816009521484
0.78,1.225772261619568,0.1542831808328628,2.2407479286193848,0.1859730763341988,-0.1037370634328103,-0.0088165701630786,-0.464445948600769,-0.4745169878005981,-0.3881692886352539,1.215383035391569,0.1513754998147487,2.240825731009245,-0.6923228025436401,-0.6238661229610443,-0.6852203130722045,3.1460635886593638,-2.2208690643310547,-2.000962197780609,0.9806156158447266,10.391957414510216,-0.464445948600769,-0.4745169878005981,-0.3881692886352539
0.8,1.2147166728973389,0.143048882484436,2.232414722442627,0.1536191514337533,-0.1000148118986523,-0.014447149339288,-0.4975014925003052,-0.5055434107780457,-0.3749942779541015,1.2019365793466568,0.1392981773614883,2.227521324753761,-0.7323228031396866,-0.6638661235570907,-0.725220313668251,2.3605554493159664,-1.6527771949768066,-1.5513211488723757,0.6587505340576172,10.373302513653016,-0.4975014925003052,-0.5055434107780457,-0.3749942779541015
0.8200000000000001,1.202794075012207,0.1311988234519958,2.2240004539489746,0.0783798346138356,-0.0594005030080243,-0.0109506485884313,-0.5365169048309326,-0.5332526564598083,-0.3786420822143554,1.1898415982723236,0.1177717119455337,2.213665008544922,-0.5975014939904213,-0.6055434122681618,-0.4749942794442177,2.399641208338388,-1.950770616531372,-1.3854622840881348,-0.1823902130126953,9.86405828736224,-0.5365169048309326,-0.5332526564598083,-0.3786420822143554
0.84,1.1903605461120603,0.1189051866531372,2.216237783432007,0.0877286690172968,-0.065836563517263,-0.0118517313103978,-0.5595088005065918,-0.5532136559486389,-0.3493201732635498,1.1898415982723236,0.1177717119455337,2.213665008544922,-0.5975014939904213,-0.6055434122681618,-0.4749942794442177,2.1135533538763736,-1.149594783782959,-0.9980499744415284,1.4660954475402832,11.261145468873565,-0.5595088005065918,-0.5532136559486389,-0.3493201732635498
0.86,1.1838537454605105,0.112611323595047,2.2124669551849365,0.0303524077230941,-0.0155582546889299,-0.0079749379540037,-0.5804997682571411,-0.5565771460533142,-0.357205867767334,1.1898415982723236,0.1177717119455337,2.213665008544922,-0.5975014939904213,-0.6055434122681618,-0.4749942794442177,1.1337084839100635,-1.0495483875274658,-0.1681745052337646,-0.394284725189209,9.701697397524184,-0.5804997682571411,-0.5565771460533142,-0.357205867767334
0.88,1.170427322387695,0.0998869910836219,2.2045626640319824,0.0507775486745639,-0.0268819975442932,-0.0085856459365479,-0.6041890382766724,-0.572594940662384,-0.3556931018829345,1.1838665833324191,0.1117162778228521,2.20891506575048,-0.6175014942884445,-0.625543412566185,-0.4949942797422409,1.4318167819396543,-1.1844635009765625,-0.8008897304534912,0.0756382942199707,9.167204130355913,-0.6041890382766724,-0.572594940662384,-0.3556931018829345
0.9,1.1565940380096436,0.0871341750025749,2.196999311447144,0.00969499736975,0.0343852711845144,-0.007038709689452,-0.6224977970123291,-0.5738767385482788,-0.340350866317749,1.171916553452611,0.0996054095774889,2.1994151801615955,-0.657501494884491,-0.6655434131622314,-0.5349942803382873,1.1960746678180416,-0.9154379367828368,-0.0640898942947387,0.7671117782592773,9.183621120515909,-0.6224977970123291,-0.5738767385482788,-0.340350866317749
0.92,1.142485499382019,0.0743819400668144,2.189418077468872,0.0088691877430585,0.0578318207706265,-0.0065095102050606,-0.634884238243103,-0.5738505721092224,-0.3411555290222168,1.1599665235728025,0.0874945413321256,2.189915294572711,-0.6975014954805374,-0.7055434137582779,-0.5749942809343338,0.6206289010228064,-0.6193220615386963,0.0013083219528198,-0.0402331352233886,8.54535101469628,-0.634884238243103,-0.5738505721092224,-0.3411555290222168
0.94,1.1281672716140747,0.061600849032402,2.181363105773926,0.0299014330001344,0.0536839644650065,-0.0037049449288099,-0.6443202495574951,-0.5751491189002991,-0.362473726272583,1.1460164936631918,0.0733836730569601,2.1784154089540246,-0.7375014960765839,-0.7455434143543244,-0.6149942815303803,1.167465274964819,-0.4718005657196045,-0.064927339553833,-1.0659098625183103,8.54535101469628,-0.6443202495574951,-0.5751491189002991,-0.362473726272583
0.96,1.1210322380065918,0.0552365630865097,2.177016496658325,0.0342209329268346,0.0656968599569995,-0.0053853640967464,-0.6400555372238159,-0.5744158625602722,-0.366142988204956,1.1320664637535809,0.0592728047817945,2.1669155233353377,-0.7775014966726304,-0.7855434149503708,-0.6549942821264267,0.2836763969631023,0.2132356166839599,0.0366628170013427,-0.1834630966186523,8.690885356748367,-0.6400555372238159,-0.5744158625602722,-0.366142988204956
0.98,1.1066992282867432,0.0423751473426818,2.168429374694824,0.0424593282686055,0.0904326444213958,-0.0024205837863471,-0.6449854373931885,-0.5787637233734131,-0.3864204883575439,1.117116433829069,0.0441619364917278,2.15441563770175,-0.8175014972686767,-0.8255434155464172,-0.6949942827224731,1.0658152065070046,-0.2464950084686279,-0.2173930406570434,-1.0138750076293943,8.690885356748367,-0.6449854373931885,-0.5787637233734131,-0.3864204883575439
1.0,1.0924562215805054,0.0297326054424047,2.158825159072876,0.0558148577864761,0.1166330786454999,0.0002157862131484,-0.6409353017807007,-0.5689144134521484,-0.4321897029876709,1.101166403889656,0.0280510681867599,2.140915752053261,-0.8575014978647232,-0.8655434161424637,-0.7349942833185196,2.349592258384043,0.2025067806243896,0.4924654960632324,-2.288460731506348,8.410287487020469,-0.6409353017807007,-0.5689144134521484,-0.4321897029876709
1.02,1.0785201787948608,0.016878867521882,2.1488325595855717,0.0662915994303246,0.1369879531418057,0.0034903166713726,-0.6271219253540039,-0.5784181952476501,-0.4496669769287109,1.0604094564914703,0.0012868847697973,2.1372156739234924,-0.7409353032708168,-0.6689144149422646,-0.532189704477787,1.210977230517041,0.6906688213348389,-0.4751890897750854,-0.873863697052002,8.715083890906044,-0.6271219253540039,-0.5784181952476501,-0.4496669769287109
1.04,1.0648733377456665,0.0038328447844833,2.138325929641724,0.0696932482138805,0.1487671787121558,0.0055499812605898,-0.6141078472137451,-0.5870710015296936,-0.4727983474731445,1.0604094564914703,0.0012868847697973,2.1372156739234924,-0.7409353032708168,-0.6689144149422646,-0.532189704477787,1.3957951046439647,0.6507039070129395,-0.4326403141021728,-1.1565685272216797,8.715083890906044,-0.6141078472137451,-0.5870710015296936,-0.4727983474731445
1.06,1.0581958293914795,-0.0027066899929195,2.132622480392456,0.071439541069036,0.1568057903978253,0.0041714471615608,-0.6089365482330322,-0.5830627679824829,-0.4997384548187256,1.0604094564914703,0.0012868847697973,2.1372156739234924,-0.7409353032708168,-0.6689144149422646,-0.532189704477787,1.3861616546315385,0.2585649490356445,0.2004116773605346,-1.3470053672790527,10.35778646188919,-0.6089365482330322,-0.5830627679824829,-0.4997384548187256
1.08,1.0450963973999023,-0.0157674960792064,2.12101411819458,0.0737958884428139,0.1644804688167435,0.0052118700466976,-0.5894744396209717,-0.5877363085746765,-0.522376298904419,1.0530001034587622,-0.0054022593796253,2.1318937768787145,-0.76093530356884,-0.6889144152402877,-0.5521897047758102,1.510867001213777,0.9731054306030272,-0.2336770296096801,-1.131892204284668,10.35778646188919,-0.5894744396209717,-0.5877363085746765,-0.522376298904419
1.1,1.0324665307998655,-0.0291054248809814,2.1090519428253174,0.0514360088719636,0.1712903809036747,0.000308827326769,-0.568343997001648,-0.6002067923545837,-0.5382978916168213,1.0381813973933458,-0.0187805476784706,2.121249982789159,-0.8009353041648865,-0.7289144158363342,-0.5921897053718567,1.4624514397861943,1.0565221309661863,-0.6235241889953613,-0.7960796356201172,9.371395511275296,-0.568343997001648,-0.6002067923545837,-0.5382978916168213
1.12,1.0201818943023682,-0.0425220094621181,2.096606969833374,0.0546305446094832,0.1598251439460767,0.0004073771220177,-0.5528086423873901,-0.6037462949752808,-0.5600237846374512,1.0233626913279297,-0.0321588359773159,2.1106061886996037,-0.8409353047609329,-0.7689144164323807,-0.6321897059679031,1.3471170599993498,0.7767677307128906,-0.176975131034851,-1.086294651031494,9.278177259926906,-0.5528086423873901,-0.6037462949752808,-0.5600237846374512
1.14,1.0082674026489258,-0.0562375411391258,2.083703994750977,0.0779120124239609,0.1400869011228839,0.005404268406061,-0.5361521244049072,-0.6171989440917969,-0.5806338787078857,1.0065439852327107,-0.0475371243059635,2.097962394580245,-0.8809353053569794,-0.8089144170284271,-0.6721897065639496,1.4859250798282535,0.8328258991241455,-0.6726324558258057,-1.0305047035217283,9.278177259926906,-0.5361521244049072,-0.6171989440917969,-0.5806338787078857
1.16,1.0025326013565063,-0.0631189793348312,2.0770888328552246,0.0785414326156207,0.128177200546075,0.0039462718632613,-0.5264532566070557,-0.6158931851387024,-0.5869531631469727,0.989725279137492,-0.0629154126346111,2.0853186004608872,-0.920935305953026,-0.8489144176244736,-0.7121897071599961,0.5824654470993846,0.4849433898925781,0.0652879476547241,-0.3159642219543457,9.842008657850783,-0.5264532566070557,-0.6158931851387024,-0.5869531631469727
1.18,0.99110209941864,-0.0770290568470954,2.063769817352295,0.0797059253079411,0.1020978594234921,0.0036014231254381,-0.5143725872039795,-0.6259534955024719,-0.5993556976318359,0.9719065730273724,-0.0792937009781599,2.071674806326628,-0.9609353065490722,-0.88891441822052,-0.7521897077560424,1.001218357165424,0.6040334701538086,-0.5030155181884766,-0.6201267242431641,9.842008657850783,-0.5143725872039795,-0.6259534955024719,-0.5993556976318359
1.2,0.979852557182312,-0.0910993590950965,2.049907684326172,0.0791517691029568,0.0738891670695681,0.0019225762631193,-0.5062294006347656,-0.633163571357727,-0.6237959861755371,0.9530878669023514,-0.0966719893366098,2.0570310121774678,-1.0009353071451186,-0.9289144188165664,-0.7921897083520889,1.3375578356083606,0.4071593284606933,-0.3605037927627563,-1.2220144271850586,9.971631484204408,-0.5062294006347656,-0.633163571357727,-0.6237959861755371
1.22,0.968689262866974,-0.1054998934268951,2.036064624786377,0.0761622366455693,0.0439120482115825,-0.0013757408841255,-0.5023482441902161,-0.6480240225791931,-0.6229376792907715,0.9545410871505736,-0.1227575376629829,2.018717885017395,-0.6062294021248817,-0.7057162746787071,-0.6317195044830441,0.769144129147907,0.194057822227478,-0.7430225610733032,0.0429153442382812,10.440587878078986,-0.5023482441902161,-0.6480240225791931,-0.6229376792907715
1.24,0.95745050907135,-0.119987167418003,2.0217931270599365,0.0735207515890378,0.0170321635084297,-0.0038576477624552,-0.5057439208030701,-0.6519273519515991,-0.6422173976898193,0.9545410871505736,-0.1227575376629829,2.018717885017395,-0.6062294021248817,-0.7057162746787071,-0.6317195044830441,0.9980908543253406,-0.1697838306427002,-0.1951664686203003,-0.9639859199523926,10.440587878078986,-0.5057439208030701,-0.6519273519515991,-0.6422173976898193
1.26,0.951543152332306,-0.1272495090961456,2.0146186351776123,0.0733577347236334,0.0077000809061047,-0.0029600556061742,-0.511137843132019,-0.6600745320320129,-0.6399106979370117,0.9545410871505736,-0.1227575376629829,2.018717885017395,-0.6062294021248817,-0.7057162746787071,-0.6317195044830441,0.5019756097237912,-0.2696961164474487,-0.4073590040206909,0.1153349876403808,11.931400219441455,-0.511137843132019,-0.6600745320320129,-0.6399106979370117
1.28,0.9400991797447203,-0.1420495361089706,2.000638723373413,0.0656809078937776,-0.0169563217601073,-0.0041727159222973,-0.5149787664413452,-0.6660012006759644,-0.6290960311889648,0.9484787931293248,-0.12981470040977,2.0124006899725644,-0.6262294024229049,-0.7202268153429031,-0.6333042081445456,0.645823331017533,-0.1920461654663086,-0.2963334321975708,0.5407333374023438,11.931400219441455,-0.5149787664413452,-0.6660012006759644,-0.6290960311889648
1.3,0.9281622171401978,-0.1570382416248321,1.9871246814727783,0.054896249688459,-0.0327173709291194,-0.0057824278543012,-0.5371633172035217,-0.6744917631149292,-0.6081318855285645,0.9363542050868272,-0.1439290259033441,1.999766299882904,-0.6662294030189514,-0.7492478966712952,-0.6364736154675483,1.584092284496102,-1.1092275381088257,-0.4245281219482422,1.0482072830200195,12.39324463762614,-0.5371633172035217,-0.6744917631149292,-0.6081318855285645
1.32,0.915739357471466,-0.1721184700727462,1.9743260145187376,0.0085079876260591,-0.0246672512266464,-0.0069833988186052,-0.559028685092926,-0.6786102652549744,-0.5759400129318237,0.9242296170443296,-0.1580433513969183,1.9871319097932427,-0.7062294036149979,-0.7782689779996872,-0.6396430227905512,1.956638082337492,-1.0932683944702148,-0.2059251070022583,1.609593629837036,12.356958552054948,-0.559028685092926,-0.6786102652549744,-0.5759400129318237
1.34,0.9027784466743468,-0.1872155219316482,1.9622106552124023,0.0243848575354633,-0.0355081088580361,-0.0066339509806346,-0.5832409858703613,-0.6793673038482666,-0.5451911687850952,0.9101050289720296,-0.173608730956912,1.974339049337432,-0.7462294042110443,-0.8072900593280792,-0.642812430113554,1.95723020664952,-1.2106150388717651,-0.0378519296646118,1.5374422073364258,12.356958552054948,-0.5832409858703613,-0.6793673038482666,-0.5451911687850952
1.36,0.8962744474411011,-0.1947682797908783,1.956576943397522,0.0169988605828961,-0.0341508698548711,-0.0076823424777763,-0.5935969948768616,-0.6805810332298279,-0.5166524648666382,0.8959804408997297,-0.1891741105169058,1.9615461888816208,-0.7862294048070908,-0.8363111406564713,-0.6459818374365568,1.5191919586574092,-0.5178004503250122,-0.0606864690780639,1.4269351959228516,11.658096725808718,-0.5935969948768616,-0.6805810332298279,-0.5166524648666382
1.38,0.8826826810836792,-0.2097196727991104,1.945643663406372,0.0005974084870215,-0.0231319696268143,-0.0066952213143491,-0.6116294860839844,-0.6728127002716064,-0.4919975996017456,0.8808558528125285,-0.2054650171101093,1.9486740932427349,-0.8262294054031372,-0.8653322219848633,-0.6491512447595597,1.57589666326409,-0.90162456035614,0.3884166479110718,1.232743263244629,11.658096725808718,-0.6116294860839844,-0.6728127002716064,-0.4919975996017456
1.4,0.8687793612480164,-0.2244995534420013,1.9356240034103396,-0.0407800387707067,0.0053501416073088,-0.0060346959467696,-0.6256493926048279,-0.6650946140289307,-0.4508846998214721,0.8647312647104263,-0.2224814507365226,1.9357227624207731,-0.8662294059991836,-0.8943533033132552,-0.6523206520825624,2.205899568455792,-0.7009953260421753,0.385904312133789,2.055644989013672,11.098090445393154,-0.6256493926048279,-0.6650946140289307,-0.4508846998214721
1.42,0.8542189002037048,-0.2392120212316513,1.9261504411697388,-0.0224389526973902,-0.000208670320972,-0.0063520689940845,-0.6552207469940186,-0.6620610356330872,-0.4263103008270263,0.848606676608324,-0.239497884362936,1.9227714315988125,-0.90622940659523,-0.9233743846416472,-0.6554900594055653,1.92845059842938,-1.4785677194595337,0.1516789197921753,1.22871994972229,10.28852614036532,-0.6552207469940186,-0.6620610356330872,-0.4263103008270263
1.44,0.8395255208015442,-0.2536249756813049,1.917475700378418,-0.0292795393885126,0.011733844250016,-0.0068027718400164,-0.661202073097229,-0.648582935333252,-0.390363335609436,0.837496891617775,-0.2577542841434478,1.9130797684192655,-0.725649394094944,-0.6829348225146532,-0.4614514959976077,1.9426912762968889,-0.2990663051605224,0.6739050149917603,1.7973482608795166,10.416277703703145,-0.661202073097229,-0.648582935333252,-0.390363335609436
1.46,0.8320083022117615,-0.2605960369110107,1.9130642414093015,-0.0333171684399853,0.0192407050219143,-0.0051918199801466,-0.6716814637184143,-0.6385823488235474,-0.3921657800674438,0.837496891617775,-0.2577542841434478,1.9130797684192655,-0.725649394094944,-0.6829348225146532,-0.4614514959976077,0.7298598570165286,-0.5239695310592651,0.5000293254852295,-0.0901222229003906,10.389102030286269,-0.6716814637184143,-0.6385823488235474,-0.3921657800674438
1.48,0.8169180750846863,-0.2743846178054809,1.9045623540878296,-0.0361007407891602,0.0389285842842369,-0.0057050568484864,-0.6790602207183838,-0.6204861402511597,-0.3825849294662475,0.837496891617775,-0.2577542841434478,1.9130797684192655,-0.725649394094944,-0.6829348225146532,-0.4614514959976077,1.0882457417816986,-0.3689378499984741,0.9048104286193848,0.4790425300598144,10.389102030286269,-0.6790602207183838,-0.6204861402511597,-0.3825849294662475
1.5,0.8017592430114746,-0.28775554895401,1.8962206840515137,-0.0651710349891228,0.0821249420347194,-0.005884664366665,-0.6821474432945251,-0.6016919016838074,-0.3753751516342163,0.8302403976768256,-0.2645836323685944,1.9084652534592896,-0.7456493943929672,-0.6865028642117977,-0.4635648552328348,1.0182524772231571,-0.1543611288070678,0.9397119283676147,0.3604888916015625,10.744286967928474,-0.6821474432945251,-0.6016919016838074,-0.3753751516342163
1.52,0.7867264151573181,-0.3009127974510193,1.8881198167800903,-0.0434921991251417,0.0738046711796418,-0.0060643697134935,-0.6764772534370422,-0.5920761823654175,-0.3645390272140503,0.8157274097949266,-0.2782423288188875,1.8992362235393376,-0.7856493949890136,-0.6936389476060867,-0.467791573703289,0.7778732279094018,0.2835094928741455,0.4807859659194946,0.5418062210083008,11.18905384332993,-0.6764772534370422,-0.5920761823654175,-0.3645390272140503
1.54,0.7716909646987915,-0.3135292828083038,1.880037784576416,-0.0508571190017625,0.0925823387424321,-0.0055805343516161,-0.6765952706336975,-0.567741870880127,-0.3636914491653442,0.8012144219130277,-0.2919010252691805,1.8900071936193852,-0.8256493955850601,-0.7007750310003757,-0.4720182921737432,1.2174676916354876,-0.0059008598327636,1.2167155742645264,0.0423789024353027,11.18905384332993,-0.6765952706336975,-0.567741870880127,-0.3636914491653442
1.56,0.764050304889679,-0.3198361992835998,1.876100778579712,-0.0908282449927708,0.1275300255506547,-0.0070351722714679,-0.6761553883552551,-0.5577036738395691,-0.36404550075531,0.7847014340013265,-0.305916525889188,1.8805668277759109,-0.8656493961811066,-0.7079111143946648,-0.4762450106441974,0.5027033140240613,0.0219941139221191,0.5019098520278931,-0.017702579498291,9.985555420482342,-0.6761553883552551,-0.5577036738395691,-0.36404550075531
1.58,0.7493593096733093,-0.3317346274852752,1.8679932355880735,-0.0674022887845732,0.1152647829426228,-0.0069191786157933,-0.6610947847366333,-0.5354292392730713,-0.3648394346237182,0.7681884460896253,-0.3199320265091956,1.871126461932436,-0.9056493967771532,-0.7150471977889538,-0.4804717291146517,1.344993073961575,0.7530301809310913,1.11372172832489,-0.0396966934204101,9.985555420482342,-0.6610947847366333,-0.5354292392730713,-0.3648394346237182
1.6,0.7349121570587158,-0.3432741165161133,1.8602702617645264,-0.1079185444863658,0.1420428209446914,-0.0070379559009121,-0.6501218676567078,-0.5192769765853882,-0.3475338220596313,0.750675458163023,-0.3341259292140603,1.8615804281271997,-0.9456493973731994,-0.7221832811832428,-0.4846984475851059,1.304592585247521,0.5486458539962769,0.8076131343841553,0.8652806282043457,9.907017430994074,-0.6501218676567078,-0.5192769765853882,-0.3475338220596313
1.62,0.720640242099762,-0.3541556596755981,1.851912021636963,-0.1089470110265908,0.1423876797762454,-0.0060700164158632,-0.6422361731529236,-0.4896694421768188,-0.3761208057403564,0.7024060636758804,-0.3692379653453826,1.8428935706615448,-0.6761281434446573,-0.5241920622065663,-0.3611025093123317,2.0952362083567526,0.394284725189209,1.4803767204284668,-1.4293491840362549,9.258555109588542,-0.6422361731529236,-0.4896694421768188,-0.3761208057403564
1.64,0.7136330008506775,-0.35957071185112,1.847879409790039,-0.0889959511801989,0.1315768819964594,-0.003981508647291,-0.6346401572227478,-0.4835151135921478,-0.3681278228759765,0.7024060636758804,-0.3692379653453826,1.8428935706615448,-0.6761281434446573,-0.5241920622065663,-0.3611025093123317,0.6313932875194618,0.379800796508789,0.307716429233551,0.3996491432189941,9.258555109588542,-0.6346401572227478,-0.4835151135921478,-0.3681278228759765
1.66,0.6999043226242065,-0.3697668015956878,1.83950674533844,-0.087951816045846,0.1322376070131148,-0.0039123515392973,-0.6177905201911926,-0.4588240385055542,-0.3767699003219604,0.7024060636758804,-0.3692379653453826,1.8428935706615448,-0.6761281434446573,-0.5241920622065663,-0.3611025093123317,1.5558317386605014,0.8424818515777588,1.2345537543296814,-0.4321038722991943,9.8494748075168,-0.6177905201911926,-0.4588240385055542,-0.3767699003219604
1.68,0.686611533164978,-0.3793873786926269,1.8307071924209597,-0.07906778809151,0.1233063012340908,0.0004896949357679,-0.5981755256652832,-0.4329259693622589,-0.3959798812866211,0.6956447822414339,-0.3744798859674483,1.8392825455684212,-0.6813293986022473,-0.525175079330802,-0.3638162467628717,1.887115102653376,0.9807497262954712,1.2949034571647644,-0.9604990482330322,10.212143546119025,-0.5981755256652832,-0.4329259693622589,-0.3959798812866211
1.7,0.6734423041343689,-0.3885506093502044,1.8216861486434937,-0.0797483627208877,0.1313423931313613,0.0034877509143479,-0.5926153063774109,-0.4123453795909881,-0.4059469699859619,0.6821222193725407,-0.3849637272115797,1.8320604953821749,-0.6917319089174271,-0.5271411135792732,-0.3692437216639518,1.1766685716495204,0.2780109643936157,1.0290294885635376,-0.498354434967041,10.460262404945295,-0.5926153063774109,-0.4123453795909881,-0.4059469699859619
1.72,0.6607179045677185,-0.3972861170768738,1.8129863739013672,-0.0667378765699876,0.1341051865556966,0.0040990738605771,-0.5725979804992676,-0.393097847700119,-0.3914898633956909,0.6685996565036476,-0.395447568455711,1.8248384451959283,-0.7021344192326069,-0.5291071478277445,-0.374671196565032,1.5653823416056118,1.0008662939071655,0.962376594543457,0.7228553295135498,10.462168990547523,-0.5725979804992676,-0.393097847700119,-0.3914898633956909
1.74,0.6482558250427246,-0.4054634273052215,1.80390727519989,-0.0460941052433476,0.122964077742111,0.0070282930053039,-0.5607935786247253,-0.36797896027565,-0.4085594415664673,0.6545569681189954,-0.4060297114122659,1.817345021264628,-0.7125369295477867,-0.5310731820762158,-0.3800986714661121,1.6291661271852296,0.5902200937271118,1.2559443712234497,-0.8534789085388184,10.462168990547523,-0.5607935786247253,-0.36797896027565,-0.4085594415664673
1.76,0.6420613527297974,-0.4095797836780548,1.7994415760040283,-0.0400172380139073,0.1293838380948586,0.0069966300213001,-0.5486994981765747,-0.3674559295177459,-0.3907066583633423,0.6405142797343433,-0.4166118543688207,1.809851597333327,-0.7229394398629665,-0.533039216324687,-0.3855261463671923,1.0784968835813056,0.6047040224075317,0.0261515378952026,0.89263916015625,10.66058878215108,-0.5486994981765747,-0.3674559295177459,-0.3907066583633423
1.78,0.6301562786102295,-0.4171464741230011,1.7907822132110596,-0.031233011239142,0.1390399359908141,0.0069295428314084,-0.5357283353805542,-0.340501070022583,-0.3896713256835937,0.6262115285918117,-0.4272431481815874,1.8022224865294996,-0.7333419501781464,-0.5350052505731583,-0.3909536212682724,1.4965689329618257,0.6485581398010254,1.3477429747581482,0.0517666339874267,10.885633111831794,-0.5357283353805542,-0.340501070022583,-0.3896713256835937
1.8,0.6188526749610901,-0.4245905578136444,1.7825686931610107,-0.0400329423594948,0.1677780069773642,0.0047720495150514,-0.5086621642112732,-0.334983766078949,-0.3696084022521972,0.6116487146914006,-0.4379235928505659,1.7944576888531447,-0.7437444604933262,-0.5369712848216295,-0.3963810961693525,1.7069996786652717,1.3533085584640503,0.2758651971817016,1.0031461715698242,10.505713196174838,-0.5086621642112732,-0.334983766078949,-0.3696084022521972
1.82,0.6077456474304199,-0.4316179156303406,1.7748165130615234,-0.0367162508152803,0.1743532561906132,0.0046773228087175,-0.4998162388801574,-0.3162311017513275,-0.3488481044769287,0.5934195667505264,-0.4413397461175918,1.7640882730484009,-0.5409923307597637,-0.3612985610961914,-0.3536538127809763,1.4670572399074462,0.4422962665557861,0.937633216381073,1.0380148887634275,10.5650637413778,-0.4998162388801574,-0.3162311017513275,-0.3488481044769287
1.84,0.5971920490264893,-0.4385069906711578,1.7671408653259275,-0.0132200905015527,0.1631215932928775,0.009078174738262,-0.4749119281768799,-0.3100083768367767,-0.3454041481018066,0.5934195667505264,-0.4413397461175918,1.7640882730484009,-0.5409923307597637,-0.3612985610961914,-0.3536538127809763,1.294997907798794,1.2452155351638794,0.311136245727539,0.1721978187561035,10.143615025661347,-0.4749119281768799,-0.3100083768367767,-0.3454041481018066
1.86,0.5920867919921875,-0.4418886005878448,1.763418674468994,-0.0100665556633046,0.1621620308180664,0.0096991657302152,-0.463697612285614,-0.3041021525859833,-0.3314405679702759,0.5934195667505264,-0.4413397461175918,1.7640882730484009,-0.5409923307597637,-0.3612985610961914,-0.3536538127809763,0.9429023489994068,0.5607157945632935,0.2953112125396728,0.6981790065765381,10.143615025661347,-0.463697612285614,-0.3041021525859833,-0.3314405679702759
1.88,0.5822049975395203,-0.4484504461288452,1.7560116052627563,-0.0064594822162173,0.1634784141070869,0.0079471370434759,-0.4446807503700256,-0.2952830493450165,-0.3333181142807007,0.5880096434429288,-0.4449527317285537,1.760551734920591,-0.5474583640694618,-0.3665615200996399,-0.3504628948867321,1.0523103145450687,0.950843095779419,0.4409551620483398,-0.0938773155212402,10.342331857766112,-0.4446807503700256,-0.2952830493450165,-0.3333181142807007
1.9,0.572985053062439,-0.4548047184944153,1.748610496520996,-0.0202096196433852,0.1630687313473425,0.004854920738936,-0.4148975014686584,-0.2859422564506531,-0.3330498933792114,0.5771897968277335,-0.4521787029504776,1.7534786586649715,-0.5603904306888581,-0.3770874381065369,-0.3440810590982437,1.5607404248210008,1.4891624450683594,0.4670396447181701,0.0134110450744628,10.495942081845897,-0.4148975014686584,-0.2859422564506531,-0.3330498933792114
1.92,0.5642583966255188,-0.4610176682472229,1.741643309593201,-0.0168785153071276,0.1530476638475811,0.0041793947392997,-0.3926995396614074,-0.2795827388763428,-0.3135234117507934,0.5663699502125382,-0.4594046741724014,1.746405582409352,-0.5733224973082542,-0.3876133561134338,-0.3376992233097553,1.512015589336862,1.1098980903625488,0.3179758787155151,0.9763240814208984,10.55706386052043,-0.3926995396614074,-0.2795827388763428,-0.3135234117507934
1.94,0.5556761622428894,-0.4670731723308563,1.7343381643295288,0.005555533589205,0.1374039187408306,0.0073906877097704,-0.3862005472183227,-0.272497683763504,-0.3287315368652344,0.5549035002663731,-0.4671569412946701,1.739651597943157,-0.5862545639276504,-0.3981392741203308,-0.3313173875212669,0.8996137757723078,0.3249496221542358,0.3542527556419372,-0.7604062557220459,10.55706386052043,-0.3862005472183227,-0.272497683763504,-0.3287315368652344
1.96,0.5516613721847534,-0.4700745344161987,1.730663537979126,0.0082104090547692,0.1306395256901497,0.0063234469049687,-0.3676798939704895,-0.275430679321289,-0.3169512748718261,0.5434370503202081,-0.4749092084169388,1.7328976134769618,-0.5991866305470467,-0.4086651921272278,-0.3249355517327785,1.1072393963161276,0.9260326623916626,-0.1466497778892517,0.5890130996704102,10.509576222795658,-0.3676798939704895,-0.275430679321289,-0.3169512748718261
1.98,0.5437849164009094,-0.4759767353534698,1.7236368656158447,0.0137752763119626,0.1177154943911826,0.0065114773687592,-0.3544405102729797,-0.2655990421772003,-0.3162002563476562,0.531647298708558,-0.4829246234893799,1.726303174905479,-0.6121186971664428,-0.4191911101341247,-0.3185537159442901,0.8253883910719838,0.6619691848754883,0.4915818572044372,0.037550926208496,10.85635304313746,-0.3544405102729797,-0.2655990421772003,-0.3162002563476562
2.0,0.5360392332077026,-0.4817382991313934,1.7166208028793335,0.0197406670115987,0.1079666957148125,0.0054004913713991,-0.3485557436943054,-0.2592703700065613,-0.3157228231430053,0.5195342454314231,-0.4912031865119934,1.7198682822287084,-0.6250507637858391,-0.4297170281410217,-0.3121718801558018,0.4327542940104883,0.2942383289337158,0.3164336085319519,0.0238716602325439,11.05433267274566,-0.3485557436943054,-0.2592703700065613,-0.3157228231430053
2.02,0.5285037755966187,-0.4875683784484863,1.7098066806793213,0.0037354346729546,0.0943367566014024,0.000516914145358,-0.3390955924987793,-0.2623535692691803,-0.3066354990005493,0.5186114460229874,-0.4947018176317215,1.7008346617221832,-0.4172114282846451,-0.2827587109059095,-0.2851613406091928,0.6737581880862256,0.4730075597763061,-0.1541599631309509,0.4543662071228027,11.30448716253568,-0.3390955924987793,-0.2623535692691803,-0.3066354990005493
2.04,0.5212600231170654,-0.4932633936405182,1.7034343481063845,0.0244848588467079,0.0771020205949049,0.0007162638221953,-0.325968861579895,-0.2562756836414337,-0.2867549657821655,0.5186114460229874,-0.4947018176317215,1.7008346617221832,-0.4172114282846451,-0.2827587109059095,-0.2851613406091928,1.2293162320656372,0.6563365459442139,0.3038942813873291,0.9940266609191896,11.30448716253568,-0.325968861579895,-0.2562756836414337,-0.2867549657821655
2.06,0.5176278948783875,-0.496162861585617,1.7002196311950684,0.0075600217391395,0.0673722813218399,-0.0024613896725876,-0.3278437256813049,-0.2590410411357879,-0.2871894836425781,0.5186114460229874,-0.4947018176317215,1.7008346617221832,-0.4172114282846451,-0.2827587109059095,-0.2851613406091928,0.1684571402564636,-0.0937432050704956,-0.1382678747177124,-0.0217258930206298,11.056260203286,-0.3278437256813049,-0.2590410411357879,-0.2871894836425781
2.08,0.5104352235794067,-0.5019318461418152,1.6941365003585815,0.0270456896462533,0.0561006067765028,-0.0015544191484541,-0.3236702084541321,-0.2596043050289154,-0.2737408876419067,0.5144393317401409,-0.4975294047407806,1.6979830483160914,-0.430942565202713,-0.2874563790857792,-0.2790490441024303,0.7046279987484249,0.2086758613586425,-0.028163194656372,0.6724298000335693,11.056260203286,-0.3236702084541321,-0.2596043050289154,-0.2737408876419067
2.1,0.5032429099082947,-0.5075058937072754,1.6882373094558716,0.0273074650766361,0.0411530423396562,-0.0037536633349884,-0.3236541152000427,-0.2508321404457092,-0.2654635906219482,0.5060951031744481,-0.5031845789588988,1.6922798215039074,-0.4584048390388489,-0.2968517154455184,-0.2668244510889053,0.6030438964625581,0.0008046627044677,0.4386082291603088,0.4138648509979248,11.09222264898608,-0.3236541152000427,-0.2508321404457092,-0.2654635906219482
2.12,0.4958468675613403,-0.5132080316543579,1.6829302310943604,0.0251911867257935,0.0249973746787588,-0.0047565453591618,-0.3328219056129455,-0.2565962076187134,-0.2388185262680053,0.4977508746087551,-0.508839753177017,1.6865765946917235,-0.4858671128749847,-0.3062470518052578,-0.2545998580753803,1.4380823219269945,-0.4583895206451416,-0.2882033586502075,1.3322532176971436,11.244523236738132,-0.3328219056129455,-0.2565962076187134,-0.2388185262680053
2.14,0.4883143603801727,-0.5188679695129395,1.677770972251892,0.0209050318558454,0.0136596618215329,-0.0057862427881884,-0.3389628231525421,-0.2546972036361694,-0.2321666479110717,0.4880335323512554,-0.5149646942131222,1.681484597530216,-0.5133293867111206,-0.3156423881649971,-0.2423752650618553,0.4625055946399026,-0.3070458769798279,0.0949501991271972,0.3325939178466797,11.244523236738132,-0.3389628231525421,-0.2546972036361694,-0.2321666479110717
2.16,0.4846794009208679,-0.5216372609138489,1.6752746105194092,0.0194236196811149,0.0054899228911698,-0.0082151152312935,-0.3330190479755401,-0.2490699291229248,-0.2198928594589233,0.4783161900937557,-0.5210896352492274,1.6763926003687084,-0.5407916605472565,-0.3250377245247364,-0.2301506720483302,0.7376323013030434,0.2971887588500976,0.2813637256622314,0.6136894226074219,11.106289088758786,-0.3330190479755401,-0.2490699291229248,-0.2198928594589233
2.18,0.476654589176178,-0.5272287130355835,1.670709490776062,0.0139786255736251,-0.0060361411391141,-0.008166207367908,-0.3611165285110473,-0.2516153454780578,-0.2054303884506225,0.4679122909903526,-0.527449459694326,1.6716062180325388,-0.5682539343833923,-0.3344330608844757,-0.2179260790348053,1.585173984559838,-1.40487402677536,-0.1272708177566528,0.7231235504150391,11.509142248283752,-0.3611165285110473,-0.2516153454780578,-0.2054303884506225
2.2,0.4642493426799774,-0.5352968573570251,1.6642979383468628,0.01087070799924,-0.0173599279236336,-0.0091005366608724,-0.3767095506191253,-0.240124762058258,-0.1776051521301269,0.4568218350410461,-0.5340441675484181,1.6671254505217077,-0.5957162082195282,-0.343828397244215,-0.2057014860212803,1.695154581507108,-0.7796511054039001,0.5745291709899902,1.3912618160247805,11.173710025962464,-0.3767095506191253,-0.240124762058258,-0.1776051521301269
2.22,0.4598359763622284,-0.5379772782325745,1.662243366241455,-0.0123418996820201,-0.0060014016625583,-0.0089338251784186,-0.3876516222953796,-0.2404519915580749,-0.1805663108825683,0.4454138651490211,-0.547303095459938,1.6554176807403564,-0.4020604938268661,-0.2504210593178868,-0.1538296360522508,0.5670195606656722,-0.5471035838127136,-0.0163614749908447,-0.1480579376220703,11.867711687224528,-0.3876516222953796,-0.2404519915580749,-0.1805663108825683
2.24,0.4510530233383178,-0.5431829690933228,1.658931851387024,0.0085605031754301,-0.0154348804759853,-0.0105357773223091,-0.3952328860759735,-0.2342560887336731,-0.1490181684494018,0.4454138651490211,-0.547303095459938,1.6554176807403564,-0.4020604938268661,-0.2504210593178868,-0.1538296360522508,1.651628032657275,-0.3790631890296936,0.3097951412200928,1.5774071216583252,11.867711687224528,-0.3952328860759735,-0.2342560887336731,-0.1490181684494018
2.26,0.446432501077652,-0.5456972718238831,1.6574151515960691,0.0086502416066221,-0.0095011839331923,-0.0080272475862096,-0.4061387479305267,-0.2335023880004882,-0.1484066247940063,0.4454138651490211,-0.547303095459938,1.6554176807403564,-0.4020604938268661,-0.2504210593178868,-0.1538296360522508,0.5474483382663995,-0.5452930927276611,0.0376850366592407,0.0305771827697753,11.369267349416988,-0.4061387479305267,-0.2335023880004882,-0.1484066247940063
2.28,0.4371669888496399,-0.5508368015289307,1.654512643814087,0.011592163824273,0.0011938554393843,-0.0082732210924045,-0.4169480502605438,-0.2312788367271423,-0.1306128501892089,0.4413932602107525,-0.5498073060531169,1.6538793843798338,-0.4071306824684143,-0.2524803187698126,-0.1490745328366756,1.0469044987643843,-0.5404651165008545,0.1111775636672973,0.8896887302398682,10.844025207288723,-0.4169480502605438,-0.2312788367271423,-0.1306128501892089
2.3000000000000003,0.4275593161582947,-0.5556972622871399,1.6523933410644531,0.012330990041235,0.0182170161958726,-0.0060501557701927,-0.4323452711105346,-0.2187207341194152,-0.0953686237335205,0.4333520503342152,-0.5548157272394747,1.6508027916587888,-0.4172710597515106,-0.2565988376736641,-0.1395643264055252,2.022953193643791,-0.7698610424995422,0.6279051303863525,1.7622113227844238,11.6877002166475,-0.4323452711105346,-0.2187207341194152,-0.0953686237335205
2.32,0.4177211225032806,-0.5605893135070801,1.650349736213684,0.0114141003501244,0.0429735433579002,-0.0042362424927025,-0.4427187144756317,-0.2201423048973083,-0.0919622182846069,0.4253108404576778,-0.5598241484258324,1.647726198937744,-0.4274114370346069,-0.2607173565775156,-0.1300541199743747,0.5505288112529251,-0.5186721682548523,-0.0710785388946533,0.1703202724456787,10.773220968951136,-0.4427187144756317,-0.2201423048973083,-0.0919622182846069
2.34,0.4079912304878235,-0.5652802586555481,1.6489174365997314,0.0065213214138157,0.0725067800185782,-0.0025316269723616,-0.4378451406955719,-0.2110925316810608,-0.0644534826278686,0.4167626117169857,-0.5650384955573827,1.6451251165382563,-0.4375518143177032,-0.2648358754813671,-0.1205439135432243,1.4683159180567225,0.2436786890029907,0.4524886608123779,1.375436782836914,10.507780931185152,-0.4378451406955719,-0.2110925316810608,-0.0644534826278686
2.36,0.4030786752700805,-0.5675679445266724,1.6480640172958374,0.0051525489480955,0.0914165263913096,-0.0045017010015967,-0.4401639103889465,-0.2150434255599975,-0.0587189197540283,0.4082143829762936,-0.5702528426889331,1.6425240341387688,-0.4476921916007996,-0.2689543943852186,-0.1110337071120738,0.3669859216903306,-0.1159384846687316,-0.1975446939468383,0.2867281436920166,10.773939358577536,-0.4401639103889465,-0.2150434255599975,-0.0587189197540283
2.38,0.3934746384620666,-0.5719751119613647,1.6468387842178345,-0.0010979095249224,0.1233075732292268,-0.0016651930387771,-0.4321816563606262,-0.1983225345611572,-0.0551354885101318,0.399412644803524,-0.5755701527930797,1.64016070690006,-0.4578325688838959,-0.2730729132890701,-0.1015235006809234,0.943590953018665,0.3991127014160156,0.8360445499420166,0.1791715621948242,10.21529720875651,-0.4321816563606262,-0.1983225345611572,-0.0551354885101318
2.4,0.3842652440071106,-0.5762366056442261,1.6455445289611816,-0.0063747973013647,0.1573816676619265,-0.00088758093663,-0.4144227504730224,-0.1917672157287597,-0.0582414865493774,0.390357397198677,-0.5809904258698225,1.63803513482213,-0.4679729461669922,-0.2771914321929216,-0.092013294249773,0.9591639160473951,0.887945294380188,0.327765941619873,-0.1552999019622802,10.239387762293063,-0.4144227504730224,-0.1917672157287597,-0.0582414865493774
2.42,0.3756204545497894,-0.5803991556167603,1.6446173191070557,-0.0119057530152258,0.1829750008039416,0.0008537192470997,-0.3890155255794525,-0.187314748764038,-0.0417244434356689,0.3635441064834595,-0.5858249664306641,1.6426324546337128,-0.3796866908669472,-0.1998676713556051,-0.0671916808933019,1.5314733527591031,1.270361244678497,0.2226233482360839,0.8258521556854248,10.13001578284502,-0.3890155255794525,-0.187314748764038,-0.0417244434356689
2.44,0.3674672842025757,-0.5843563675880432,1.643460988998413,-0.0142741838864906,0.2061302567627578,0.000706194662917,-0.3668926656246185,-0.1780745387077331,-0.052034854888916,0.3635441064834595,-0.5858249664306641,1.6426324546337128,-0.3796866908669472,-0.1998676713556051,-0.0671916808933019,1.3049013361180648,1.1061429977416992,0.4620105028152466,-0.5155205726623535,10.13001578284502,-0.3668926656246185,-0.1780745387077331,-0.052034854888916
2.46,0.3636203706264496,-0.5863091349601746,1.6426334381103516,-0.0126743694455226,0.2177298364121075,0.0017705681153339,-0.3550238907337188,-0.1786217093467712,-0.0619322061538696,0.3635441064834595,-0.5858249664306641,1.6426324546337128,-0.3796866908669472,-0.1998676713556051,-0.0671916808933019,0.7731829912461772,0.5934387445449829,-0.0273585319519042,-0.4948675632476806,9.642394000186414,-0.3550238907337188,-0.1786217093467712,-0.0619322061538696
2.48,0.3566098809242248,-0.5898615121841431,1.6413276195526123,-0.0104141217295595,0.2236915603020047,0.0047592816952944,-0.3154720366001129,-0.1598569750785827,-0.0587618350982666,0.35974723957479,-0.5878236431442201,1.6419605378247797,-0.3727394789457321,-0.2014877624809742,-0.0689817197620868,2.194604560161109,1.9775927066802976,0.9382367134094238,0.1585185527801513,9.84099237113196,-0.3154720366001129,-0.1598569750785827,-0.0587618350982666
2.5,0.3501820862293243,-0.5933203101158142,1.6395806074142456,-0.0018854095907092,0.2253021180492264,0.003546907441559,-0.289250761270523,-0.1556459069252014,-0.0786155462265014,0.3521535057574511,-0.5918209965713322,1.6406167042069135,-0.358845055103302,-0.2047279447317123,-0.0725617974996566,1.6579039631911556,1.3110637664794922,0.2105534076690673,-0.9926855564117432,9.781337082403295,-0.289250761270523,-0.1556459069252014,-0.0786155462265014
2.52,0.3446352183818817,-0.5966720581054688,1.6378378868103027,0.008199078599844,0.2164311268490907,0.0068524752082684,-0.2496090531349182,-0.1508286595344543,-0.0784224271774292,0.3445597719401121,-0.5958183499984443,1.6392728705890476,-0.3449506312608719,-0.2079681269824504,-0.0761418752372264,1.9966898803389916,1.982085406780243,0.2408623695373535,0.0096559524536132,11.045128773553644,-0.2496090531349182,-0.1508286595344543,-0.0784224271774292
2.54,0.3395127356052398,-0.6000142693519592,1.6357734203338623,0.0195947079969327,0.2051494922971221,0.0069917316973992,-0.230511724948883,-0.1503995060920715,-0.0929009914398193,0.3376607593148947,-0.5999777125380933,1.6377500330843031,-0.3310562074184418,-0.2112083092331886,-0.0797219529747963,1.19845832178512,0.9548664093017578,0.0214576721191406,-0.7239282131195068,10.715931032473236,-0.230511724948883,-0.1503995060920715,-0.0929009914398193
2.56,0.3374814987182617,-0.6015395522117615,1.6348427534103394,0.0264180833500388,0.1912971819128579,0.007638537175261,-0.2047906816005706,-0.1476234197616577,-0.0907498598098754,0.3307617466896772,-0.6041370750777423,1.6362271955795586,-0.3171617835760116,-0.2144484914839267,-0.0833020307123661,1.297985066871938,1.286052167415619,0.1388043165206909,0.1075565814971923,10.174398554917389,-0.2047906816005706,-0.1476234197616577,-0.0907498598098754
2.58,0.3334074318408966,-0.6048941016197205,1.6329702138900757,0.0360604396299788,0.1683081897251159,0.0082812441140569,-0.18333300948143,-0.1509547233581543,-0.0842642784118652,0.3242100946605205,-0.6083774421736597,1.6346148561313747,-0.3032673597335815,-0.2176886737346649,-0.0868821084499359,1.1331284597242193,1.0728836059570312,-0.1665651798248291,0.3242790699005127,10.174398554917389,-0.18333300948143,-0.1509547233581543,-0.0842642784118652
2.6,0.329965204000473,-0.6080925464630127,1.6309674978256226,0.0451592478539154,0.1444498066331726,0.00572494310717,-0.1427914202213287,-0.1573839783668518,-0.0636541843414306,0.3180058032274246,-0.6126988138258457,1.6329130147397517,-0.2893729358911514,-0.220928855985403,-0.0904621861875057,2.2965908197226748,2.027079463005066,-0.3214627504348755,1.0305047035217283,10.8650568085568,-0.1427914202213287,-0.1573839783668518,-0.0636541843414306
2.62,0.3269334733486175,-0.6116190552711487,1.629642367362976,0.0267877327022153,0.1087286348117063,-0.0001005989683969,-0.1364278793334961,-0.1586928963661193,-0.0596308708190918,0.3228256329894066,-0.6159617453813553,1.627784788608551,-0.1949763670563697,-0.1587169163394719,-0.0474944561719894,0.3820830101527653,0.3181770443916321,-0.0654458999633789,0.2011656761169433,10.164341477906872,-0.1364278793334961,-0.1586928963661193,-0.0596308708190918
