t,x,y,z,roll,pitch,yaw,v_x,v_y,v_z,ref_x,ref_y,ref_z,ref_v_x,ref_v_y,ref_v_z,a_com,a_x,a_y,a_z,thrust,wind_x,wind_y,wind_z
0.0,-0.4289048314094543,0.4648394882678985,2.4063422679901123,0.0460973570202513,0.105379474672976,0.0021320469161217,-0.0058619678020477,0.0210070610046386,-0.0099563598632812,-0.4,0.46,2.4,0.0,0.0,0.0,1.1987372317276344,-0.2930983901023865,1.0503530502319336,-0.4978179931640625,11.243429916758032,-0.9111174030354762,0.2890531443545084,-1.392456247321049
0.02,-0.4287682771682739,0.465006023645401,2.406338214874268,0.046329355363194,0.1046341022999765,0.0021863647994519,0.0037738680839538,0.0161455571651458,-0.0072956085205078,-0.400122,0.460032,2.40004,-0.0122,0.0032,0.004,0.555794814907961,0.4817917943000793,-0.2430751919746399,0.1330375671386718,11.25498368746412,-0.8804588249477465,0.2291182854337386,-1.3279321170484018
0.04,-0.4287399649620056,0.46526700258255,2.4058449268341064,0.0497458947474041,0.1065653374498334,0.0017281967022815,0.0012740492820739,0.0117440521717071,-0.0221979618072509,-0.4004246986426032,0.4600695231417954,2.399720000149926,-0.0180698642603268,0.000552314179536,-0.0359999850073385,0.786928322232087,-0.1249909400939941,-0.220075249671936,-0.7451176643371582,8.781146375282333,-0.8376691822250907,0.2368094524325902,-1.231142141892803
0.06,-0.428484171628952,0.465364545583725,2.405513286590576,0.0522879144309051,0.1060989225011963,0.0021905130187636,0.0115106999874114,0.0043894350528717,-0.0149238109588623,-0.4007807360329438,0.4599956693668704,2.398600000677992,-0.0175338747737321,-0.0079376916720264,-0.07599996218606,0.7276549340052404,0.5118325352668762,-0.3677308559417724,0.3637075424194336,9.424809829653896,-0.890750118912885,0.2476302303346102,-1.3071881954059268
0.08,-0.4280778169631958,0.4652660191059112,2.404709815979004,0.0577616770775616,0.107606651212082,0.0023233516518318,0.0182859599590301,-0.0044336915016174,-0.0361561775207519,-0.4010588236391726,0.459695345847142,2.396680001821479,-0.010274885849149,-0.0220946603008133,-0.1159999234652697,1.1985043801526123,0.3387629985809326,-0.4411563277244568,-1.0616183280944824,8.443354698322764,-0.8465471130729342,0.2454119776663449,-1.1782737268201406
0.1,-0.427654504776001,0.464918702840805,2.4030799865722656,0.069166973824215,0.1156229208549541,0.0031017054251983,0.019049048423767,-0.015629231929779,-0.0733423233032226,-0.4011209851298363,0.4590567667128277,2.393960004148087,0.0040587367827828,-0.041763253130621,-0.1559998438738986,1.9421198905054624,0.0381544232368469,-0.559777021408081,-1.8593072891235352,8.92884167742477,-0.860919522652625,0.2373209617998181,-1.37271716533445
0.12,-0.4272860288619995,0.4646530449390411,2.402129411697388,0.0757293043307204,0.1190922357047586,0.0041693203457209,0.0331950187683105,-0.0197692215442657,-0.0853049755096435,-0.400826041629052,0.4579655232929482,2.390440009814579,0.0254356132956453,-0.0673610888573308,-0.19599958947697,0.9491483535366684,0.7072985172271729,-0.2069994807243347,-0.5981326103210449,8.390558754600988,-0.906170973401262,0.2369433980416286,-1.5771398922576814
0.14,-0.4265365302562713,0.4641124904155731,2.3992228507995605,0.0962525034949677,0.1333810374932933,0.0079651200689344,0.0337274372577667,-0.0243249535560607,-0.1307952404022216,-0.400001100906986,0.4562705529377391,2.3862399757640373,0.0570584589109608,-0.1021359466635678,-0.224003815577146,2.28604591139818,0.0266209244728088,-0.2277866005897522,-2.2745132446289062,9.01418819160608,-0.8488620442054848,0.2600363338835164,-1.3664017601985092
0.16,-0.4255222082138061,0.4630513489246368,2.395406007766724,0.1165281343823798,0.1474288927791345,0.0102165861868481,0.0456444919109344,-0.0477513670921325,-0.1717579364776611,-0.3985292296260072,0.4538727584324677,2.3813599147068705,0.0901286691869152,-0.137643503863574,-0.2640022901395606,2.4334931233406314,0.5958527326583862,-1.1713206768035889,-2.0481348037719727,8.229813478354572,-0.8734608433889347,0.3177925483926492,-1.3293194913115454
0.18,-0.4242980182170868,0.4617105424404144,2.390688180923462,0.1405264779410003,0.1642243254108659,0.0127064431751612,0.0550885498523712,-0.0603362917900085,-0.2123022079467773,-0.3964100442036291,0.450779335625181,2.3756798732707964,0.1217898730508965,-0.1716987768651031,-0.3040018534678462,2.174516330712312,0.4722028970718384,-0.6292462348937988,-2.0272135734558105,8.425474173134717,-0.8632025374699857,0.2494638560651693,-1.2955396142762272
0.2,-0.4227069616317749,0.4599024355411529,2.384817600250244,0.1659133471178195,0.1816328984637525,0.0163362972586075,0.071597546339035,-0.0813648104667663,-0.2641761302947998,-0.3936715340205493,0.4470191459402094,2.3691998388491244,0.1520611452570773,-0.204320191632055,-0.3440015886993148,2.9178970948716194,0.8254498243331909,-1.0514259338378906,-2.593696117401123,8.450222566800676,-0.8662002440518487,0.2981205345907337,-1.1997537590254337
0.22,-0.421795129776001,0.4588050246238708,2.381465196609497,0.1781758251353026,0.1913969544476928,0.0186642236191659,0.0800880789756774,-0.0961652398109436,-0.2825117111206054,-0.3903413182078307,0.4426206933833306,2.361919809029242,0.1809604360147782,-0.2355250640558218,-0.384001393288933,1.2523331999167853,0.4245266318321228,-0.7400214672088623,-0.9167790412902832,8.634372307798913,-0.8531503545741874,0.2985376815998082,-1.1925229098837833
0.24,-0.4197579324245453,0.4562335312366485,2.3739473819732666,0.2004323778552272,0.2082081965312949,0.0210894393842098,0.0916738808155059,-0.115717202425003,-0.3383016586303711,-0.386446666142616,0.437612144857287,2.3538397827474853,0.2085047705066952,-0.2653297885485389,-0.4240012348867636,3.0120708364328665,0.5792900919914246,-0.9775981307029724,-2.789497375488281,8.709066526047991,-0.899196777636552,0.3699051893523243,-0.9760769099364416
0.26,-0.4170219302177429,0.4528911113739013,2.3651859760284424,0.2190467254043135,0.223268066735945,0.0234799178976442,0.1231200993061065,-0.1504088938236236,-0.3942632675170898,-0.3820145153649403,0.4320213480415453,2.3449597594075207,0.23471030726087,-0.2937498930256341,-0.4640010991097136,3.6483146035689535,1.5723109245300293,-1.7345845699310305,-2.798080444335937,8.738685600676945,-0.9379794196254204,0.397589539551001,-1.0085156078895468
0.28,-0.4138417840003967,0.448796659708023,2.3554134368896484,0.2346865387267998,0.2370737666155176,0.0247917237401518,0.1431065797805786,-0.1842503249645233,-0.4397642612457275,-0.3770714884810399,0.4258758483067144,2.335279738633842,0.2595923811291727,-0.3208000804574556,-0.5040009782581477,3.006261088842016,0.9993240237236024,-1.692071557044983,-2.2750496864318848,8.89988895948909,-0.850234103199623,0.3579294372293004,-0.9783126409224512
0.3,-0.4099664390087127,0.4440804123878479,2.344566583633423,0.2470431644756419,0.2487147961861548,0.0268918267015454,0.1743905246257782,-0.2122311294078827,-0.4881083965301513,-0.3716439092587231,0.4192029048453493,2.324799720174497,0.2831655411025107,-0.3464942656790515,-0.54400086767631,3.2010803015441844,1.5641972422599792,-1.3990402221679688,-2.4172067642211914,9.183342382008505,-0.8717253633733465,0.3399156050572566,-0.9303922218392464
0.32,-0.4078505337238312,0.4414407908916473,2.3386778831481934,0.2546649159410162,0.257056873411212,0.0281581950235466,0.1888047158718109,-0.2305854856967926,-0.5176341533660889,-0.3657578179995156,0.4120295060981777,2.313519703854925,0.3054435848182352,-0.3708456090381163,-0.5840007642808981,1.8817688625282616,0.7207095623016357,-0.9177178144454956,-1.476287841796875,9.47059148004837,-0.8353899050730593,0.378482075017768,-0.918651754572438
0.34,-0.4032491743564605,0.4353576898574829,2.3262407779693604,0.2625878558782633,0.2698681180271475,0.0284883817603744,0.2070611715316772,-0.2737395465373993,-0.5596697330474854,-0.3594389862475997,0.404382384533625,2.3014396895534244,0.3264395903733543,-0.3938665474171465,-0.6240006658691557,3.1474438436001053,0.9128227829933168,-2.1577030420303345,-2.101778984069824,9.882875652374423,-0.9144919239591808,0.4870180583708042,-0.7623129889720284
0.36,-0.3976164758205414,0.4282566905021667,2.3130271434783936,0.2699018117354704,0.2774296817815821,0.0265859216254285,0.2534714341163635,-0.3195449709892273,-0.5946135520935059,-0.352712930886264,0.3962880308302792,2.288559677187193,0.3461659457602133,-0.4155688229174361,-0.6640005707539602,3.699026855780004,2.320513129234314,-2.2902712225914,-1.7471909523010254,9.975808159229928,-0.9772449285296184,0.4303880813109709,-0.7238947272019033
0.38,-0.3911422193050384,0.4202813804149627,2.298914194107056,0.2738898558890842,0.2853574039737305,0.0263935221528958,0.2913415431976318,-0.3588889539241791,-0.6350827217102051,-0.3456049276672399,0.3877727075070161,2.274879666704144,0.3646343761421916,-0.4359635094088772,-0.7040004775509696,3.398473129391385,1.8935054540634155,-1.967199146747589,-2.023458480834961,10.03032337962486,-0.8638074213114626,0.380754226883656,-0.6424123424506825
0.4,-0.3840614557266235,0.4111612737178802,2.283951759338379,0.2771382339904151,0.2916080632767884,0.025674502533364,0.3186343610286712,-0.4104048013687134,-0.6733095645904541,-0.3381400242143913,0.3788624620418164,2.2603996580782284,0.381855969142672,-0.4550610371110952,-0.7440003850405914,3.485710816920302,1.3646408915519714,-2.575792372226715,-1.9113421440124512,10.459513718783,-0.8385561557356807,0.3896540026351887,-0.6492084159533951
0.42,-0.3801726400852203,0.4062785804271698,2.2761590480804443,0.2783288651945852,0.2926504016315033,0.0244356111743898,0.3331156075000763,-0.4249665141105652,-0.6953573226928711,-0.3303430525400141,0.3695831395172206,2.2451196513071614,0.3978411982950533,-0.4728712153484825,-0.7840002920660534,1.5065304632536345,0.7240623235702515,-0.7280856370925903,-1.1023879051208496,10.381579162421986,-0.9035305665456632,0.3328912748738875,-0.6886418478596698
0.44,-0.3714119493961334,0.3956426084041595,2.260417222976685,0.2774337443274219,0.2944448331486069,0.022681690142182,0.3942310810089111,-0.4786187410354614,-0.7083821296691895,-0.3222386411092243,0.3599603948276836,2.2290396464120543,0.4125999447839231,-0.4894032536052104,-0.8240001974446451,4.118042056906415,3.055773675441742,-2.682611346244812,-0.651240348815918,10.813292864035702,-0.960547916036854,0.4421701396031255,-0.7802740223915864
0.46,-0.3618948459625244,0.3838156759738922,2.24405837059021,0.2764677816205175,0.2976690194202848,0.017681273368395,0.4282696545124054,-0.53221195936203,-0.7361483573913574,-0.3138512264854467,0.3500197044817001,2.212159643438863,0.426141517593834,-0.5046657809931411,-0.8640000998744994,3.464758627477288,1.7019286751747131,-2.67966091632843,-1.3883113861083984,10.947501317765273,-0.9388887405296988,0.4969529148526933,-0.6499740659279817
0.48,-0.3517609536647796,0.3711090087890625,2.22682785987854,0.2784745600141672,0.3005634405812778,0.0165256410572641,0.4560251533985138,-0.5717999935150146,-0.7753729820251465,-0.3052050645877986,0.3397863780294237,2.194479642461941,0.4384746721709738,-0.5186668642345094,-0.9039999978176868,3.1129372561040696,1.38777494430542,-1.979401707649231,-1.961231231689453,10.946398052641598,-0.9653135261977578,0.4388249366311311,-0.6476885982375681
0.5,-0.3402946591377258,0.3572286367416382,2.2091658115386963,0.2783081659861272,0.2994399205073569,0.0156961387127748,0.5159832239151001,-0.6246167421340942,-0.7947921752929688,-0.2963242415891495,0.3292855691445605,2.1759996435904547,0.4496076276939407,-0.5314140242518063,-0.9439998893309444,4.111473039537051,2.997903525829315,-2.6408374309539795,-0.9709596633911132,10.92627852110536,-1.0552236749014583,0.4848412553217604,-0.8211428443870589
0.52,-0.3342333137989044,0.349747896194458,2.2005369663238525,0.2755773461577631,0.2984596882386059,0.0139184755826428,0.5289825797080994,-0.6506167650222778,-0.7957792282104492,-0.2872326844817787,0.3185422863875477,2.156719646979231,0.4595480830431417,-0.5429142514494745,-0.983999771791432,1.4542684713292806,0.6499677896499634,-1.3000011444091797,-0.0493526458740234,11.24096230977284,-0.9264278175657874,0.4450598517054246,-0.8141257402511907
0.54,-0.3214359879493713,0.3340376317501068,2.182565927505493,0.2692972037499511,0.29748956997741,0.0102581453264875,0.575879693031311,-0.7069618701934814,-0.8086967468261719,-0.2779541713357908,0.3075814036753888,2.1366396528472484,0.4683032315556445,-0.5531740197664197,-1.0239996414067911,3.721885409974256,2.3448556661605835,-2.8172552585601807,-0.6458759307861328,11.660198797016164,-1.0346829022114177,0.4302364330861749,-0.7391140881268775
0.56,-0.3075658082962036,0.3174857497215271,2.164509057998657,0.2627270915170424,0.2965496996906617,0.0078807223480692,0.6241580843925476,-0.7448346614837646,-0.8125591278076172,-0.2685123412736439,0.2964276704819519,2.1157596615107197,0.4758797746590427,-0.5621992995772607,-1.063999492246131,3.074113441055772,2.4139195680618286,-1.89363956451416,-0.1931190490722656,11.792656588165755,-1.096208973696714,0.5035610390042251,-0.7133959621631141
0.58,-0.2928375005722046,0.2996297776699066,2.14621901512146,0.2523371441408954,0.2938164581615625,0.0068834114627631,0.662773847579956,-0.8035187721252441,-0.823051929473877,-0.2589307041819197,0.2851057217908582,2.0940796734475624,0.482283934513376,-0.5699955695321154,-1.1039993140695628,3.551443683607724,1.9307881593704224,-2.9342055320739746,-0.5246400833129883,11.988957329005643,-1.045606729561162,0.5552560182383475,-0.6833368522055533
0.6,-0.2770580053329468,0.2807375490665436,2.1279428005218506,0.239163110023805,0.2908665614546922,0.0033467162955521,0.7100772857666016,-0.8501502871513367,-0.8224296569824219,-0.2492326501773999,0.2736400878206727,2.071599689441367,0.4875214659386012,-0.5765678274864329,-1.143999086549942,3.321332820179313,2.3651719093322754,-2.3315757513046265,0.0311136245727539,11.883686869846317,-1.0596667845367598,0.4589857393572384,-0.705788204571878
0.62,-0.2686024308204651,0.2708678543567657,2.1190125942230225,0.229389124331757,0.2866134373916624,0.0014354776318315,0.7413424253463745,-0.87253737449646,-0.8161962032318115,-0.2394414588312916,0.2620552035357516,2.048319710985264,0.4915976686722296,-0.5819206010056711,-1.183998759060428,1.9477850102115115,1.5632569789886477,-1.1193543672561646,0.3116726875305176,12.447581252388773,-1.028873053755902,0.4381259542629193,-0.7232870468777783
0.64,-0.2513295710086822,0.2505301535129547,2.100860118865967,0.2107447499479045,0.2808980651854637,-0.0006088250493731,0.7772786617279053,-0.9151965379714966,-0.8168613910675049,-0.2295803080650648,0.2503754179159541,2.024239742100388,0.4945174079504541,-0.5860579609740746,-1.2239981294271494,2.789112667371071,1.796811819076538,-2.132958173751831,-0.0332593917846679,12.654786794753818,-0.9128564428913114,0.4359477123189064,-0.6820361132446641
0.66,-0.2331329137086868,0.2293272763490677,2.083080291748047,0.1863736384609709,0.2712712218934835,-0.0048679610430866,0.8188495635986328,-0.9541294574737548,-0.8000922203063965,-0.2196135502782282,0.2385992458112409,1.99999978044428,0.5021583707332027,-0.5915592494972505,-1.1999980361836442,2.9686348678012746,2.078545093536377,-1.946645975112915,0.8384585380554199,13.655471436814423,-1.045991015976217,0.5079576860155482,-0.7684742491231776
0.68,-0.2140653729438781,0.2073294222354889,2.065772533416748,0.1594452291746381,0.2604340461130228,-0.0089275825121633,0.8580393195152283,-0.989903450012207,-0.7788491249084473,-0.2094968062446036,0.2267250483074421,1.9763998138799508,0.5095160326292538,-0.595860500882628,-1.1599986202492694,2.857833363332233,1.959487795829773,-1.7886996269226074,1.062154769897461,13.55275589796247,-1.044158978044201,0.4847854365189069,-0.735165234018607
0.7000000000000001,-0.1941283196210861,0.1845745593309402,2.0492305755615234,0.1237229402297248,0.2447517897038412,-0.0148886791769893,0.8971673846244812,-1.0239688158035278,-0.7443881034851074,-0.1992503703834857,0.2147832237712253,1.95359983865868,0.5151275534825392,-0.5983219527390381,-1.1199989018777818,3.114087596403766,1.9564032554626465,-1.70326828956604,1.7230510711669922,12.863667652611184,-1.0428487073027597,0.4397326070859783,-0.7051752776881435
0.72,-0.1836208701133728,0.1730850040912628,2.0413200855255127,0.1038444608995456,0.2303107975005894,-0.0171523963029895,0.9256786108016968,-1.034210205078125,-0.7259559631347656,-0.1889091179499109,0.2028105334759063,1.9315998588082337,0.5189976898749434,-0.5989470767928752,-1.0799990831668789,1.7730763310535131,1.4255613088607788,-0.5120694637298584,0.9216070175170898,13.00932031020784,-1.0399197131370157,0.3670119840296069,-0.6967318157673678
0.74,-0.1624955981969833,0.1500142514705658,2.025717496871948,0.0646510212018857,0.2056972252961474,-0.0231603633510817,0.9506372213363647,-1.0381839275360107,-0.7021164894104004,-0.1785078352453479,0.1908436757952279,1.91039987583054,0.5211305805813593,-0.5977386912749596,-1.039999214602482,1.7371263752590402,1.2479305267333984,-0.1986861228942871,1.1919736862182615,12.432949766024649,-0.914999243324081,0.3655720303017076,-0.6766902341411305
0.76,-0.1408577263355255,0.1266562491655349,2.011056661605835,0.0194789280831714,0.1727161192580282,-0.028682818217372,0.9737042188644408,-1.0511101484298706,-0.6597375869750977,-0.1680812320168088,0.1789192992667127,1.889999890520979,0.5215297422725483,-0.5946989615765598,-0.999999316353633,2.497571286859516,1.1533498764038086,-0.6463110446929932,2.1189451217651367,12.89677906131692,-1.0330060564124812,0.41914113666085,-0.9174552114266534
0.78,-0.1186678409576416,0.1034795641899108,1.9971386194229128,-0.0258595633761434,0.1353561129323641,-0.0333004165306767,0.9985448122024536,-1.0429508686065674,-0.6263118982315063,-0.1576639538605068,0.1670740156130137,1.870399903372576,0.520198073357652,-0.5898294037933394,-0.959999398486626,2.1218539020176026,1.2420296669006348,0.4079639911651611,1.6712844371795654,11.936312020746756,-1.0399735386756468,0.3318986116260142,-0.946716764711595
0.8,-0.0965324491262435,0.0808309838175773,1.983810305595398,-0.0647885408181642,0.0935930106477588,-0.0348650073721375,0.9960926175117492,-1.0191861391067505,-0.5997741222381592,-0.1472905945465516,0.1553444126981878,1.8515999147203104,0.5171378580378705,-0.5831308876892516,-0.91999946673998,1.78537753827703,-0.1226097345352172,1.1882364749908447,1.3268887996673584,11.08282379018965,-0.9743627601486704,0.3031807393193146,-1.0060685283193247
0.8200000000000001,-0.0853534489870071,0.069608062505722,1.977461814880371,-0.0832275888806029,0.0710570845559678,-0.0346645163506092,1.0022358894348145,-1.010936975479126,-0.5753123760223389,-0.1369957082702181,0.1437670674347083,1.8335999248060129,0.5123507695954757,-0.5746036386587025,-0.8799995246897723,1.3268058622150074,0.3071635961532593,0.4124581813812256,1.2230873107910156,10.957942326012926,-1.0163781516653134,0.3131680697480076,-1.090050298007059
0.84,-0.0632898136973381,0.0477141737937927,1.9649666547775269,-0.1152487238205395,0.025281088720717,-0.0344007895047074,0.9928635954856871,-0.9852249622344972,-0.5622822046279907,-0.1268138218471559,0.1323785586621256,1.8163999338119967,0.5058378727107474,-0.564247238599567,-0.8399995747118127,1.515530340777534,-0.4686146974563598,1.285600662231445,0.6515085697174072,10.504484809891892,-0.9229251059279068,0.2522371932377941,-0.9552736944433828
0.86,-0.0414256900548934,0.0266214273869991,1.9527318477630613,-0.1433622946820457,-0.0221965571836361,-0.0320027596441191,0.9838855862617492,-0.9491735696792604,-0.5505663156509399,-0.1167794468725529,0.121215480019402,1.7999999418802526,0.4975996247495549,-0.5520606256727939,-0.799999618462591,1.947799790352874,-0.4489004611968994,1.8025696277618408,0.5857944488525391,9.949976154083744,-0.8884649348115766,0.1456048830900942,-1.1414374793965054
0.88,-0.0203302912414073,0.0064599863253533,1.9405750036239624,-0.1685906891040907,-0.0705457451082687,-0.0270901701164637,0.9492929577827454,-0.9072648286819458,-0.5470579862594604,-0.1069270918650367,0.1103144528332916,1.7843999491242115,0.4876358760020644,-0.5380420929382437,-0.7599996571415056,2.722728820588592,-1.729631423950195,2.0954370498657227,0.1754164695739746,9.755469554908814,-0.8092615253252047,0.1384506552838579,-1.1778040598229635
0.9,-3.506252687657252e-05,-0.0125186927616596,1.9290838241577148,-0.1952282816217849,-0.1227499358057202,-0.021908470218031,0.9132853150367736,-0.8540405631065369,-0.5171030759811401,-0.0972912744163885,0.0997121390453288,1.7695999556363593,0.4759458688627531,-0.522189285858038,-0.7199996916437497,3.544950434048905,-1.800382137298584,2.6612132787704468,1.4977455139160156,9.29489314207376,-0.8258559145607703,0.1480706993160161,-1.1217850119091346
0.92,0.0097192032262682,-0.0214744973927736,1.922707438468933,-0.2040501538453323,-0.1446547925733242,-0.0178089560980562,0.8909747004508972,-0.8180366158485413,-0.5307447910308838,-0.0879065333683313,0.0894452542001825,1.7555999614933784,0.4625282359429697,-0.504499198656591,-0.6799997226543308,2.224940522156972,-1.1155307292938232,1.8001973628997805,-0.6820857524871826,9.891542843960906,-0.7842524600116867,0.1922203186548799,-0.893954753304795
0.94,0.0286161862313747,-0.0392199456691741,1.9098808765411377,-0.2244014072582633,-0.1876509922750329,-0.012168328671406,0.8503642082214355,-0.7985451817512512,-0.5771952867507935,-0.0788074410378491,0.0795505805183853,1.7423999667597505,0.4473809971052452,-0.4849681695231255,-0.6399997507084639,3.2352653040027155,-2.0305246114730835,0.974571704864502,-2.3225247859954834,9.426298408479852,-0.7781649705107081,0.342662657080607,-0.984505102393132
0.96,0.0463355667889118,-0.0555247776210308,1.8963814973831177,-0.2448859558149766,-0.2286994768217399,-0.0061237418351895,0.7973721027374268,-0.7337174415588379,-0.6074720621109009,-0.0700286155127439,0.0700649800767665,1.729999971490348,0.4305015554052736,-0.4635918746387563,-0.5999997762317941,4.451820489499146,-2.6496052742004395,3.2413870096206665,-1.513838768005371,9.93914243744075,-0.6349301595241625,0.1068732217811024,-1.0298316980549624
0.98,0.0624386668205261,-0.0705450549721717,1.8821090459823608,-0.2640888295697948,-0.2665739794715637,-0.0001501058826837,0.7246394753456116,-0.6759124994277954,-0.6422603130340576,-0.0616047330394548,0.0610254081203118,1.7183999757323498,0.4118866919236375,-0.4403653210067231,-0.5599997995680158,4.960259273561794,-3.6366313695907593,2.890247106552124,-1.739412546157837,10.483908927700211,-0.619458986030454,0.1993069463610957,-1.0111055744082642
1.0,0.0771378725767135,-0.0842882543802261,1.867289900779724,-0.2813948711763694,-0.2973430064034845,0.0061006417369197,0.661464273929596,-0.6184439659118652,-0.6668615341186523,-0.0535705405255655,0.0524689265296259,1.7075999795266863,0.3915325594652918,-0.4152828380618574,-0.5199998209983469,4.443804253474393,-3.158760070800781,2.873426675796509,-1.2300610542297363,11.238485157273317,-0.7028591190261473,0.2325374196274393,-0.9629994389252128
1.02,0.0839441791176796,-0.0906814709305763,1.859617829322815,-0.2940584619433997,-0.318972470191987,0.0109444980313359,0.6297129392623901,-0.5898331999778748,-0.6801438331604004,-0.0459608681799049,0.0444327174686522,1.697599982909147,0.3694346751007673,-0.388338068035519,-0.4799998407555702,2.237824081732586,-1.5875667333602903,1.430538296699524,-0.6641149520874023,11.18442305556664,-0.6643839512452572,0.2215226576628792,-0.9164079559653108
1.04,0.0957302376627922,-0.1024678647518158,1.8434674739837649,-0.3039989605141582,-0.3424608832200144,0.0168842178094547,0.5303726196289062,-0.5303876996040344,-0.7267659902572632,-0.0388106423137032,0.0369540972377013,1.6883999859112475,0.3455879115194067,-0.3595239550595658,-0.4399998590343635,6.240170701179485,-4.967015981674194,2.9722750186920166,-2.33110785484314,10.942385629486123,-0.4257539534821571,0.0437420596918795,-0.7070424066201687
1.06,0.1059909015893936,-0.1129110231995582,1.8270326852798464,-0.3155532526328357,-0.3681314932046716,0.0240733379785551,0.461729884147644,-0.4699421226978302,-0.7395654916763306,-0.0321548983268842,0.0300705303568951,1.6799999885609138,0.3199864871624927,-0.3288327330210576,-0.3999998759990336,4.617715923064965,-3.4321367740631104,3.022278845310211,-0.6399750709533691,11.018441273028657,-0.5958911409377531,0.0470001201670268,-0.812929309640208
1.08,0.1140328198671341,-0.1215556934475898,1.8099948167800903,-0.3093103043585398,-0.3781630805467799,0.0262326814679154,0.3618863224983215,-0.3890101611614227,-0.7667040824890137,-0.0260287939042084,0.023819643903912,1.6723999908830294,0.2926239551050891,-0.2962559122772501,-0.3599998917893963,6.56795674320615,-4.9921780824661255,4.0465980768203735,-1.3569295406341553,12.282063798148556,-0.5146986596485709,0.0189746160479053,-0.8039551897909537
1.1,0.1198460087180137,-0.1286724060773849,1.792596459388733,-0.2972637311884876,-0.3849886792235751,0.0242067646052203,0.2615934908390045,-0.3202520608901977,-0.782926082611084,-0.0204676224464875,0.0182392421238761,1.6655999928998824,0.2634931906669987,-0.2617842657263466,-0.319999906525311,6.133816455338466,-5.014641582965851,3.437905013561249,-0.8111000061035156,14.153362772971375,-0.6238500882248296,0.1236076914557443,-0.928014108410413
1.12,0.1218734383583068,-0.1314368247985839,1.783924579620361,-0.2878584203398731,-0.3827131205975375,0.0218777084633303,0.2115008980035781,-0.2795418500900268,-0.7824647426605225,-0.0155068267619412,0.0133673212988223,1.6595999946315272,0.232586377787632,-0.2254078167790251,-0.2799999203102201,3.227538518329464,-2.5046296417713165,2.035510540008545,0.0230669975280761,15.170128453600682,-0.6238500882248296,0.1236076914557443,-0.928014108410413
1.14,0.1238870993256568,-0.1361705064773559,1.766692280769348,-0.2776167344102077,-0.3771850056700956,0.0184814304015393,0.0906147435307502,-0.2130156755447387,-0.7754534482955933,-0.011182013037993,0.009242084595089,1.6543999960960851,0.1998949946071899,-0.1871158535943124,-0.2399999332339382,6.908030198893574,-6.044307723641396,3.3263087272644043,0.3505647182464599,15.179183250075766,-0.6767758037548829,0.2331296091255862,-0.8298474625317995
1.16,0.1237405389547348,-0.1390573680400848,1.7507649660110474,-0.2800226176288169,-0.3705658515212814,0.0149931920980886,-0.0065952166914939,-0.1299087703227996,-0.7167291641235352,-0.0075289322291099,0.0058997567111065,1.6499999971297623,0.1654130697398081,-0.1471169200922397,-0.1999999433983702,7.036525352313333,-4.860498011112213,4.155345261096954,2.9362142086029053,15.628868074751152,-0.6137953427795944,0.1071144747319676,-0.7534796120224283
1.18,0.1207483261823654,-0.1400599777698516,1.7351988554000854,-0.2772319971984074,-0.349002894414718,0.0071648910001377,-0.1346495747566223,-0.045117437839508,-0.7004749774932861,-0.0045832052023448,0.0033574172366165,1.6463999981453654,0.1291596329367077,-0.1071170273567593,-0.1599999550413019,7.721995737303791,-6.402717903256416,4.239566624164581,0.8127093315124512,17.015243827791892,-0.605857763765753,0.196898605134032,-0.4504493883082026
1.2,0.1150354295969009,-0.1391820609569549,1.7212978601455688,-0.2735227453580994,-0.3201815355810405,-0.0012681414533301,-0.2570803463459015,0.0395062565803527,-0.6255447864532471,-0.002380302237309,0.0016150761229211,1.643599998932988,0.091130663566869,-0.0671170840127866,-0.1199999661964297,8.331415998872728,-6.121538579463959,4.231184720993042,3.746509552001953,15.895477674755057,-0.7744734336735934,0.2187558350983129,-0.7545327773750885
1.22,0.1112700253725051,-0.1380383670330047,1.71479332447052,-0.2723097578646679,-0.3033076272482749,-0.0072997662269899,-0.3087108731269836,0.0754947960376739,-0.5992001295089722,-0.0009494261076218,0.0005968895971328,1.6415999995053463,0.0519569494018472,-0.0347015685660466,-0.0799999765677293,3.411351351544845,-2.581526339054108,1.7994269728660583,1.3172328472137451,16.38508361513641,-0.8736875493871792,0.2041074978740876,-0.6999495573797099
1.24,0.1020191460847854,-0.1343916952610016,1.702925205230713,-0.2676744982936488,-0.2659473634760241,-0.0175194855319783,-0.4162895679473877,0.1641002297401428,-0.5340653657913208,-0.0002149283175481,0.000124936961983,1.6403999998898346,0.0214928317548123,-0.0124936961983014,-0.0399999889834725,7.691982173896808,-5.378934741020203,4.430271685123444,3.2567381858825684,16.303619852279553,-0.5220028957807038,-0.1405734278265331,-1.0108857063438572
1.26,0.0910428836941719,-0.1287772506475448,1.691975474357605,-0.2550845435285442,-0.2213455323978513,-0.0299238095335836,-0.4939318001270294,0.2526500225067138,-0.4927378892898559,-0.0002149283175481,0.000124936961983,1.6403999998898346,0.0214928317548123,-0.0124936961983014,-0.0399999889834725,6.240461187047637,-3.882111608982086,4.427489638328552,2.066373825073242,16.427784935352975,-0.6602776329323755,-0.0979448424624835,-1.1122716860380502
1.28,0.0783165916800499,-0.1216094046831131,1.6823168992996216,-0.2433103746048521,-0.1751035344437925,-0.0419922145202136,-0.5726831555366516,0.3225530683994293,-0.4346358776092529,-0.0002149283175481,0.000124936961983,1.6403999998898346,0.0214928317548123,-0.0124936961983014,-0.0399999889834725,6.013330101795644,-3.9375677704811096,3.4951522946357727,2.905100584030152,15.74250402337475,-0.6234242250552191,-0.0885626202144002,-1.5633768527069514
1.3,0.0642940774559974,-0.1132097020745277,1.6735689640045166,-0.2262915545187518,-0.1210991305995734,-0.0545073735765716,-0.6310131549835205,0.3779866099357605,-0.3936570882797241,-0.0002149283175481,0.000124936961983,1.6403999998898346,0.0214928317548123,-0.0124936961983014,-0.0399999889834725,4.515121132828494,-2.916499972343445,2.771677076816559,2.0489394664764404,15.74551922149385,-0.7420153884379012,-0.1512669729240979,-1.7607579716805617
1.32,0.057198479771614,-0.10819923132658,1.670004963874817,-0.2143934930588621,-0.0928342138158715,-0.05804998149744,-0.634891927242279,0.4297351539134979,-0.3446316719055176,-0.0002149283175481,0.000124936961983,1.6403999998898346,0.0214928317548123,-0.0124936961983014,-0.0399999889834725,3.5694705940501383,-0.1939386129379272,2.587427198886872,2.451270818710327,15.511456218702731,-0.8042838545221974,-0.2771369918479723,-2.095488392214405
1.34,0.0421137101948261,-0.0970786735415458,1.663938045501709,-0.1866786122552387,-0.0364548322906967,-0.0668886810307052,-0.6788146495819092,0.5004251003265381,-0.2730113267898559,-0.0002149283175481,0.000124936961983,1.6403999998898346,0.0214928317548123,-0.0124936961983014,-0.0399999889834725,5.489933491420731,-2.1961361169815063,3.534497320652008,3.581017255783081,14.758944777243414,-0.5679490803922528,-0.0219352729784254,-1.9663939496482192
1.36,0.0268945582211017,-0.0849866569042205,1.65898597240448,-0.1508407750256743,0.0199361197942439,-0.0720106586225497,-0.6848618388175964,0.5441407561302185,-0.2228432893753051,-0.0002149283175481,0.000124936961983,1.6403999998898346,0.0214928317548123,-0.0124936961983014,-0.0399999889834725,3.34083037508111,-0.3023594617843628,2.185782790184021,2.508401870727539,14.32481012561948,-0.6308379445454139,-0.1223640592095096,-2.2533781999406046
1.38,0.0117515036836266,-0.072093591094017,1.6553007364273071,-0.1072768372159971,0.0753597238597485,-0.0751769402004188,-0.6814374327659607,0.580187976360321,-0.1658356189727783,-0.0002149283175481,0.000124936961983,1.6403999998898346,0.0214928317548123,-0.0124936961983014,-0.0399999889834725,3.37675995883892,0.1712203025817871,1.802361011505127,2.8503835201263428,13.361428866845928,-0.6455514395678651,-0.1296714278541823,-2.3963581327813563
1.4,-0.0033624358475208,-0.0584853887557983,1.6526355743408203,-0.0560816457961767,0.1330746321662106,-0.0746489878465206,-0.6801272630691528,0.6123691201210022,-0.1199322938919067,-0.0002149283175481,0.000124936961983,1.6403999998898346,0.0214928317548123,-0.0124936961983014,-0.0399999889834725,2.8037732664483745,0.065508484840393,1.6090571880340576,2.295166254043579,12.069689742345872,-0.6978876216911045,-0.0831753230543946,-2.437263703692696
1.42,-0.0104650249704718,-0.0516830086708068,1.6519798040390017,-0.0356228848063057,0.1568108710573032,-0.0734278386920917,-0.6554047465324402,0.6108952164649963,-0.0881910324096679,-0.0002149283175481,0.000124936961983,1.6403999998898346,0.0214928317548123,-0.0124936961983014,-0.0399999889834725,2.013009498474282,1.2361258268356323,-0.0736951828002929,1.5870630741119385,11.965400113983378,-0.8808919128249801,0.0399013269195742,-2.5
1.44,-0.0245497245341539,-0.0380370803177356,1.6505191326141355,0.009971413856621,0.2064410545753512,-0.0708048502231121,-0.6338114738464355,0.6140667796134949,-0.0657302141189575,-0.0002149283175481,0.000124936961983,1.6403999998898346,0.0214928317548123,-0.0124936961983014,-0.0399999889834725,1.5658995788247254,1.079663634300232,0.1585781574249267,1.1230409145355225,11.204123820424684,-0.730810550095981,-0.0233612177028544,-2.38150096296988
1.46,-0.0373990796506404,-0.0247296728193759,1.6500052213668823,0.0505199849969474,0.2472378124191358,-0.0634994674010101,-0.5782209634780884,0.5988333225250244,-0.0231260061264038,-0.0002149283175481,0.000124936961983,1.6403999998898346,0.0214928317548123,-0.0124936961983014,-0.0399999889834725,3.583811377762633,2.7795255184173584,-0.761672854423523,2.130210399627685,11.27720394185053,-0.9150488781925444,0.037112615031489,-2.5
1.48,-0.048866257071495,-0.0117779392749071,1.6500816345214844,0.0851624646140489,0.2797973270040297,-0.0549506621947302,-0.5160229802131653,0.5828279852867126,0.0034385919570922,-0.0002149283175481,0.000124936961983,1.6403999998898346,0.0214928317548123,-0.0124936961983014,-0.0399999889834725,3.4750675582186266,3.109899163246155,-0.8002668619155884,1.328229904174805,10.628563592947105,-0.8506845429306602,0.0466440863100661,-2.326535325764016
1.5,-0.0593675747513771,0.0005884700804017,1.650186538696289,0.1195831577230638,0.3102387929151363,-0.0458389856974491,-0.4725593030452728,0.5564883947372437,0.0047206878662109,-0.0002149283175481,0.000124936961983,1.6403999998898346,0.0214928317548123,-0.0124936961983014,-0.0399999889834725,2.541903338636538,2.173183858394623,-1.3169795274734497,0.0641047954559326,10.145697454504443,-0.7359157686898367,0.1008153907526704,-1.9745501303042423
1.52,-0.0640647634863853,0.0063481419347226,1.649983525276184,0.1379044647458621,0.3256505089729226,-0.0416298553465924,-0.4336776733398437,0.5386530160903931,-0.007215142250061,-0.0002149283175481,0.000124936961983,1.6403999998898346,0.0214928317548123,-0.0124936961983014,-0.0399999889834725,2.22055505481802,1.9440814852714536,-0.8917689323425293,-0.5967915058135986,9.861516330851371,-0.8130563279993451,0.1234374891483544,-1.8942309441956808
1.54,-0.0722938776016235,0.0173904374241828,1.6500921249389648,0.1701708443321675,0.344762287567204,-0.03241628445309,-0.3703101277351379,0.4969032704830169,0.0048869848251342,-0.0002149283175481,0.000124936961983,1.6403999998898346,0.0214928317548123,-0.0124936961983014,-0.0399999889834725,3.842183159998124,3.1683772802352905,-2.087487280368805,0.6051063537597656,9.958984129140845,-0.6556238758739603,0.1030665828002398,-1.833791454846394
1.56,-0.0789380893111229,0.0272748135030269,1.6496626138687134,0.2039805279585004,0.3569868144471229,-0.021913652652953,-0.2989895343780517,0.4447969198226928,-0.0193279981613159,-0.0002149283175481,0.000124936961983,1.6403999998898346,0.0214928317548123,-0.0124936961983014,-0.0399999889834725,4.57931878585057,3.566029667854309,-2.605317533016205,-1.2107491493225098,9.970844180404129,-0.7606917700101414,0.1731094403241942,-1.588440506758658
1.58,-0.0840195640921592,0.0361818931996822,1.6485852003097534,0.2426750715461069,0.3661432299984664,-0.0088229747829857,-0.2286663651466369,0.4008185863494873,-0.0484836101531982,-0.0002149283175481,0.000124936961983,1.6403999998898346,0.0214928317548123,-0.0124936961983014,-0.0399999889834725,4.395876379191034,3.51615846157074,-2.1989166736602783,-1.4577805995941162,9.837865575366775,-0.6654188780474878,0.1092064545791806,-1.49467031449013
1.6,-0.0877910628914833,0.0441304855048656,1.6464298963546753,0.2832760271775681,0.3741865329983326,0.0047054799786373,-0.1697174459695816,0.3576866388320923,-0.0969886779785156,-0.0002149283175481,0.000124936961983,1.6403999998898346,0.0214928317548123,-0.0124936961983014,-0.0399999889834725,4.3840853018403285,2.947445958852768,-2.156597375869751,-2.425253391265869,10.141481325477798,-0.5635169404135545,0.1360726927326069,-1.3264328872700224
1.62,-0.0890451148152351,0.0476153381168842,1.6450867652893066,0.3011086303273996,0.3759396423108154,0.011739070438329,-0.1342237740755081,0.3258040845394134,-0.1107752323150634,-0.0002149283175481,0.000124936961983,1.6403999998898346,0.0214928317548123,-0.0124936961983014,-0.0399999889834725,2.483126604315788,1.7746835947036743,-1.5941277146339417,-0.6893277168273926,10.359568578671317,-0.5482192741001263,0.198486969292682,-1.2727693102452926
1.64,-0.0904765501618385,0.0537442788481712,1.6419179439544678,0.331333698301072,0.3727815961998328,0.0219427041334159,-0.0644145905971527,0.275802344083786,-0.142596960067749,-0.0002149283175481,0.000124936961983,1.6403999998898346,0.0214928317548123,-0.0124936961983014,-0.0399999889834725,4.578787640760559,3.4904591739177704,-2.500087022781372,-1.5910863876342771,11.492875127546997,-0.7060601525181189,0.3388798731979623,-1.0874666033148075
1.66,-0.0904602780938148,0.0585147179663181,1.6380500793457031,0.3495664195701838,0.3643513435615566,0.0273877761514154,0.0007322430610656,0.2146697640419006,-0.1740539073944091,-0.0002149283175481,0.000124936961983,1.6403999998898346,0.0214928317548123,-0.0124936961983014,-0.0399999889834725,4.7357263997673495,3.257341682910919,-3.056629002094269,-1.5728473663330078,11.104613850179703,-0.5967678142347415,0.3955698654063455,-0.8895498216086128
1.68,-0.0889745652675628,0.0618403926491737,1.63322114944458,0.3591566650064006,0.3485271516432024,0.0310029960772123,0.0668570771813392,0.1496553570032119,-0.2173018455505371,-0.0002149283175481,0.000124936961983,1.6403999998898346,0.0214928317548123,-0.0124936961983014,-0.0399999889834725,5.116090051196874,3.3062417060136795,-3.250720351934433,-2.1623969078063965,11.551221999999145,-0.5441338798336836,0.3696706282231659,-0.8553802904343916
1.7,-0.0861917734146118,0.0633323267102241,1.6282778978347778,0.3556144299136667,0.3306131158400003,0.029992111832045,0.1252256333827972,0.0671370327472686,-0.222446322441101,-0.0002149283175481,0.000124936961983,1.6403999998898346,0.0214928317548123,-0.0124936961983014,-0.0399999889834725,5.0602934286287455,2.918427810072899,-4.125916212797165,-0.2572238445281982,13.442542933081768,-0.4746448202743097,0.3543824235347843,-0.8671267729263978
1.72,-0.0843021795153617,0.0637204945087432,1.625442385673523,0.3513508237490984,0.3222633976904255,0.0297735018011572,0.1571063697338104,0.0413770973682403,-0.2452826499938964,-0.0002149283175481,0.000124936961983,1.6403999998898346,0.0214928317548123,-0.0124936961983014,-0.0399999889834725,2.3459824579017483,1.5940368175506592,-1.287996768951416,-1.1418163776397705,14.08643910322553,-0.4569873052585007,0.2327420733083194,-0.6760925694257048
1.74,-0.0795838311314582,0.0630751475691795,1.619892954826355,0.3317944265085034,0.3014335041408967,0.0257295404922208,0.2123256772756576,-0.0290406122803688,-0.2497243881225586,-0.0002149283175481,0.000124936961983,1.6403999998898346,0.0214928317548123,-0.0124936961983014,-0.0399999889834725,4.479831133859998,2.760965377092361,-3.520885482430458,-0.2220869064331054,13.25940165371776,-0.4117615717230504,0.3896036713738687,-0.7988391620046127
1.76,-0.0733263492584228,0.0606063678860664,1.6145436763763428,0.2979702324385481,0.2764156057914408,0.0198392768550293,0.2815866768360138,-0.1110950857400894,-0.2407175302505493,-0.0002149283175481,0.000124936961983,1.6403999998898346,0.0214928317548123,-0.0124936961983014,-0.0399999889834725,5.387751424197813,3.463049978017807,-4.102723672986031,0.4503428936004638,15.092304229217008,-0.5683765139379353,0.4697391366635821,-0.889460332959722
1.78,-0.0661436468362808,0.0566372871398925,1.6098246574401855,0.2568763327284945,0.2521862414439185,0.0144627810405047,0.3232216238975525,-0.178608626127243,-0.2123558521270752,-0.0002149283175481,0.000124936961983,1.6403999998898346,0.0214928317548123,-0.0124936961983014,-0.0399999889834725,4.211867679071989,2.081747353076935,-3.3756770193576813,1.418083906173706,13.940951618214967,-0.4043149268656761,0.3303950534233255,-0.6470030743768077
1.8,-0.0578242018818855,0.05153713747859,1.605435490608215,0.2189028805984402,0.2265012667991117,0.0074003189605973,0.3743750154972076,-0.2295067310333252,-0.1975125074386596,-0.0002149283175481,0.000124936961983,1.6403999998898346,0.0214928317548123,-0.0124936961983014,-0.0399999889834725,3.683616238398528,2.5576695799827576,-2.544905245304108,0.7421672344207764,14.15578528819242,-0.5325332584784105,0.2762900591541013,-0.8491119403746459
1.82,-0.0533554516732692,0.0484845265746116,1.6036146879196167,0.1976009565527899,0.2132563939424039,0.0039486402353742,0.3873619437217712,-0.2654838860034942,-0.1873737573623657,-0.0002149283175481,0.000124936961983,1.6403999998898346,0.0214928317548123,-0.0124936961983014,-0.0399999889834725,1.9785160080013744,0.6493464112281799,-1.7988577485084534,0.5069375038146973,13.922510643749774,-0.5356802553275862,0.3014570305380297,-1.1044546449870452
1.84,-0.0434941202402114,0.0415800474584102,1.6008155345916748,0.1546335224983955,0.1804598007551848,-0.0019512610823489,0.4437599182128906,-0.3107015490531921,-0.1259618997573852,-0.0002149283175481,0.000124936961983,1.6403999998898346,0.0214928317548123,-0.0124936961983014,-0.0399999889834725,4.742569143637065,2.819898724555969,-2.260883152484894,3.0705928802490234,15.305028767420936,-0.7276027724090062,0.3643017612977614,-1.2515763057924345
1.86,-0.0332085490226745,0.0339581780135631,1.5990452766418457,0.1083573468556217,0.1449357793136228,-0.009986416949153,0.4628506898880005,-0.342984139919281,-0.0796616077423095,-0.0002149283175481,0.000124936961983,1.6403999998898346,0.0214928317548123,-0.0124936961983014,-0.0399999889834725,2.9792365955307,0.9545385837554932,-1.6141295433044434,2.315014600753784,13.843879791210384,-0.5696925649761103,0.3399693356616244,-1.173707993384052
1.88,-0.0220988765358924,0.025728827342391,1.59866464138031,0.0631623448108183,0.1058851344769046,-0.0167248343362453,0.4999352693557739,-0.3703207671642303,-0.017128586769104,-0.0002149283175481,0.000124936961983,1.6403999998898346,0.0214928317548123,-0.0124936961983014,-0.0399999889834725,3.8835988256597376,1.854228973388672,-1.366831362247467,3.1266510486602783,13.0557053275179,-0.5248715673730031,0.1831832269788729,-1.3339658828341383
1.9,-0.0108563182875514,0.017422430217266,1.5998269319534302,0.0188300989822173,0.0641801803201301,-0.0212061875392705,0.505915105342865,-0.3737878799438476,0.0523030757904052,-0.0002149283175481,0.000124936961983,1.6403999998898346,0.0214928317548123,-0.0124936961983014,-0.0399999889834725,3.488744428600588,0.2989917993545532,-0.1733556389808654,3.471583127975464,12.909750173290377,-0.5248715673730031,0.1831832269788729,-1.3339658828341383
1.92,-0.0051291612908244,0.0133625194430351,1.600889801979065,-0.0012951076144409,0.045416461408167,-0.0232188959034139,0.5162296295166016,-0.3683770298957824,0.0913238525390625,-0.0002149283175481,0.000124936961983,1.6403999998898346,0.0214928317548123,-0.0124936961983014,-0.0399999889834725,2.036103954395374,0.5157262086868286,0.2705425024032593,1.951038837432861,11.664291307305575,-0.4863724835744608,0.182949044475313,-1.1178176151678338
1.94,0.0063071483746171,0.0052504120394587,1.6045074462890625,-0.0389979476164217,0.0061248203139422,-0.0256489177550697,0.5146339535713196,-0.3650448322296142,0.1627939939498901,-0.0002149283175481,0.000124936961983,1.6403999998898346,0.0214928317548123,-0.0124936961983014,-0.0399999889834725,3.578278509385647,-0.0797837972640991,0.1666098833084106,3.573507070541382,10.890413307444303,-0.4113459373060508,0.2135083149016724,-1.3059146958514607
1.96,0.0174055900424718,-0.0023673856630921,1.609583854675293,-0.0740057287074162,-0.0259931563531439,-0.0279778085480075,0.4994298815727234,-0.342800885438919,0.2284383773803711,-0.0002149283175481,0.000124936961983,1.6403999998898346,0.0214928317548123,-0.0124936961983014,-0.0399999889834725,3.5479367420142154,-0.7602035999298096,1.1121973395347595,3.282219171524048,10.13103439401857,-0.376772161671185,0.126694554573258,-1.3869330508310178
1.98,0.0284454338252544,-0.0092071741819381,1.6149901151657104,-0.1062544739653281,-0.0567826262078581,-0.0277792155514263,0.4967929720878601,-0.3077904880046844,0.2432817220687866,-0.0002149283175481,0.000124936961983,1.6403999998898346,0.0214928317548123,-0.0124936961983014,-0.0399999889834725,1.9059158570576624,-0.131845474243164,1.750519871711731,0.7421672344207764,9.75549619741696,-0.3522527787071721,0.1334357376649769,-1.1130880804377536
2.0,0.0387072078883647,-0.0155144538730382,1.6210371255874634,-0.1328270348227171,-0.0820885305514646,-0.0282331984993023,0.4617798328399658,-0.2838275730609894,0.2721154689788818,-0.0002149283175481,0.000124936961983,1.6403999998898346,0.0214928317548123,-0.0124936961983014,-0.0399999889834725,2.564920161265563,-1.7506569623947144,1.1981457471847534,1.4416873455047607,9.132141048063204,-0.2399990370927254,0.1556472981234675,-1.327837540418803
2.02,0.0435407795011997,-0.0182551257312297,1.6243294477462769,-0.1468038077996667,-0.0934219580624115,-0.0286505098590495,0.4510072469711303,-0.2693167626857757,0.2844268083572387,-0.0002149283175481,0.000124936961983,1.6403999998898346,0.0214928317548123,-0.0124936961983014,-0.0399999889834725,1.0933678490516383,-0.5386292934417725,0.7255405187606812,0.6155669689178467,8.993229657804932,-0.2971523786261119,0.0922511455080878,-1.115314859924757
2.04,0.0530694425106048,-0.0230036061257123,1.6299843788146973,-0.162341769135808,-0.1119066049817571,-0.0278359833024407,0.4287898242473602,-0.213681623339653,0.2544718980789184,-0.0002149283175481,0.000124936961983,1.6403999998898346,0.0214928317548123,-0.0124936961983014,-0.0399999889834725,3.348947316818903,-1.110871136188507,2.781756967306137,-1.4977455139160156,8.32842152336434,-0.2715545756950485,0.0528997070754347,-0.9470762684585712
2.06,0.0620173998177051,-0.0269995089620351,1.635257363319397,-0.1753366706420825,-0.1252029221758927,-0.0271655302523053,0.402658075094223,-0.1798156201839447,0.2372843027114868,-0.0002149283175481,0.000124936961983,1.6403999998898346,0.0214928317548123,-0.0124936961983014,-0.0399999889834725,2.304988024946925,-1.3065874576568604,1.6933001577854156,-0.859379768371582,8.930132916802904,-0.2123897312272023,0.0637375288425104,-1.046386814456578
2.08,0.0702071562409401,-0.0302851628512144,1.6394909620285034,-0.1780688445123346,-0.1336756403938749,-0.0256387601669198,0.368539035320282,-0.1478544175624847,0.19051194190979,-0.0002149283175481,0.000124936961983,1.6403999998898346,0.0214928317548123,-0.0124936961983014,-0.0399999889834725,3.306539385471573,-1.705951988697052,1.598060131072998,-2.338618040084839,8.665456224230184,-0.1833942241218549,0.0615937686643694,-0.8787238932517986
2.1,0.0778006836771965,-0.0328934900462627,1.642753839492798,-0.1730057505275739,-0.1415140743520038,-0.0237226623536953,0.3417087197303772,-0.1173747256398201,0.1468294858932495,-0.0002149283175481,0.000124936961983,1.6403999998898346,0.0214928317548123,-0.0124936961983014,-0.0399999889834725,2.9820439374661443,-1.3415157794952393,1.523984596133232,-2.1841228008270264,9.1952499553513,-0.2285880115554347,0.0490106521587683,-0.9384534939444544
2.12,0.0812369436025619,-0.0337410531938076,1.6441410779953003,-0.1669093096204776,-0.1439438848125121,-0.0230753112165352,0.3220320343971252,-0.0907205194234848,0.1301515102386474,-0.0002149283175481,0.000124936961983,1.6403999998898346,0.0214928317548123,-0.0124936961983014,-0.0399999889834725,1.8545710600178131,-0.9838342666625975,1.3327103108167648,-0.8338987827301025,8.877860746879378,-0.2335822944752797,0.0355299539178841,-1.0045235770496932
2.14,0.0877415761351585,-0.0353407114744186,1.6456780433654783,-0.1496571968301607,-0.1487016760630092,-0.0198036973314425,0.2927084565162658,-0.0719846189022064,0.06916344165802,-0.0002149283175481,0.000124936961983,1.6403999998898346,0.0214928317548123,-0.0124936961983014,-0.0399999889834725,3.510858405459191,-1.4661788940429688,0.9367950260639192,-3.049403429031372,9.235276992040326,-0.3128651612758074,0.1717876604924639,-0.9442241123801016
2.16,0.0934674218297004,-0.0363741070032119,1.6465450525283811,-0.1227983130753068,-0.1514842262195965,-0.0165680969281457,0.2576630711555481,-0.0465027987957,0.0390154123306274,-0.0002149283175481,0.000124936961983,1.6403999998898346,0.0214928317548123,-0.0124936961983014,-0.0399999889834725,2.6393208706724565,-1.752269268035889,1.2740910053253174,-1.507401466369629,9.239547617601149,-0.2442836157792581,0.0662178530509635,-0.9343424927327796
2.18,0.0983639359474182,-0.0367237366735935,1.6466047763824463,-0.0932182725462454,-0.1511383288078109,-0.0157065667679282,0.220343142747879,-0.0157333351671695,0.0026875734329223,-0.0002149283175481,0.000124936961983,1.6403999998898346,0.0214928317548123,-0.0124936961983014,-0.0399999889834725,3.024586263986622,-1.8659964203834531,1.5384731814265251,-1.816391944885254,9.759533066041058,-0.2623446175556383,0.0873162474974474,-0.7910968181280436
2.2,0.1024729236960411,-0.0370294041931629,1.6458160877227783,-0.0589867271611782,-0.1482599477439088,-0.0114187656860663,0.1849044561386108,-0.0137550383806228,-0.0354909896850585,-0.0002149283175481,0.000124936961983,1.6403999998898346,0.0214928317548123,-0.0124936961983014,-0.0399999889834725,2.606442426238896,-1.7719343304634094,0.0989148393273353,-1.908928155899048,9.907004527079152,-0.2972346565377022,0.1570108439067131,-0.8294010421886315
2.22,0.1041515320539474,-0.0370122529566288,1.645532727241516,-0.0433581989242794,-0.1476706915979103,-0.0110188620113364,0.1622763276100158,0.0020983256399631,-0.0437253713607788,-0.0002149283175481,0.000124936961983,1.6403999998898346,0.0214928317548123,-0.0124936961983014,-0.0399999889834725,1.4414978260972695,-1.1314064264297483,0.7926682010293007,-0.4117190837860107,10.559369398579292,-0.3501914619700833,0.0827072799851506,-0.9070548890513516
2.24,0.1068847402930259,-0.0369227789342403,1.6447405815124512,-0.0131682983837687,-0.1469289509657057,-0.0077678272227787,0.1229943707585334,0.0040263310074806,-0.0356465578079223,-0.0002149283175481,0.000124936961983,1.6403999998898346,0.0214928317548123,-0.0124936961983014,-0.0399999889834725,2.0075212123416764,-1.96409784257412,0.0964002683758735,0.4039406776428222,10.8220186986091,-0.4316833506277089,0.2095897436756548,-0.8607278460972756
