t,x,y,z,roll,pitch,yaw,v_x,v_y,v_z,ref_x,ref_y,ref_z,ref_v_x,ref_v_y,ref_v_z,a_com,a_x,a_y,a_z,thrust,wind_x,wind_y,wind_z
0.0,1.465553879737854,0.4032667577266693,2.382310390472412,0.0138416594114274,0.0907368278726534,0.0041206002040585,0.0202131271362304,-0.0008086860179901,-0.0066196918487548,1.46,0.3700000000000001,2.38,-0.2380294173920625,-0.1825979092322671,0.0,1.0642424557796746,1.0106563568115234,-0.0404343008995056,-0.3309845924377441,12.340560561519853,-0.9971398840825704,0.1236776452551706,-2.333358676555665
0.02,1.4657970666885376,0.4032382071018219,2.3823459148406982,0.0463006729338855,0.0837292096621312,0.0010152596387965,0.0207281112670898,0.0003057718276977,-0.0057291984558105,1.4552394116521588,0.3663480418153547,2.38,-0.2380294173920625,-0.1825979092322671,0.0,0.0758321077731876,0.0257492065429687,0.0557228922843933,0.0445246696472168,12.541916320028577,-0.9819961282685477,0.1329093803017154,-2.3648693106235177
0.04,1.4663180112838743,0.4031510055065155,2.382363557815552,0.0137113597821676,0.0878467974175443,0.0034522940923208,0.0232493877410888,-0.0026560574769973,0.0011265277862548,1.4504788233043175,0.3626960836307094,2.38,-0.2380294173920625,-0.1825979092322671,0.0,0.3941137215152384,0.1260638236999511,-0.1480914652347564,0.3427863121032715,12.053066415458488,-0.9704477083714746,0.1954989832463972,-2.335699886359509
0.06,1.4669160842895508,0.4030385613441467,2.3822410106658936,0.0154303511017784,0.0862766951852317,0.0042801346046114,0.0251778960227966,-0.0044920295476913,-0.0023603439331054,1.4457182349564763,0.359044125446064,2.38,-0.2380294173920625,-0.1825979092322671,0.0,0.219363921510915,0.0964254140853881,-0.0917986035346984,-0.1743435859680175,11.979621614961616,-0.9821433919989608,0.1779452240851952,-2.406513112929707
0.08,1.4674259424209597,0.4029256701469421,2.3819823265075684,0.0207950194487087,0.0815606946623756,0.0052300373654572,0.0249284505844116,-0.0050700455904006,-0.0085777044296264,1.4409576466086351,0.3553921672614186,2.38,-0.2380294173920625,-0.1825979092322671,0.0,0.312457585585869,-0.0124722719192504,-0.0289008021354675,-0.3108680248260498,11.97942141222211,-0.9852734954419226,0.1647014652420547,-2.450011389690706
0.1,1.467968463897705,0.402620792388916,2.381978273391724,0.0350151406205446,0.0684347896990896,0.0084664337778834,0.0236785411834716,-0.009399801492691,-0.0059115886688232,1.436197058260794,0.3517402090767733,2.38,-0.2380294173920625,-0.1825979092322671,0.0,0.2618073381991969,-0.062495470046997,-0.2164877951145172,0.1333057880401611,12.083101795568837,-0.9840512872335208,0.1738579761592652,-2.481771510493736
0.12,1.4682393074035645,0.4023399949073791,2.382023334503174,0.0845752416275318,0.0405583459780707,0.0075027599413415,0.0235363841056823,-0.0129362940788269,-0.0048762559890747,1.4314364699129527,0.3480882508921279,2.38,-0.2380294173920625,-0.1825979092322671,0.0,0.1843834469544026,-0.0071078538894653,-0.1768246293067932,0.0517666339874267,13.487242513298495,-0.972910582219987,0.1800162941557525,-2.485291995566899
0.14,1.468570351600647,0.4018968641757965,2.381908655166626,0.0632323017684901,0.0289712785936769,0.011617373848325,0.0198134779930114,-0.0203023105859756,-0.0018292665481567,1.4266758815651115,0.3444362927074825,2.38,-0.2380294173920625,-0.1825979092322671,0.0,0.4398930942865997,-0.1861453056335449,-0.3683008253574371,0.1523494720458984,12.858629841830409,-0.9130771715738892,0.2414757748938505,-2.4217842840165256
0.16,1.468519687652588,0.4011493027210235,2.381901741027832,0.0876809432848412,-0.0010718379570423,0.0111997299146869,0.0063085556030273,-0.0267905741930007,-0.0027358531951904,1.4219152932172705,0.3407843345228372,2.38,-0.2380294173920625,-0.1825979092322671,0.0,0.750503818681693,-0.6752461194992065,-0.3244131803512573,-0.0453293323516845,13.186006166978132,-0.8694993162314363,0.2723812575394758,-2.372544276580709
0.18,1.4681848287582395,0.3999717235565185,2.382141590118408,0.1088820543166923,-0.0369622086635244,0.0107184304330217,-0.0086742639541625,-0.0433156639337539,0.0052410364151,1.417154704869429,0.3371323763381918,2.38,-0.2380294173920625,-0.1825979092322671,0.0,1.1844769316854804,-0.7491409778594971,-0.8262544870376587,0.3988444805145263,12.47768340987841,-0.8450464292580551,0.3277057195745443,-2.3413342423479966
0.2,1.467198371887207,0.3983034491539001,2.382276058197021,0.1262290362111428,-0.0677154031392979,0.0069780845175999,-0.0297296047210693,-0.0640317052602768,0.0084221363067626,1.4123941162835585,0.3334804179709485,2.38,-0.2380294173920625,-0.1825979092322671,0.0,1.4854301898553683,-1.052767038345337,-1.0358020663261414,0.1590549945831298,13.347462943010214,-0.7865700768047909,0.3449589090961746,-2.2811946129338745
0.22,1.4665093421936035,0.3973108530044555,2.382561206817627,0.131615452759439,-0.0833582328857652,0.0063327596394132,-0.0414294004440307,-0.0732538104057312,0.0129175186157226,1.4076335279357173,0.3298284597863031,2.38,-0.2380294173920625,-0.1825979092322671,0.0,0.7780438698694202,-0.5849897861480713,-0.4611052572727203,0.224769115447998,13.150435767423003,-0.7104531506714908,0.3849796644989703,-2.4066188536134416
0.24,1.4644358158111572,0.3947387337684631,2.383142232894897,0.1399152765665426,-0.109703938115571,0.002773960968197,-0.0753083825111389,-0.0995414704084396,0.0181210041046142,1.402872939587876,0.3261765016016578,2.38,-0.2380294173920625,-0.1825979092322671,0.0,2.15980482657261,-1.6939491033554075,-1.3143830001354218,0.2601742744445801,12.547987404005651,-0.6500163758067595,0.4333758292079264,-2.4010744188363606
0.26,1.4613795280456543,0.3916869461536407,2.3836472034454346,0.1415586921877456,-0.123385142445856,-0.0010967686574254,-0.1154208183288574,-0.1265379041433334,0.0244349241256713,1.3981123512400349,0.3225245434170125,2.38,-0.2380294173920625,-0.1825979092322671,0.0,2.4380732801053195,-2.0056217908859253,-1.34982168674469,0.3156960010528564,12.69262606323946,-0.5348085450199714,0.4985260973062444,-2.4710774125376864
0.28,1.45757257938385,0.3879248797893524,2.3845832347869877,0.1328261278553044,-0.1317260194413663,-0.0031374804973577,-0.1544228196144104,-0.1533117145299911,0.0324225425720214,1.393351763130223,0.318872585414965,2.38,-0.2380294173920625,-0.1825979092322671,0.0,2.3988513268559646,-1.950100064277649,-1.3386905193328855,0.3993809223175049,12.231111917269118,-0.5331329434783496,0.4894734171021334,-2.41844081011324
0.3,1.4526326656341553,0.3836265206336975,2.385459423065185,0.1191948173333195,-0.1316268386000309,-0.0044958427852537,-0.196804404258728,-0.1813595741987228,0.0407749414443969,1.3885911747823818,0.3152206272303196,2.38,-0.2380294173920625,-0.1825979092322671,0.0,2.575191117122953,-2.1190792322158813,-1.4023929834365845,0.4176199436187744,12.572739571902275,-0.4893489118573437,0.4829841356917858,-2.474654691359908
0.32,1.4498614072799685,0.3812987506389618,2.386026620864868,0.1104121576747365,-0.1291307194876186,-0.0050451878281748,-0.2219554781913757,-0.1928548514842987,0.0451576709747314,1.3838305864345406,0.3115686690456742,2.38,-0.2380294173920625,-0.1825979092322671,0.0,1.3999341394989384,-1.2575536966323853,-0.5747638642787933,0.2191364765167236,12.68823030018848,-0.4857897127271692,0.4416179332296394,-2.497839444242662
0.34,1.4435644149780271,0.3762895464897156,2.3869435787200928,0.0923009721831202,-0.1123898115593002,-0.0052610294964714,-0.2633419632911682,-0.2124135196208953,0.0443583726882934,1.3790699980866994,0.3079167108610289,2.38,-0.2380294173920625,-0.1825979092322671,0.0,2.2891163829868777,-2.069324254989624,-0.977933406829834,-0.0399649143218994,13.596577258965226,-0.5350743558840776,0.4165080657015591,-2.446712698028038
0.36,1.436281681060791,0.3709036707878113,2.388195514678955,0.071515215096879,-0.0875606752267598,-0.0039894574500464,-0.305543839931488,-0.2338892966508865,0.0488001108169555,1.3743094097388582,0.3042647526763835,2.38,-0.2380294173920625,-0.1825979092322671,0.0,2.3779909738108125,-2.110093832015991,-1.0737888514995575,0.2220869064331054,12.203610740979457,-0.4584300532232493,0.4307722878524062,-2.474504986604781
0.38,1.4283757209777832,0.3653503358364105,2.389401435852051,0.052826767884791,-0.0539055399311369,-0.001931791521984,-0.3417456150054931,-0.2461322396993637,0.0553017854690551,1.369548821391017,0.3006127944917381,2.38,-0.2380294173920625,-0.1825979092322671,0.0,1.9382530448053403,-1.8100887537002563,-0.6121471524238586,0.3250837326049804,12.381835015453362,-0.5374593513956978,0.3483274577929285,-2.4319831851245457
0.4,1.419890284538269,0.359470009803772,2.39060378074646,0.0333204803198633,-0.0167650010511209,-0.0009991900666566,-0.3688064217567444,-0.2572573721408844,0.0541859865188598,1.3647882330431758,0.2969608363070928,2.38,-0.2380294173920625,-0.1825979092322671,0.0,1.4639850077504182,-1.353040337562561,-0.5562566220760345,-0.0557899475097656,11.95553154368372,-0.6155285183454438,0.3106760459424014,-2.4214398645633275
0.42,1.41557514667511,0.3565930724143982,2.3912267684936523,0.0248938525966202,0.0014768784052403,0.0005219787565829,-0.3777891397476196,-0.2612887322902679,0.053107738494873,1.3600276446953343,0.2933088781224474,2.38,-0.2380294173920625,-0.1825979092322671,0.0,0.4952365746763434,-0.4491358995437622,-0.2015680074691772,-0.0539124011993408,12.151773662307733,-0.6735494277478575,0.2563896664734751,-2.4851498254564763
0.44,1.4065252542495728,0.3507192432880401,2.3922369480133057,0.0102281438125498,0.0387229550567044,0.0027958789864497,-0.3968489170074463,-0.2612149715423584,0.0521957874298095,1.3552670563474931,0.289656919937802,2.38,-0.2380294173920625,-0.1825979092322671,0.0,0.9540862180474152,-0.952988862991333,0.0036880373954772,-0.0455975532531738,11.715618606020143,-0.7131836926581265,0.2145579877414158,-2.5
0.46,1.3974026441574097,0.3449509143829345,2.393078088760376,-0.0001026447308036,0.0732591500786291,0.002588909589923,-0.4088813066482544,-0.2619485557079315,0.0416547060012817,1.350506467999652,0.2860049617531567,2.38,-0.2380294173920625,-0.1825979092322671,0.0,0.800673066674314,-0.6016194820404053,-0.036679208278656,-0.5270540714263916,11.76444602236188,-0.7646821629548501,0.2022921704594104,-2.5
0.48,1.3881542682647705,0.3391475975513458,2.393765687942505,-0.0071291596285523,0.1071222832456228,0.0045232193638853,-0.4133471846580505,-0.2603620290756225,0.0343966484069824,1.345745879651811,0.2823530035685113,2.38,-0.2380294173920625,-0.1825979092322671,0.0,0.4334181964211134,-0.2232939004898071,0.079326331615448,-0.3629028797149658,11.344503295337743,-0.8541843087580469,0.1738266847212726,-2.5
0.5,1.379133701324463,0.3336078524589538,2.394254684448242,-0.0127696711494297,0.1346425950004803,0.0057782219980415,-0.4110512137413025,-0.255218893289566,0.0264734029769897,1.3409852913039697,0.278701045383866,2.38,-0.2380294173920625,-0.1825979092322671,0.0,0.4860585003584133,0.1147985458374023,0.2571567893028259,-0.3961622714996338,11.223791261711083,-0.9215878950719284,0.1556737569891673,-2.5
0.52,1.37469744682312,0.330683022737503,2.3943305015563965,0.0159648970152134,0.1500654526221099,0.0040427165646498,-0.4069098830223083,-0.2542050182819366,0.0172626972198486,1.3362247029561285,0.2750490871992206,2.38,-0.2380294173920625,-0.1825979092322671,0.0,0.5074831603112868,0.207066535949707,0.0506937503814697,-0.4605352878570556,11.489541609188564,-0.9936393146687376,0.1475262540133674,-2.5
0.54,1.3661274909973145,0.3255070447921753,2.394474029541016,-0.0167051930345008,0.1685188437698502,0.0069501722553988,-0.3932520747184753,-0.2442137897014618,0.0090658664703369,1.3314641146082873,0.2713971290145752,2.38,-0.2380294173920625,-0.1825979092322671,0.0,0.9401441519092808,0.6828904151916504,0.4995614290237427,-0.4098415374755859,11.118869597647972,-1.0272702677716747,0.1676929086022723,-2.5
0.56,1.3580124378204346,0.3202250003814697,2.3941969871521,-0.0186097755293252,0.1848310061145428,0.0071430255567821,-0.3754127025604248,-0.2353055030107498,-0.0030040740966796,1.326703526260446,0.2677451708299299,2.38,-0.2380294173920625,-0.1825979092322671,0.0,1.1654229232864972,0.8919686079025269,0.4454143345355987,-0.6034970283508301,11.46922926860134,-1.0948615156018324,0.1578823872787027,-2.5
0.58,1.350346922874451,0.3151546418666839,2.3936707973480225,-0.0193828901544316,0.1946600096793386,0.0078862204718276,-0.3550627827644348,-0.232929065823555,-0.0180727243423461,1.3219429379126049,0.2640932126452845,2.38,-0.2380294173920625,-0.1825979092322671,0.0,1.2716435326322122,1.0174959897994995,0.1188218593597412,-0.7534325122833252,11.410140046107244,-1.08974360654202,0.1726803314265931,-2.4671104554523824
0.6,1.3431919813156128,0.3102203905582428,2.392822742462158,-0.0196027486098817,0.1985147820529204,0.0086030364265024,-0.33346027135849,-0.2251037210226059,-0.0309205055236816,1.3171823495647637,0.2604412544606391,2.38,-0.2380294173920625,-0.1825979092322671,0.0,1.3162161691580097,1.0801255702972412,0.3912672400474548,-0.6423890590667725,11.7506229454375,-1.0886878449485102,0.1409391171634935,-2.3957140301836577
0.62,1.3399150371551514,0.307861328125,2.3922836780548096,0.0132414431393899,0.1908930840158199,0.0072978602287333,-0.3190487623214721,-0.2185919880867004,-0.0382322072982788,1.3124217612169224,0.2567892962759938,2.38,-0.2380294173920625,-0.1825979092322671,0.0,0.8711418389006029,0.7205754518508911,0.3255866467952728,-0.3655850887298584,11.35536170882824,-1.1055399291898211,0.1399028212346411,-2.3574114277707365
0.64,1.333526372909546,0.3031937181949615,2.390931367874145,-0.01625845164073,0.1934239383327778,0.0099791273550337,-0.2970492839813232,-0.212373286485672,-0.0528234243392944,1.3076611728690812,0.2531373380913484,2.38,-0.2380294173920625,-0.1825979092322671,0.0,1.3560539365926234,1.0999739170074463,0.3109350800514221,-0.7295608520507812,11.53757537470301,-1.051807456351704,0.2163362163515569,-2.2915052547479124
0.66,1.3276777267456057,0.2987681925296783,2.3891806602478027,-0.0120676512134355,0.1824635168904775,0.0115043392671388,-0.2753394842147827,-0.2045955508947372,-0.0698179006576538,1.30290058452124,0.249485379906703,2.38,-0.2380294173920625,-0.1825979092322671,0.0,1.4323239875819418,1.0854899883270264,0.3888867795467376,-0.8497238159179688,11.995373404675776,-1.096395114445932,0.1926529745986872,-2.2385919469651987
0.68,1.322379469871521,0.2942764461040497,2.387227296829224,-0.0066942836214563,0.1674411187869466,0.0112769868506043,-0.2508053183555603,-0.2006386220455169,-0.0833415985107421,1.2981399961733988,0.2458334217220577,2.38,-0.2380294173920625,-0.1825979092322671,0.0,1.4146315632941793,1.2267082929611206,0.1978464424610138,-0.676184892654419,11.778956387233848,-1.0753733465949589,0.2001306159658934,-2.2307751252951338
0.7000000000000001,1.3174219131469729,0.2901954650878906,2.38494873046875,0.0006929615192649,0.1514397294289844,0.012738050443815,-0.2307558059692382,-0.1928863674402237,-0.0952184200286865,1.2933794078255576,0.2421814635374123,2.38,-0.2380294173920625,-0.1825979092322671,0.0,1.2279447134986132,1.002475619316101,0.3876127302646637,-0.5938410758972168,11.864696896656824,-1.0278077680884252,0.1890771785667967,-2.253453469459174
0.72,1.315174579620361,0.2881062626838684,2.383877992630005,0.0388014183554701,0.1255413483954365,0.0101612271367185,-0.2193993330001831,-0.19085593521595,-0.0944674015045166,1.2886188194777164,0.238529505352767,2.38,-0.2380294173920625,-0.1825979092322671,0.0,0.5780487914914627,0.5678236484527588,0.101521611213684,0.037550926208496,12.212837776776723,-0.991487361415772,0.2096933495192823,-2.225731313326546
0.74,1.310776948928833,0.2839277982711792,2.3814568519592285,0.0096534743148006,0.1200913838109741,0.0121234180102533,-0.2044433355331421,-0.1866455376148224,-0.1042413711547851,1.2838582311298752,0.2348775471681217,2.38,-0.2380294173920625,-0.1825979092322671,0.0,0.9177959889295788,0.7477998733520508,0.2105198800563812,-0.4886984825134277,12.642562471746714,-0.904344741509658,0.2634440502057274,-2.136476183398353
0.76,1.3065110445022583,0.2799024879932403,2.379265069961548,0.0159457551718651,0.0963636959725029,0.012100149325866,-0.1949295401573181,-0.1845849305391311,-0.1037907600402832,1.279097642782034,0.2312255889834764,2.38,-0.2380294173920625,-0.1825979092322671,0.0,0.4872408397034034,0.4756897687911987,0.1030303537845611,0.0225305557250976,12.94574743460953,-0.9029305982998028,0.2628651481460578,-2.162751531724955
0.78,1.3024815320968628,0.2756305038928985,2.377147912979126,0.0190788120150977,0.0733090252132927,0.0104571247231939,-0.1866468787193298,-0.1866891235113144,-0.0969511270523071,1.2743370544341928,0.227573630798831,2.38,-0.2380294173920625,-0.1825979092322671,0.0,0.5472903433524429,0.414133071899414,-0.1052096486091613,0.3419816493988037,13.080139547506406,-0.8811452073684449,0.2607142918849748,-2.1352193963582207
0.8,1.2984917163848877,0.271511048078537,2.3747329711914062,0.0231590858284599,0.0545283252178925,0.0088264250498544,-0.1804348826408386,-0.1888073980808258,-0.101972222328186,1.2695764660863516,0.2239216726141857,2.38,-0.2380294173920625,-0.1825979092322671,0.0,0.4131808931947435,0.3105998039245605,-0.1059137284755706,-0.2510547637939453,13.923849077464638,-0.8250597802457765,0.2435489433977852,-2.0774335144412848
0.8200000000000001,1.2964529991149902,0.2693747580051422,2.373763084411621,0.024727872266078,0.0445466649141752,0.0083697987992298,-0.1805609464645385,-0.1890883594751358,-0.0956100225448608,1.2648158777385103,0.2202697144295403,2.38,-0.2380294173920625,-0.1825979092322671,0.0,0.3184824071894774,-0.0063031911849975,-0.0140480697154998,0.3181099891662597,13.388035217492416,-0.7659370298561834,0.2358605638641396,-2.137951653870199
0.84,1.2922557592391968,0.2653249204158783,2.372022867202759,0.0275617988506844,0.0284259771873129,0.0077039617688417,-0.1857081055641174,-0.1890943944454193,-0.0867050886154174,1.2600552893906691,0.216617756244895,2.38,-0.2380294173920625,-0.1825979092322671,0.0,0.514274079419222,-0.2573579549789428,-0.0003017485141754,0.4452466964721679,13.146093323927744,-0.7377588059326798,0.2422703051181307,-2.1410758372768277
0.86,1.2879024744033811,0.260981798171997,2.3703060150146484,0.0289038689668315,0.0159258583246853,0.0057212470645246,-0.1923868060111999,-0.1888415962457656,-0.0777840614318847,1.255294701042828,0.2129657980602497,2.38,-0.2380294173920625,-0.1825979092322671,0.0,0.557345657112662,-0.333935022354126,0.0126399099826812,0.4460513591766357,13.14022260432921,-0.7176998965023029,0.2531331906624287,-2.229188644039656
0.88,1.2832090854644775,0.2566476762294769,2.368835926055908,0.0299009508195772,0.006005444046126,0.0045897163381441,-0.2035501599311828,-0.1952379941940307,-0.0717061758041381,1.2505341126949867,0.2093138398756043,2.38,-0.2380294173920625,-0.1825979092322671,0.0,0.7114686766810889,-0.5581676959991455,-0.3198198974132538,0.3038942813873291,13.006816544304456,-0.6952646149478082,0.2693461724232561,-2.299613598732663
0.9,1.2783342599868774,0.2521549761295318,2.367703437805176,0.0301959218022756,0.0011646317266654,0.0039740250088107,-0.2152848243713379,-0.1986034959554672,-0.0585579872131347,1.2457735243471455,0.205661881690959,2.38,-0.2380294173920625,-0.1825979092322671,0.0,0.8970839075218429,-0.5867332220077515,-0.1682750880718231,0.6574094295501709,12.77460550849355,-0.7025706809544385,0.2423436076337667,-2.490062453553985
0.92,1.275718092918396,0.2498528808355331,2.3672261238098145,0.0297081463145154,-0.0021418712418118,0.0030322872823878,-0.2227762341499328,-0.2027491927146911,-0.0530701875686645,1.2410129359993043,0.2020099235063137,2.38,-0.2380294173920625,-0.1825979092322671,0.0,0.5084878735725062,-0.3745704889297485,-0.2072848379611969,0.2743899822235107,13.93730416688868,-0.6979612297431239,0.2371162962602102,-2.5
0.94,1.270283818244934,0.2454719096422195,2.3663904666900635,0.0291511532219532,-0.0016743478583045,0.0026282815661505,-0.2372226119041443,-0.2006523609161377,-0.0421482324600219,1.236252347651463,0.1983579653216683,2.38,-0.2380294173920625,-0.1825979092322671,0.0,0.9115695766149772,-0.7223188877105713,0.1048415899276733,0.5460977554321289,13.97079817112899,-0.6955541826816963,0.2083635544616505,-2.5
0.96,1.2643964290618896,0.2407914847135543,2.3656411170959477,0.0280502012985627,0.0026059278274325,0.0016888951325854,-0.2547374367713928,-0.2038814127445221,-0.0356626510620117,1.231491759303622,0.194706007137023,2.38,-0.2380294173920625,-0.1825979092322671,0.0,0.9477059563902152,-0.8757412433624268,-0.1614525914192199,0.3242790699005127,13.38023045943919,-0.672538070561832,0.2350795678822855,-2.5
0.98,1.258306860923767,0.2361691892147064,2.365313768386841,0.0245625214252717,0.0061607318372702,0.0015448157194806,-0.2694815397262573,-0.2093112170696258,-0.0242257118225097,1.2267311709557809,0.1910540489523776,2.38,-0.2380294173920625,-0.1825979092322671,0.0,0.9716930149494478,-0.7372051477432251,-0.271490216255188,0.5718469619750977,12.77854618670699,-0.6969293448087488,0.2324614044518747,-2.5
1.0,1.2518699169158936,0.2314323186874389,2.365164041519165,0.0213058332074194,0.0111572990073332,0.0010828837742008,-0.2818465232849121,-0.2105812430381775,-0.0107342004776,1.2219705826079394,0.1874020907677323,2.38,-0.2380294173920625,-0.1825979092322671,0.0,0.9172331529338996,-0.6182491779327393,-0.0635012984275817,0.6745755672454834,12.439380136170255,-0.7217683809631545,0.2040610222409095,-2.5
1.02,1.2485272884368896,0.2292198240756988,2.365102529525757,0.0215462075111106,0.0157106690566295,0.0016851460208694,-0.2897375822067261,-0.2088988125324249,-0.0095647573471069,1.2172099942600982,0.183750132583087,2.38,-0.2380294173920625,-0.1825979092322671,0.0,0.4076364205688822,-0.3945529460906982,0.0841215252876281,0.0584721565246582,13.239466541623187,-0.7325015951321467,0.2043959546334909,-2.5
1.04,1.2417333126068115,0.224337637424469,2.36535120010376,0.0165718269241305,0.0228280852189812,0.0010128733113725,-0.2993479371070862,-0.2121845185756683,0.0042754411697387,1.212449405912257,0.1800981743984416,2.38,-0.2380294173920625,-0.1825979092322671,0.0,0.858349987620405,-0.4805177450180053,-0.1642853021621704,0.6920099258422852,12.291044109892937,-0.7549186393029701,0.2405401294702441,-2.5
1.06,1.2345049381256104,0.2195202261209488,2.36543869972229,0.0140244217390679,0.0342724773911351,8.796819252433905e-05,-0.3155028820037842,-0.2182409465312957,0.007563829421997,1.2076888175644158,0.1764462162137963,2.38,-0.2380294173920625,-0.1825979092322671,0.0,0.8781743299235134,-0.8077472448348999,-0.302821397781372,0.164419412612915,12.32692647870408,-0.751299457173445,0.2183809339238782,-2.5
1.08,1.2271758317947388,0.2147663980722427,2.365684747695923,0.0110953250827125,0.043364893255782,0.0004949311124412,-0.3275433182716369,-0.2153528928756714,0.0075048208236694,1.2029282292165746,0.172794258029151,2.38,-0.2380294173920625,-0.1825979092322671,0.0,0.6191050828669287,-0.6020218133926392,0.1444026827812194,-0.0029504299163818,12.054437205523756,-0.8109722933233203,0.1768079775274284,-2.5
1.1,1.2197593450546265,0.2101007550954818,2.366049289703369,0.0079735741301903,0.0546895620054174,0.0006662055895581,-0.3317758440971374,-0.2119380980730056,0.0137382745742797,1.1981676408687334,0.1691422998445056,2.38,-0.2380294173920625,-0.1825979092322671,0.0,0.4136152924785289,-0.2116262912750244,0.1707397401332855,0.3116726875305176,12.554333095689344,-0.8427305855896741,0.1914536045306617,-2.5
1.12,1.2160797119140625,0.2077324092388153,2.366293430328369,0.037800705332622,0.0626860950978096,-0.0012971076048362,-0.3338062763214111,-0.2114495933055877,0.0169730186462402,1.1934070525208922,0.1654903416598603,2.38,-0.2380294173920625,-0.1825979092322671,0.0,0.1925153314429935,-0.101521611213684,0.0244252383708953,0.1617372035980224,11.877063529021145,-0.866557217524089,0.1973335342185762,-2.5
1.14,1.2086124420166016,0.2029729187488556,2.3666110038757324,0.0029668824716445,0.0795518117832135,3.133062028061317e-05,-0.3363892436027527,-0.2122975140810012,0.014306902885437,1.188646464173051,0.1618383834752149,2.38,-0.2380294173920625,-0.1825979092322671,0.0,0.1903868618619872,-0.1291483640670776,-0.0423960387706756,-0.1333057880401611,11.872279732704555,-0.8739024562187896,0.2359321126369215,-2.5
1.16,1.201138973236084,0.1984120905399322,2.3671412467956543,0.0009007947665158,0.0997209261374568,0.0005318712669856,-0.3361666202545166,-0.2097071707248687,0.019075870513916,1.1838858758252098,0.1581864252905696,2.38,-0.2380294173920625,-0.1825979092322671,0.0,0.2715809828546557,0.0111311674118042,0.1295171678066253,0.2384483814239502,12.014216952517016,-0.8934649238135551,0.2093440916178756,-2.5
1.18,1.1937587261199951,0.1939535439014434,2.3672797679901123,0.0020399882808315,0.1185514539549958,0.0013671974945272,-0.334208607673645,-0.2029359340667724,0.0150471925735473,1.1791252874773686,0.1545344671059243,2.38,-0.2380294173920625,-0.1825979092322671,0.0,0.405936279156014,0.0979006290435791,0.3385618329048157,-0.2014338970184326,12.199220331323431,-0.9405756345837144,0.1957674315528864,-2.5
1.2,1.186710238456726,0.1894020438194275,2.3677568435668945,-0.0011273940097244,0.1329116591506724,0.0010031271802047,-0.324646532535553,-0.2027260512113571,0.0138509273529052,1.1743646991295271,0.1508825089212789,2.38,-0.2380294173920625,-0.1825979092322671,0.0,0.4819449715414434,0.478103756904602,0.0104941427707672,-0.0598132610321044,11.674763045973124,-0.9657073338688812,0.2269977572332726,-2.5
1.22,1.183191180229187,0.1871713995933532,2.3678066730499268,-0.0012416122880076,0.1380182143403727,0.0008207362511995,-0.32122403383255,-0.2027743309736251,0.0132554769515991,1.169604110781686,0.1472305507366336,2.38,-0.2380294173920625,-0.1825979092322671,0.0,0.1737123303619885,0.1711249351501464,-0.0024139881134033,-0.0297725200653076,11.796598506572993,-0.9969214370976414,0.1910806443548987,-2.5
1.24,1.176570177078247,0.1829495877027511,2.367910623550415,-0.0006047832508123,0.1458747377002806,0.0019804464060984,-0.3063619136810303,-0.1964091062545776,0.0107878446578979,1.164843522433845,0.1435785925519883,2.38,-0.2380294173920625,-0.1825979092322671,0.0,0.8177528817728205,0.7431060075759888,0.3182612359523773,-0.1233816146850586,11.664270032638342,-1.0177564372079655,0.1711516637884642,-2.5
1.26,1.1702691316604614,0.178597092628479,2.367995023727417,0.0007528655689823,0.1500072230958188,0.0022981241523153,-0.2907460927963257,-0.192921906709671,0.0042378902435302,1.1600829340860035,0.1399266343673429,2.38,-0.2380294173920625,-0.1825979092322671,0.0,0.8644598391473538,0.7807910442352295,0.1743599772453308,-0.3274977207183838,11.604237705978449,-1.046808843556992,0.1740024524957292,-2.4770137955821605
1.28,1.1643834114074707,0.1743242740631103,2.367856502532959,0.0049437764698821,0.1464096571563647,0.0030762473288884,-0.2742022275924682,-0.1940695643424987,-0.0012177228927612,1.1553223457381625,0.1362746761826976,2.38,-0.2380294173920625,-0.1825979092322671,0.0,0.8728979158791546,0.8271932601928711,-0.0573828816413879,-0.2727806568145752,11.720472024564517,-1.052306126579596,0.1717246935827765,-2.492273535415668
1.3,1.1586713790893557,0.1701879203319549,2.367541551589966,0.0098467778304317,0.1449154338434964,0.0035110452063048,-0.260949432849884,-0.189206376671791,-0.0102031230926513,1.1505617573903213,0.1326227179980522,2.38,-0.2380294173920625,-0.1825979092322671,0.0,0.8366967484724936,0.6626397371292114,0.2431593835353851,-0.4492700099945068,11.871272879475327,-1.0323145325484926,0.1494484266704525,-2.433161380991516
1.32,1.1560570001602173,0.1680498719215393,2.367305278778076,0.0462607103157987,0.1332134636525322,0.0010715695146146,-0.2525058388710022,-0.1878052651882171,-0.013630986213684,1.14580116904248,0.1289707598134069,2.38,-0.2380294173920625,-0.1825979092322671,0.0,0.4609979345022829,0.4221796989440918,0.0700555741786956,-0.1713931560516357,11.931559984726846,-1.0243702536611552,0.177959784441031,-2.4061790255859483
1.34,1.1509815454483032,0.1640191078186035,2.366767644882202,0.0165810989598489,0.1339868669372136,0.0036826822732997,-0.2338993549346923,-0.1859689503908157,-0.0151705741882324,1.1410405806946389,0.1253188016287616,2.38,-0.2380294173920625,-0.1825979092322671,0.0,0.93800803253315,0.9303241968154908,0.0918157398700714,-0.0769793987274169,12.204265105842753,-0.9829798228920344,0.2387366075271055,-2.364283651532082
1.36,1.1460192203521729,0.1599017530679702,2.366081953048706,0.0191306693157725,0.1248806614810149,0.004095463249867,-0.2258500456809997,-0.1833326816558838,-0.0275248289108276,1.1362799923467977,0.1216668434441162,2.38,-0.2380294173920625,-0.1825979092322671,0.0,0.7489474314915694,0.4024654626846313,0.1318134367465973,-0.6177127361297607,12.242348731067525,-0.9723382672620008,0.2412724892800396,-2.282889407167937
1.38,1.141542673110962,0.1556943207979202,2.365396738052368,0.0218115545836633,0.113691192640591,0.0040712045802475,-0.2123746275901794,-0.1873077154159546,-0.0308454036712646,1.1315194039989565,0.1180148852594708,2.38,-0.2380294173920625,-0.1825979092322671,0.0,0.7218275466753837,0.6737709045410156,-0.19875168800354,-0.1660287380218505,12.258337130202564,-0.9816361159684056,0.2545970967601009,-2.298068072723068
1.4,1.1371043920516968,0.1514869332313537,2.364529609680176,0.0227215084466279,0.1027733174537885,0.0028489322600842,-0.2005836367607116,-0.189333438873291,-0.0349277257919311,1.1267588156511152,0.1143629270748255,2.38,-0.2380294173920625,-0.1825979092322671,0.0,0.632052953009238,0.5895495414733887,-0.1012861728668212,-0.2041161060333252,12.062784146682134,-0.931093036900154,0.235696729195545,-2.268324458670926
1.42,1.1349939107894895,0.1494532376527786,2.3641908168792725,0.0230898430055409,0.096083104827018,0.0035955023311871,-0.1960265636444091,-0.186503380537033,-0.0314515829086303,1.121998227303274,0.1107109688901802,2.38,-0.2380294173920625,-0.1825979092322671,0.0,0.3196080213287543,0.2278536558151245,0.1415029168128967,0.173807144165039,12.497819302271637,-0.8979791230885934,0.2247192298403503,-2.272251429057908
1.44,1.1307756900787354,0.145209714770317,2.3633840084075928,0.0232784728780081,0.0854788570304298,0.0031952140272161,-0.1924967765808105,-0.1896978914737701,-0.0347828865051269,1.1172376389554328,0.1070590107055349,2.38,-0.2380294173920625,-0.1825979092322671,0.0,0.2905248719615586,0.1764893531799316,-0.159725546836853,-0.1665651798248291,12.310872609758915,-0.8827094174819592,0.2627323044628692,-2.238388356881924
1.46,1.1267911195755005,0.1410385221242904,2.3628108501434326,0.022492842770412,0.0722139366834316,0.0024393280507563,-0.1845628023147583,-0.1893310993909835,-0.0310492515563964,1.1124770506075916,0.1034070525208895,2.38,-0.2380294173920625,-0.1825979092322671,0.0,0.4388123574398166,0.3966987133026123,0.018339604139328,0.1866817474365234,13.12107482285728,-0.8836964089174947,0.2532460196848219,-2.265339279534336
1.48,1.1226153373718262,0.136645421385765,2.362143039703369,0.0230453524465021,0.0631735555207951,0.0013078399212695,-0.1836079359054565,-0.19269660115242,-0.0279217958450317,1.1077164622597504,0.0997550943362442,2.38,-0.2380294173920625,-0.1825979092322671,0.0,0.2346239075221914,0.0477433204650878,-0.1682750880718231,0.1563727855682373,12.664873377626463,-0.8371940748553038,0.2576432348669104,-2.2564281308500425
1.5,1.1185051202774048,0.1323618292808532,2.3615591526031494,0.0231567644567702,0.0526275265702418,0.0015922754190995,-0.1864349842071533,-0.1952255964279174,-0.028163194656372,1.1029558739119092,0.0961031361515989,2.38,-0.2380294173920625,-0.1825979092322671,0.0,0.1900413941075175,-0.1413524150848388,-0.1264497637748718,-0.0120699405670166,12.51702344684054,-0.8053729123054214,0.2447414506137658,-2.224251415073288
1.52,1.1163853406906128,0.1301992833614349,2.3613085746765137,0.0231250855816069,0.0489493785153968,0.0020834322559637,-0.188615620136261,-0.1952919661998748,-0.0249016284942626,1.098195285564068,0.0924511779669535,2.38,-0.2380294173920625,-0.1825979092322671,0.0,0.196197552429699,-0.1090317964553833,-0.0033184885978698,0.1630783081054687,12.783204631563876,-0.8077622548369131,0.2328353557584621,-2.281102112577404
1.54,1.1119686365127563,0.1257376074790954,2.3608107566833496,0.023737934470055,0.0435497194933232,0.0014662900493413,-0.1937171816825866,-0.1970119476318359,-0.0262695550918579,1.0934346972162268,0.0887992197823082,2.38,-0.2380294173920625,-0.1825979092322671,0.0,0.2777385889359279,-0.2550780773162842,-0.0859990715980529,-0.0683963298797607,12.54341100820966,-0.8245365084383295,0.2320337402714038,-2.275022091293546
1.56,1.1075812578201294,0.1214064359664917,2.360556602478028,0.0224592720728371,0.0358920897676896,0.0008138267013783,-0.1980918645858764,-0.1978390663862228,-0.0169193744659423,1.0886741088683856,0.0851472615976629,2.38,-0.2380294173920625,-0.1825979092322671,0.0,0.5178026981279661,-0.2187341451644897,-0.041355937719345,0.4675090312957763,12.538705314903382,-0.8061816927694523,0.2371797823915252,-2.3965959506804544
1.58,1.1029422283172607,0.1169835552573204,2.3604352474212646,0.021759711405443,0.0283849347695741,0.0003040130285696,-0.2030941843986511,-0.1969661712646484,-0.0084489583969116,1.0839135205205443,0.0814953034130175,2.38,-0.2380294173920625,-0.1825979092322671,0.0,0.49379423291752,-0.2501159906387329,0.04364475607872,0.4235208034515381,12.384186661811327,-0.7871354105977011,0.2379580706530903,-2.3931302461234623
1.6,1.1006239652633667,0.1147963032126426,2.3602211475372314,0.0220710124133675,0.0250458695173304,0.0005767845668399,-0.2084344625473022,-0.1999241411685943,-0.0113618373870849,1.0791529321727031,0.0778433452283722,2.38,-0.2380294173920625,-0.1825979092322671,0.0,0.3382048959913346,-0.2670139074325561,-0.1478984951972961,-0.145643949508667,12.500589928243244,-0.7743417753875956,0.2429637751431337,-2.386296397695874
1.62,1.0955252647399902,0.1102018803358078,2.360258102416992,0.0531478529796665,0.0097709085475354,-0.0031655471773032,-0.2222129702568054,-0.202525720000267,-0.0052517652511596,1.074392343824862,0.0741913870437268,2.38,-0.2380294173920625,-0.1825979092322671,0.0,0.7647687046167233,-0.6889253854751587,-0.1300789415836334,0.3055036067962646,12.401600863943711,-0.7825225068744965,0.2130404628327643,-2.485962907381197
1.64,1.0902525186538696,0.1057012751698494,2.3603720664978027,0.0198466412236554,0.0129971192408609,-0.0013884867073399,-0.233357548713684,-0.204638123512268,0.003395676612854,1.0696317554770207,0.0705394288590815,2.38,-0.2380294173920625,-0.1825979092322671,0.0,0.7131657036946858,-0.5572289228439331,-0.1056201756000518,0.4323720932006836,12.501015155724415,-0.7754031491617847,0.2548514291306921,-2.471549384845599
1.66,1.0847389698028564,0.1011478975415229,2.360393047332764,0.0222342257384254,0.0129615568292941,-0.0011513956929252,-0.2426916360855102,-0.2037146091461181,0.0030362606048583,1.0648711671291795,0.0668874706744362,2.38,-0.2380294173920625,-0.1825979092322671,0.0,0.469327299749795,-0.4667043685913086,0.0461757183074951,-0.0179708003997802,13.169653015684162,-0.7481264061891413,0.2446155721220743,-2.465848374295297
1.68,1.078863263130188,0.0965104773640632,2.3607866764068604,0.0225463511548221,0.0145685046320804,-0.0006678110841567,-0.2562582492828369,-0.206792950630188,0.0093287229537963,1.0601105787813383,0.0632355124897909,2.38,-0.2380294173920625,-0.1825979092322671,0.0,0.7634203664286558,-0.678330659866333,-0.1539170742034912,0.3146231174468994,12.825333587517434,-0.7450672368325557,0.2500271091332763,-2.4825981882364867
1.7,1.072828769683838,0.0920965299010276,2.3612265586853027,0.0212221971348916,0.0182699400831817,-0.0008866467048346,-0.2679795026779175,-0.2036557793617248,0.0187540054321289,1.055349990433497,0.0595835543051455,2.38,-0.2380294173920625,-0.1825979092322671,0.0,0.7682212808099634,-0.5860626697540283,0.1568585634231567,0.471264123916626,13.086844441994344,-0.7660079735449916,0.2318301278123681,-2.473893902084136
1.72,1.0696145296096802,0.0896716639399528,2.361374855041504,0.0530062400627638,0.0197522836188362,-0.0032179728131399,-0.2760583162307739,-0.207156553864479,0.0146341323852539,1.050589402085656,0.0559315961205001,2.38,-0.2380294173920625,-0.1825979092322671,0.0,0.486045276860392,-0.4039406776428222,-0.1750387251377105,-0.20599365234375,12.735077134321273,-0.7657925528991516,0.2564534810578681,-2.425328662253369
1.74,1.063240885734558,0.0850637555122375,2.361881256103516,0.0185446756965667,0.0305779032525541,-0.0001506209396967,-0.2829167246818542,-0.2069838941097259,0.0221228599548339,1.0458288137378149,0.0522796379358548,2.38,-0.2380294173920625,-0.1825979092322671,0.0,0.5078105416495166,-0.3429204225540161,0.0086329877376556,0.3744363784790039,12.728217182178469,-0.7924781683528779,0.2661169460763021,-2.498669874957632
1.76,1.0564814805984497,0.0803801640868187,2.3623688220977783,0.0161317574582849,0.0413640257865631,-0.0002390246242749,-0.2954936027526855,-0.2090587466955185,0.0223642587661743,1.0410682253899737,0.0486276797512094,2.38,-0.2380294173920625,-0.1825979092322671,0.0,0.6374581332280649,-0.6288439035415649,-0.103742629289627,0.0120699405670166,12.277764452789595,-0.78495896529257,0.259556691208219,-2.5
1.78,1.049716830253601,0.0757971778512001,2.363043785095215,0.0123237509448945,0.0528109750274849,-0.0003981525345071,-0.3042912483215332,-0.2084980010986328,0.0261569023132324,1.0363076370421322,0.0449757215665641,2.38,-0.2380294173920625,-0.1825979092322671,0.0,0.4798362956637736,-0.4398822784423828,0.028037279844284,0.1896321773529052,12.172502699668255,-0.823170865619852,0.2422997269112023,-2.5
1.8,1.042764663696289,0.0711443349719047,2.363608121871948,0.0090022209340538,0.0671610814303381,-0.0005978261077933,-0.3086283802986145,-0.2078061550855636,0.0278842449188232,1.031547048694291,0.0413237633819188,2.38,-0.2380294173920625,-0.1825979092322671,0.0,0.2359718053577063,-0.2168565988540649,0.0345923006534576,0.086367130279541,12.23698707725498,-0.8515729218441282,0.2386843923005162,-2.5
1.82,1.0393275022506714,0.0688474923372268,2.3639304637908936,0.0089052376889786,0.0709555438217547,-0.0006068904541179,-0.3099185228347778,-0.2077625691890716,0.0283026695251464,1.0267864603464498,0.0376718051972734,2.38,-0.2380294173920625,-0.1825979092322671,0.0,0.0678499566169301,-0.0645071268081665,0.0021792948246002,0.0209212303161621,12.152671448311594,-0.8761141484602721,0.2282791907214952,-2.5
1.84,1.032335638999939,0.0643157437443733,2.3644254207611084,0.0088856440550573,0.0856022851732226,0.0004682188451756,-0.3154894709587097,-0.2064037024974823,0.0233620405197143,1.0220258719986086,0.034019847012628,2.38,-0.2380294173920625,-0.1825979092322671,0.0,0.3784567235971917,-0.2785474061965942,0.0679433345794677,-0.2470314502716064,12.099120740398575,-0.9084658089899148,0.2094698251621667,-2.5
1.86,1.0256160497665403,0.0597317293286323,2.3650190830230717,0.0095818698644671,0.0963011169451866,0.0004335535330725,-0.3085076808929443,-0.2051046639680862,0.024493932723999,1.0172652836507674,0.0303678888279827,2.38,-0.2380294173920625,-0.1825979092322671,0.0,0.3595624896502555,0.349089503288269,0.0649519264698028,0.0565946102142334,12.124628647892678,-0.951059490490178,0.2016852168663568,-2.5
1.88,1.0188106298446655,0.0552372857928276,2.365640640258789,0.0093992411079962,0.1032237533373163,0.0002322559197675,-0.3043127059936523,-0.204265296459198,0.0273424386978149,1.0125046953029262,0.0267159306433373,2.38,-0.2380294173920625,-0.1825979092322671,0.0,0.25698413620072,0.2097487449645996,0.0419683754444122,0.1424252986907959,11.927647413526756,-0.9191590342566672,0.2044812467674987,-2.5
1.9,1.012378811836243,0.0507460236549377,2.365952968597412,0.0108928176954601,0.109422520114964,0.0006548868518195,-0.2978378534317016,-0.2021783739328384,0.0210124254226684,1.007744106955085,0.023063972458692,2.38,-0.2380294173920625,-0.1825979092322671,0.0,0.4646182018430752,0.3237426280975342,0.1043461263179779,-0.3165006637573242,11.727361641387688,-0.9381373706219316,0.1966938755123667,-2.5
1.92,1.009029984474182,0.048521876335144,2.3660264015197754,0.0421449502258384,0.1096963965554855,-0.0019480104464026,-0.2982750535011291,-0.2014883011579513,0.0171393156051635,1.0029835186072438,0.0194120142740467,2.38,-0.2380294173920625,-0.1825979092322671,0.0,0.1979161690830266,-0.0218600034713745,0.0345036387443542,-0.1936554908752441,12.113710447682934,-0.9534533839655036,0.1975946148452128,-2.5
1.94,1.002724528312683,0.0440768338739872,2.3664021492004395,0.0103875661509394,0.1172803978034212,0.0002469145907397,-0.2879887819290161,-0.20128133893013,0.017627477645874,0.9982229302594026,0.0157600560894013,2.38,-0.2380294173920625,-0.1825979092322671,0.0,0.5149964038636488,0.5143135786056519,0.0103481113910675,0.0244081020355224,11.732292022521506,-1.0111785022749051,0.2416789191469402,-2.5
1.96,0.9966772794723512,0.0396723672747612,2.3665287494659424,0.0105321554042838,0.1167931522805657,0.0014391592989395,-0.2779358625411987,-0.1991139501333236,0.0113028287887573,0.9934623419115614,0.012108097904756,2.38,-0.2380294173920625,-0.1825979092322671,0.0,0.6036554182236414,0.5026459693908691,0.1083694398403167,-0.3162324428558349,11.882126795083424,-0.9922144613399624,0.2360476963415009,-2.5
1.98,0.9907488226890564,0.035364344716072,2.3664379119873047,0.0128934188070152,0.1191276766235687,0.001820643046885,-0.2694533765316009,-0.1960310041904449,0.0008046627044677,0.98870175356372,0.0084561397201107,2.38,-0.2380294173920625,-0.1825979092322671,0.0,0.692222174816478,0.4241243004798889,0.1541472971439361,-0.5249083042144775,11.813780357913856,-0.9953905804176636,0.2299712251117179,-2.5
2.0,0.9850964546203612,0.0308745969086885,2.3664369583129883,0.0119320367101592,0.1166228913667918,0.0013980927817241,-0.2605685591697693,-0.1979498267173767,-0.0020653009414672,0.9839411652158788,0.0048041815354653,2.38,-0.2380294173920625,-0.1825979092322671,0.0,0.4765987588421602,0.4442408680915832,-0.0959411263465881,-0.1434981822967529,12.280380936008896,-0.9733143261559792,0.2455518048885765,-2.475213594898017
2.02,0.9823416471481324,0.0285674575716257,2.366316795349121,0.0135138136005932,0.1167337130466759,0.0010346782580221,-0.2543404698371887,-0.2005851864814758,-0.0047153234481811,0.9791805768680376,0.00115222335082,2.38,-0.2380294173920625,-0.1825979092322671,0.0,0.3631695096884045,0.3114044666290283,-0.131767988204956,-0.1325011253356933,12.201821665079478,-0.9667149121893,0.2234347653474292,-2.45375150923999
2.04,0.9770187735557556,0.0243846010416746,2.366096019744873,0.0118999638943857,0.1138715158304365,0.0014595752851992,-0.2470140159130096,-0.1954861432313919,-0.0054985284805297,0.9744199885201964,-0.0024997348338253,2.38,-0.2380294173920625,-0.1825979092322671,0.0,0.4480250531277286,0.3663226962089538,0.2549521625041961,-0.0391602516174316,12.120807292911197,-0.9492413897841284,0.1804738912137231,-2.415942119946205
2.06,0.9718628525733948,0.0198868606239557,2.365879535675049,0.0091479341160281,0.1092365727851474,0.0003578318355503,-0.2357728779315948,-0.195313423871994,-0.0098383426666259,0.9696594001723552,-0.0061516930184706,2.38,-0.2380294173920625,-0.1825979092322671,0.0,0.6025508324285986,0.5620568990707397,0.0086359679698944,-0.2169907093048095,11.8874427618357,-0.9619854420844351,0.1975723019907989,-2.3632337138539
2.08,0.9668156504631042,0.0156438220292329,2.3654932975769043,0.0078457064954103,0.1053615967637216,0.001023138868543,-0.2295702695846557,-0.1966675221920013,-0.0135612487792968,0.964898811824514,-0.009803651203116,2.38,-0.2380294173920625,-0.1825979092322671,0.0,0.3679876441184114,0.3101304173469543,-0.0677049160003662,-0.1861453056335449,11.93935097180838,-0.93252608210747,0.1867967481606547,-2.339207335195416
2.1,0.9620811343193054,0.0113368183374404,2.3653314113616943,0.0058858178174977,0.0978260942903571,0.0009484469994807,-0.2200886607170105,-0.1923759579658508,-0.012332797050476,0.9601382234766728,-0.0134556093877613,2.38,-0.2380294173920625,-0.1825979092322671,0.0,0.5239931389727993,0.4740804433822632,0.2145782113075256,0.06142258644104,11.983986278509292,-0.9381732763953304,0.1676656520868109,-2.365430602634741
2.12,0.9595411419868468,0.0091253947466611,2.3650496006011963,0.0365679392354335,0.0854875704023669,-0.0011679499057011,-0.2182580530643463,-0.1964101642370224,-0.015653371810913,0.9553776351288316,-0.0171075675724067,2.38,-0.2380294173920625,-0.1825979092322671,0.0,0.2768219705695522,0.0915303826332092,-0.2017103135585785,-0.1660287380218505,12.844692550575472,-0.9087782609606088,0.181476286939931,-2.355496837363231
2.14,0.9549039602279664,0.0049348622560501,2.364555597305298,0.0082624633810461,0.084466018304135,0.0015361875366865,-0.2148395776748657,-0.1916155517101287,-0.0213021039962768,0.9506170467809903,-0.020759525757052,2.38,-0.2380294173920625,-0.1825979092322671,0.0,0.4079903754180183,0.1709237694740295,0.2397306263446808,-0.2824366092681885,12.786281261237946,-0.911865038137545,0.163986616111931,-2.379778774692249
2.16,0.9502301812171936,0.0006635190802626,2.3641839027404785,0.0079001683967841,0.0758289848468809,0.0001616406757587,-0.2094966173171997,-0.1903922110795974,-0.0194782018661499,0.9458564584331492,-0.0244114839416973,2.38,-0.2380294173920625,-0.1825979092322671,0.0,0.2888356222065629,0.2671480178833008,0.0611670315265655,0.0911951065063476,12.6620402868748,-0.8990827373709108,0.178671299913893,-2.350643797076525
2.18,0.9456522464752196,-0.0034067656379193,2.364013195037842,0.0079630590661195,0.0651034408158828,-0.0004891286365094,-0.2081635594367981,-0.1876866370439529,-0.0122040510177612,0.941095870085308,-0.0280634421263427,2.38,-0.2380294173920625,-0.1825979092322671,0.0,0.3937335543866191,0.0666528940200805,0.1352787017822265,0.3637075424194336,12.43057198750148,-0.8498685599684908,0.1809962364761245,-2.296549856675104
2.2,0.94085294008255,-0.0076239742338657,2.3636200428009038,0.0074341177604232,0.0577639524564903,-6.225349899018267e-05,-0.2109879255294799,-0.1864686012268066,-0.0126868486404418,0.9363352817374668,-0.031715400310988,2.38,-0.2380294173920625,-0.1825979092322671,0.0,0.1556739270222256,-0.1412183046340942,0.060901790857315,-0.0241398811340332,12.116622070284391,-0.8487148394365693,0.180602495270531,-2.2481492228450266
2.22,0.9384963512420654,-0.0097061712294816,2.363555908203125,0.0074047407697855,0.0538840746028219,-0.0004380537869188,-0.2140402793884277,-0.1882243901491165,-0.0116783380508422,0.9315746933896256,-0.0353673584956334,2.38,-0.2380294173920625,-0.1825979092322671,0.0,0.1831444268144261,-0.1526176929473877,-0.0877894461154937,0.0504255294799804,12.725347492944366,-0.8475725506136829,0.178604784057936,-2.3407667099796523
2.24,0.9337033033370972,-0.0137888556346297,2.3631551265716557,0.0105268464195014,0.0492012332799144,7.136239114210543e-05,-0.2150849997997284,-0.1865071952342987,-0.0155675411224365,0.9268141050417844,-0.0390193166802787,2.38,-0.2380294173920625,-0.1825979092322671,0.0,0.2188955209989598,-0.0522360205650329,0.0858597457408905,-0.1944601535797119,13.05378501823543,-0.8672806071038675,0.1472775515246067,-2.3992873418431597
2.26,0.928808569908142,-0.0178628824651241,2.3630142211914062,0.014776133846017,0.0466159029825698,0.000795557999075,-0.2179750800132751,-0.1835260093212127,-0.0121879577636718,0.9220535166939432,-0.0426712748649242,2.38,-0.2380294173920625,-0.1825979092322671,0.0,0.2676827262261959,-0.1445040106773376,0.1490592956542968,0.1689791679382324,12.631854658064183,-0.8318806970575174,0.1558888601364806,-2.457431633561584
2.28,0.9237555265426636,-0.021999878808856,2.362860202789306,0.0204110328307689,0.0462324419842469,0.0002324347876821,-0.2238249778747558,-0.1847480237483978,-0.0066357851028442,0.917292928346102,-0.0463232330495694,2.38,-0.2380294173920625,-0.1825979092322671,0.0,0.4078640873674921,-0.2924948930740356,-0.0611007213592529,0.2776086330413818,12.185980618273788,-0.8266730255901744,0.1736935916045707,-2.4609363813783296
2.3000000000000003,0.9185545444488524,-0.0260995458811521,2.3628218173980717,0.0216976687952458,0.0437620743542058,0.0001034661696594,-0.2307155728340149,-0.1853249222040176,-0.0043290853500366,0.9125323399982608,-0.0499751912342148,2.38,-0.2380294173920625,-0.1825979092322671,0.0,0.3644652743069813,-0.3445297479629516,-0.0288449227809906,0.1153349876403808,12.624320890807212,-0.8344043040149511,0.1719879047626426,-2.414755057319871
2.32,0.916020393371582,-0.0281808134168386,2.3628411293029785,0.0546506426182219,0.0404357108947025,-0.0018325553821709,-0.232984721660614,-0.1859741061925888,-0.0010031461715698,0.9077717516504196,-0.0536271494188601,2.38,-0.2380294173920625,-0.1825979092322671,0.0,0.2039138768397931,-0.113457441329956,-0.0324591994285583,0.1662969589233398,12.667294054280774,-0.8422321786764975,0.1816925140681266,-2.4530179208476723
2.34,0.9107204675674438,-0.0323754623532295,2.362903356552124,0.0253489986121922,0.0459718172275961,0.0006036778287014,-0.2364635467529297,-0.187184989452362,0.0025802850723266,0.9030111633025784,-0.0572791076035054,2.38,-0.2380294173920625,-0.1825979092322671,0.0,0.2569505875234466,-0.1739412546157837,-0.0605441629886627,0.1791715621948242,12.117169655673932,-0.8330032789823356,0.2369332233090238,-2.5
2.36,0.9051434993743896,-0.0366815403103828,2.36304259300232,0.026321645690151,0.0495660665474269,-6.74778353020659e-05,-0.2447301149368286,-0.1912663578987121,0.0045329332351684,0.8982505749547371,-0.0609310657881508,2.38,-0.2380294173920625,-0.1825979092322671,0.0,0.471186143635829,-0.4133284091949463,-0.2040684223175048,0.0976324081420898,12.440618706087662,-0.8106278202296167,0.2427004064350695,-2.5
2.38,0.8995741605758667,-0.0408849753439426,2.3629722595214844,0.0261801634154351,0.0542667660150539,-0.0005725354279936,-0.2507919073104858,-0.1914640367031097,0.0015503168106079,0.8934899866068959,-0.0645830239727961,2.38,-0.2380294173920625,-0.1825979092322671,0.0,0.337936400921443,-0.3030896186828613,-0.0098839402198791,-0.1491308212280273,12.296631198621071,-0.8513976413816619,0.2221762505025326,-2.5
2.4,0.8939299583435059,-0.0451858229935169,2.3633742332458496,0.0229326561552013,0.0596694405508585,-9.540202455533626e-05,-0.2523046731948852,-0.1913463622331619,0.0074619054794311,0.8887293982590547,-0.0682349821574415,2.38,-0.2380294173920625,-0.1825979092322671,0.0,0.3051605663058367,-0.0756382942199707,0.0058837234973907,0.2955794334411621,12.104952177250198,-0.8408431196595106,0.2421869887296698,-2.5
2.42,0.8911070823669434,-0.0473328195512294,2.3635358810424805,0.0467670821404193,0.0585265021164901,-0.002713820601937,-0.255143791437149,-0.1946175694465637,0.0092482566833496,0.8839688099112135,-0.0718869403420868,2.38,-0.2380294173920625,-0.1825979092322671,0.0,0.2342671533223763,-0.1419559121131897,-0.1635603606700897,0.0893175601959228,12.120193989326252,-0.8550296312212147,0.2434094838370245,-2.5
2.44,0.8852638006210327,-0.0518122427165508,2.363804817199707,0.0159224433435726,0.0666591011049561,-0.0010805266074115,-0.2597920596599579,-0.1973063051700592,0.0113886594772338,0.8792082215633723,-0.0755388985267321,2.38,-0.2380294173920625,-0.1825979092322671,0.0,0.2890372873092797,-0.2324134111404419,-0.1344367861747741,0.1070201396942138,12.205513802126916,-0.868319024778394,0.2441201684750752,-2.4869551548896127
2.46,0.8795718550682068,-0.0560417585074901,2.364265918731689,0.0141825707353095,0.0722660558361237,-7.397854174037449e-05,-0.2595426142215729,-0.1959511339664459,0.0164258480072021,0.8744476332155311,-0.0791908567113775,2.38,-0.2380294173920625,-0.1825979092322671,0.0,0.26111290806985,0.0124722719192504,0.067758560180664,0.2518594264984131,12.133540500532945,-0.8895399865352894,0.2252891521275072,-2.493152431244272
2.48,0.8736653327941895,-0.0604972131550312,2.364721775054932,0.0101514961128266,0.0761890570327848,-0.0009171906222256,-0.2609655261039734,-0.1954118311405182,0.0206315517425537,0.8696870448676899,-0.0828428148960228,2.38,-0.2380294173920625,-0.1825979092322671,0.0,0.2236261929687592,-0.0711455941200256,0.0269651412963867,0.2102851867675781,12.0065125539777,-0.8785287114325353,0.2297490032924969,-2.451209851143437
2.5,0.8678876757621765,-0.0648891851305961,2.3652305603027344,0.0076444734081393,0.0795519025749841,-0.0011109303563899,-0.2628940343856811,-0.1990671008825302,0.0217044353485107,0.8649264565198487,-0.0864947730806682,2.38,-0.2380294173920625,-0.1825979092322671,0.0,0.2134901655311986,-0.0964254140853881,-0.1827634871006012,0.0536441802978515,12.328859460760214,-0.902329853352514,0.2158268585247295,-2.410185890052476
2.52,0.8649160861968994,-0.0670220926403999,2.365344762802124,0.0080620697531576,0.0816780920047475,-0.0008224988742259,-0.2621953189373016,-0.1951597929000854,0.0172787904739379,0.8601658681720075,-0.0901467312653135,2.38,-0.2380294173920625,-0.1825979092322671,0.0,0.2972439717778682,0.0349357724189758,0.1953653991222381,-0.2212822437286377,11.891462002784465,-0.9074195014107278,0.1839403286234089,-2.3727131018864056
2.54,0.8592959642410278,-0.0713298097252845,2.3659415245056152,0.0072841152446979,0.0839162652563963,-0.0009934454154885,-0.258590430021286,-0.1944093555212021,0.0221335887908935,0.8554052798241663,-0.0937986894499588,2.38,-0.2380294173920625,-0.1825979092322671,0.0,0.304661480395669,0.1802444458007812,0.037521868944168,0.2427399158477783,12.41238571232725,-0.905361085994682,0.2208750948701456,-2.421977176881116
2.56,0.8534695506095886,-0.075586698949337,2.366180419921875,0.0089612130709337,0.0865732433645842,-0.0001966691754146,-0.2575470507144928,-0.1927036345005035,0.0188022851943969,0.850644691476325,-0.0974506476346042,2.38,-0.2380294173920625,-0.1825979092322671,0.0,0.1942659789459302,0.0521689653396606,0.0852860510349273,-0.1665651798248291,12.452954918686371,-0.905678677403882,0.2075608793179414,-2.382297698872488
2.58,0.8477640748023987,-0.0797417908906936,2.3664064407348637,0.0100912564689324,0.0860007504754103,0.0001562923620022,-0.2594675123691559,-0.1892695724964141,0.010460615158081,0.8458841031284838,-0.1011026058192495,2.38,-0.2380294173920625,-0.1825979092322671,0.0,0.4611518562516372,-0.0960230827331543,0.1717031002044677,-0.4170835018157959,11.979959170762411,-0.9265136704552226,0.2017536995265136,-2.3795421399647867
2.6,0.8420929908752441,-0.0840308964252471,2.3667397499084477,0.0097073264380214,0.0893266589094634,-6.102595053667949e-05,-0.2559725940227508,-0.1899944394826889,0.0125849246978759,0.8411235147806426,-0.1047545640038948,2.38,-0.2380294173920625,-0.1825979092322671,0.0,0.2076811102188471,0.1747459173202514,-0.0362433493137359,0.1062154769897461,11.75515045902739,-0.9553273138279644,0.2120798651977883,-2.4411614790623144
2.62,0.8392747640609741,-0.0859336405992508,2.3668322563171387,0.0112678736189908,0.0900339464992588,-0.0001987964847241,-0.2551290392875671,-0.1859028935432434,0.0136953592300415,0.8363629264328014,-0.1084065221885402,2.38,-0.2380294173920625,-0.1825979092322671,0.0,0.2161330470802039,0.0421777367591857,0.2045772969722747,0.0555217266082763,11.955478672077334,-0.9348773961583235,0.1990438940293216,-2.372534513175215
2.64,0.8337491750717163,-0.0901367962360382,2.366905927658081,0.0146133663483871,0.0901018968648227,0.0005210844432361,-0.2527230978012085,-0.186392068862915,0.0078105926513671,0.8316023380849602,-0.1120584803731855,2.38,-0.2380294173920625,-0.1825979092322671,0.0,0.3188194026978271,0.1202970743179321,-0.0244587659835815,-0.2942383289337158,12.26244007762989,-0.9377496750156864,0.2438650036395892,-2.372957001501558
2.66,0.8283500075340271,-0.0943150445818901,2.367079019546509,0.0159097792199427,0.0896267549069952,0.000936101877762,-0.2458070218563079,-0.1885815858840942,0.0055521726608276,0.826841749737119,-0.1157104385578309,2.38,-0.2380294173920625,-0.1825979092322671,0.0,0.3798899581304223,0.3458037972450256,-0.1094758510589599,-0.1129209995269775,12.235502456805987,-0.9546724090885884,0.2331491206599809,-2.420211514096428
2.68,0.8228053450584412,-0.0983936414122581,2.367022752761841,0.0176358332225967,0.0890990223381424,0.0007667005260351,-0.2462361752986908,-0.1857790201902389,0.0026285648345947,0.8220811613892778,-0.1193623967424762,2.38,-0.2380294173920625,-0.1825979092322671,0.0,0.203629748975278,-0.0214576721191406,0.1401282846927642,-0.1461803913116455,11.928582363794703,-0.9107868533050631,0.219320461482791,-2.386749377652864
2.7,0.8174938559532166,-0.1025240719318389,2.36708927154541,0.0179942791774502,0.0837523843872741,0.0001434387316294,-0.2442634105682373,-0.1847031116485595,0.0002306699752807,0.8173205730414366,-0.1230143549271215,2.38,-0.2380294173920625,-0.1825979092322671,0.0,0.1643112871054833,0.0986382365226745,0.0537954270839691,-0.1198947429656982,12.516507652016571,-0.9474329369080589,0.2281812530230775,-2.355560971582057
2.72,0.8148718476295471,-0.1045130267739296,2.366990327835083,0.0181163030101948,0.0809965106351282,0.0001332461006358,-0.2400563657283783,-0.1839061677455902,-0.0013196468353271,0.8125599846935952,-0.126666313111767,2.38,-0.2380294173920625,-0.1825979092322671,0.0,0.2276940276023826,0.2103522419929504,0.039847195148468,-0.0775158405303955,12.059648740996636,-0.9273505844109228,0.2381768126512475,-2.32494355389773
2.74,0.8094561696052551,-0.1086886450648307,2.367032527923584,0.018360502029501,0.0759428831426184,-0.0008256727313265,-0.2432924509048462,-0.1855448186397552,0.0004613399505615,0.8077993963457542,-0.1303182712964122,2.38,-0.2380294173920625,-0.1825979092322671,0.0,0.2020478777036101,-0.1618042588233947,-0.0819325447082519,0.0890493392944336,12.764023652038304,-0.8997529889158539,0.2399041484863228,-2.3639967659224874
2.76,0.804137110710144,-0.1128917410969734,2.366861343383789,0.0187994530706507,0.071299126768223,-0.0005836259984244,-0.2415315806865692,-0.188521072268486,-0.0029021501541137,0.8030388079979128,-0.1339702294810577,2.38,-0.2380294173920625,-0.1825979092322671,0.0,0.2412043494238678,0.0880435109138488,-0.1488126814365387,-0.1681745052337646,12.309951560395348,-0.9015888174994312,0.2365137241334685,-2.3455585457248014
2.78,0.7988318204879761,-0.1170644015073776,2.366760492324829,0.0182855441769833,0.0681419052545796,-0.0007529291609786,-0.2390478551387787,-0.1884545236825943,-0.0061208009719848,0.7982782196500717,-0.1376221876657029,2.38,-0.2380294173920625,-0.1825979092322671,0.0,0.2033041711230601,0.1241862773895263,0.0033274292945861,-0.1609325408935547,12.030893069913873,-0.8931898702450765,0.2137691271600949,-2.339043993172709
2.8000000000000003,0.7934200763702393,-0.1212061867117881,2.366763114929199,0.0171667713052779,0.0659324121228401,-0.0013909726573678,-0.2411332726478576,-0.1870750188827514,-0.0022101402282714,0.7935176313022304,-0.1412741458503483,2.38,-0.2380294173920625,-0.1825979092322671,0.0,0.2320843980774207,-0.1042708754539489,0.0689752399921417,0.1955330371856689,11.960847010615907,-0.8738205767708753,0.2150491229242544,-2.399782164687702
2.82,0.7907307744026184,-0.1232876256108284,2.3666481971740723,0.0464299851813559,0.057792664084301,-0.0030836615467826,-0.2416589856147766,-0.1865157783031463,-0.0031435489654541,0.7887570429543893,-0.1449261040349936,2.38,-0.2380294173920625,-0.1825979092322671,0.0,0.060423009278598,-0.0262856483459472,0.0279620289802551,-0.0466704368591308,12.198797420654046,-0.8765667740036369,0.2215539042987314,-2.3560234134911244
2.84,0.785335123538971,-0.1274139583110809,2.366568088531494,0.0168148551078784,0.0607851253716458,-0.0021504469461112,-0.2404989302158355,-0.1864695250988006,-0.0006008148193359,0.7839964546065481,-0.1485780622196389,2.38,-0.2380294173920625,-0.1825979092322671,0.0,0.1397619836128531,0.058002769947052,0.0023126602172851,0.1271367073059082,12.995736142038822,-0.8613616680310607,0.2747491624498793,-2.42752240729537
2.86,0.7797770500183105,-0.1316080242395401,2.366387128829956,0.0180935013764938,0.0604319816800416,-0.0014721861607304,-0.2464587986469268,-0.1872089654207229,-0.0058740377426147,0.7792358662587069,-0.1522300204042843,2.38,-0.2380294173920625,-0.1825979092322671,0.0,0.3996050666101358,-0.2979934215545654,-0.0369720160961151,-0.2636611461639404,12.601375179492608,-0.8426494924278989,0.2672449791558496,-2.4177791783862164
