t,x,y,z,roll,pitch,yaw,v_x,v_y,v_z,ref_x,ref_y,ref_z,ref_v_x,ref_v_y,ref_v_z,a_com,a_x,a_y,a_z,thrust,wind_x,wind_y,wind_z
0.0,-0.4282653033733368,-1.4429620504379272,2.894826412200928,-0.0393991662148954,0.0637064838349067,0.0115228023313293,0.0018279254436492,-0.0652876496315002,0.0036585330963134,-0.43,-1.4300000000000002,2.88,0.0580557115115687,0.294328956035395,0.0,3.2707810115666165,0.0913962721824646,-3.264382481575012,0.1829266548156738,12.166195831609912,-0.8052195068324204,0.0909653882676327,-2.104625447620492
0.02,-0.4283633828163147,-1.4439563751220703,2.8948373794555664,-0.0439453304179105,0.0619961166907002,0.0140113294159796,-0.000317171216011,-0.0525739789009094,0.003669261932373,-0.4288388857697686,-1.4241134208792925,2.88,0.0580557115115687,0.294328956035395,0.0,0.6446684772677559,-0.1072548329830169,0.635683536529541,0.0005364418029785,12.066436328459076,-0.770811203350915,0.0734822964774779,-2.1252465362025843
0.04,-0.4285347759723663,-1.4447271823883057,2.895038604736328,-0.0447585926342526,0.0610793324781729,0.0167942097201563,-0.0060631334781646,-0.0397154688835144,0.0047743320465087,-0.4276777715395373,-1.4182268417585844,2.88,0.0580557115115687,0.294328956035395,0.0,0.7063613489969168,-0.2872981131076813,0.642925500869751,0.0552535057067871,12.865724173700528,-0.7859007010367084,0.0769088897283623,-2.2232880755136266
0.06,-0.4285610914230346,-1.44500994682312,2.895226240158081,-0.0444922212182155,0.0599038001422116,0.0180191961253547,-0.0049144774675369,-0.0339084863662719,0.0092697143554687,-0.4265166573093059,-1.4123402626378765,2.88,0.0580557115115687,0.294328956035395,0.0,0.3716480818261433,0.0574328005313873,0.2903491258621216,0.224769115447998,12.202291060961215,-0.8939723238849959,0.1117421760973061,-2.265203063102095
0.08,-0.4287462830543518,-1.44531512260437,2.895739316940308,-0.0466126822980473,0.0613880610923396,0.0217499058812111,-0.0066344439983367,-0.028238296508789,0.0115656852722167,-0.4253555430790746,-1.4064536835171686,2.88,0.0580557115115687,0.294328956035395,0.0,0.3177295246649524,-0.0859983265399932,0.2835094928741455,0.1147985458374023,12.285905401090076,-0.8215382653710073,0.0464796054003597,-2.201430284463884
0.1,-0.4290160238742828,-1.4453275203704834,2.896348476409912,-0.0576269471296427,0.065811245226663,0.0230936125429408,-0.0102359801530838,-0.0071454048156738,0.0252503156661987,-0.4241944288488432,-1.4005671043964607,2.88,0.0580557115115687,0.294328956035395,0.0,1.269990405152076,-0.1800768077373504,1.0546445846557615,0.6842315196990967,12.104608931700112,-0.8268252923457049,0.0382249859823492,-2.183767624249138
0.12,-0.429260104894638,-1.4448096752166748,2.897322654724121,-0.076963168370166,0.0715039164883629,0.0229295326584093,-0.0115609914064407,0.0113725662231445,0.0356251001358032,-0.4230333146186119,-1.3946805252757528,2.88,0.0580557115115687,0.294328956035395,0.0,1.0633755909917066,-0.0662505626678466,0.925898551940918,0.5187392234802246,11.904331260352592,-0.8336062211941083,0.0351661015000028,-2.12934944913192
0.14,-0.4296517968177795,-1.4437528848648071,2.898324728012085,-0.1003408707411563,0.0791766361984233,0.0225924240532376,-0.0143048912286758,0.035429298877716,0.0444656610488891,-0.4218722003883805,-1.388793946155045,2.88,0.0580557115115687,0.294328956035395,0.0,1.2888084511535969,-0.1371949911117553,1.2028366327285769,0.4420280456542969,11.589848448401426,-0.8159248307320319,0.0109144296749231,-2.149776791587536
0.16,-0.4297699332237243,-1.4431240558624268,2.898937702178955,-0.1373154320091538,0.0816990820497335,0.0198748731079685,-0.0151953846216201,0.0433927774429321,0.052608847618103,-0.4207110861581492,-1.382907367034337,2.88,0.0580557115115687,0.294328956035395,0.0,0.5712299380340599,-0.0445246696472168,0.3981739282608032,0.4071593284606933,11.74384720885746,-0.862972905700273,0.0163830243942766,-2.121086571911245
0.18,-0.4299756586551666,-1.4413031339645386,2.899939775466919,-0.1357424472157075,0.0907341421624133,0.0207470364435735,-0.0142713636159896,0.0682193040847778,0.0467133522033691,-0.4195499719279178,-1.3770207879136291,2.88,0.0580557115115687,0.294328956035395,0.0,1.2766823274627377,0.0462010502815246,1.2413263320922852,-0.2947747707366943,11.770193318699055,-0.8936984624736316,-0.0940876211353512,-2.0528842981945563
0.2,-0.4301407635211944,-1.4386200904846191,2.901028633117676,-0.1557791635991947,0.0977181996407294,0.0195188850058022,-0.008343681693077,0.1013392210006713,0.0470459461212158,-0.4183888576396307,-1.3711342084985922,2.88,0.0580557115115687,0.294328956035395,0.0,1.6823918451189557,0.2963840961456299,1.6559958457946775,0.0166296958923339,11.625065221634031,-0.8720882498808246,-0.1984383993156653,-2.06465295512694
0.22,-0.430156409740448,-1.4352108240127563,2.901676177978516,-0.1653404373642366,0.108132155771809,0.0187182765274283,-0.005018413066864,0.1221612095832824,0.0412416458129882,-0.4172277434093994,-1.3652476293778844,2.88,0.0580557115115687,0.294328956035395,0.0,1.0935064266374406,0.1662634313106537,1.0410994291305542,-0.2902150154113769,12.35603529517266,-0.8603131046508795,-0.1963109016055923,-2.037575391155886
0.24,-0.4301092028617859,-1.430983304977417,2.9019508361816406,-0.1668149889722483,0.1179366185503096,0.0187550260425987,-0.0044631958007812,0.1524057984352111,0.0292146205902099,-0.416066629179168,-1.3593610502571765,2.88,0.0580557115115687,0.294328956035395,0.0,1.6276461199721155,0.0277608633041381,1.5122294425964355,-0.601351261138916,11.82679330385372,-0.8371939542458375,-0.1699032405115286,-2.0341034858354785
0.26,-0.4300278723239898,-1.4285061359405518,2.9018971920013428,-0.1719788046554192,0.1236590047492903,0.0148668422083639,0.0026694685220718,0.1897019147872924,0.0121772289276123,-0.4149055149489367,-1.3534744711364686,2.88,0.0580557115115687,0.294328956035395,0.0,2.080954054006983,0.3566332161426544,1.864805817604065,-0.8518695831298828,12.564515661264975,-0.9281388892830674,-0.1909780307360947,-2.082588988666768
0.28,-0.4297594726085663,-1.423198699951172,2.9020445346832275,-0.1537442316954302,0.1318494024961756,0.0162017431232949,0.0066719949245452,0.2075788378715515,0.0086849927902221,-0.413744400776761,-1.3475878923100897,2.88,0.0580557115115687,0.294328956035395,0.0,0.9324702539522428,0.2001263201236724,0.8938461542129517,-0.1746118068695068,12.08139991956068,-0.8903770693256766,-0.2081570553962525,-2.110663802508972
0.3,-0.4292466640472412,-1.417128324508667,2.90167236328125,-0.1367667335425656,0.1396685904488779,0.0161716959028307,0.0146415084600448,0.2416375279426574,-0.0006169080734252,-0.4125832865465297,-1.3417013131893818,2.88,0.0580557115115687,0.294328956035395,0.0,1.809718814504955,0.3984756767749786,1.702934503555298,-0.465095043182373,12.368513660654116,-0.961064228118187,-0.2821533655012701,-2.0777255978464253
0.32,-0.4283405542373657,-1.4103084802627563,2.9012856483459477,-0.1170329131869811,0.1447309680512118,0.0159980057374758,0.0252476334571838,0.2731293439865112,-0.0103586912155151,-0.4114221723162983,-1.335814734068674,2.88,0.0580557115115687,0.294328956035395,0.0,1.7314204457484952,0.5303062498569489,1.574590802192688,-0.4870891571044922,12.5172803906421,-0.9980095307066036,-0.2529359578136878,-2.160416233029616
0.34,-0.4272530674934387,-1.4029228687286377,2.900429010391236,-0.0946452863170017,0.1489206509406988,0.0158122747598683,0.0356995314359664,0.3049322962760925,-0.0235605239868164,-0.410261058086067,-1.329928154947966,2.88,0.0580557115115687,0.294328956035395,0.0,1.7992764755684918,0.5225948989391327,1.590147614479065,-0.6600916385650635,12.185493757848237,-1.0046564574223984,-0.2031780666757652,-2.171061667225813
0.36,-0.4265699088573456,-1.3989654779434204,2.900065660476685,-0.0891018803551519,0.1463127278731825,0.0124838447929484,0.0487766414880752,0.3348121047019958,-0.0345629453659057,-0.4090999438558356,-1.324041575827258,2.88,0.0580557115115687,0.294328956035395,0.0,1.7210948805097075,0.6538555026054382,1.493990421295166,-0.5501210689544678,12.474386361879624,-1.039171755797166,-0.1312169784628046,-2.2945992724464945
0.38,-0.4247439801692962,-1.3908071517944336,2.89896297454834,-0.0637190852660571,0.1507227726604984,0.0173918788189734,0.0601203739643096,0.3451064229011535,-0.039675235748291,-0.4079388296256043,-1.3181549967065502,2.88,0.0580557115115687,0.294328956035395,0.0,0.80744777947511,0.5671866238117218,0.5147159099578857,-0.2556145191192627,12.669532480791531,-1.0344134239584613,-0.0705461900464855,-2.3300996497834494
0.4,-0.4226990640163421,-1.3821260929107666,2.8978724479675293,-0.0447599544332668,0.1491340445841931,0.0166164908727764,0.0870940089225769,0.3788861632347107,-0.0493472814559936,-0.4067777153953729,-1.3122684175858423,2.88,0.0580557115115687,0.294328956035395,0.0,2.2148342534128203,1.3486817479133606,1.6889870166778564,-0.4836022853851318,12.438852158244115,-1.056841409085529,-0.1046487268686107,-2.3644435474786447
0.42,-0.4200116693973541,-1.3731948137283323,2.89676284790039,-0.0271365868560193,0.1454786739137608,0.0176753331186412,0.1064769923686981,0.3962776064872741,-0.0495028495788574,-0.4056166011651416,-1.3063818384651344,2.88,0.0580557115115687,0.294328956035395,0.0,1.3021007517859324,0.9691491723060608,0.8695721626281738,-0.0077784061431884,12.510047367141851,-1.0286636774073918,-0.0262825509261586,-2.419715966146113
0.44,-0.4169610142707824,-1.3639371395111084,2.895686149597168,-0.0106202856355465,0.1391870064431024,0.0179110732265145,0.1165299117565155,0.403696596622467,-0.0524210929870605,-0.4044554869349102,-1.3004952593444266,2.88,0.0580557115115687,0.294328956035395,0.0,0.6415191880091443,0.5026459693908691,0.3709495067596435,-0.1459121704101562,12.718523531844768,-0.990052633319436,0.0359116282861193,-2.3921942597124457
0.46,-0.4154691100120544,-1.359311819076538,2.894933223724365,-0.0081873215306267,0.1292610923549787,0.0122307694647233,0.1335827261209488,0.4135966300964355,-0.0554251670837402,-0.4032943727046789,-1.2946086802237189,2.88,0.0580557115115687,0.294328956035395,0.0,0.9972883255506668,0.8526407182216644,0.4950016736984253,-0.1502037048339843,12.68891254756636,-0.9617163993819444,0.1049658223576417,-2.4476487090963466
0.48,-0.4118391871452331,-1.3497955799102783,2.893669843673706,0.0101726703018117,0.126997054439825,0.0182527766389802,0.141671597957611,0.4202860593795776,-0.0554198026657104,-0.4021332584744475,-1.2887221011030108,2.88,0.0580557115115687,0.294328956035395,0.0,0.5248293544121939,0.4044435918331146,0.3344714641571045,0.0002682209014892,12.575569389352497,-0.9060997291648392,0.1302756755322313,-2.489490355261472
0.5,-0.4079393148422241,-1.3402069807052612,2.8923110961914062,0.0191680056960741,0.1144834082289532,0.0175785170660029,0.1694203913211822,0.4298588633537292,-0.0589978694915771,-0.4009721442442162,-1.2828355219823029,2.88,0.0580557115115687,0.294328956035395,0.0,1.4785437694502588,1.3874396681785583,0.4786401987075805,-0.1789033412933349,12.607841598100094,-0.9367505592945724,0.1706687172657783,-2.491496945548597
0.52,-0.4037644267082214,-1.330485224723816,2.890965461730957,0.0250637729009306,0.1009648669915252,0.0165966035259512,0.1816821098327636,0.434482991695404,-0.060848593711853,-0.3998110300139848,-1.276948942861595,2.88,0.0580557115115687,0.294328956035395,0.0,0.6617353774679393,0.613085925579071,0.2312064170837402,-0.0925362110137939,12.518804770255883,-0.8800415167943108,0.214053725425419,-2.5
0.54,-0.3996096551418304,-1.3208355903625488,2.889522075653076,0.0319084448461438,0.0854164883513668,0.0159541124239151,0.1874173432588577,0.435856282711029,-0.0627529621124267,-0.3986499157837535,-1.271062363740887,2.88,0.0580557115115687,0.294328956035395,0.0,0.3098606528364268,0.2867616713047027,0.06866455078125,-0.0952184200286865,12.896322093897652,-0.8559532890032723,0.2557310039601093,-2.5
0.56,-0.3974945247173309,-1.315895676612854,2.8887789249420166,0.0307700593311995,0.0639673752307702,0.0107529636534717,0.1914782077074051,0.4356685280799866,-0.0621092319488525,-0.3974888015535221,-1.2651757846201792,2.88,0.0580557115115687,0.294328956035395,0.0,0.2057927379333942,0.2030432224273681,-0.009387731552124,0.0321865081787109,12.49473074034904,-0.8345338297296202,0.2754315083281316,-2.5
0.58,-0.3931011259555816,-1.3062978982925415,2.8875434398651123,0.0452993888149043,0.0568844062320517,0.0146448567863042,0.1899453252553939,0.4367226362228393,-0.0648075342178344,-0.3963276873232907,-1.259289205499471,2.88,0.0580557115115687,0.294328956035395,0.0,0.1638727228926857,-0.0766441226005554,0.0527054071426391,-0.1349151134490966,12.999870007178288,-0.7872133416897719,0.290580407865474,-2.5
0.6,-0.3889029920101166,-1.2967087030410769,2.886274814605713,0.0517217391146013,0.041523179880884,0.0142330000924713,0.193309485912323,0.4317069053649902,-0.0563424825668334,-0.3951665730930594,-1.2534026263787634,2.88,0.0580557115115687,0.294328956035395,0.0,0.5199332467204885,0.1682080328464508,-0.250786542892456,0.4232525825500488,12.863488393541502,-0.7657447360997575,0.3239859417998597,-2.5
0.62,-0.384827047586441,-1.2873380184173584,2.885227918624878,0.0572106241270653,0.0235568689427894,0.0113085357246242,0.1921695470809936,0.4287591576576233,-0.0550174713134765,-0.394005458862828,-1.2475160472580555,2.88,0.0580557115115687,0.294328956035395,0.0,0.1713500212064627,-0.0569969415664672,-0.1473873853683471,0.0662505626678466,12.72337080442776,-0.7482775419101411,0.3485653473423676,-2.5
0.64,-0.3808685541152954,-1.278113842010498,2.884197235107422,0.0612437654726178,0.0092398090486378,0.0104118007526488,0.1836307346820831,0.4246473312377929,-0.0498837232589721,-0.3928443446325967,-1.2416294681373476,2.88,0.0580557115115687,0.294328956035395,0.0,0.5389197592817746,-0.4269406199455261,-0.2055913209915161,0.2566874027252197,12.451700876829818,-0.6861484731445183,0.3577436301419573,-2.5
0.66,-0.3790190517902374,-1.2735414505004885,2.8836472034454346,0.0548978983531751,-0.0028308900850407,0.0051973501300359,0.1746560633182525,0.4157531261444092,-0.0448358058929443,-0.3916832304023653,-1.2357428890166398,2.88,0.0580557115115687,0.294328956035395,0.0,0.6803180874895579,-0.4487335681915283,-0.4447102546691894,0.2523958683013916,12.664869989603176,-0.675503746969883,0.3849596804410587,-2.5
0.68,-0.3755327463150024,-1.2647061347961426,2.882922649383545,0.0643551070734357,-0.008872777800828,0.0084452048977988,0.1694975048303604,0.411311388015747,-0.0441277027130126,-0.390522116172134,-1.229856309895932,2.88,0.0580557115115687,0.294328956035395,0.0,0.3422030588336559,-0.2579279243946075,-0.2220869064331054,0.035405158996582,12.507635611465956,-0.6449989371890261,0.3697180874671412,-2.5
0.7000000000000001,-0.3727433085441589,-1.2558828592300415,2.882421970367432,0.065240689171726,-0.0218353832543841,0.0060686843005731,0.141204223036766,0.3973183035850525,-0.0275677442550659,-0.3893610019419026,-1.223969730775224,2.88,0.0580557115115687,0.294328956035395,0.0,1.7822376599833762,-1.414664089679718,-0.699654221534729,0.8279979228973389,12.182491598503477,-0.5839473065660787,0.3989108822782813,-2.5
0.72,-0.3701688647270202,-1.2474364042282104,2.881948947906494,0.0670129843529954,-0.0289033351001171,0.0046657740161892,0.1387090981006622,0.3919646143913269,-0.0318217277526855,-0.3881998877116713,-1.218083151654516,2.88,0.0580557115115687,0.294328956035395,0.0,0.3639505874009593,-0.124756246805191,-0.2676844596862793,-0.2126991748809814,12.274994026814966,-0.6080381008527248,0.4002352235195224,-2.5
0.74,-0.3675810694694519,-1.239412546157837,2.881450891494751,0.0707210246409097,-0.0323239776187722,0.0035988758250541,0.1161503791809082,0.3705820441246032,-0.0218492746353149,-0.3870387734814399,-1.2121965725338082,2.88,0.0580557115115687,0.294328956035395,0.0,1.632145774502079,-1.1279359459877014,-1.0691285133361816,0.4986226558685303,12.163149614955728,-0.5202897959234554,0.3832758577889204,-2.5
0.76,-0.3671407401561737,-1.2353529930114746,2.8814284801483154,0.0621333759798987,-0.0364537551242687,-0.0012401097184237,0.0897353142499923,0.3663870692253113,-0.009537935256958,-0.3858776592512086,-1.2063099934131003,2.88,0.0580557115115687,0.294328956035395,0.0,1.472177423919474,-1.3207532465457916,-0.2097487449645996,0.6155669689178467,12.271238116271888,-0.5302158232618491,0.3636154528636855,-2.5
0.78,-0.3657836616039276,-1.2276760339736938,2.881122350692749,0.0671835167441366,-0.03899743332745,0.0012997772427088,0.0716498494148254,0.353110134601593,-0.0108897686004638,-0.3847165450209772,-1.2004234142923924,2.88,0.0580557115115687,0.294328956035395,0.0,1.1238199196214251,-0.9042732417583466,-0.6638467311859131,-0.0675916671752929,13.057667942561691,-0.7031516167281181,0.3613641494102651,-2.5
0.8,-0.3649688363075256,-1.2202775478363037,2.880845308303833,0.0670947760132852,-0.0376068682721512,0.0007750179377062,0.0535295158624649,0.3461042046546936,-0.0093662738800048,-0.3835554307907459,-1.1945368351716843,2.88,0.0580557115115687,0.294328956035395,0.0,0.974359505820274,-0.9060166776180268,-0.3502964973449707,0.0761747360229492,12.186914976888149,-0.6729240330465815,0.3640063401735233,-2.5
0.8200000000000001,-0.3647061288356781,-1.2131378650665283,2.8805291652679443,0.0638500810260904,-0.0317152474484877,0.0005609713702326,0.0454406440258026,0.330863893032074,-0.0143229961395263,-0.3823943165605145,-1.1886502560509766,2.88,0.0580557115115687,0.294328956035395,0.0,0.8975884935516653,-0.4044435918331146,-0.7620155811309814,-0.2478361129760742,12.662809457021012,-0.7326819371538846,0.3337112389524898,-2.475822989508725
0.84,-0.3649338483810425,-1.2064274549484253,2.8806722164154053,0.0571766817045154,-0.0246460788975199,3.605735350556478e-05,0.0170501321554183,0.3196361660957336,-0.0140011310577392,-0.3812332023302832,-1.1827636769302687,2.88,0.0580557115115687,0.294328956035395,0.0,1.5265865628505342,-1.4195255935192108,-0.5613863468170166,0.0160932540893554,12.29738879424258,-0.6718567849940246,0.2941351463807108,-2.490973838552155
0.86,-0.3652191758155823,-1.2030504941940308,2.880519151687622,0.0478512461061757,-0.0111058493004526,-0.0019075456905881,-0.0178091973066329,0.3093042969703674,-0.0010567903518676,-0.3800720881000518,-1.1768770978095608,2.88,0.0580557115115687,0.294328956035395,0.0,1.9296867145194991,-1.7429664731025696,-0.5165934562683105,0.6472170352935791,11.991379020237218,-0.740689247162963,0.2761681667445869,-2.4839126378068914
0.88,-0.3656600713729858,-1.1965365409851074,2.8799350261688232,0.0550071185480207,-0.0044767741455251,0.002199541119867,-0.0126197934150695,0.3010162711143493,-0.0105035305023193,-0.3789109738698205,-1.170990518688853,2.88,0.0580557115115687,0.294328956035395,0.0,0.6798201688865096,0.2594701945781708,-0.4144012928009033,-0.472337007522583,11.923002314059886,-0.8525638917417275,0.2605384447897272,-2.4959243080980453
0.9,-0.3668606877326965,-1.1901706457138062,2.87971568107605,0.051628082703214,0.0069403492189607,0.0029713407376253,-0.0312872976064682,0.2939030528068542,-0.0197625160217285,-0.3777498596395891,-1.165103939568145,2.88,0.0580557115115687,0.294328956035395,0.0,1.100911440891816,-0.933375209569931,-0.3556609153747558,-0.462949275970459,12.152696904760887,-0.7037355781197675,0.2547548259486228,-2.5
0.92,-0.368385910987854,-1.183971285820007,2.879473924636841,0.0496565527176633,0.0201815257323168,0.0038031530550273,-0.0613313913345336,0.2827182412147522,-0.0103747844696044,-0.3765887454093578,-1.1592173604474372,2.88,0.0580557115115687,0.294328956035395,0.0,1.670237319953627,-1.5022046864032743,-0.5592405796051025,0.4693865776062011,12.172400006180396,-0.7473184796244731,0.2558977636880156,-2.5
0.94,-0.3700675964355469,-1.1781054735183716,2.879280567169189,0.0435754993139586,0.0334758116626594,0.005297979617601,-0.0721554458141326,0.2714663743972778,-0.0097900629043579,-0.3754276311791264,-1.1533307813267293,2.88,0.0580557115115687,0.294328956035395,0.0,0.7811954966017985,-0.54120272397995,-0.5625933408737183,0.0292360782623291,12.433546212142572,-0.8305486332479867,0.25432172412644,-2.5
0.96,-0.3709918558597564,-1.175145149230957,2.8792550563812256,0.0265806712713379,0.0450970969462614,0.0014609318332307,-0.0752775371074676,0.2695834636688232,-0.0064319372177124,-0.374266516948895,-1.1474442022060214,2.88,0.0580557115115687,0.294328956035395,0.0,0.2478397414790237,-0.156104564666748,-0.0941455364227294,0.1679062843322754,12.579403046567222,-0.8327624915244485,0.2135816841985114,-2.5
0.98,-0.3730331361293793,-1.1692668199539185,2.8792684078216557,0.0312749417321256,0.0540336908860418,0.0062510747881637,-0.0873146206140518,0.2637898921966553,-0.0042271614074707,-0.3731054027186637,-1.1415576230853135,2.88,0.0580557115115687,0.294328956035395,0.0,0.6769746784796055,-0.6018541753292084,-0.2896785736083984,0.1102387905120849,12.451669104687426,-0.8415183291656784,0.2029572719899635,-2.4204326056021417
1.0,-0.3749245405197143,-1.163434624671936,2.879188299179077,0.0185654081767922,0.066921914502358,0.0078925495121062,-0.0863624364137649,0.2633580565452575,0.0005096197128295,-0.3719442884884323,-1.1356710439646056,2.88,0.0580557115115687,0.294328956035395,0.0,0.242539853234099,0.0476092100143432,-0.0215917825698852,0.2368390560150146,12.359548176263615,-0.8645506362691415,0.2007357676969599,-2.3965140630376007
1.02,-0.3769646286964416,-1.157596468925476,2.879271984100342,0.0045922754367662,0.0815178545957391,0.0076952815227045,-0.0884585827589035,0.2625828981399536,8.046627044677734e-05,-0.370783174258201,-1.1297844648438975,2.88,0.0580557115115687,0.294328956035395,0.0,0.1137856837508577,-0.1048073172569274,-0.0387579202651977,-0.0214576721191406,12.214189353717302,-0.8681539986384156,0.1997053558091811,-2.333235340966402
1.04,-0.3788700997829437,-1.1516544818878174,2.8795361518859863,-0.0104650682439641,0.0929408395700507,0.0077887392055966,-0.0887750834226608,0.2650532126426697,0.0078266859054565,-0.3696220600279696,-1.1238978857231898,2.88,0.0580557115115687,0.294328956035395,0.0,0.4068370221793334,-0.0158250331878662,0.1235157251358032,0.3873109817504883,13.178625170924988,-0.8817172617890564,0.1763711377410375,-2.361067616522356
1.06,-0.3798927068710327,-1.14858877658844,2.8797249794006348,-0.0362876306939853,0.1026585953135112,0.0039319902948349,-0.0878933072090148,0.26953786611557,0.0068932771682739,-0.3684609457977383,-1.118011306602482,2.88,0.0580557115115687,0.294328956035395,0.0,0.2332428880673435,0.0440888106822967,0.2242326736450195,-0.0466704368591308,12.037249397181768,-0.8983183668292187,0.1480837313376419,-2.351063468949056
1.08,-0.3816673457622528,-1.142383337020874,2.88006854057312,-0.0328686522167979,0.1116362010146623,0.0082125693871902,-0.0831732898950576,0.2763372659683227,0.0136631727218627,-0.3672998315675069,-1.112124727481774,2.88,0.0580557115115687,0.294328956035395,0.0,0.5346538310163209,0.2360008656978607,0.3399699926376343,0.3384947776794433,12.807967368704794,-0.95667363876239,0.0932423575915491,-2.365218123973068
1.1,-0.3832712769508362,-1.135741949081421,2.880463123321533,-0.0440459229060739,0.1216674141186786,0.0089770202167835,-0.076017826795578,0.2890536189079284,0.0166082382202148,-0.3661387173372756,-1.1062381483610662,2.88,0.0580557115115687,0.294328956035395,0.0,0.7442776616327702,0.3577731549739837,0.6358176469802856,0.1472532749176025,12.455523933808765,-0.95667363876239,0.0932423575915491,-2.365218123973068
1.12,-0.3846382796764374,-1.1288208961486816,2.8813092708587646,-0.0521432824748634,0.128693609431749,0.0096261163564421,-0.0725188851356506,0.2934738993644714,0.0258135795593261,-0.3649776031070442,-1.1003515692403585,2.88,0.0580557115115687,0.294328956035395,0.0,0.5397216440528,0.1749470829963684,0.2210140228271484,0.4602670669555664,12.070988847173794,-0.9824631896477504,0.0928313171315387,-2.3392339619191964
1.14,-0.3858185112476349,-1.1216026544570925,2.882119417190552,-0.0559961210363381,0.1371909448953921,0.0106639716346366,-0.0604529678821563,0.3107392787933349,0.0316715240478515,-0.3638164888768129,-1.0944649901196504,2.88,0.0580557115115687,0.294328956035395,0.0,1.093155066334872,0.6032958626747131,0.8632689714431763,0.2928972244262695,12.279044023772258,-1.039249335671922,0.0534180592163405,-2.341741730534
1.16,-0.3862862288951874,-1.1177465915679932,2.88249135017395,-0.066057866930411,0.1417945222111226,0.0071273686586858,-0.0506313890218734,0.3295710682868957,0.0344181060791015,-0.3626553746465815,-1.0885784109989425,2.88,0.0580557115115687,0.294328956035395,0.0,1.07079808985276,0.4910789430141449,0.9415894746780396,0.1373291015625,12.098361279201526,-1.0300246514220373,0.065870536625926,-2.2731135774040743
1.18,-0.3869502544403076,-1.1099358797073364,2.8834943771362305,-0.0509961053141184,0.1469292687806457,0.0121847465056332,-0.0462989509105682,0.3362256288528442,0.0354641675949096,-0.3614942604163502,-1.0826918318782346,2.88,0.0580557115115687,0.294328956035395,0.0,0.400460488091589,0.2166219055652618,0.3327280282974243,0.0523030757904052,12.47344570000496,-1.050631364657717,0.0707968152740675,-2.321416051998954
1.2,-0.3875164985656738,-1.1017814874649048,2.884155750274658,-0.0406416079879026,0.153943040225248,0.0127007794687413,-0.0326478481292724,0.3539791703224182,0.0373148918151855,-0.3603331461861188,-1.0768052527575267,2.88,0.0580557115115687,0.294328956035395,0.0,1.1235724520440369,0.6825551390647888,0.8876770734786987,0.0925362110137939,12.021661764350029,-1.0968250250710694,0.0254975250086634,-2.331340121143857
1.22,-0.387526661157608,-1.0932538509368896,2.884868860244751,-0.0266651283251082,0.1591085868252506,0.0129944199089601,-0.0129691511392593,0.3753456473350525,0.0309258699417114,-0.3591720319558875,-1.0709186736368188,2.88,0.0580557115115687,0.294328956035395,0.0,1.4871088188628894,0.983934849500656,1.068323850631714,-0.319451093673706,12.09836631248345,-1.1103040697137925,0.067349941900951,-2.292380595110905
1.24,-0.3872447907924652,-1.0847711563110352,2.8858132362365723,-0.0103533742472104,0.160774417386223,0.012412395427084,0.0061134248971939,0.3827324509620666,0.0372934341430664,-0.3580109177256561,-1.065032094516111,2.88,0.0580557115115687,0.294328956035395,0.0,1.071512307289873,0.9541288018226624,0.369340181350708,0.318378210067749,11.939354280049884,-1.1151387984232235,0.1014160500591763,-2.315753937708286
1.26,-0.3870315253734588,-1.0802611112594604,2.885903596878052,-0.0034305897770831,0.1599824631819755,0.0063022437752761,0.0123146921396255,0.3897544741630554,0.0296759605407714,-0.3568498034954248,-1.059145515395403,2.88,0.0580557115115687,0.294328956035395,0.0,0.603718538163564,0.310063362121582,0.3511011600494385,-0.3808736801147461,11.880997153354656,-1.1075300524097489,0.1189692771388443,-2.255303519996045
1.28,-0.3862057030200958,-1.0715672969818115,2.8866195678710938,0.0184560459660829,0.1592046321121278,0.0114190967785752,0.0292374193668365,0.3912323713302612,0.0303089618682861,-0.3556886892651934,-1.0532589362746951,2.88,0.0580557115115687,0.294328956035395,0.0,0.8499464211408545,0.8461363613605499,0.0738948583602905,0.0316500663757324,12.022178731406711,-1.1207862001525672,0.1814712518683263,-2.372240760408299
1.3,-0.3852125108242035,-1.0628756284713743,2.887068033218384,0.0385339898570734,0.1535515697824458,0.0091749907826527,0.0409278273582458,0.3911733627319336,0.0261998176574707,-0.3545275750349621,-1.0473723571539872,2.88,0.0580557115115687,0.294328956035395,0.0,0.6195849158217964,0.5845203995704651,-0.0029504299163818,-0.2054572105407714,12.095405675313486,-1.140573287568909,0.1891682553532525,-2.3285012189624097
1.32,-0.3837538361549377,-1.054357647895813,2.887234687805176,0.0593770872170783,0.1442061973126725,0.0077420159269161,0.0551670044660568,0.387217104434967,0.0138401985168457,-0.3533664608047307,-1.0414857780332794,2.88,0.0580557115115687,0.294328956035395,0.0,0.963283875242948,0.7119588553905487,-0.1978129148483276,-0.61798095703125,11.85525055404969,-1.1786358794108402,0.2228959820900321,-2.3323028931644525
1.34,-0.3819791972637176,-1.0460807085037231,2.887563943862915,0.0746024648447404,0.1308491534797365,0.0047911940139448,0.0672067701816558,0.3828290104866028,0.0162863731384277,-0.3522053465744993,-1.0355991989125717,2.88,0.0580557115115687,0.294328956035395,0.0,0.6522942151848687,0.601988285779953,-0.2194046974182129,0.1223087310791015,11.977185316117357,-1.1413216961809545,0.2534302116639377,-2.3601460678349606
1.36,-0.3810438215732574,-1.0420078039169312,2.88765549659729,0.074872696584033,0.1173024083944586,-0.0047223539227065,0.0774226337671279,0.3708180785179138,0.0124186277389526,-0.351044232344268,-1.0297126197918636,2.88,0.0580557115115687,0.294328956035395,0.0,0.8117662995416389,0.5107931792736053,-0.6005465984344482,-0.1933872699737548,11.795017368620393,-1.0225874387337086,0.2765046408289761,-2.2735168132115544
1.38,-0.3789698183536529,-1.0342527627944946,2.8878397941589355,0.0907415818516637,0.1122996102460621,-0.0003154282546042,0.0840101391077041,0.3665399551391601,0.0103640556335449,-0.3498831181140366,-1.0238260406711557,2.88,0.0580557115115687,0.294328956035395,0.0,0.4059520685754592,0.3293752670288086,-0.2139061689376831,-0.1027286052703857,11.888739430409714,-0.9979136673094516,0.2802776741309232,-2.2724587673442747
1.4,-0.3768786787986755,-1.0268681049346924,2.888004302978516,0.0945846296930868,0.0987010045651628,-0.0053325790354953,0.0937157124280929,0.3406432271003723,0.0078481435775756,-0.3487220038838053,-1.0179394615504478,2.88,0.0580557115115687,0.294328956035395,0.0,1.3884960299418887,0.4852786660194397,-1.294836401939392,-0.1257956027984619,12.1120787842583,-1.014533013035957,0.3527260886402873,-2.2716647598805784
1.42,-0.3757590055465698,-1.0232553482055664,2.8879189491271973,0.09566188200096,0.0931632337909521,-0.0061845245406698,0.0937157124280929,0.3406432271003723,0.0078481435775756,-0.3475608896535739,-1.01205288242974,2.88,0.0580557115115687,0.294328956035395,0.0,0.0,0.0,0.0,0.0,11.866188097645136,-0.9936181135446228,0.339098715448151,-2.2394702631041943
1.44,-0.3724144101142883,-1.013242483139038,2.88797926902771,0.0914301497668521,0.0764879601632209,-0.0120868611829284,0.1004849374294281,0.3126329183578491,0.0063997507095336,-0.3463997754233426,-1.006166303309032,2.88,0.0580557115115687,0.294328956035395,0.0,1.4426517640012495,0.3384612500667572,-1.4005154371261597,-0.0724196434020996,11.678043267437715,-0.9936181135446228,0.339098715448151,-2.2394702631041943
1.46,-0.3713401556015014,-1.0102412700653076,2.888132810592652,0.0722960562007909,0.0685183799560701,-0.0208799921981169,0.099424123764038,0.2928167581558227,0.0048118829727172,-0.3452386611931112,-1.000279724188324,2.88,0.0580557115115687,0.294328956035395,0.0,0.995397979120254,-0.0530406832695007,-0.9908080101013184,-0.0793933868408203,11.8079585042924,-0.9570132866956044,0.3194559639586622,-2.203680967645376
1.48,-0.3692428171634674,-1.0042880773544312,2.887834072113037,0.0795609586529531,0.0657007769513085,-0.0169961685044794,0.0985517352819442,0.2826592326164245,0.0050264596939086,-0.3440775469628799,-0.9943931450676162,2.88,0.0580557115115687,0.294328956035395,0.0,0.5098588773290452,-0.0436194241046905,-0.5078762769699097,0.0107288360595703,12.186080444684649,-0.9253499508780062,0.2630758598438705,-2.1853837887355594
1.5,-0.3671883344650268,-0.9987643957138062,2.887775659561157,0.0685944375990875,0.0580655867906011,-0.0196079259747878,0.0934159755706787,0.2582296729087829,-0.0080358982086181,-0.3429164327326485,-0.9885065659469084,2.88,0.0580557115115687,0.294328956035395,0.0,1.4087269157778508,-0.2567879855632782,-1.22147798538208,-0.6531178951263428,11.778181790919916,-0.9433022479187964,0.2874315209908066,-2.19420476640108
1.52,-0.3653498589992523,-0.9936057329177856,2.887575387954712,0.0573150797142836,0.0536232212991895,-0.0221340992438357,0.0875915586948394,0.2403527498245239,-0.0058203935623168,-0.3417553185024172,-0.9826199868262004,2.88,0.0580557115115687,0.294328956035395,0.0,0.9465947809673588,-0.2912208437919616,-0.8938461542129517,0.1107752323150634,12.314629656530997,-0.9186594495798156,0.2503045251164374,-2.22022666911618
1.54,-0.3636418879032135,-0.9886428117752076,2.887351751327514,0.0456661140600367,0.0487132588463604,-0.0233682110489376,0.0797950476408004,0.2277356386184692,-0.009537935256958,-0.3405942042721858,-0.9767334077054926,2.88,0.0580557115115687,0.294328956035395,0.0,0.7645214124749846,-0.3898255527019501,-0.6308555603027344,-0.1858770847320556,12.174746482475712,-0.8964710679532142,0.1902151389176251,-2.1538152005716493
1.56,-0.3628822565078735,-0.9861466288566588,2.887270450592041,0.0169653444389735,0.0476346133163243,-0.0281698782857565,0.0765576213598251,0.2242769300937652,-0.0077623128890991,-0.3394330900419545,-0.9708468285847848,2.88,0.0580557115115687,0.294328956035395,0.0,0.2529645645977446,-0.1618713140487671,-0.1729354262351989,0.0887811183929443,12.296154249867868,-0.9107910755104832,0.1579220359276613,-2.1539713933106093
1.58,-0.3614654839038849,-0.9813781976699828,2.886894464492798,0.0180791505490367,0.0517346920484012,-0.0239276979712584,0.0701994448900222,0.2212701737880706,-0.0177830457687377,-0.3382719758117231,-0.9649602494640768,2.88,0.0580557115115687,0.294328956035395,0.0,0.6121316830308254,-0.3179088234901428,-0.150337815284729,-0.5010366439819336,12.11317415675876,-0.9114742739586984,0.1237340258436204,-2.156596796921655
1.6,-0.3603194057941437,-0.9768694043159484,2.8869738578796387,-0.002791450170466,0.0553271090919162,-0.0247997732193551,0.0621715933084487,0.2130424976348877,-0.0087922811508178,-0.3371108615814918,-0.9590736703433688,2.88,0.0580557115115687,0.294328956035395,0.0,0.7296829864952804,-0.4013925790786743,-0.4113838076591491,0.4495382308959961,12.196804912679909,-0.9331477930997756,0.1170517394316308,-2.1939573548032145
1.62,-0.3592381775379181,-0.9722700715065002,2.886688709259033,-0.0182015408860232,0.05726859722331,-0.0253609348522251,0.0501143932342529,0.2049328386783599,-0.0046294927597045,-0.3359497473512604,-0.953187091222661,2.88,0.0580557115115687,0.294328956035395,0.0,0.7557636026059443,-0.6028600037097931,-0.4054829478263855,0.208139419555664,12.54181255017329,-0.9465636555585007,0.0525953950140693,-2.1732730793732027
1.64,-0.3582662642002105,-0.9676201939582824,2.88646936416626,-0.0286011587712668,0.061455408219555,-0.0244931789891762,0.0492902845144271,0.2057938277721405,-0.00649094581604,-0.3347886331210291,-0.9473005121019532,2.88,0.0580557115115687,0.294328956035395,0.0,0.1105154387703637,-0.0412054359912872,0.0430494546890258,-0.0930726528167724,11.937046746284068,-0.960132551989578,-0.0146328402536506,-2.1732344691049965
1.66,-0.357873260974884,-0.965312123298645,2.886438608169556,-0.0464139526087826,0.0600684665799393,-0.0266902888308762,0.0421676784753799,0.2072314918041229,-0.0057506561279296,-0.3336275188907977,-0.9414139329812452,2.88,0.0580557115115687,0.294328956035395,0.0,0.3651931799700355,-0.356130301952362,0.0718832015991211,0.0370144844055175,12.230767532210848,-0.9826002775255808,-0.0381718155713503,-2.2360914485166337
1.68,-0.3571770489215851,-0.960372030735016,2.8862032890319824,-0.0372929561142192,0.0648025197299529,-0.0223647594815664,0.0375737249851226,0.212583839893341,-0.0107717514038085,-0.3324664046605664,-0.9355273538605374,2.88,0.0580557115115687,0.294328956035395,0.0,0.4329071393158625,-0.2296976745128631,0.267617404460907,-0.2510547637939453,12.326291763387417,-1.0127123724788505,-0.0912139262021558,-2.237146482125307
1.7,-0.3566026091575622,-0.9553948044776917,2.8858959674835205,-0.0375416045296252,0.0671488453766405,-0.0209262050488056,0.0299783796072006,0.2198633551597595,-0.0123703479766845,-0.331305290430335,-0.9296407747398294,2.88,0.0580557115115687,0.294328956035395,0.0,0.5320623199559243,-0.3797672688961029,0.3639757633209228,-0.0799298286437988,12.237429780330784,-0.984461517760688,-0.104397011707395,-2.2725947426804387
1.72,-0.3562004268169403,-0.9502562284469604,2.8856289386749268,-0.0373558409516904,0.070806628681963,-0.0198232223871046,0.0221362709999084,0.2260525524616241,-0.0092589855194091,-0.3301441762001036,-0.9237541956191216,2.88,0.0580557115115687,0.294328956035395,0.0,0.5231763732015168,-0.3921054303646087,0.3094598650932312,0.1555681228637695,12.134036418598043,-1.0159489311442076,-0.1012184309486123,-2.331872024744989
1.74,-0.3560455441474914,-0.9447713494300842,2.8854198455810547,-0.0348902593934634,0.07603311754338,-0.0191428546588676,0.0169810652732849,0.2342145144939422,-0.0076067447662353,-0.3289830619698723,-0.9178676164984136,2.88,0.0580557115115687,0.294328956035395,0.0,0.4897031493855818,-0.2577602863311767,0.4080981016159057,0.0826120376586914,12.197483292710784,-1.064273794134982,-0.1018851253609049,-2.28639893442381
1.76,-0.3558227717876434,-0.9419527649879456,2.8852105140686035,-0.0458710392155361,0.0789783153825682,-0.0211940788893763,0.0171366333961486,0.2435030043125152,-0.0132286548614501,-0.3278219477396409,-0.9119810373777056,2.88,0.0580557115115687,0.294328956035395,0.0,0.5429229173401694,0.0077784061431884,0.4644244909286499,-0.2810955047607422,12.158546045667208,-1.0674159303608013,-0.0909713080513046,-2.282789480757137
1.78,-0.3556732535362243,-0.9363120198249816,2.8850409984588623,-0.0317599048862207,0.0869826507024259,-0.0163161852495081,0.0113832950592041,0.2503560483455658,-0.0121611356735229,-0.3266608335094096,-0.906094458256998,2.88,0.0580557115115687,0.294328956035395,0.0,0.450568284932702,-0.287666916847229,0.3426522016525268,0.0533759593963623,12.270175321702482,-1.0611260137276173,-0.0888018493925696,-2.3380575940139856
1.8,-0.3554226458072662,-0.9304349422454834,2.884779214859009,-0.0304648551100022,0.0946005415247116,-0.0152994714662687,0.0090028345584869,0.2591510117053985,-0.0097042322158813,-0.3254997192791782,-0.90020787913629,2.88,0.0580557115115687,0.294328956035395,0.0,0.4718430546708478,-0.1190230250358581,0.4397481679916382,0.12284517288208,12.539008284084955,-1.0743412807577866,-0.095061735030702,-2.333931210188623
1.82,-0.3551011085510254,-0.9243854880332948,2.8846113681793213,-0.0296952390915755,0.1054253320927413,-0.0139793036095727,0.010504201054573,0.2624125778675079,-0.0072097778320312,-0.3243386050489469,-0.894321300015582,2.88,0.0580557115115687,0.294328956035395,0.0,0.2185990499664612,0.075068324804306,0.1630783081054687,0.1247227191925048,12.462217900727865,-1.075739668846907,-0.0737419963263044,-2.3042911293446973
1.84,-0.3548232913017273,-0.9180644154548644,2.884470701217652,-0.0296757578556438,0.1138758827402731,-0.012650030581493,0.0137798488140106,0.2751034498214721,-0.0061959028244018,-0.3231774908187155,-0.8884347208948741,2.88,0.0580557115115687,0.294328956035395,0.0,0.6572975766860086,0.163782387971878,0.6345435976982117,0.0506937503814697,12.107569806024912,-1.1067025559628387,-0.0685426510880161,-2.278414456430331
1.86,-0.3547224700450897,-0.9148242473602296,2.8845303058624268,-0.0414458001959172,0.1174340863039049,-0.0170867298721352,0.0123039633035659,0.284595787525177,-0.0064051151275634,-0.3220163765884842,-0.8825481417741662,2.88,0.0580557115115687,0.294328956035395,0.0,0.4804333536217874,-0.073794275522232,0.4746168851852417,-0.010460615158081,12.28811499040421,-1.1169970255125237,-0.0178074552903185,-2.26876144148053
1.88,-0.354142963886261,-0.9082435965538024,2.884443759918213,-0.027011553752144,0.1239647971727607,-0.0122853021060826,0.0181317329406738,0.2934645116329193,-0.0052517652511596,-0.3208552623582528,-0.8766615626534583,2.88,0.0580557115115687,0.294328956035395,0.0,0.5337306956224422,0.2913884818553924,0.4434362053871155,0.0576674938201904,12.595432781268755,-1.1857198737428962,-0.0187090647593367,-2.2842089922566746
1.9,-0.3535211980342865,-0.9014973640441896,2.8842761516571045,-0.0240819906619058,0.1280391658638795,-0.0121108706679684,0.0205121934413909,0.2973885834217071,-0.004543662071228,-0.3196941481280215,-0.8707749835327504,2.88,0.0580557115115687,0.294328956035395,0.0,0.2321978774260464,0.1190230250358581,0.1962035894393921,0.035405158996582,12.321617716562288,-1.1555541998933296,-0.0215868722466353,-2.3077557727820266
1.92,-0.3525950312614441,-0.8946449160575867,2.8839266300201416,-0.0181262684933207,0.1307044231532831,-0.0115367804780321,0.0293480604887008,0.3042778372764587,-0.0129282474517822,-0.3185330338977901,-0.8648884044120426,2.88,0.0580557115115687,0.294328956035395,0.0,0.6997064333646457,0.4417933523654938,0.3444626927375793,-0.4192292690277099,12.693146087278365,-1.204712321050581,-0.0060157650663876,-2.3317300939898296
1.94,-0.3516173660755157,-0.8876110315322876,2.8836801052093506,-0.0118404410230657,0.129338290820139,-0.0109896993590778,0.0428362190723419,0.3124424815177917,-0.0134110450744628,-0.3173719196675588,-0.8590018252913347,2.88,0.0580557115115687,0.294328956035395,0.0,0.7887092796294591,0.6744079291820526,0.4082322120666504,-0.0241398811340332,12.337307089614114,-1.2105262577592717,0.0116771744741587,-2.3668279814316597
1.96,-0.3509686589241028,-0.8841943740844727,2.8834471702575684,-0.018713989553176,0.126478948697972,-0.0156891520726262,0.0471498817205429,0.3110598027706146,-0.012558102607727,-0.3162108054373274,-0.8531152461706268,2.88,0.0580557115115687,0.294328956035395,0.0,0.2304723237828193,0.2156831324100494,-0.0691339373588562,0.0426471233367919,12.498883618994114,-1.1714878520602714,0.0281686272135185,-2.361273545584984
1.98,-0.3496484756469726,-0.8771176934242249,2.883173942565918,-0.0017276911228824,0.1277043594881778,-0.0096380433331256,0.0552950799465179,0.3162699937820434,-0.013432502746582,-0.3150496912070961,-0.847228667049919,2.88,0.0580557115115687,0.294328956035395,0.0,0.4854248657589305,0.4072599112987518,0.2605095505714416,-0.043720006942749,12.818095408528734,-1.1697177944136328,-0.0179331232919764,-2.3876204584439944
2.0,-0.3479398190975189,-0.8701319694519043,2.8829996585845947,0.0018235453635551,0.1223147588746963,-0.0092990834517636,0.0613997876644134,0.3143106400966644,-0.0127726793289184,-0.3138885769768647,-0.8413420879292111,2.88,0.0580557115115687,0.294328956035395,0.0,0.3222649923891773,0.3052353858947754,-0.0979676842689514,0.0329911708831787,12.763562283250394,-1.176910072849274,0.0042359412898971,-2.390346380465606
2.02,-0.3464105725288391,-0.8631231188774109,2.882773160934448,0.0100598669584088,0.1181700148669627,-0.0097264625483756,0.0728528201580047,0.3148779273033142,-0.0090175867080688,-0.3127274627466334,-0.8354555088085032,2.88,0.0580557115115687,0.294328956035395,0.0,0.6033127063663711,0.5726516246795654,0.028364360332489,0.1877546310424804,12.385393083490271,-1.1645262683520332,-0.0133122857327395,-2.431864058517332
2.04,-0.344539999961853,-0.8562894463539124,2.8827812671661377,0.0164247006465117,0.1101661662388677,-0.0096911645633599,0.0764959305524826,0.3114567697048187,-0.0049138069152832,-0.311566348516402,-0.8295689296877953,2.88,0.0580557115115687,0.294328956035395,0.0,0.3233325735514892,0.1821555197238922,-0.1710578799247741,0.2051889896392822,12.339754414620074,-1.1323724735530176,0.0100907089505435,-2.411602356209238
2.06,-0.3436030447483063,-0.8528038263320923,2.882631301879883,0.0091532971692912,0.101156305646516,-0.0154960629353306,0.0811636447906494,0.3109055757522583,-0.006040334701538,-0.3104052342861707,-0.8236823505670874,2.88,0.0580557115115687,0.294328956035395,0.0,0.2416631738377233,0.2333857119083404,-0.0275596976280212,-0.0563263893127441,12.38711101780791,-1.121740978253572,0.01518630770714,-2.4051231931309136
2.08,-0.3415659964084625,-0.8460840582847595,2.8826828002929688,0.0242393277232967,0.0997643251614544,-0.0099650935286639,0.0855208933353424,0.3071102499961853,-0.0045973062515258,-0.3092441200559393,-0.8177957714463795,2.88,0.0580557115115687,0.294328956035395,0.0,0.2977937355892704,0.2178624272346496,-0.1897662878036499,0.0721514225006103,12.202378415772728,-1.1038594002403967,0.0242212805124062,-2.4848103555767604
2.1,-0.3396126925945282,-0.8394429683685303,2.88269305229187,0.0257469965264651,0.0946399060452936,-0.010043221353952,0.0897829234600067,0.3006193041801452,0.0013893842697143,-0.3080830058257079,-0.8119091923256716,2.88,0.0580557115115687,0.294328956035395,0.0,0.4902492778358306,0.2131015062332153,-0.3245472908020019,0.2993345260620117,12.199867574719065,-1.087041898779214,0.0373306919691328,-2.5
2.12,-0.3374946117401123,-0.8330983519554138,2.882570743560791,0.0264869204041333,0.088701438815103,-0.0113977073525583,0.0916061550378799,0.2921783924102783,-0.002521276473999,-0.3069218915954766,-0.8060226132049637,2.88,0.0580557115115687,0.294328956035395,0.0,0.473989536661025,0.0911615788936615,-0.4220455884933471,-0.1955330371856689,12.124339347064051,-1.071471931902709,0.0477675946055732,-2.4920482837327067
2.14,-0.3355007469654083,-0.8268624544143677,2.882853746414185,0.022740957690268,0.0831839726669991,-0.0126231139928541,0.0941395014524459,0.2861072123050689,0.0048333406448364,-0.3057607773652452,-0.8001360340842558,2.88,0.0580557115115687,0.294328956035395,0.0,0.4933747685349137,0.126667320728302,-0.3035590052604675,0.3677308559417724,12.702442172679184,-1.0705136564454985,0.0314468115919797,-2.5
2.16,-0.3344396650791168,-0.8237969875335693,2.8829805850982666,0.0054916886744795,0.0751385498632373,-0.017477014770155,0.0908732414245605,0.2828536927700043,0.0093019008636474,-0.3045996631350139,-0.7942494549635479,2.88,0.0580557115115687,0.294328956035395,0.0,0.3210213169088242,-0.1633130013942718,-0.1626759767532348,0.2234280109405517,12.075947706081934,-1.0298215171812146,-0.0102735208135426,-2.425621906280168
2.18,-0.33240607380867,-0.8176735043525696,2.883439302444458,0.0120069663677934,0.0700731895080993,-0.0136207985081935,0.0917523354291915,0.2786144614219665,0.0164258480072021,-0.3034385489047825,-0.78836287584284,2.88,0.0580557115115687,0.294328956035395,0.0,0.4168168410564913,0.0439547002315521,-0.211961567401886,0.3561973571777344,11.973375413570466,-1.0359876722949273,-0.0147429396506915,-2.388983882752456
2.2,-0.3304442167282104,-0.8116847276687622,2.8839111328125,0.0041257885490884,0.0663778856418627,-0.0143616253623597,0.0898975878953933,0.2725258469581604,0.0209373235702514,-0.3022774346745512,-0.7824762967221321,2.88,0.0580557115115687,0.294328956035395,0.0,0.3900792427795639,-0.0927373766899108,-0.3044307231903076,0.2255737781524658,12.49447307554101,-1.007756705947331,-0.0172529896216107,-2.3408569512559554
2.22,-0.3288111984729767,-0.8056523203849792,2.88452696800232,-0.0030983454530944,0.064515805354787,-0.0142603276762786,0.0808846950531005,0.2704766392707824,0.0244724750518798,-0.3011163204443198,-0.7765897176014243,2.88,0.0580557115115687,0.294328956035395,0.0,0.4947948704532034,-0.4506446421146393,-0.1024603843688964,0.1767575740814209,12.009953040844266,-0.9899809992274172,-0.0344791378726226,-2.3139751909828523
2.24,-0.3271576762199402,-0.7996345162391663,2.885373115539551,-0.0123170750734535,0.0603879428003938,-0.0136749764660256,0.0739471614360809,0.2711297571659088,0.0328946113586425,-0.2999552062140885,-0.7707031384807164,2.88,0.0580557115115687,0.294328956035395,0.0,0.5465535555686708,-0.3468766808509826,0.0326558947563171,0.4211068153381347,12.522076531696712,-1.019860395225459,-0.0448242209674316,-2.356585426606676
2.26,-0.3264637589454651,-0.7966392636299133,2.8857345581054688,-0.0290336418891338,0.0597842612026892,-0.017431798536985,0.0702148675918579,0.2694842219352722,0.0358664989471435,-0.2987940919838571,-0.7648165593600084,2.88,0.0580557115115687,0.294328956035395,0.0,0.2523386582233163,-0.1866146922111511,-0.0822767615318298,0.1485943794250488,11.731628788272246,-1.0379585741177155,-0.0521126832362514,-2.2934909172902507
2.28,-0.3250812888145447,-0.7905654311180115,2.8865444660186768,-0.0227659417519537,0.0595668602101085,-0.0134105636807456,0.0653205066919326,0.2732996642589569,0.0337636470794677,-0.2976329777536258,-0.7589299802393006,2.88,0.0580557115115687,0.294328956035395,0.0,0.32762156034619,-0.2447180449962616,0.1907721161842346,-0.105142593383789,11.819010839389192,-1.0496889612942402,-0.1013626931019192,-2.2385219048353786
2.3000000000000003,-0.3236826658248901,-0.7844434976577759,2.887275218963623,-0.0256682679675928,0.0614076398210495,-0.0125020515919315,0.0621420890092849,0.2704431116580963,0.0333559513092041,-0.2964718635233944,-0.7530434011185926,2.88,0.0580557115115687,0.294328956035395,0.0,0.2146418386984579,-0.1589208841323852,-0.1428276300430297,-0.0203847885131835,12.38869143393731,-1.0242354295160188,-0.1086978370225048,-2.2938050626757227
2.32,-0.3225674033164978,-0.7782272696495056,2.8879923820495605,-0.0302473014139699,0.0652280710132654,-0.0120668162548122,0.0565624237060546,0.2776086330413818,0.0325781106948852,-0.2953107492931631,-0.7471568219978848,2.88,0.0580557115115687,0.294328956035395,0.0,0.4557477306901207,-0.2789832651615143,0.3582760691642761,-0.0388920307159423,12.06433627474962,-1.0243836540039457,-0.1674964591620168,-2.281413434888487
2.34,-0.3214520215988159,-0.7716761231422424,2.888659238815308,-0.0310429488480782,0.0702519906849409,-0.0111643193173727,0.0501894950866699,0.2872659265995025,0.0311404466629028,-0.2941496350629317,-0.7412702428771769,2.88,0.0580557115115687,0.294328956035395,0.0,0.5829760199278129,-0.3186464309692383,0.4828646779060364,-0.0718832015991211,12.104798744506752,-1.0516087832066197,-0.1610583334403323,-2.3374512938048646
2.36,-0.3209405541419983,-0.7684782147407532,2.8889806270599365,-0.0436600041292797,0.0742266451024485,-0.0151876239596686,0.0490173697471618,0.2901721000671386,0.0295203924179077,-0.2929885208327004,-0.735383663756469,2.88,0.0580557115115687,0.294328956035395,0.0,0.1763823814347372,-0.0586062669754028,0.1453086733818054,-0.0810027122497558,12.130087075908705,-1.042960901994337,-0.1267621021382525,-2.2854586997843334
2.38,-0.3200178146362304,-0.7616933584213257,2.889462471008301,-0.0291083055261494,0.0793394002038151,-0.010476555465102,0.0472410768270492,0.2944301068782806,0.0268810987472534,-0.291827406602469,-0.7294970846357611,2.88,0.0580557115115687,0.294328956035395,0.0,0.2657616865808981,-0.0888146460056305,0.2129003405570984,-0.1319646835327148,12.194519981155736,-1.016346740024015,-0.1391595915827849,-2.2591027568511977
2.4,-0.3191365599632263,-0.7546859383583069,2.889896869659424,-0.0274504857579722,0.0855666876850628,-0.0099816642915938,0.0416607409715652,0.3047579526901245,0.0201916694641113,-0.2906662923722377,-0.7236105055150532,2.88,0.0580557115115687,0.294328956035395,0.0,0.6755608993780285,-0.2790167927742004,0.5163922905921936,-0.3344714641571045,11.894421672846876,-1.0189991986639375,-0.1387430922236438,-2.305477540784601
2.42,-0.3181833922863006,-0.7475910782814026,2.8901968002319336,-0.0207246568576885,0.0900307116574443,-0.0097430912676048,0.0398126989603042,0.311848372220993,0.0195479393005371,-0.2895051781420063,-0.7177239263943453,2.88,0.0580557115115687,0.294328956035395,0.0,0.3677760763107177,-0.0924021005630493,0.3545209765434265,-0.0321865081787109,12.259283868891089,-1.0876056256336577,-0.0977672227945266,-2.3394582675894187
2.44,-0.3173119723796844,-0.7404606342315674,2.8901755809783936,-0.0140502187700401,0.0951676210983531,-0.0098475106664327,0.0403524935245513,0.3152990341186523,0.0173217058181762,-0.288344063911775,-0.7118373472736375,2.88,0.0580557115115687,0.294328956035395,0.0,0.2070903258335171,0.0269897282123565,0.1725330948829651,-0.1113116741180419,11.947858293901843,-1.1125770561833748,-0.071931174048524,-2.3328730634982304
2.46,-0.3168135583400726,-0.7368429899215698,2.8903136253356934,-0.0212362810983708,0.0961132337171836,-0.0147699854705394,0.0424077361822128,0.3248678147792816,0.0057989358901977,-0.2871829496815436,-0.7059507681529296,2.88,0.0580557115115687,0.294328956035395,0.0,0.7559097375451483,0.1027621328830719,0.4784390330314636,-0.5761384963989258,12.38492537499542,-1.09067489000343,-0.06216955777098,-2.33078191170561
2.48,-0.3159065246582031,-0.7294706702232361,2.8902297019958496,-0.0033986868806782,0.0999270572959276,-0.0090158118968222,0.0417633354663848,0.3237949311733246,0.004468560218811,-0.2860218354513122,-0.7000641890322217,2.88,0.0580557115115687,0.294328956035395,0.0,0.0913267614326242,-0.032220035791397,-0.0536441802978515,-0.0665187835693359,12.145739157361277,-1.0570472206122854,-0.0298764791870891,-2.390960933767261
2.5,-0.3148928582668304,-0.7222707271575928,2.8903186321258545,0.0027501799110595,0.1024310175341259,-0.0091842459648657,0.0432157516479492,0.3278759121894836,0.0001126527786254,-0.2848607212210809,-0.6941776099115138,2.88,0.0580557115115687,0.294328956035395,0.0,0.307155695235268,0.0726208090782165,0.2040490508079528,-0.2177953720092773,12.72486345222842,-1.0918747403063032,-0.0352873769506285,-2.3562452511128567
2.52,-0.3138447999954223,-0.7148942947387695,2.890288114547729,0.0062734686615343,0.1065527794637126,-0.0095222730695156,0.0463888049125671,0.3279684484004974,0.0013142824172973,-0.2836996069908495,-0.6882910307908059,2.88,0.0580557115115687,0.294328956035395,0.0,0.169711105698669,0.158652663230896,0.0046268105506896,0.0600814819335937,12.00863456946081,-1.1344043947103386,-0.0097306954502095,-2.3815406119838585
2.54,-0.3125887513160705,-0.7076081037521362,2.8905811309814453,0.008792452200386,0.1084297735108528,-0.0088897795683753,0.0518424063920974,0.3299090266227722,0.0059062242507934,-0.2825384927606182,-0.682404451670098,2.88,0.0580557115115687,0.294328956035395,0.0,0.3694372163728028,0.2726800739765167,0.097028911113739,0.2295970916748047,12.014120698930128,-1.0994066139736105,0.0048723149877083,-2.3282518777291417
2.56,-0.3120129108428955,-0.7039265036582947,2.8905069828033447,-0.0036172344388389,0.1085601903583265,-0.0149102484282693,0.0540217012166976,0.3288683295249939,0.0030899047851562,-0.2813773785303868,-0.6765178725493901,2.88,0.0580557115115687,0.294328956035395,0.0,0.1854995398537457,0.1089647412300109,-0.052034854888916,-0.1408159732818603,12.139452308512771,-1.1108949383559952,0.0317393624482553,-2.32315622557978
2.58,-0.3106433451175689,-0.696742057800293,2.890713691711426,0.0108197694274514,0.1104151912398315,-0.009386831067459,0.0584909319877624,0.3252245485782623,0.0081700086593627,-0.2802162643001555,-0.6706312934286822,2.88,0.0580557115115687,0.294328956035395,0.0,0.3842480274689918,0.2234615385532379,-0.1821890473365783,0.2540051937103271,12.16399275904132,-1.0838642072672948,0.0094308004806659,-2.3414151276049138
2.6,-0.3091821074485779,-0.6895780563354492,2.890817642211914,0.0108639474726443,0.112153815837387,-0.0089203651282937,0.0636930763721466,0.3228400647640228,0.00698983669281,-0.2790551500699241,-0.6647447143079743,2.88,0.0580557115115687,0.294328956035395,0.0,0.2921509675107491,0.2601072192192077,-0.1192241907119751,-0.0590085983276367,12.090228800015211,-1.1069203198980266,0.0056627635548694,-2.3711439527927363
2.62,-0.3075525760650635,-0.6825035810470581,2.891045570373535,0.0102425688482472,0.1110534497045897,-0.0094171958752139,0.0695423036813736,0.3203657269477844,0.0074672698974609,-0.2778940358396928,-0.6588581351872664,2.88,0.0580557115115687,0.294328956035395,0.0,0.318448387532334,0.2924613654613495,-0.1237168908119201,0.0238716602325439,12.024808138065056,-1.1218899190395086,0.0137499387376441,-2.345833808830729
2.64,-0.3058938980102539,-0.6753528714179993,2.8909289836883545,0.0111412503834371,0.110702421577386,-0.0088459828784885,0.0739847123622894,0.3200666606426239,0.0025051832199096,-0.2767329216094614,-0.6529715560665585,2.88,0.0580557115115687,0.294328956035395,0.0,0.3333419405756291,0.2221204340457916,-0.0149533152580261,-0.2481043338775634,12.024172455721782,-1.1000913236028695,0.0135427450819903,-2.312645115415983
2.66,-0.3050483763217926,-0.6718770861625671,2.8910069465637207,-0.0037126936297023,0.1047280640903379,-0.0156308834186456,0.0757382065057754,0.3179503977298736,0.0034707784652709,-0.2755718073792301,-0.6470849769458507,2.88,0.0580557115115687,0.294328956035395,0.0,0.1456509921437744,0.0876747071743011,-0.1058131456375122,0.0482797622680664,12.097741485695224,-1.0879769819783232,0.0258704383043882,-2.3305811943840764
2.68,-0.3032929003238678,-0.6649327874183655,2.8912298679351807,0.0104785071660231,0.1059774506935518,-0.0100777892613787,0.0771363079547882,0.3182025253772735,0.0013303756713867,-0.2744106931489987,-0.6411983978251428,2.88,0.0580557115115687,0.294328956035395,0.0,0.1284482398904574,0.0699050724506378,0.0126063823699951,-0.1070201396942138,11.97916986324617,-1.1104004633530196,-0.0038801697262316,-2.316557731609385
2.7,-0.3014123439788818,-0.6580906510353088,2.891533613204956,0.0088653500563518,0.1021332155431974,-0.0105656480495758,0.0818107277154922,0.3101947903633117,0.0118499994277954,-0.2732495789187674,-0.6353118187044349,2.88,0.0580557115115687,0.294328956035395,0.0,0.7011356932318596,0.233720988035202,-0.4003867506980896,0.5259811878204346,12.026696424679358,-1.1067719828376272,0.0147921348012583,-2.311787585320765
2.72,-0.2994170486927032,-0.651059627532959,2.891634702682495,0.0077329580556599,0.1009659375752698,-0.0097311734499021,0.0872066617012023,0.3121460974216461,0.0091087818145751,-0.272088464688536,-0.6294252395837269,2.88,0.0580557115115687,0.294328956035395,0.0,0.3179543081052525,0.2697966992855072,0.0975653529167175,-0.1370608806610107,12.166505905820486,-1.0921735602343616,-0.0043987631051841,-2.246157698896401
2.74,-0.2974442541599273,-0.6442466378211975,2.8918631076812744,0.010095527758266,0.0971499065646911,-0.0092976153629368,0.0854075700044632,0.3102792799472809,0.0060617923736572,-0.2709273504583047,-0.6235386604630191,2.88,0.0580557115115687,0.294328956035395,0.0,0.2000367658015452,-0.0899545848369598,-0.0933408737182617,-0.1523494720458984,12.121531348143437,-1.0892921040279917,0.0196911704973378,-2.2528901884119867
2.76,-0.2964591681957245,-0.6410147547721863,2.892157077789306,-0.0048689701058676,0.0888579906140216,-0.015937621614806,0.0900766253471374,0.3022299706935882,0.0184160470962524,-0.2697662362280733,-0.6176520813423111,2.88,0.0580557115115687,0.294328956035395,0.0,0.7733354172112237,0.2334527671337127,-0.4024654626846313,0.6177127361297607,12.111835803800204,-1.1071146420455935,0.0107432760636441,-2.281537157623221
2.78,-0.2945385277271271,-0.6342326998710632,2.8924968242645264,0.0087781680443767,0.0886818562416053,-0.0103799932458905,0.0886745005846023,0.3028509020805359,0.0191724300384521,-0.268605121997842,-0.6117655022216033,2.88,0.0580557115115687,0.294328956035395,0.0,0.0854930522361538,-0.0701062381267547,0.0310465693473815,0.0378191471099853,12.08777771390669,-1.0735163948020272,-0.0420777387186661,-2.185870519605737
2.8000000000000003,-0.2925130128860473,-0.6274921894073486,2.8928494453430176,0.0050748903970762,0.0791831555922987,-0.0110241559866199,0.0887884944677352,0.304257720708847,0.015578269958496,-0.2674440077676106,-0.6058789231008953,2.88,0.0580557115115687,0.294328956035395,0.0,0.1930681222956338,0.0056996941566467,0.0703409314155578,-0.1797080039978027,12.07074657439125,-1.0648669127875896,-0.0211335353880129,-2.176145479579211
2.82,-0.2904981970787048,-0.6210296154022217,2.8935625553131104,0.0047922604487594,0.0733705909639715,-0.0103842751011229,0.0875446200370788,0.298953652381897,0.0222408771514892,-0.2662828935373793,-0.5999923439801875,2.88,0.0580557115115687,0.294328956035395,0.0,0.4303216791666441,-0.0621937215328216,-0.2652034163475036,0.3331303596496582,11.965498131189634,-1.058805090853386,-0.0018232031810387,-2.2146823436564707
2.84,-0.2887766063213348,-0.614347517490387,2.8940653800964355,0.0039234319615958,0.0716609397631983,-0.0104086724559448,0.0840691477060318,0.2957551181316376,0.0273585319519042,-0.2651217793071479,-0.5941057648594796,2.88,0.0580557115115687,0.294328956035395,0.0,0.3482094194955358,-0.1737736165523529,-0.1599267125129699,0.2558827400207519,11.749517388268032,-1.04502813468449,-0.0529921508002137,-2.1409455509447635
