t,x,y,z,roll,pitch,yaw,v_x,v_y,v_z,ref_x,ref_y,ref_z,ref_v_x,ref_v_y,ref_v_z,a_com,a_x,a_y,a_z,thrust,wind_x,wind_y,wind_z
0.0,-1.0828709602355957,0.0879955738782882,2.4297451972961426,0.0035899710735543,0.0727174849892614,-0.002029383260618,0.0307917594909667,-0.0147494673728942,-0.0175148248672485,-1.07,0.06,2.42,0.2391928403623776,-0.181071215601426,0.0,1.9186247225968949,1.5395879745483398,-0.7374733686447144,-0.8757412433624268,11.89432010638484,-0.9603121504516716,0.1711893041760812,-2.169216286705021
0.02,-1.0821895599365234,0.0876055061817169,2.4295692443847656,0.0007236034539248,0.0721160398338939,-0.0018735215859078,0.0297832489013671,-0.0146607868373394,-0.0109219551086425,-1.0652161431927525,0.0563785756879715,2.42,0.2391928403623776,-0.181071215601426,0.0,0.3335074568156678,-0.0504255294799804,0.0044340267777442,0.3296434879302978,12.187236848937571,-0.9603121504516716,0.1711893041760812,-2.169216286705021
0.04,-1.0814820528030396,0.087153248488903,2.429184675216675,-0.0025374540336726,0.0710316478052487,-0.0019126902239102,0.0312504172325134,-0.0189523212611675,-0.0126117467880249,-1.060432286385505,0.052757151375943,2.42,0.2391928403623776,-0.181071215601426,0.0,0.2419981742830406,0.073358416557312,-0.2145767211914062,-0.0844895839691162,12.602561814094315,-0.951563520390735,0.1524642097614965,-2.123069464316711
0.06,-1.0811471939086914,0.0870128497481346,2.429020404815674,-0.0022152629368411,0.0699726244818101,-0.0013882918691883,0.0315883755683898,-0.0176712311804294,-0.014805793762207,-1.055648429578257,0.0491357270639144,2.42,0.2391928403623776,-0.181071215601426,0.0,0.1281527385258662,0.0168979167938232,0.0640545040369033,-0.1097023487091064,12.350929748194176,-0.932361637923158,0.1050197251133384,-2.1471648901330718
0.08,-1.080712914466858,0.0868379101157188,2.428696870803833,0.0026217272406774,0.0742912282827167,-0.0025167966204567,0.0242525339126586,-0.0117492489516735,-0.0134593248367309,-1.0508645727710098,0.0455143027518859,2.42,0.2391928403623776,-0.181071215601426,0.0,0.4761759781922411,-0.36679208278656,0.2960991114377975,0.0673234462738037,12.445451434879033,-0.9338206730228074,0.0963740704990011,-2.220605506150863
0.1,-1.0801985263824463,0.0865142419934272,2.428489446640014,0.0181609096290488,0.0869279218997889,-0.0016771769931862,0.0213450193405151,-0.011218674480915,-0.0119465589523315,-1.0460807159637622,0.0418928784398574,2.42,0.2391928403623776,-0.181071215601426,0.0,0.1660091178011802,-0.1453757286071777,0.0265287235379219,0.0756382942199707,12.426822005162649,-0.9750795273350932,0.1225534665852883,-2.2084790286107627
0.12,-1.0795074701309204,0.0860476344823837,2.4285457134246826,0.0368652347641578,0.103284063123012,-0.0018889434788273,0.0271224975585937,-0.01778120175004,-0.0034010410308837,-1.0412968591565146,0.0382714541278289,2.42,0.2391928403623776,-0.181071215601426,0.0,0.6112934959251706,0.2888739109039306,-0.3281263634562492,0.4272758960723877,12.78849319735491,-0.9884812225361366,0.1400878146634392,-2.181399575031377
0.14,-1.0789326429367063,0.0853058099746704,2.4284591674804688,0.0641355044124559,0.1252471767137539,-0.0008650444440795,0.0284823775291442,-0.0271897204220294,-0.0006812810897827,-1.036513002349267,0.0346500298158004,2.42,0.2391928403623776,-0.181071215601426,0.0,0.4943849493883703,0.0679939985275268,-0.470425933599472,0.1359879970550537,12.531888480538328,-1.0083369863170542,0.1367175631631021,-2.2334876379614768
0.16,-1.0784876346588137,0.0849666446447372,2.428473711013794,0.1127029901320135,0.1426154002722133,-0.0009440078554686,0.0310277938842773,-0.0297522358596324,-0.0006866455078125,-1.0317291455420194,0.0310286055037718,2.42,0.2391928403623776,-0.181071215601426,0.0,0.1805938714762583,0.1272708177566528,-0.1281257718801498,-0.0002682209014892,12.19000760943254,-1.0631698906759015,0.1616608013579512,-2.218052874263829
0.18,-1.0773024559020996,0.0838038623332977,2.428596258163452,0.1004003481767409,0.1626764701319738,0.0017076420805133,0.0463378429412841,-0.0434157438576221,0.0014537572860717,-1.026945288734772,0.0274071811917433,2.42,0.2391928403623776,-0.181071215601426,0.0,1.0315890376733736,0.7655024528503418,-0.6831753998994827,0.1070201396942138,12.409095739286386,-1.1033502445822287,0.2798303194071388,-2.232711579676274
0.2,-1.075862169265747,0.0823505893349647,2.4285902976989746,0.1180828148658874,0.1864398078879338,0.0035864205839092,0.0590729713439941,-0.058861244469881,0.0026232004165649,-1.0221614316883314,0.0237857566986436,2.42,0.2391928403623776,-0.181071215601426,0.0,1.0026397431683252,0.636756420135498,-0.7722750306129456,0.0584721565246582,12.535148120266058,-1.153661630961629,0.3416495225401054,-2.2372318763522347
0.22,-1.0738856792449951,0.0803183317184448,2.4286813735961914,0.1285475506103083,0.2097493606047338,0.005373264679753,0.076877474784851,-0.0784244388341903,0.0019150972366333,-1.0173775748810838,0.0201643323866151,2.42,0.2391928403623776,-0.181071215601426,0.0,1.3230838282443211,0.8902251720428467,-0.9781597182154655,-0.035405158996582,12.519457442102976,-1.2184771613080632,0.3857218450451077,-2.288159080217745
0.24,-1.0712662935256958,0.0776938870549202,2.428719520568848,0.1338750699655774,0.2293484472914181,0.0080950480073814,0.1034072041511535,-0.1047758013010025,0.0029075145721435,-1.0125937180738362,0.0165429080745865,2.42,0.2391928403623776,-0.181071215601426,0.0,1.870297928322109,1.3264864683151243,-1.3175681233406067,0.0496208667755126,12.825565456684672,-1.2685617570027197,0.4158592136275634,-2.2680777423286878
0.26,-1.0695905685424805,0.0762183219194412,2.4288270473480225,0.1587906435195515,0.2380773150935185,0.0049929757035499,0.1184704899787902,-0.1159465312957763,0.0035780668258666,-1.007809861266589,0.012921483762558,2.42,0.2391928403623776,-0.181071215601426,0.0,0.9382662586736704,0.7531642913818359,-0.5585364997386932,0.0335276126861572,12.568134114316308,-1.2880929210437262,0.4015561424328552,-2.211584280935924
0.28,-1.0659679174423218,0.0727614387869834,2.428908348083496,0.1278855692802415,0.2500797594232557,0.0089960393861479,0.1505175232887268,-0.1437960714101791,0.0014913082122802,-1.003026004698534,0.0093000596316007,2.42,0.2391928403623776,-0.181071215601426,0.0,2.125419835034532,1.6023516654968262,-1.3924770057201383,-0.1043379306793212,12.687923438339569,-1.300612570572977,0.454128716659445,-2.1930504078276347
0.3,-1.061488151550293,0.068840280175209,2.4288837909698486,0.1194391737138394,0.256736181328303,0.0091857761802002,0.1823043823242187,-0.166005939245224,0.0012767314910888,-0.9982421478912864,0.0056786353195722,2.42,0.2391928403623776,-0.181071215601426,0.0,1.9388970316662468,1.5893429517745972,-1.110493391752243,-0.0107288360595703,13.575640132074568,-1.386843927534314,0.4767285432666248,-2.2009317390307968
0.32,-1.05616557598114,0.064252883195877,2.428971290588379,0.1032208731724775,0.2572433851853453,0.0071568093615389,0.2205526828765869,-0.1914425045251846,0.0014162063598632,-0.9934582910840388,0.0020572110075437,2.42,0.2391928403623776,-0.181071215601426,0.0,2.296720924288041,1.912415027618408,-1.2718282639980316,0.0069737434387207,13.410561686975598,-1.3979636798728865,0.4628075950743456,-2.1772573738193257
0.34,-1.0498515367507937,0.0591751970350742,2.4294326305389404,0.0840729972921982,0.248746771908882,0.0054690891602947,0.261823832988739,-0.2174643725156784,0.0123488903045654,-0.9886744342767912,-0.0015642133044847,2.42,0.2391928403623776,-0.181071215601426,0.0,2.4999845117166357,2.063557505607605,-1.3010933995246887,0.5466341972351074,13.159190321180176,-1.392265226909109,0.410057123958987,-2.214671294574031
0.36,-1.0465956926345823,0.0566531121730804,2.429431676864624,0.0973837929905146,0.2379220698165484,0.0012260064329233,0.2769193053245544,-0.2220579087734222,0.0089907646179199,-0.9838905774695436,-0.0051856376165133,2.42,0.2391928403623776,-0.181071215601426,0.0,0.8066146361799489,0.7547736167907715,-0.2296768128871917,-0.1679062843322754,12.946993768994616,-1.3375290094886514,0.3245736231186003,-2.1619848506196115
0.38,-1.0392190217971802,0.0511574633419513,2.42983341217041,0.058192374018464,0.2308897866395524,0.0030863766173977,0.3137245774269104,-0.2383988499641418,0.0134110450744628,-0.979106720662296,-0.0088070619285418,2.42,0.2391928403623776,-0.181071215601426,0.0,2.025582195839948,1.8402636051177976,-0.8170470595359802,0.2210140228271484,13.235043112161293,-1.3603934774304534,0.3785976996693763,-2.252804721942959
0.4,-1.0311888456344604,0.0454077199101448,2.4302568435668945,0.0405967940694449,0.2094631898658681,4.423192439259797e-06,0.3466540575027466,-0.2530213296413421,0.0185662508010864,-0.9743228638550484,-0.0124284862405703,2.42,0.2391928403623776,-0.181071215601426,0.0,1.8198514472745024,1.646474003791809,-0.7311239838600159,0.2577602863311767,14.148844388379985,-1.3707048094897465,0.2908528684432862,-2.435818276482058
0.42,-1.0225884914398191,0.0396491959691047,2.43092942237854,0.0266220022477861,0.1868689899400908,-0.0011644971871775,0.3741869330406189,-0.2589360177516937,0.0246602296829223,-0.9695390070478008,-0.0160499105525988,2.42,0.2391928403623776,-0.181071215601426,0.0,1.4406416534299606,1.3766437768936155,-0.2957344055175781,0.3046989440917969,13.777948854959504,-1.3707048094897465,0.2908528684432862,-2.435818276482058
0.44,-1.01373028755188,0.0338305383920669,2.431657075881958,0.0118035125341493,0.1590418099291159,-0.0050166191752809,0.3928175568580627,-0.2604865729808807,0.0315052270889282,-0.9647551502405534,-0.0196713348646274,2.42,0.2391928403623776,-0.181071215601426,0.0,0.995437535501465,0.9315311908721924,-0.0775277614593505,0.3422498703002929,12.42495274077828,-1.3327588170893037,0.2612140426307432,-2.4882912107463064
0.46,-1.008927822113037,0.0307286158204078,2.432363748550415,0.0041839775812785,0.1438238267217479,-0.0046659630441899,0.4047426581382751,-0.2654956877231598,0.0416439771652221,-0.9599712934333058,-0.0232927591766559,2.42,0.2391928403623776,-0.181071215601426,0.0,0.8217261164070899,0.5962550640106201,-0.2504557371139526,0.5069375038146973,12.248357483446853,-1.3032613891092362,0.236601400845919,-2.5
0.48,-0.9992994666099548,0.0249738246202468,2.4337029457092285,-0.0054896453168369,0.1125949396394909,-0.0044536445585208,0.4247666895389557,-0.2665603756904602,0.0545668601989746,-0.9551874366260582,-0.0269141834886844,2.42,0.2391928403623776,-0.181071215601426,0.0,1.192786967470723,1.001201570034027,-0.0532343983650207,0.6461441516876221,13.365276348697536,-1.295723278365767,0.1818586630306763,-2.5
0.5,-0.9896427392959596,0.0191019102931022,2.4353878498077397,-0.0145927520173357,0.0805742085632133,-0.0051183395003627,0.4339143633842468,-0.2616008818149566,0.0680422782897949,-0.9504035798188106,-0.0305356078007129,2.42,0.2391928403623776,-0.181071215601426,0.0,0.8512687721915271,0.4573836922645569,0.247974693775177,0.6737709045410156,12.875880122724084,-1.2088662253425948,0.1448653880208776,-2.5
0.52,-0.9800858497619628,0.0135014029219746,2.4369683265686035,-0.0199625227928279,0.05116498733643,-0.0046837582130455,0.4323063790798187,-0.2581294775009155,0.0734710693359375,-0.945619723011563,-0.0341570321127414,2.42,0.2391928403623776,-0.181071215601426,0.0,0.3320693965781414,-0.080399215221405,0.1735702157020568,0.2714395523071289,12.928024969078251,-1.118693321251734,0.1250245882868433,-2.5
0.54,-0.9706006646156312,0.0081207044422626,2.4388298988342285,-0.0249773348977609,0.0257260032430424,-0.0040304316638857,0.4284466803073883,-0.2470771372318267,0.0774461030960083,-0.9408358662043156,-0.03777845642477,2.42,0.2391928403623776,-0.181071215601426,0.0,0.6181674397590918,-0.192984938621521,0.5526170134544373,0.19875168800354,11.781804665537493,-1.0700118224835993,0.100461672035965,-2.5
0.56,-0.9660179615020752,0.0055039105936884,2.439817190170288,0.0029125800139467,-0.0008036604522533,-0.0010830812002076,0.4240626096725464,-0.2406351566314697,0.0832128524780273,-0.936052009397068,-0.0413998807367985,2.42,0.2391928403623776,-0.181071215601426,0.0,0.4847024546607869,-0.2192035317420959,0.3220990300178528,0.2883374691009521,11.463486309812197,-1.0054008722394392,0.1182704207253578,-2.5
0.58,-0.9572051763534546,0.0003345047007314,2.4419262409210205,-0.0294408926744642,-0.008500940186398,-0.0039464022363888,0.4054735600948334,-0.2357311099767685,0.0906640291213989,-0.9312681525898204,-0.045021305048827,2.42,0.2391928403623776,-0.181071215601426,0.0,1.0309249138090573,-0.9294524788856506,0.2452023327350616,0.3725588321685791,11.714224248390565,-0.9255412368394066,0.1837566796915403,-2.5
0.6,-0.9485648274421692,-0.0045866849832236,2.443823337554932,-0.0285994980687209,-0.0231248870067397,-0.0021419468755981,0.3926955163478851,-0.2270383834838867,0.0901383161544799,-0.9264842957825729,-0.0486427293608555,2.42,0.2391928403623776,-0.181071215601426,0.0,0.7731724742943169,-0.6389021873474121,0.4346363246440887,-0.0262856483459472,10.973704730037753,-0.88937944390011,0.1385891714561402,-2.5
0.62,-0.9406964778900146,-0.0093076322227716,2.4458515644073486,-0.0266436908104808,-0.0328533669056308,-0.0016078334631738,0.3714457154273987,-0.2169480919837951,0.0883197784423828,-0.9217004389753252,-0.052264153672884,2.42,0.2391928403623776,-0.181071215601426,0.0,1.1796981617424924,-1.0624900460243225,0.5045145750045776,-0.0909268856048584,11.31001832074071,-0.820950974247882,0.1279830840126882,-2.5
0.64,-0.9333052039146424,-0.0138573953881859,2.447636365890503,-0.0245589050721613,-0.0377159945935184,-0.0019415086890125,0.3433415293693542,-0.2085909992456436,0.085793137550354,-0.9169165821680776,-0.0558855779849126,2.42,0.2391928403623776,-0.181071215601426,0.0,1.4714535222158027,-1.4052093029022217,0.4178546369075775,-0.1263320446014404,11.233793613284432,-0.7842731561211939,0.1312286108274934,-2.5
0.66,-0.9297569394111632,-0.0160949788987636,2.4484171867370605,0.0104264005745138,-0.0440127996500065,0.0012900430769949,0.3337995707988739,-0.206292062997818,0.0833684206008911,-0.91213272536083,-0.0595070022969411,2.42,0.2391928403623776,-0.181071215601426,0.0,0.5055030502315058,-0.4770979285240173,0.1149468123912811,-0.1212358474731445,10.934317923463368,-0.823840850860077,0.1360754433014733,-2.5
0.68,-0.923391342163086,-0.0203185975551605,2.449939489364624,-0.0173509394075191,-0.0363528814838653,-0.0012534957308085,0.3049215674400329,-0.1976405829191208,0.0723284482955932,-0.9073488685535824,-0.0631284266089696,2.42,0.2391928403623776,-0.181071215601426,0.0,1.6052010575369264,-1.4439001679420471,0.4325740039348602,-0.5519986152648926,10.810723606901774,-0.7676003980757236,0.1596094263528188,-2.5
0.7000000000000001,-0.9174123406410216,-0.0242897849529981,2.4511406421661377,-0.0096018778271017,-0.0284047703928472,-0.0003178474863979,0.277753472328186,-0.184383139014244,0.0612777471542358,-0.9025650117463349,-0.0667498509209982,2.42,0.2391928403623776,-0.181071215601426,0.0,1.609334650261492,-1.3584047555923462,0.6628721952438354,-0.5525350570678711,10.875380432284146,-0.747084071991344,0.152754280976185,-2.404544777988861
0.72,-0.912084698677063,-0.0282489042729139,2.4521727561950684,-1.7394136262238844e-05,-0.0161557334652811,0.000491244332373,0.2543994784355163,-0.178431898355484,0.0502485036849975,-0.8977811549390873,-0.0703712752330267,2.42,0.2391928403623776,-0.181071215601426,0.0,1.3252080097300452,-1.167699694633484,0.2975620329380035,-0.5514621734619141,11.134588691629231,-0.7890675554645115,0.2044390835520017,-2.3427027164918086
0.74,-0.9071285724639891,-0.0321147255599498,2.4525222778320312,0.0081840123444369,0.0020734989685022,0.0019741402513196,0.2313847839832306,-0.1760611683130264,0.0310868024826049,-0.8929972981318397,-0.0739926995450552,2.42,0.2391928403623776,-0.181071215601426,0.0,1.502054688282069,-1.1507347226142883,0.118536502122879,-0.9580850601196288,11.234773212469918,-0.8405313578131812,0.2228689145322181,-2.2932216041215203
0.76,-0.9047614336013794,-0.0340657122433185,2.4526968002319336,0.0455232363096056,0.0118991861784375,0.0022131376700644,0.2228124439716339,-0.1724964678287506,0.0228255987167358,-0.8882134413245921,-0.0776141238570837,2.42,0.2391928403623776,-0.181071215601426,0.0,0.6213686314866322,-0.428617000579834,0.1782350242137909,-0.413060188293457,11.5511097466333,-0.8887417939889765,0.2239959367354694,-2.2524956981255917
0.78,-0.9003446102142334,-0.0378949269652366,2.452948808670044,0.0201492320280712,0.0306100085831783,0.0011994217190474,0.2065649628639221,-0.1724105924367904,0.0129872560501098,-0.8834295845173445,-0.0812355481691122,2.42,0.2391928403623776,-0.181071215601426,0.0,0.9497118028043416,-0.8123740553855896,0.0042937695980072,-0.4919171333312988,11.462385644748792,-0.8928598003634458,0.2987224074578512,-2.1839934192982464
0.8,-0.8962151408195496,-0.0416648127138614,2.4525811672210693,0.0276520712997354,0.052565618348807,0.0024238194861951,0.1922915875911712,-0.170979768037796,-0.0026017427444458,-0.878645727710097,-0.0848569724811408,2.42,0.2391928403623776,-0.181071215601426,0.0,1.0592372061467057,-0.7136687636375427,0.0715412199497222,-0.7794499397277832,11.71501656081773,-0.8884858163580327,0.2885521401313299,-2.086738337161808
0.8200000000000001,-0.8920652270317078,-0.0454980954527854,2.45208740234375,0.0312334259321274,0.0746542425841157,0.0032949177453981,0.1862861216068267,-0.1710712909698486,-0.0193816423416137,-0.8738618709028494,-0.0884783967931693,2.42,0.2391928403623776,-0.181071215601426,0.0,0.8911215245790665,-0.3002732992172241,-0.0045761466026306,-0.8389949798583984,11.762515846397037,-0.9640561933315052,0.3080370667658062,-2.067667609199604
0.84,-0.8900945782661438,-0.0475085787475109,2.451802015304565,0.0629881429887595,0.0899796769040344,0.003751544734499,0.1835435628890991,-0.1768130660057068,-0.0221765041351318,-0.8690780140956018,-0.0920998211051978,2.42,0.2391928403623776,-0.181071215601426,0.0,0.3474941054444482,-0.137127935886383,-0.2870887517929077,-0.1397430896759033,11.86788735909795,-1.0276771737255177,0.2948945946677934,-2.0488130668271003
0.86,-0.8861581683158875,-0.051414780318737,2.451067447662353,0.0349250374564808,0.1070022660325917,0.004129956213027,0.1783601939678192,-0.1751744002103805,-0.0298315286636352,-0.8642941572883542,-0.0957212454172263,2.42,0.2391928403623776,-0.181071215601426,0.0,0.4694463214651159,-0.2591684460639953,0.0819332897663116,-0.3827512264251709,12.209723930109703,-1.0276771737255177,0.2948945946677934,-2.0488130668271003
0.88,-0.8820803761482239,-0.0555200912058353,2.450450897216797,0.0346348743895509,0.1208031085109258,0.0041232900012926,0.1803195476531982,-0.18025903403759,-0.0304001569747924,-0.8595103004811067,-0.0993426697292549,2.42,0.2391928403623776,-0.181071215601426,0.0,0.2739338705666969,0.0979676842689514,-0.2542316913604736,-0.0284314155578613,12.601021314578247,-1.0633912633275275,0.3125334177851352,-2.0089024278207352
0.9,-0.87787264585495,-0.0597247220575809,2.44973087310791,0.0318857298096551,0.1338054511180376,0.002918197010805,0.1864242553710937,-0.1869736909866333,-0.0300729274749755,-0.8547264436738591,-0.1029640940412834,2.42,0.2391928403623776,-0.181071215601426,0.0,0.4540406188046905,0.3052353858947754,-0.3357328474521637,0.0163614749908447,12.182401668315832,-1.1016449258153431,0.2942752468427781,-1.9811326499376125
0.92,-0.8734992742538452,-0.0637800768017768,2.4486329555511475,0.0316533725267606,0.1469384041356497,0.0040560266746408,0.1930747926235199,-0.1858496814966201,-0.0409036874771118,-0.8499425868666115,-0.1065855183533119,2.42,0.2391928403623776,-0.181071215601426,0.0,0.6379623917274072,0.3325268626213074,0.0562004745006561,-0.5415380001068115,12.840038452710814,-1.1145711673881893,0.2610052855604131,-1.9603135174350763
0.94,-0.8688560128211975,-0.0680714324116706,2.447800874710083,0.0288670491229109,0.1546751221495234,0.0024265482755273,0.2028742432594299,-0.1878009885549545,-0.0434249639511108,-0.8451587300593639,-0.1102069426653405,2.42,0.2391928403623776,-0.181071215601426,0.0,0.5152515576392855,0.4899725317955017,-0.0975653529167175,-0.1260638236999511,12.452970600048502,-1.1405380611920997,0.2794715020876922,-2.0100435665494656
0.96,-0.8663604855537415,-0.0702063143253326,2.447359800338745,0.0565076337914003,0.1517849343436212,0.0021519141102034,0.2114331722259521,-0.191011756658554,-0.0390905141830444,-0.8403748732521164,-0.113828366977369,2.42,0.2391928403623776,-0.181071215601426,0.0,0.5058452126415655,0.4279464483261108,-0.1605384051799774,0.2167224884033203,12.39797127266229,-1.1770514226039612,0.2772749095379154,-2.0529481049089577
0.98,-0.8612017631530762,-0.0745605900883674,2.446648359298706,0.0259016191432408,0.1554711620189679,0.002737328905089,0.2260565757751464,-0.1937513798475265,-0.0361508131027221,-0.8355910164448688,-0.1174497912893975,2.42,0.2391928403623776,-0.181071215601426,0.0,0.7582732176165018,0.7311701774597168,-0.1369811594486236,0.1469850540161132,12.553359779873064,-1.1638478610829373,0.2906176551174378,-2.078560779858212
1.0,-0.855654776096344,-0.0790152102708816,2.445784330368042,0.0248134569664588,0.1536041389595693,0.001903070611811,0.2408784627914428,-0.1982001662254333,-0.0354480743408203,-0.8308071596376212,-0.121071215601426,2.42,0.2391928403623776,-0.181071215601426,0.0,0.7745545118446859,0.7410943508148193,-0.2224393188953399,0.0351369380950927,12.67592417450669,-1.202715675394619,0.2839846148525832,-2.0857321044912736
1.02,-0.8499401807785034,-0.0834714099764823,2.445148229598999,0.025788520348274,0.1516250150479319,0.0020025676186412,0.2533856034278869,-0.2004934549331665,-0.0337529182434082,-0.8260233028303736,-0.1246926399134546,2.42,0.2391928403623776,-0.181071215601426,0.0,0.641407230609776,0.6253570318222046,-0.1146644353866577,0.0847578048706054,12.39384216135295,-1.190186182762677,0.2582704366004869,-2.164857738132977
1.04,-0.8437420129776001,-0.0879810899496078,2.444532871246338,0.0248788224778692,0.1477144457515183,0.0013280737382575,0.2680371701717376,-0.2017322927713394,-0.0281578302383422,-0.821239446023126,-0.1283140642254831,2.42,0.2391928403623776,-0.181071215601426,0.0,0.7866195666000712,0.7325783371925354,-0.0619418919086456,0.2797544002532959,12.468660733550678,-1.1962725231594626,0.2505197517704033,-2.200645862087465
1.06,-0.8405647873878479,-0.0901308134198188,2.444256067276001,0.0547640631030607,0.1417171994326641,0.0010994316733406,0.2776515483856201,-0.1997835040092468,-0.0260871648788452,-0.8164555892158785,-0.1319354885375116,2.42,0.2391928403623776,-0.181071215601426,0.0,0.5013025561221909,0.4807189106941223,0.0974394381046295,0.1035332679748535,12.625548028014236,-1.17761771453223,0.2479222045837073,-2.201061548716441
1.08,-0.8340733051300049,-0.094823881983757,2.4439797401428223,0.0258431683944626,0.1384415017743336,0.0017321163145024,0.2884058654308319,-0.2038245797157287,-0.017600655555725,-0.8116717324086309,-0.1355569128495401,2.42,0.2391928403623776,-0.181071215601426,0.0,0.7141541648444263,0.5377158522605896,-0.2020537853240966,0.4243254661560058,13.03540688715293,-1.1214338144918663,0.3216904896135641,-2.2168563310884584
1.1,-0.8271657824516296,-0.0993815809488296,2.4435927867889404,0.0273549736278731,0.1300214915685035,0.0012530673940692,0.3014776110649109,-0.2081422656774521,-0.0149238109588623,-0.8068878756013833,-0.1391783371615687,2.42,0.2391928403623776,-0.181071215601426,0.0,0.7012104587459443,0.653587281703949,-0.2158842980861663,0.1338422298431396,12.898173501552264,-1.1489474435339888,0.3045375077086461,-2.2446710864124704
1.12,-0.8201208114624023,-0.1042266711592674,2.4437062740325928,0.0258808362516539,0.1180536462983709,0.0005511438381721,0.3139311075210571,-0.2115627527236938,-0.0061529874801635,-0.8021040187941357,-0.1427997614735972,2.42,0.2391928403623776,-0.181071215601426,0.0,0.7805713454118841,0.622674822807312,-0.171024352312088,0.4385411739349365,12.977706357946316,-1.142135274710868,0.2852206120818064,-2.261531625320166
1.14,-0.8128888010978699,-0.108868196606636,2.44378924369812,0.0253456136952348,0.1084647002879027,0.0002112587830105,0.3212320804595947,-0.2134488523006439,0.0044202804565429,-0.7973201619868882,-0.1464211857856257,2.42,0.2391928403623776,-0.181071215601426,0.0,0.6493373012634038,0.3650486469268799,-0.0943049788475036,0.5286633968353271,12.207628034558184,-1.0961990139642743,0.2665364629528342,-2.2475464602638517
1.16,-0.8093113899230957,-0.111185722053051,2.4437923431396484,0.0546282235791512,0.0954389886476393,-0.000241782594254,0.3218288719654083,-0.210502952337265,0.0037336349487304,-0.7925363051796406,-0.1500426100976542,2.42,0.2391928403623776,-0.181071215601426,0.0,0.1541587554199095,0.0298395752906799,0.1472949981689453,-0.034332275390625,12.252314759499312,-1.0642865613971637,0.2561253676281239,-2.2537810825692977
1.18,-0.802068829536438,-0.116109549999237,2.4442427158355717,0.0211969215123875,0.0925513156446476,-0.0013618678005122,0.3278182446956634,-0.2158613353967666,0.014081597328186,-0.787752448372393,-0.1536640344096828,2.42,0.2391928403623776,-0.181071215601426,0.0,0.6551052971105212,0.2994686365127563,-0.2679191529750824,0.5173981189727783,12.085553140799677,-1.0818624004987327,0.3470342811294612,-2.368860345157504
1.2,-0.7946396470069885,-0.1208748444914817,2.444777727127075,0.0178724022856708,0.0822763393818468,-0.0015809210451195,0.3301142156124115,-0.2180052548646927,0.022171139717102,-0.7829685915651454,-0.1572854587217113,2.42,0.2391928403623776,-0.181071215601426,0.0,0.4339025501122749,0.1147985458374023,-0.1071959733963012,0.4044771194458008,11.942387143320955,-1.0481467559684463,0.2908072397110851,-2.451430294280939
1.22,-0.7872849702835083,-0.1257025152444839,2.445497512817383,0.0133174779739124,0.0705263907304113,-0.0016268811671395,0.3326368331909179,-0.2158417105674743,0.0282329320907592,-0.7781847347578978,-0.1609068830337398,2.42,0.2391928403623776,-0.181071215601426,0.0,0.3456510167594791,0.1261308789253235,0.1081772148609161,0.3030896186828613,11.904492958187802,-1.0105945411003572,0.2878015429795428,-2.4101072074121546
1.24,-0.7836588025093079,-0.1280884742736816,2.44580340385437,0.0120861922115103,0.0656342080776908,-0.0017898699315197,0.3293631970882416,-0.2169975787401199,0.0291609764099121,-0.7734008779506503,-0.1645283073457683,2.42,0.2391928403623776,-0.181071215601426,0.0,0.1796802077552862,-0.1636818051338195,-0.0577934086322784,0.0464022159576416,11.904492958187802,-1.0105945411003572,0.2878015429795428,-2.4101072074121546
1.26,-0.7764962911605835,-0.1330268085002899,2.4466440677642822,0.0390186527253469,0.0477991288002619,-0.0008372579422513,0.3255289793014526,-0.2188798189163208,0.0358933210372924,-0.7686170211434027,-0.1681497316577969,2.42,0.2391928403623776,-0.181071215601426,0.0,0.3986493393298511,-0.191710889339447,-0.0941120088100433,0.3366172313690185,12.016331459471983,-0.9959536166574328,0.2625068773861166,-2.3988722496533947
1.28,-0.7694550156593323,-0.1376980543136596,2.44744610786438,0.006545723346047,0.0451835861234109,-0.0015350802782927,0.3195852041244507,-0.2162155508995056,0.0369608402252197,-0.7638331643361551,-0.1717711559698254,2.42,0.2391928403623776,-0.181071215601426,0.0,0.3300241833440459,-0.2971887588500976,0.1332134008407592,0.0533759593963623,12.062974961246256,-0.9835181791488868,0.2638226161707272,-2.3038416337316816
1.3,-0.7625664472579956,-0.1424492448568344,2.448429584503174,0.0043105832570167,0.0363440745109003,-0.0014987983656401,0.3134214878082275,-0.2120048105716705,0.040174126625061,-0.7590493075289075,-0.1753925802818539,2.42,0.2391928403623776,-0.181071215601426,0.0,0.4063463498751318,-0.3081858158111572,0.2105370163917541,0.1606643199920654,11.709643436229271,-0.9631430196690552,0.2542498020818515,-2.274517425635713
1.32,-0.7560816407203674,-0.1470436006784439,2.449361085891724,0.0029741946186069,0.030502435329832,-0.0012468539784679,0.300900936126709,-0.2102747857570648,0.0430870056152343,-0.75426545072166,-0.1790140045938824,2.42,0.2391928403623776,-0.181071215601426,0.0,0.648540793397227,-0.6260275840759277,0.0865012407302856,0.145643949508667,12.029425155252738,-0.9288761311471,0.2532557348265943,-2.2235758568665527
1.34,-0.749798595905304,-0.1516414731740951,2.450324535369873,0.0014115158578036,0.028508690093885,-0.0012783783482458,0.2872766554355621,-0.2068251371383667,0.0426363945007324,-0.7494815939144124,-0.182635428905911,2.42,0.2391928403623776,-0.181071215601426,0.0,0.7030720985790779,-0.6812140345573425,0.172482430934906,-0.0225305557250976,11.59413755813739,-0.9505328626181664,0.2405785054027717,-2.1863153995180578
1.36,-0.7466555237770081,-0.1540157794952392,2.450847625732422,0.032567110808443,0.0220796206092663,-9.670464773707008e-05,0.2856767177581787,-0.2094288915395736,0.0467938184738159,-0.7446977371071648,-0.1862568532179395,2.42,0.2391928403623776,-0.181071215601426,0.0,0.2579898818039435,-0.0799968838691711,-0.1301877200603485,0.2078711986541748,11.377499008035556,-0.962384546457034,0.2346315332618952,-2.1930769404108457
1.38,-0.7408432364463806,-0.1583790481090545,2.451649904251098,0.0016049570387234,0.0274666320606281,-0.0008525929437585,0.2698396146297455,-0.2030687034130096,0.0405281782150268,-0.7399138802999172,-0.189878277529968,2.42,0.2391928403623776,-0.181071215601426,0.0,0.9090160564567518,-0.7918551564216614,0.3180094063282013,-0.3132820129394531,11.740095388924146,-0.8901571425965292,0.220424018706552,-2.1540087649747246
1.4,-0.7352343797683716,-0.1628610789775848,2.452483654022217,0.0022634601277729,0.0275664409192157,-0.0012232007506266,0.2569757401943207,-0.1990192383527755,0.0368106365203857,-0.7351300234926696,-0.1934997018419966,2.42,0.2391928403623776,-0.181071215601426,0.0,0.6994597004399672,-0.6431937217712402,0.2024732530117035,-0.1858770847320556,11.605579665267214,-0.8789974407975754,0.2215384645235001,-2.134831775952568
1.42,-0.7299354076385498,-0.1671430170536041,2.453080415725708,0.0043350622312084,0.0326101743199586,-0.0005885958157803,0.2454261481761932,-0.1971893012523651,0.0321865081787109,-0.7303461666854221,-0.1971211261540251,2.42,0.2391928403623776,-0.181071215601426,0.0,0.628737442214419,-0.5774796009063721,0.091496855020523,-0.2312064170837402,11.583332305385284,-0.8824891168939796,0.2207826016450476,-2.1664168209214787
1.44,-0.7249163389205933,-0.171474739909172,2.4532477855682373,0.0068465502530348,0.0383106892337718,-0.0001767215357879,0.2321559190750122,-0.1938073635101318,0.0171929597854614,-0.7255623098781745,-0.2007425504660536,2.42,0.2391928403623776,-0.181071215601426,0.0,1.015311499874409,-0.6635114550590515,0.1690968871116638,-0.7496774196624756,12.090164390241624,-0.9008464040671744,0.2135160280546836,-2.142527279867569
1.46,-0.7224544882774353,-0.1735702157020568,2.4534826278686523,0.0401845734837014,0.0399527167642771,0.0011764428760527,0.2282962203025818,-0.190780833363533,0.0177454948425292,-0.7207784530709269,-0.2043639747780821,2.42,0.2391928403623776,-0.181071215601426,0.0,0.2467916850881596,-0.192984938621521,0.1513265073299408,0.0276267528533935,11.533079471758356,-0.9365262623344336,0.2211993549456277,-2.147635940191867
1.48,-0.71783447265625,-0.1776923686265945,2.453747272491455,0.0117888764872653,0.0506410391930252,0.0002403913192191,0.2154578268527984,-0.1882608979940414,0.0141513347625732,-0.7159945962636793,-0.2079853990901106,2.42,0.2391928403623776,-0.181071215601426,0.0,0.6784032858820109,-0.6419196724891663,0.1259967684745788,-0.1797080039978027,11.547177065960568,-0.9331592788194704,0.2874797877276533,-2.122424690724607
1.5,-0.7132675647735596,-0.1819510161876678,2.4539334774017334,0.0140660669623789,0.061380775299148,0.0007479970875261,0.2067057788372039,-0.1885680109262466,0.0101441144943237,-0.7112107394564318,-0.2116068234021392,2.42,0.2391928403623776,-0.181071215601426,0.0,0.481535245591298,-0.4376024007797241,-0.01535564661026,-0.2003610134124755,11.537553306567132,-0.9465455503116964,0.2806056429120399,-2.0878466092078254
1.52,-0.7088379859924316,-0.1860270500183105,2.454152822494507,0.0149371285313622,0.0693760964115372,0.0008831613054323,0.202420949935913,-0.1875303387641906,0.0091248750686645,-0.7064268826491842,-0.2152282477141677,2.42,0.2391928403623776,-0.181071215601426,0.0,0.2262485979849471,-0.2142414450645446,0.0518836081027984,-0.0509619712829589,11.701296437077872,-0.9734996203040932,0.2649190146213785,-2.0691551327961384
1.54,-0.7046220898628235,-0.1902227252721786,2.4540975093841557,0.0161053107790496,0.0808194900965301,-0.00021981749651,0.1945231854915619,-0.1861134469509124,0.0036907196044921,-0.7016430258419366,-0.2188496720261962,2.42,0.2391928403623776,-0.181071215601426,0.0,0.4845418228537839,-0.3948882222175598,0.0708445906639099,-0.2717077732086181,11.726770936608771,-0.9927569437326276,0.2630750073140461,-2.093466268347158
1.56,-0.7022868394851685,-0.1922080516815185,2.453958034515381,0.0491909824666533,0.0879451897219875,0.0008807289135376,0.196554958820343,-0.1862411946058273,-0.0029289722442626,-0.696859169034689,-0.2224710963382248,2.42,0.2391928403623776,-0.181071215601426,0.0,0.3462829135813461,0.1015886664390564,-0.0063873827457427,-0.3309845924377441,11.90232814476849,-1.0363825039657215,0.2634650019821037,-2.068769143896257
1.58,-0.6981637477874756,-0.1964083015918731,2.4538228511810303,0.0199406438094654,0.1005995299392309,0.0007078789838541,0.1923291385173797,-0.1869281828403473,-0.0059974193572998,-0.6920753122274415,-0.2260925206502533,2.42,0.2391928403623776,-0.181071215601426,0.0,0.2633670335900598,-0.2112910151481628,-0.0343494117259979,-0.1534223556518554,11.936914285685816,-0.9829673443674216,0.2939718481962498,-2.0876208966072816
1.6,-0.6936455965042114,-0.2006605714559555,2.4536001682281494,0.0196067442008084,0.1104135333504979,0.0006336066939838,0.1944279670715332,-0.190181702375412,-0.0080519914627075,-0.6872914554201939,-0.2297139449622818,2.42,0.2391928403623776,-0.181071215601426,0.0,0.2191559787063595,0.1049414277076721,-0.1626759767532348,-0.1027286052703857,11.857013996719616,-1.0270186451009111,0.2844302121648251,-2.04822473586671
1.62,-0.6891351342201233,-0.2048434913158416,2.4534032344818115,0.020523741091862,0.1198871229972656,0.0009689365744692,0.2031438052654266,-0.1897917687892913,-0.0094413757324218,-0.6825075986129463,-0.2333353692743103,2.42,0.2391928403623776,-0.181071215601426,0.0,0.4417246661457963,0.4357919096946716,0.0194966793060302,-0.0694692134857177,12.020688963013528,-1.060147655542857,0.260882511977831,-2.02864127900009
1.64,-0.6844852566719055,-0.2091371566057205,2.4531614780426025,0.0203479501080225,0.1258805534365007,0.0015102183310281,0.2061076462268829,-0.1907231658697128,-0.0098705291748046,-0.6777237418056987,-0.2369567935863389,2.42,0.2391928403623776,-0.181071215601426,0.0,0.1568122001259214,0.1481920480728149,-0.0465698540210723,-0.0214576721191406,12.099361197572762,-1.034843980549996,0.2584964241082653,-2.0044420612361096
1.66,-0.6821098923683167,-0.2112917900085449,2.4530222415924072,0.0200951795891563,0.1285891563069307,0.0007860963024058,0.2095194160938263,-0.1936528086662292,-0.0103640556335449,-0.6729398849984511,-0.2405782178983674,2.42,0.2391928403623776,-0.181071215601426,0.0,0.2261998502742648,0.1705884933471679,-0.1464821398258209,-0.0246763229370117,12.669075977017656,-1.088333279555429,0.2535363582947975,-2.004988588872409
1.68,-0.6771544814109802,-0.2155482172966003,2.452657461166382,0.0207067578036282,0.1311083453639746,0.0011825302688498,0.2191632986068725,-0.1957150995731353,-0.0137168169021606,-0.6681560281912036,-0.2441996422103959,2.42,0.2391928403623776,-0.181071215601426,0.0,0.5208131186771243,0.4821941256523132,-0.1031145453453064,-0.1676380634307861,12.016055005028647,-1.0933554437522748,0.2160379637283884,-2.004856895051055
1.7,-0.6720075011253357,-0.2199305295944214,2.4521830081939697,0.0218085786378507,0.1354353641924888,0.0012277591510457,0.2273038029670715,-0.1943716406822204,-0.0188827514648437,-0.663372171383956,-0.2478210665224244,2.42,0.2391928403623776,-0.181071215601426,0.0,0.4867226441617462,0.4070252180099487,0.0671729445457458,-0.2582967281341553,12.253857063997202,-1.1135515138581005,0.2110459368707155,-2.017240890632234
1.72,-0.666597843170166,-0.2243097424507141,2.451880931854248,0.0224434337459105,0.134685210658815,0.0006867352690509,0.2375243604183197,-0.1971343159675598,-0.0174719095230102,-0.6585883145767084,-0.2514424908344529,2.42,0.2391928403623776,-0.181071215601426,0.0,0.5340473863135318,0.5110278725624084,-0.1381337642669677,0.0705420970916748,12.302148230710372,-1.1150082634138283,0.2238113556819369,-2.0480773156451293
1.74,-0.6609571576118469,-0.228780061006546,2.451554298400879,0.0215286451736598,0.1329083122879839,0.0007539127584369,0.2486327290534973,-0.1991144567728042,-0.0141459703445434,-0.6538044577694608,-0.2550639151464814,2.42,0.2391928403623776,-0.181071215601426,0.0,0.5881723445607848,0.5554184317588806,-0.0990070402622222,0.1662969589233398,12.73293590352432,-1.1297364974859754,0.2148159962011674,-2.060427702683589
1.76,-0.6580292582511902,-0.2309881597757339,2.4513213634490967,0.0507767041884058,0.1239721768028841,0.0006718237736457,0.2527499198913574,-0.2020893692970276,-0.0168335437774658,-0.6490206009622133,-0.2586853394585099,2.42,0.2391928403623776,-0.181071215601426,0.0,0.287334369156781,0.2058595418930053,-0.1487456262111663,-0.1343786716461181,12.276258715836777,-1.1003960785899352,0.2052252943820519,-2.113460896368517
1.78,-0.6520627737045288,-0.2356638610363006,2.4512226581573486,0.0191742380254589,0.1225132022256274,-0.0003725410280957,0.2626848220825195,-0.2036882936954498,-0.0133144855499267,-0.6442367441549657,-0.2623067637705384,2.42,0.2391928403623776,-0.181071215601426,0.0,0.5330164434345295,0.4967451095581054,-0.079946219921112,0.1759529113769531,13.040269153351346,-1.096022411018175,0.2178267090606701,-2.1459609449377983
1.8,-0.6460036039352417,-0.2401087433099746,2.450927257537842,0.0182094742444369,0.1149746683006194,0.0003599733558325,0.2705772221088409,-0.2052131295204162,-0.0088673830032348,-0.6394528873477181,-0.2659281880825669,2.42,0.2391928403623776,-0.181071215601426,0.0,0.4593251123370374,0.3946200013160705,-0.0762417912483215,0.2223551273345947,12.205954425802702,-1.0971302691763336,0.2125870380846028,-2.1502596441798905
1.82,-0.6397978067398071,-0.2446999102830886,2.4507393836975098,0.0174324483765602,0.1088671826347536,-0.0002741313687686,0.2759617567062378,-0.2033111155033111,-0.0108736753463745,-0.6346690305404705,-0.2695496123945955,2.42,0.2391928403623776,-0.181071215601426,0.0,0.3026387248765793,0.2692267298698425,0.0951007008552551,-0.1003146171569824,12.037630957522197,-1.0894890203173986,0.2041021587148822,-2.162995654595372
1.84,-0.6333709955215454,-0.2494283616542816,2.4508936405181885,0.0130501678612761,0.0982260244529156,-0.0016397002505747,0.2842336893081665,-0.2096914052963256,-0.0007563829421997,-0.629885173733223,-0.273171036706624,2.42,0.2391928403623776,-0.181071215601426,0.0,0.7271392102019902,0.4135966300964355,-0.3190144896507263,0.5058646202087402,12.061838705891205,-1.089650909117865,0.2166889094025241,-2.261105046852053
1.86,-0.6302534937858582,-0.2516885995864868,2.4510269165039062,0.0410000224871919,0.0875745111009085,-0.0010879351721112,0.2844764292240143,-0.2079516649246215,0.0027680397033691,-0.6251013169259754,-0.2767924610186525,2.42,0.2391928403623776,-0.181071215601426,0.0,0.1968957478735982,0.0121369957923889,0.086987018585205,0.1762211322784423,12.339798984503886,-1.0583692012218953,0.1722922342302239,-2.21859082173319
1.88,-0.6237524747848511,-0.2564213573932647,2.451135396957397,0.0093722803704198,0.0866177822091249,-0.0015699486221679,0.2878600358963012,-0.210555762052536,0.0051552057266235,-0.6203174601187278,-0.280413885330681,2.42,0.2391928403623776,-0.181071215601426,0.0,0.2445847378054148,0.1691803336143493,-0.1302048563957214,0.1193583011627197,12.320504180814623,-1.0547211872938271,0.235192438606664,-2.287596252015629
1.9,-0.617405116558075,-0.2610101699829101,2.4514505863189697,0.0077327078979637,0.0766798739152439,-0.0021200705741811,0.289088487625122,-0.2097353339195251,0.0095325708389282,-0.6155336033114802,-0.2840353096427095,2.42,0.2391928403623776,-0.181071215601426,0.0,0.2309952450695724,0.06142258644104,0.0410214066505432,0.2188682556152343,12.687284908784022,-1.0359623936569275,0.2094044911893607,-2.2837011785789425
1.92,-0.6109857559204102,-0.2655158936977386,2.4516844749450684,0.0061179676755227,0.0701653478968338,-0.0027128069527457,0.2872511744499206,-0.2046270668506622,0.0123542547225952,-0.6107497465042326,-0.2876567339547379,2.42,0.2391928403623776,-0.181071215601426,0.0,0.3059085324486065,-0.0918656587600708,0.2554133534431457,0.1410841941833496,11.84603819043241,-1.0213758648921032,0.2016406581947429,-2.2446424794884283
1.94,-0.6046610474586487,-0.2701229453086853,2.4522180557250977,0.0032475166093685,0.0640226530270105,-0.0015823889338291,0.286741554737091,-0.2050374448299408,0.0172680616378784,-0.6059658896969851,-0.2912781582667664,2.42,0.2391928403623776,-0.181071215601426,0.0,0.2478589353758822,-0.0254809856414794,-0.0205188989639282,0.2456903457641601,12.169584408575249,-1.0003629135381529,0.2144271021264441,-2.232778504860911
1.96,-0.6015796065330505,-0.2724940180778503,2.4524216651916504,0.0314441328319077,0.0567140589381485,-0.0018544935134095,0.2828067541122436,-0.2062290161848068,0.0192368030548095,-0.6011820328897375,-0.2948995825787949,2.42,0.2391928403623776,-0.181071215601426,0.0,0.2279168763923424,-0.1967400312423706,-0.0595785677433013,0.0984370708465576,12.024727701870688,-0.9773773749047192,0.1910735395698543,-2.2325837776106665
1.98,-0.5954492688179016,-0.2770625054836273,2.452789306640625,-0.0032824243176694,0.0577164979424229,-0.0037283981254133,0.2773605287075043,-0.2066025137901306,0.020073652267456,-0.5963981760824899,-0.2985210068908234,2.42,0.2391928403623776,-0.181071215601426,0.0,0.2761394042196725,-0.272311270236969,-0.0186748802661895,0.0418424606323242,12.57115602326394,-0.9784137230363664,0.198182095739927,-2.242342221809332
2.0,-0.5894486904144287,-0.2815257906913757,2.453212261199951,-0.0038412136496264,0.0575864534563423,-0.0036847276444581,0.2729456126689911,-0.2032148838043213,0.0177884101867675,-0.5916143192752423,-0.3021424312028519,2.42,0.2391928403623776,-0.181071215601426,0.0,0.3007900094552046,-0.2207458019256591,0.1693814992904663,-0.1142621040344238,12.743769364541096,-0.9791491113541518,0.1700106267159166,-2.305691054230182
2.02,-0.5834622383117676,-0.2859553098678589,2.453562498092652,-0.003085228421888,0.0572435829831844,-0.0026482879563063,0.2697081863880157,-0.2000880986452102,0.0173968076705932,-0.5868304624679948,-0.3057638555148804,2.42,0.2391928403623776,-0.181071215601426,0.0,0.2258930437544549,-0.1618713140487671,0.1563392579555511,-0.0195801258087158,12.037245651252306,-0.985758916682875,0.1676190224931776,-2.280971190200761
2.04,-0.57780522108078,-0.2902995944023132,2.4538962841033936,-0.0035075986857704,0.0585911088715796,-0.0027207599675334,0.2619780600070953,-0.1974105834960937,0.0153905153274536,-0.5820466056607472,-0.3093852798269089,2.42,0.2391928403623776,-0.181071215601426,0.0,0.4211565926258631,-0.3865063190460205,0.1338757574558258,-0.1003146171569824,11.792856885504987,-0.9773244874322784,0.1624712424785983,-2.2941660330375147
2.06,-0.5748789310455322,-0.2924085557460785,2.4541401863098145,0.0287916608721086,0.0571490194895471,-0.0010600850473749,0.260775089263916,-0.1945922523736953,0.0172573328018188,-0.5772627488534996,-0.3130067041389374,2.42,0.2391928403623776,-0.181071215601426,0.0,0.179409701570317,-0.060148537158966,0.1409165561199188,0.0933408737182617,11.744442900115246,-0.9677362388993892,0.1503879414771581,-2.290927012279252
2.08,-0.5694604516029358,-0.2968052327632904,2.454429626464844,-0.0012341099090901,0.0633989585677361,-0.0016456832310584,0.2508106827735901,-0.1957932114601135,0.0171607732772827,-0.572478892046252,-0.3166281284509659,2.42,0.2391928403623776,-0.181071215601426,0.0,0.5018491386200599,-0.4982203245162964,-0.0600479543209075,-0.0048279762268066,11.93470721036192,-0.9627327924670488,0.2111028652992251,-2.323099031427009
2.1,-0.5639626979827881,-0.3010707795619964,2.454829216003418,0.0011659027187779,0.0661286274957476,-0.0018655012451985,0.2456152439117431,-0.1949000358581543,0.0155031681060791,-0.5676950352390044,-0.3202495527629944,2.42,0.2391928403623776,-0.181071215601426,0.0,0.2763060012319921,-0.2597719430923462,0.0446587800979614,-0.0828802585601806,11.783092324382778,-0.9710666939384658,0.1771695012191976,-2.387186423335073
2.12,-0.5585938692092896,-0.3051624000072479,2.4549577236175537,0.0027369700863963,0.0677840625698334,-0.0012589261000705,0.2444981038570404,-0.1880362629890442,0.0118821859359741,-0.5629111784317569,-0.3238709770750229,2.42,0.2391928403623776,-0.181071215601426,0.0,0.392016873924999,-0.0558570027351379,0.3431886434555053,-0.181049108505249,12.31055938485224,-0.9833009096193428,0.1634259336686165,-2.3732573415782787
2.14,-0.553513765335083,-0.3093010485172272,2.4550981521606445,0.0043422757000885,0.0712734347644508,-0.0013864764480575,0.2351009845733642,-0.185181051492691,0.0060510635375976,-0.5581273216245093,-0.3274924013870514,2.42,0.2391928403623776,-0.181071215601426,0.0,0.5710955960813238,-0.4698559641838074,0.1427605748176574,-0.2915561199188232,12.2785500565451,-0.979368501411376,0.1917507892938013,-2.336785027135914
2.16,-0.5509418845176697,-0.3113851249217987,2.455231189727783,0.003414564562895,0.0705651147096014,-0.0017344596410782,0.2343674004077911,-0.1871149241924286,0.0065606832504272,-0.5533434648172617,-0.3311138256990799,2.42,0.2391928403623776,-0.181071215601426,0.0,0.1065096427380441,-0.036679208278656,-0.0966936349868774,0.0254809856414794,12.395968790227473,-1.031476923363517,0.1947626658038226,-2.315023612982217
2.18,-0.5458645224571228,-0.3154628872871399,2.455159902572632,0.005223437072093,0.0738693171226595,-0.0012501371987652,0.2304312586784362,-0.1855605840682983,0.0005149841308593,-0.5485596080100141,-0.3347352500111084,2.42,0.2391928403623776,-0.181071215601426,0.0,0.3689839521557598,-0.1968070864677429,0.0777170062065124,-0.3022849559783935,12.53052488844105,-0.9924234154066433,0.1611912291342925,-2.281602619240411
2.2,-0.5409190058708191,-0.3194621205329895,2.4552478790283203,0.0055227273508367,0.074997815034728,-0.0013282527798339,0.2255147695541381,-0.1817324012517929,0.0003755092620849,-0.5437757512027666,-0.3383566743231369,2.42,0.2391928403623776,-0.181071215601426,0.0,0.3116340089951214,-0.2458244562149047,0.1914091408252716,-0.0069737434387207,12.902940919788309,-0.998589665491106,0.1584490040160852,-2.2725726581561414
2.22,-0.5360209941864014,-0.3235121369361877,2.4553639888763428,0.0065040586898694,0.0755486906704586,-0.0009410657365769,0.2214793860912323,-0.1811081171035766,0.004591941833496,-0.538991894395519,-0.3419780986351654,2.42,0.2391928403623776,-0.181071215601426,0.0,0.2934806382866894,-0.2017691731452942,0.0312142074108123,0.2108216285705566,12.756450080813464,-1.0273778144419894,0.1724203407104158,-2.293848235891581
2.24,-0.5311427712440491,-0.3275378346443176,2.455209970474243,0.0075274436293249,0.0771484575352185,-0.0009481902456817,0.2199652791023254,-0.1817035675048828,-0.0008529424667358,-0.5342080375882714,-0.3455995229471939,2.42,0.2391928403623776,-0.181071215601426,0.0,0.2841383738479565,-0.075705349445343,-0.0297725200653076,-0.2722442150115967,12.054870406506325,-1.052129407056094,0.1672191247940498,-2.28635657731707
2.26,-0.5287634134292603,-0.3295546174049377,2.455263137817383,0.0420140149055049,0.0752941188590026,-0.0002877600606994,0.2191941440105438,-0.1806233078241348,0.0020331144332885,-0.5294241807810237,-0.3492209472592225,2.42,0.2391928403623776,-0.181071215601426,0.0,0.1588311582924247,-0.0385567545890808,0.0540129840373992,0.1443028450012207,11.767240936948838,-1.049864986657947,0.1547427733177067,-2.3502433580463373
2.28,-0.5238691568374634,-0.3334701061248779,2.455208539962769,0.0118387977327412,0.0807427634125586,-0.0012390494944784,0.2182137966156005,-0.1790361106395721,-0.002022385597229,-0.5246403239737762,-0.3528423715712509,2.42,0.2391928403623776,-0.181071215601426,0.0,0.2232003383453068,-0.0490173697471618,0.0793598592281341,-0.2027750015258789,11.78213742567823,-1.040732158475289,0.2107789010097449,-2.362038649364178
2.3000000000000003,-0.5191140174865723,-0.3374319970607757,2.45512056350708,0.0140570937174107,0.0827367537561322,-0.0007446962014772,0.2171114087104797,-0.1772410422563552,-0.0032079219818115,-0.5198564671665286,-0.3564637958832795,2.42,0.2391928403623776,-0.181071215601426,0.0,0.1208617610428388,-0.0551193952560424,0.0897534191608429,-0.0592768192291259,11.751082229421629,-1.043710628974038,0.2105417273796243,-2.454289783673859
2.32,-0.5143755674362183,-0.3414007425308227,2.4550280570983887,0.0167448478722674,0.0861626895756255,-0.0002175694439669,0.2136057615280151,-0.1784393191337585,-0.0040608644485473,-0.5150726103592811,-0.3600852201953079,2.42,0.2391928403623776,-0.181071215601426,0.0,0.1900851157666133,-0.1752823591232299,-0.0599138438701629,-0.0426471233367919,11.970663924172186,-1.0468070561775351,0.2168569650538574,-2.5
2.34,-0.5095620155334473,-0.3454401195049286,2.45505690574646,0.0168115362687244,0.0884797312234219,2.9351688363191478e-05,0.2149200439453125,-0.1801827549934387,-0.0014322996139526,-0.5102887535520335,-0.3637066445073364,2.42,0.2391928403623776,-0.181071215601426,0.0,0.1708527140470978,0.0657141208648681,-0.0871717929840087,0.1314282417297363,11.985776282695952,-1.047890182142713,0.2040504559730395,-2.4767411142099127
2.36,-0.5072172284126282,-0.3473905622959137,2.455053806304932,0.0485049585252151,0.0885116227356509,0.0006081293789726,0.2137050032615661,-0.1768252998590469,-0.002945065498352,-0.5055048967447859,-0.3673280688193649,2.42,0.2391928403623776,-0.181071215601426,0.0,0.1938897203542213,-0.0607520341873168,0.1678727567195892,-0.0756382942199707,11.877443393261274,-1.0485731346398834,0.1951785261473,-2.385862746102709
2.38,-0.5025609135627747,-0.3513283729553222,2.4549477100372314,0.0162167491444596,0.0937102028899849,-0.000435151292689,0.212397426366806,-0.1772155612707138,-0.0041735172271728,-0.5007210399375384,-0.3709494931313934,2.42,0.2391928403623776,-0.181071215601426,0.0,0.091803526010573,-0.0653788447380065,-0.0195130705833435,-0.06142258644104,12.960925651670095,-1.0590743162677996,0.2786906755744964,-2.348758837853164
2.4,-0.4978049099445343,-0.3552416563034057,2.4548466205596924,0.0151143065999628,0.0981377649358479,0.0008938372617146,0.2117771655321121,-0.1766496151685714,-0.0046616792678833,-0.4959371831302908,-0.3745709174434219,2.42,0.2391928403623776,-0.181071215601426,0.0,0.0485623483672246,-0.0310130417346954,0.0282973051071167,-0.0244081020355224,13.185019245786862,-1.0719799774977532,0.2680086714188123,-2.284275486694769
2.42,-0.4929530322551727,-0.3591161072254181,2.45468807220459,0.014487096328266,0.0998710101673348,0.0001300620497546,0.2161773294210434,-0.175224021077156,-0.005841851234436,-0.4911533263230432,-0.3781923417554504,2.42,0.2391928403623776,-0.181071215601426,0.0,0.2386763846381238,0.2200081944465637,0.0712797045707702,-0.0590085983276367,12.473289793971162,-1.092795217170745,0.2617661013820152,-2.2630241376530056
2.44,-0.4880243837833404,-0.3630862832069397,2.454676628112793,0.0120624767768712,0.1028074712124392,-0.0005857531173642,0.2200618386268615,-0.1765041053295135,-0.0038248300552368,-0.4863694695157956,-0.3818137660674789,2.42,0.2391928403623776,-0.181071215601426,0.0,0.2280153607794767,0.1942254602909088,-0.0640042126178741,0.1008510589599609,11.909505114856074,-1.0843689928293747,0.2605958474716292,-2.2533003211485423
2.46,-0.4855041205883026,-0.3650952875614166,2.4547815322875977,0.0118950124746343,0.102123165217567,0.0001553081485503,0.2193054556846618,-0.1775749772787094,0.0003218650817871,-0.481585612708548,-0.3854351903795074,2.42,0.2391928403623776,-0.181071215601426,0.0,0.2174509280633397,-0.0378191471099853,-0.053543597459793,0.2073347568511963,11.956179521174818,-1.073494139086815,0.2375794339248058,-2.215253100223057
2.48,-0.4805496037006378,-0.3689829111099243,2.4546070098876958,0.0124548243230006,0.1034040396433008,-0.0007832158457911,0.2239094674587249,-0.1760032027959823,-0.0033849477767944,-0.4768017559013005,-0.3890566146915359,2.42,0.2391928403623776,-0.181071215601426,0.0,0.3058098306497401,0.2302005887031555,0.0785887241363525,-0.1853406429290771,12.465067322501907,-1.0937099209864816,0.2183228000672896,-2.2928014798798864
2.5,-0.4754814803600311,-0.37287238240242,2.4546358585357666,0.0124352426203613,0.1020795415338248,-0.0005280202157993,0.2255094051361084,-0.1749846339225769,-0.0032776594161987,-0.4720178990940529,-0.3926780390035644,2.42,0.2391928403623776,-0.181071215601426,0.0,0.094984129117722,0.0799968838691711,0.0509284436702728,0.0053644180297851,12.754130272556267,-1.0996681767575314,0.2223265031587478,-2.429397300342893
2.52,-0.4703251123428345,-0.3766856789588928,2.4546830654144287,0.0137492568109023,0.1002241122490951,0.0002777893991154,0.2300510555505752,-0.1733122766017913,0.0017112493515014,-0.4672340422868053,-0.3962994633155929,2.42,0.2391928403623776,-0.181071215601426,0.0,0.3475362505841937,0.2270825207233429,0.0836178660392761,0.2494454383850097,12.091199125847652,-1.1282048726496134,0.2237867762538476,-2.4480947182681194
2.54,-0.4650915861129761,-0.3805854320526123,2.454577207565308,0.0156307784225317,0.1004128404416037,0.0004347335574876,0.2337726205587387,-0.1735436171293258,-0.0013196468353271,-0.4624501854795577,-0.3999208876276214,2.42,0.2391928403623776,-0.181071215601426,0.0,0.2402597357288503,0.1860782504081726,-0.0115670263767242,-0.1515448093414306,12.515110798974549,-1.1064949711791203,0.2255112833626457,-2.375321955252567
2.56,-0.4625215232372284,-0.3824526667594909,2.454503059387207,0.0479774370902584,0.097086327562825,0.000995686943114,0.2337927371263504,-0.1721106469631195,-0.0016146898269653,-0.4576663286723101,-0.4035423119396499,2.42,0.2391928403623776,-0.181071215601426,0.0,0.0731583648745098,0.0010058283805847,0.071648508310318,-0.0147521495819091,11.970755210894822,-1.0705133252795629,0.2151627657000094,-2.3483691584528024
2.58,-0.4572139382362366,-0.3863449394702911,2.45452094078064,0.019249198504536,0.1011935729530656,0.0005869972591662,0.2373459935188293,-0.1723802089691162,-0.0031059980392456,-0.4528824718650626,-0.4071637362516784,2.42,0.2391928403623776,-0.181071215601426,0.0,0.1931469314394097,0.1776628196239471,-0.0134781002998352,-0.0745654106140136,12.087678574115673,-1.099746580065898,0.2800395515182121,-2.385235893601256
2.6,-0.4518725872039795,-0.3901318311691284,2.4545609951019287,0.0220273393538436,0.1010470316668356,0.0010011395419809,0.2396010607481002,-0.1727811992168426,0.0013035535812377,-0.448098615057815,-0.4107851605637069,2.42,0.2391928403623776,-0.181071215601426,0.0,0.2484465077285811,0.1127533614635467,-0.020049512386322,0.2204775810241699,12.333146685735755,-1.0956011242645107,0.2723306466589775,-2.4449558844312542
2.62,-0.4465242624282837,-0.3941144645214081,2.454697608947754,0.0228790051683505,0.099287570698588,0.0008447287936316,0.2405177056789398,-0.1748143136501312,0.0039750337600708,-0.4433147582505674,-0.4144065848757354,2.42,0.2391928403623776,-0.181071215601426,0.0,0.174001426531349,0.0458322465419769,-0.1016557216644287,0.1335740089416504,13.077565049987244,-1.1003042881508784,0.2697764928075861,-2.387654220167832
2.64,-0.4409852623939514,-0.397935688495636,2.4546055793762207,0.0247231572850998,0.0980185612296735,0.0010306162693222,0.2449648082256317,-0.1755867898464203,0.0010031461715698,-0.4385309014433198,-0.4180280091877639,2.42,0.2391928403623776,-0.181071215601426,0.0,0.2702108268246893,0.2223551273345947,-0.0386238098144531,-0.1485943794250488,12.363997455996014,-1.1033646030162445,0.2577831791831639,-2.397221894058304
2.66,-0.4382138550281524,-0.3999429941177368,2.454667091369629,0.0249053458540997,0.0978920787596242,0.0013895955514454,0.2464748919010162,-0.1749946922063827,0.0014269351959228,-0.4337470446360723,-0.4216494334997924,2.42,0.2391928403623776,-0.181071215601426,0.0,0.0838231689206948,0.075504183769226,0.0296048820018768,0.0211894512176513,11.957415146615858,-1.077094175614575,0.2557592371625559,-2.3797122316035377
2.68,-0.4326562285423279,-0.4038591384887695,2.454585552215576,0.0244355704126444,0.096361507209018,0.0011041343912576,0.2510406970977783,-0.1765302568674087,-0.0008636713027954,-0.4289631878288247,-0.4252708578118209,2.42,0.2391928403623776,-0.181071215601426,0.0,0.2666993347148709,0.2282902598381042,-0.0767782330513,-0.114530324935913,11.835669982834588,-1.0800367905967043,0.2694979862618607,-2.356315214081449
2.7,-0.4270170927047729,-0.4078746736049652,2.4545884132385254,0.0252302890393584,0.0960934002084939,0.001291810076168,0.2519271373748779,-0.1784627884626388,-0.0017702579498291,-0.4241793310215771,-0.4288922821238494,2.42,0.2391928403623776,-0.181071215601426,0.0,0.1155676650279699,0.0443220138549804,-0.0966265797615051,-0.0453293323516845,11.979965628393984,-1.076951296602676,0.2672126190603658,-2.379646040536126
2.72,-0.421358048915863,-0.4118770062923431,2.4547359943389893,0.0233455459676787,0.0947595824657223,0.0008457123290385,0.254209041595459,-0.1804020255804062,0.0033849477767944,-0.4193954742143294,-0.4325137064358779,2.42,0.2391928403623776,-0.181071215601426,0.0,0.298093414698498,0.1140952110290527,-0.0969618558883667,0.2577602863311767,12.455045788062309,-1.0790047440447128,0.2602058113801092,-2.479122404633737
2.74,-0.4156206250190735,-0.4159089624881744,2.45487904548645,0.0228716120744109,0.0931264355315047,0.0004763221813158,0.2564205229282379,-0.1807714998722076,0.0065392255783081,-0.4146116174070819,-0.4361351307479064,2.42,0.2391928403623776,-0.181071215601426,0.0,0.1934982518438718,0.1105740666389465,-0.0184737145900726,0.1577138900756836,12.068506340487149,-1.0764989312557156,0.2520106221553797,-2.4455413277134643
2.76,-0.4127327501773834,-0.4179898202419281,2.455061674118042,0.0521103732903185,0.0874281378000408,0.0014064379880592,0.2572359144687652,-0.1848410815000534,0.0094789266586303,-0.4098277605998343,-0.4397565550599349,2.42,0.2391928403623776,-0.181071215601426,0.0,0.2543039541164826,0.0407695770263671,-0.2034790813922882,0.1469850540161132,12.25391344538366,-1.084884058181691,0.2554969068317577,-2.387859545974088
2.78,-0.4070135951042175,-0.4221542775630951,2.4550788402557373,0.021717503961172,0.0897957199911211,0.000982087839646,0.2582645416259765,-0.1839539408683776,0.0041466951370239,-0.4050439037925868,-0.4433779793719634,2.42,0.2391928403623776,-0.181071215601426,0.0,0.2751262679613489,0.0514313578605651,0.044357031583786,-0.2666115760803222,12.338291972359912,-1.0610517590197577,0.2496859559344587,-2.2977845085063766
2.8000000000000003,-0.4011525809764862,-0.4263506233692169,2.4553470611572266,0.0201092586390116,0.0848261832564527,8.084423021060908e-05,0.2605538070201874,-0.1881180703639984,0.0064212083816528,-0.4002600469853391,-0.4469994036839919,2.42,0.2391928403623776,-0.181071215601426,0.0,0.2634109005025326,0.1144632697105407,-0.2082064747810363,0.1137256622314453,13.053688858817168,-1.054478622990085,0.2537782320642151,-2.292514731043012
2.82,-0.3954393267631531,-0.4303591549396515,2.4555320739746094,0.0195631795345359,0.0836468304926906,0.0006822745014108,0.2604210376739502,-0.1846097409725189,0.0101977586746215,-0.3954761901780916,-0.4506208279960204,2.42,0.2391928403623776,-0.181071215601426,0.0,0.257819388980646,-0.0066384673118591,0.1754164695739746,0.1888275146484375,12.244311849825865,-1.0393511499133328,0.2281522107950139,-2.311261852054918
