t,x,y,z,roll,pitch,yaw,v_x,v_y,v_z,ref_x,ref_y,ref_z,ref_v_x,ref_v_y,ref_v_z,a_com,a_x,a_y,a_z,thrust,wind_x,wind_y,wind_z
0.0,0.95621657371521,-1.0177385807037354,2.8268468379974365,0.0493130993759628,0.1031633536403275,0.0049463681880161,-0.0146462023258209,0.036976933479309,-0.0076550245285034,0.9557229653000832,-1.0162127017974854,2.826650381088257,-0.116719551384449,0.1451040282845497,-0.1070381179451942,2.025095215436869,-0.7323101162910461,1.848846673965454,-0.3827512264251709,11.196350732736846,-0.9851305308579944,0.2191813752419985,-0.9874547859115068
0.02,0.9559551477432252,-1.0169317722320557,2.8261218070983887,0.0531293142703495,0.1040239514501504,0.0044111000239894,-0.0150632858276367,0.0380444526672363,-0.0190865993499755,0.9554842635989188,-1.01588973402977,2.826464086771012,-0.114646203815937,0.1369769349694252,-0.1076550260186195,0.5744442069578999,-0.0208541750907897,0.0533759593963623,-0.5715787410736084,9.532842595206604,-0.968651130838028,0.2057790797476603,-0.9282453363656376
0.04,0.9558837413787842,-1.017065405845642,2.8263931274414062,0.032305392800466,0.1030419366889866,0.0011541211267041,-0.0119036436080932,0.0178340077400207,-0.003095269203186,0.9554842635989188,-1.01588973402977,2.826464086771012,-0.114646203815937,0.1369769349694252,-0.1076550260186195,1.2982373270854175,0.1579821109771728,-1.0105222463607788,0.7995665073394775,9.503490616740237,-1.018226246380828,0.2676506964047692,-1.1343120347791888
0.06,0.955717146396637,-1.016765832901001,2.8261473178863525,0.0443830989116962,0.1022388763538009,0.0010027917069606,-0.008624643087387,0.0100100040435791,-0.0037175416946411,0.9554842635989188,-1.01588973402977,2.826464086771012,-0.114646203815937,0.1369769349694252,-0.1076550260186195,0.4253060701140582,0.1639500260353088,-0.3912001848220825,-0.0311136245727539,9.074520298819609,-1.01551213998084,0.1552104787807443,-1.0361691053349265
0.08,0.9555784463882446,-1.016603946685791,2.825692892074585,0.0284795273157289,0.0941285820517245,-0.0022069205076161,-0.0068691372871398,0.0103828310966491,-0.015755295753479,0.9543378015607596,-1.0145199646800755,2.825387536510825,-0.1346462041139602,0.1569769352674484,-0.1276550263166427,0.608539898871205,0.0877752900123596,0.0186413526535034,-0.6018877029418945,9.074520298819609,-0.9891050685682043,0.1638040489304371,-0.9750123435093464
0.1,0.955322563648224,-1.0164014101028442,2.8251678943634038,-0.0124299404925309,0.0703117959973102,-0.008474829097383,-0.0088781118392944,0.0081995129585266,-0.0220370292663574,0.9520448774844408,-1.011780425980687,2.823234435990453,-0.1746462047100067,0.1969769358634948,-0.1676550269126892,0.3473580025358539,-0.100448727607727,-0.1091659069061279,-0.3140866756439209,8.908513112233322,-0.9807144426672486,0.1825887038181703,-1.051095983305169
0.12,0.9550882577896118,-1.016071081161499,2.8242204189300537,-0.0201804646945915,0.0569623856120192,-0.0123350690332251,-0.0110292434692382,0.0119894742965698,-0.0331306457519531,0.949751953408122,-1.0090408872812986,2.821081335470081,-0.2146462053060531,0.2369769364595413,-0.2076550275087356,0.5959435815634898,-0.1075565814971923,0.1894980669021606,-0.5546808242797852,8.790902357431605,-0.960698683698878,0.1309776594109155,-0.9387543214371032
0.14,0.9549208283424376,-1.0159190893173218,2.8238091468811035,-0.0733160410735225,0.0140640119725002,-0.0165946446155062,-0.0117802619934082,0.0126305222511291,-0.0380390882492065,0.945459029302001,-1.0043013485521075,2.8169282349199056,-0.2546462059020996,0.2769769370555877,-0.2476550281047821,0.2503386658735244,-0.037550926208496,0.0320523977279663,-0.2454221248626709,8.922856654394309,-0.9160415882561508,0.1159159024354101,-0.8364666751851991
0.16,0.9543310403823853,-1.0153119564056396,2.8221006393432617,-0.0694180048663791,0.0114994399134735,-0.019500859653423,-0.0216132402420043,0.0214120745658874,-0.0625759363174438,0.94116610519588,-0.999561809822917,2.812775134369731,-0.2946462064981461,0.3169769376516342,-0.2876550287008286,1.3927132111619065,-0.4916489124298095,0.439077615737915,-1.2268424034118652,8.766362161773941,-0.8196134605450487,0.0280332879791205,-0.6739675498593936
0.18,0.9533089399337769,-1.014320969581604,2.8200080394744877,-0.1018287781425162,-0.0201075864969696,-0.0229106586324731,-0.0362674891948699,0.0359576940536499,-0.0855249166488647,0.9358731810748576,-0.9938222710788248,2.807622033804656,-0.3346462070941925,0.3569769382476807,-0.327655029296875,1.5435168908269843,-0.73271244764328,0.7272809743881226,-1.147449016571045,8.766362161773941,-0.7747163775845421,-0.0163048506392649,-0.5857792526846558
0.2,0.9517349004745485,-1.0128315687179563,2.8170270919799805,-0.1299326832448691,-0.050793626007848,-0.0242622520017472,-0.0584131479263305,0.0558087229728698,-0.1141548156738281,0.9295802569389344,-0.9870827323198318,2.8014689332246783,-0.3746462076902389,0.3969769388437271,-0.3676550298929214,2.064076469018058,-1.1072829365730286,0.9925514459609984,-1.431494951248169,8.892772476620394,-0.7581240185485698,-0.0554303598969252,-0.5578952067432028
0.22,0.9498130679130554,-1.0108537673950195,2.8136017322540283,-0.1699893582076264,-0.0960515078452718,-0.0166121700744436,-0.0786571204662323,0.0780120491981506,-0.1441419124603271,0.9488142430782318,-1.010041132569313,2.811319351196289,-0.1584131494164466,0.155808724462986,-0.2141548171639442,2.1225174282826256,-1.012198626995087,1.110166311264038,-1.4993548393249512,8.892772476620394,-0.7581240185485698,-0.0554303598969252,-0.5578952067432028
0.24,0.9485843181610109,-1.009561538696289,2.811603784561157,-0.1641363767552094,-0.092796808286555,-0.0220636935252238,-0.0917610526084899,0.0938585400581359,-0.1550155878067016,0.9488142430782318,-1.010041132569313,2.811319351196289,-0.1584131494164466,0.155808724462986,-0.2141548171639442,1.1630360330862994,-0.6551966071128845,0.7923245429992676,-0.5436837673187256,9.360831394255,-0.6702539307251861,-0.1016214804787578,-0.4915330966216737
0.26,0.9454445242881776,-1.0064502954483032,2.807046890258789,-0.1807953969666416,-0.1147905564573527,-0.0212294363291289,-0.1228438317775726,0.1217079162597656,-0.1868802309036255,0.9488142430782318,-1.010041132569313,2.811319351196289,-0.1584131494164466,0.155808724462986,-0.2141548171639442,2.6253963488339185,-1.554138958454132,1.392468810081482,-1.5932321548461914,10.13991099232362,-0.6496373518859127,-0.0802319875691793,-0.4345041384370727
0.28,0.9417886734008788,-1.0023611783981323,2.8017873764038086,-0.1904929013601995,-0.1291765036030614,-0.0196208981253299,-0.1529020071029663,0.1620081067085266,-0.2208691835403442,0.9472301115840672,-1.0084830453246831,2.809177803024649,-0.1784131497144699,0.1758087247610092,-0.2341548174619674,3.034323711900076,-1.5029087662696838,2.0150095224380493,-1.6994476318359375,10.295489299176552,-0.5703979605521958,-0.0983890865057925,-0.4056902304275913
0.3,0.93708074092865,-0.99763160943985,2.796085357666016,-0.1945770213677657,-0.1348286666852195,-0.0169286603056616,-0.1881851255893707,0.1984204351902008,-0.2466344833374023,0.9440618485957384,-1.0053668708354235,2.8048947066813708,-0.2184131503105163,0.2158087253570556,-0.2741548180580139,2.843680181215566,-1.764155924320221,1.8206164240837095,-1.2882649898529053,10.090719859546423,-0.5703979605521958,-0.0983890865057925,-0.4056902304275913
0.32,0.9314351677894592,-0.9921227097511292,2.7899625301361084,-0.1928865306910939,-0.1350245932168185,-0.0157461595105412,-0.2329538762569427,0.2303655445575714,-0.2660590410232544,0.9408935856074094,-1.0022506963461637,2.800611610338092,-0.2584131509065628,0.2558087259531021,-0.3141548186540603,2.916352383594742,-2.238437533378601,1.5972554683685305,-0.9712278842926024,10.543784240134755,-0.5899131272143127,-0.0879349518752202,-0.4813229838249514
0.34,0.9282683730125428,-0.9891477823257446,2.7868337631225586,-0.1901694631288407,-0.1353783079889416,-0.0147891297683316,-0.2547213435173034,0.2457949519157409,-0.2743631601333618,0.9357253225892782,-0.9971345218271016,2.7943285139650107,-0.2984131515026092,0.2958087265491485,-0.3541548192501068,1.3971825547777068,-1.088373363018036,0.7714703679084778,-0.4152059555053711,10.621939621332784,-0.609747726377935,-0.121138693969745,-0.4959696772121305
0.36,0.9211585521697998,-0.9822710156440736,2.780000925064087,-0.1802106672549253,-0.1308630311726905,-0.0134348635467336,-0.29812753200531,0.2845421433448791,-0.2948713302612304,0.930557059571147,-0.9920183473080396,2.7880454175919294,-0.3384131520986557,0.335808727145195,-0.3941548198461533,3.084650338651141,-2.1703094244003296,1.9373595714569087,-1.0254085063934326,11.333838582099816,-0.6407227157905014,-0.1550323691784213,-0.549979651969118
0.38,0.9131845235824584,-0.9746010899543762,2.77297592163086,-0.1642556537331834,-0.1213098332467442,-0.0115971782101369,-0.3393866121768951,0.3273005783557892,-0.3118014335632324,0.9243887965381146,-0.9859021727740764,2.780762321203947,-0.3784131526947021,0.3758087277412414,-0.4341548204421997,3.089184301318052,-2.062954008579254,2.1379217505455017,-0.8465051651000977,10.782535375477892,-0.6247507281310833,-0.1980816048876515,-0.6870322817085538
0.4,0.904151201248169,-0.9666109681129456,2.7656469345092773,-0.1429620148518879,-0.1072907500572425,-0.0096046972084134,-0.363534539937973,0.3378617763519287,-0.32135009765625,0.917220533490181,-0.978785998225212,2.772479224801064,-0.4184131532907486,0.4158087283372879,-0.4741548210382461,1.401640382042752,-1.207396388053894,0.5280598998069763,-0.4774332046508789,10.782535375477892,-0.6405808688477646,-0.1248116529446433,-0.7459868038836647
0.42,0.8942359685897827,-0.9576541185379028,2.7580766677856445,-0.1216017730338607,-0.0920891328674567,-0.0085892424087566,-0.4263424873352051,0.3813068568706512,-0.335233211517334,0.8859744742512703,-0.9497178792953492,2.749579429626465,-0.4635345414280891,0.4378617778420448,-0.4213500991463661,3.881061107484516,-3.140397369861603,2.1722540259361267,-0.6941556930541992,10.89471052916724,-0.7196443707949752,-0.168521354577197,-0.8483569811556699
0.44,0.8889769911766052,-0.9530104398727416,2.7544643878936768,-0.1041477039905136,-0.0760833164797275,-0.002626643533309,-0.4424303770065307,0.3997094929218292,-0.3328889608383178,0.8859744742512703,-0.9497178792953492,2.749579429626465,-0.4635345414280891,0.4378617778420448,-0.4213500991463661,1.2277751412157385,-0.8043944835662842,0.9201318025588988,0.1172125339508056,11.034695153164192,-0.7602988853498912,-0.1278742705537898,-0.852923800830226
0.46,0.8778830170631409,-0.943173885345459,2.7471063137054443,-0.093027325370304,-0.0696537041065246,-0.0068594770127194,-0.4822088778018951,0.4290179908275604,-0.3299546241760254,0.8859744742512703,-0.9497178792953492,2.749579429626465,-0.4635345414280891,0.4378617778420448,-0.4213500991463661,2.47483711921852,-1.988925039768219,1.46542489528656,0.146716833114624,10.814443441733602,-0.7744931853022987,-0.0337910502626327,-1.010901814699798
0.48,0.8659777045249939,-0.9329015612602234,2.7395925521850586,-0.0772083962537356,-0.0447801723158131,-0.0042259585823007,-0.5174839496612549,0.452449768781662,-0.3346163034439087,0.8813391288369894,-0.9453392615169288,2.7453659286350014,-0.4835345417261124,0.457861778140068,-0.4413500994443893,2.130205486784037,-1.763753592967987,1.171588897705078,-0.233083963394165,10.814443441733602,-0.7648841370407771,-0.0261675554805646,-1.0279891474345977
0.5,0.8535130620002747,-0.922435224056244,2.732490539550781,-0.0647889347510913,-0.0262436579590291,-0.0041904129823589,-0.5483239889144897,0.4666198790073395,-0.3288549184799194,0.8720684380084276,-0.9365820259600878,2.736938926652074,-0.5235345423221588,0.4978617787361145,-0.4813501000404357,1.721259423832008,-1.5420019626617432,0.7085055112838745,0.2880692481994629,10.353942365895364,-0.8370831048035053,0.0235256194327299,-1.0581571088504311
0.52,0.8406599760055542,-0.9115588665008544,2.725449800491333,-0.0607345472662763,-0.0099479234436663,-0.0032767385371953,-0.5696488618850708,0.4802106320858001,-0.3182119131088257,0.8627977471798658,-0.9278247904032468,2.7285119246691467,-0.5635345429182053,0.537861779332161,-0.5213501006364822,1.3717983997113403,-1.0662436485290527,0.6795376539230347,0.5321502685546875,10.284439049343291,-0.8822062603680508,0.0184147213987773,-1.0016084294569516
0.54,0.8339565992355347,-0.9060418009757996,2.7217273712158203,-0.0592993706994082,-0.0007080694889171,-0.0030040156329427,-0.5837653875350952,0.4888071119785309,-0.3219723701477051,0.8515270563215017,-0.9170675548166036,2.718084922656417,-0.6035345435142517,0.5778617799282074,-0.5613501012325287,0.8475210913528616,-0.7058262825012207,0.4298239946365356,-0.1880228519439697,9.92515978368101,-0.878151501541679,0.0136103773574902,-0.93074225700663
0.56,0.8204399347305298,-0.8947199583053589,2.7144718170166016,-0.0587081963228192,0.0168189115642872,-0.0021135479012269,-0.6005613803863525,0.5036705732345581,-0.3264409303665161,0.8402563654631376,-0.9063103192299604,2.7076579206436877,-0.6435345441102982,0.6178617805242539,-0.6013501018285752,1.1434551661500003,-0.8397996425628662,0.7431730628013611,-0.2234280109405517,9.857550144113247,-0.9517280985700048,0.039394282535014,-1.0408877837954311
0.58,0.8065785765647888,-0.8831871747970581,2.706804037094116,-0.0663312048785707,0.0403599723355195,0.0003673115934523,-0.616005539894104,0.5142290592193604,-0.3357750177383423,0.8279856745898724,-0.894553083628416,2.6962309186160565,-0.6835345447063446,0.6578617811203002,-0.6413501024246215,1.0453813613426206,-0.7722079753875732,0.5279242992401123,-0.4667043685913086,9.409279618122127,-0.9225088310526884,0.0173112122204745,-1.0438119608852878
0.6,0.792475700378418,-0.8713962435722351,2.698937177658081,-0.0572873584513997,0.0528058499919544,-0.00153466268651,-0.6244960427284241,0.5207253694534302,-0.3421372175216675,0.8147149837017059,-0.8817958480119705,2.683803916573525,-0.723534545302391,0.6978617817163467,-0.681350103020668,0.6220294830629426,-0.4245251417160034,0.3248155117034912,-0.3181099891662597,9.409279618122127,-0.9471827941867514,-0.0054918789372139,-1.0107257571933412
0.62,0.7783237099647522,-0.8593746423721313,2.6905176639556885,-0.0542332257197332,0.0722710725742699,-0.0011990203619987,-0.635734498500824,0.535781979560852,-0.366443395614624,0.7612508982419968,-0.8453599750995636,2.6818303167819977,-0.6268239081837237,0.6207253709435463,-0.4421372190117836,1.5360620833495209,-0.5619227886199951,0.7528305053710938,-1.2153089046478271,9.212823414404738,-0.999804376947367,0.0017824127204392,-1.0194103152590634
0.64,0.7713409066200256,-0.8532853126525879,2.686246633529663,-0.0535604852871907,0.0821665506892195,0.0003408860361745,-0.6344563961029053,0.540677011013031,-0.3744524717330932,0.7612508982419968,-0.8453599750995636,2.6818303167819977,-0.6268239081837237,0.6207253709435463,-0.4421372190117836,0.4736564655127728,0.063905119895935,0.2447515726089477,-0.4004538059234619,9.212823414404738,-1.0122640993980212,-0.0017945960268643,-1.0009147263481808
0.66,0.7570782899856567,-0.8408796191215515,2.677097797393799,-0.0497268806831549,0.1004761872600114,0.0005398594618804,-0.6381967663764954,0.551141619682312,-0.3951001167297363,0.7612508982419968,-0.8453599750995636,2.6818303167819977,-0.6268239081837237,0.6207253709435463,-0.4421372190117836,1.1724159333318391,-0.1870185136795044,0.5232304334640503,-1.032382249832153,9.975505990303644,-0.9704183914052184,-0.007109255134206,-0.973130303812994
0.68,0.7430496215820312,-0.8284334540367126,2.667423248291016,-0.0414420139983876,0.1190648417509737,0.0024425611529251,-0.6365538835525513,0.5591667890548706,-0.4235261678695678,0.7549826591601595,-0.8391527213901282,2.67740894459188,-0.6272894812747836,0.6407253712415695,-0.4621372193098068,1.4791406211342628,0.0821441411972045,0.4012584686279297,-1.4213025569915771,9.975505990303644,-0.993905332043159,-0.0178603793213057,-0.911849601619412
0.7000000000000001,0.7291799783706665,-0.8157214522361755,2.657413482666016,-0.0325698905060306,0.1360726083579888,0.0034143046906477,-0.6277120113372803,0.5660587549209595,-0.442897081375122,0.7424461809964851,-0.8267382139712572,2.6685662002116444,-0.6282206274569034,0.680725371837616,-0.5021372199058532,1.1190511469657871,0.4420936107635498,0.3445982933044433,-0.96854567527771,10.054685012797565,-0.9953903630747118,-0.0157428835309319,-0.9109193018166912
0.72,0.715724527835846,-0.802852988243103,2.647207498550415,-0.0284011727008322,0.1566352517016714,0.0053338089363959,-0.6148146390914917,0.575560450553894,-0.4548543691635132,0.7299097028328105,-0.8143237065523863,2.6597234558314087,-0.6291517736390233,0.7207253724336624,-0.5421372205018997,0.9995013281654164,0.6448686122894287,0.4750847816467285,-0.5978643894195557,10.054685012797565,-0.963331184778662,-0.0123245285288809,-0.8139386408675539
0.74,0.7090264558792114,-0.796399712562561,2.642014741897583,-0.0417918209010192,0.182609045380774,0.0056000422409393,-0.607718825340271,0.5740517377853394,-0.4521238803863525,0.71732666736003,-0.799909199103713,2.648880711421371,-0.6300829198211432,0.7607253730297089,-0.5821372210979462,0.3875640462304682,0.3547906875610351,-0.0754356384277343,0.1365244388580322,9.792439392156666,-0.93782909505804,0.0123184685846214,-0.6912605302209052
0.76,0.6961410045623779,-0.7833088040351868,2.6314001083374023,-0.0287392540433538,0.1907895231828875,0.007219845721625,-0.5898848176002502,0.5845552682876587,-0.4700785875320434,0.7047436318872496,-0.7854946916550398,2.6380379670113325,-0.631014066003263,0.8007253736257554,-0.6221372216939927,1.3699885891603234,0.8917003870010376,0.5251765251159668,-0.8977353572845459,9.792439392156666,-0.9592687502349524,-0.0575060969297818,-0.5794375231097966
0.78,0.6836227774620056,-0.7701471447944641,2.620367288589477,-0.0306622595027108,0.2114036176284504,0.0074020764251083,-0.5715827941894531,0.5906827449798584,-0.487067699432373,0.6921373177599162,-0.7700801841914654,2.6261952225863934,-0.6319452121853828,0.8407253742218017,-0.662137222290039,1.2856320961930914,0.915101170539856,0.3063738346099853,-0.8494555950164795,9.668443390305583,-0.993960381287704,-0.0464220950343064,-0.5671785230406357
0.8,0.6777206063270569,-0.7634668350219727,2.6147615909576416,-0.033163595981699,0.2195721690675864,0.0078358709826731,-0.5577720403671265,0.5931825637817383,-0.4927808046340942,0.6795077249780297,-0.7536656767129899,2.6133524781465534,-0.6328763583675027,0.8807253748178482,-0.7021372228860855,0.7576700901927507,0.690537691116333,0.1249909400939941,-0.2856552600860595,9.790495734885551,-1.0233355572367688,-0.0464324689672635,-0.6435009001207592
0.8200000000000001,0.6606723666191101,-0.7432184815406799,2.597299337387085,-0.0414991020799738,0.2417209594743268,0.0069853494651444,-0.5163842439651489,0.605894923210144,-0.519028902053833,0.6498320043087006,-0.7338077068328858,2.590122550725937,-0.5489820139482617,0.6931825652718544,-0.5927808061242104,2.531559001586088,2.069389820098877,0.6356179714202881,-1.3124048709869385,9.609118369003228,-0.9847990892584726,-0.0584034433786051,-0.6004393168308826
0.84,0.6553000211715698,-0.7365345358848572,2.591294765472412,-0.0435361758827472,0.2484251427919374,0.0068712805538727,-0.5044631958007812,0.6059767007827759,-0.5280035734176636,0.6498320043087006,-0.7338077068328858,2.590122550725937,-0.5489820139482617,0.6931825652718544,-0.5927808061242104,0.746094503057957,0.5960524082183838,0.0040888786315917,-0.4487335681915283,9.609118369003228,-0.9835540086054312,-0.0501104382201058,-0.6022176914195978
0.86,0.6452557444572449,-0.7226800322532654,2.578800201416016,-0.0475124651689939,0.2579696652439711,0.0069061328140164,-0.4705841839313507,0.6158446073532104,-0.5513709783554077,0.6498320043087006,-0.7338077068328858,2.590122550725937,-0.5489820139482617,0.6931825652718544,-0.5927808061242104,2.116127736489666,1.693950593471527,0.4933953285217285,-1.168370246887207,9.900441318827234,-1.0333243912762111,-0.1101323380312604,-0.528218240275823
0.88,0.6405320763587952,-0.7157395482063293,2.5725016593933105,-0.0674876652460089,0.2673327103457447,0.00473741911671,-0.435357391834259,0.6258196830749512,-0.5721849203109741,0.644342184169218,-0.7268758811801672,2.5841947426646947,-0.5472240086644888,0.7131825655698776,-0.6127808064222335,2.1057357365276568,1.7613396048545835,0.4987537860870361,-1.0406970977783203,9.970704791413482,-1.0333243912762111,-0.1101323380312604,-0.528218240275823
0.9,0.6274803280830383,-0.6945837736129761,2.5525569915771484,-0.0518952403748844,0.2737254127462352,0.0071467493549518,-0.3999468684196472,0.632165789604187,-0.5904722213745117,0.6333625438902527,-0.7130122298747301,2.572339126542211,-0.5437079980969429,0.753182566165924,-0.65278080701828,2.0177980676752845,1.7705261707305908,0.317305326461792,-0.91436505317688,9.970704791413482,-0.9958481403841914,-0.1227190264493311,-0.5144747818875446
0.92,0.6198052167892456,-0.6801555156707764,2.538785934448242,-0.0538033417738949,0.2815120377826978,0.0062902088987724,-0.3632757067680359,0.6427082419395447,-0.6092637777328491,0.6223829036112875,-0.699148578569293,2.5604835104197265,-0.540191987529397,0.7931825667619705,-0.6927808076143265,2.1266405364391443,1.8335580825805664,0.5271226167678833,-0.93957781791687,10.162303445547876,-0.9689135348243924,-0.1362123557920566,-0.4947746403843422
0.94,0.6163654327392578,-0.6729814410209656,2.531817674636841,-0.0564326444791223,0.282434938562504,0.0057067021453241,-0.3424429893493652,0.6455084681510925,-0.6178736686706543,0.6115790638606995,-0.6832849272340537,2.54662789426744,-0.5366759769618511,0.833182567358017,-0.732780808210373,1.1357526181379938,1.0416358709335327,0.1400113105773925,-0.4304945468902588,10.162303445547876,-0.9688039894036368,-0.1243363097420821,-0.5421012425559026
0.96,0.6101016402244568,-0.6581547260284424,2.517429828643799,-0.0550274977595398,0.2861066780871083,0.0056788026069681,-0.3027288615703583,0.6565243005752563,-0.6367456912994385,0.6007752241101115,-0.6674212758988142,2.5327722781151536,-0.5331599663943052,0.8731825679540635,-0.7727808088064194,2.26644752164367,1.985706388950348,0.5507916212081909,-0.943601131439209,10.347517974498714,-0.9437963218771958,-0.1493213733985634,-0.5647476297128501
0.98,0.6046482920646667,-0.6431401371955872,2.502724885940552,-0.0534920046488847,0.2856275957889792,0.0056827074347024,-0.2636356651782989,0.6714293360710144,-0.6545877456665039,0.5900592846237123,-0.6505576245486737,2.517916661947966,-0.5296439558267594,0.9131825685501098,-0.8127808094024658,2.2741905105527365,1.9546598196029663,0.7452517747879028,-0.8921027183532715,10.474435376163456,-1.001507307388876,-0.1561063454896583,-0.5216691797469245
1.0,0.6023157835006714,-0.635642409324646,2.4954137802124023,-0.0670503438439812,0.2743035207090198,0.0034536129687064,-0.24481862783432,0.6737052202224731,-0.6593942642211914,0.5794312454015017,-0.632693973183632,2.5020610457658767,-0.5261279452592135,0.9531825691461564,-0.8527808099985122,0.977705430705118,0.940851867198944,0.113794207572937,-0.240325927734375,10.693339123493388,-0.9826687487461104,-0.1173270350708098,-0.5474175214983883
1.02,0.596590518951416,-0.612525224685669,2.4727509021759038,-0.0500229662660376,0.2728153002685641,0.0056219652683147,-0.1812998950481414,0.6888355016708374,-0.6744146347045898,0.5900748521089554,-0.6019571483135223,2.4624440670013428,-0.3288880884647369,0.7737052217125893,-0.7477244362235069,3.350062074397735,3.175936639308929,0.7565140724182129,-0.7510185241699219,10.693339123493388,-0.9587143003822688,-0.1626391307795714,-0.5141103872180588
1.04,0.5951600670814514,-0.6048040390014648,2.465203046798706,-0.0503229220803933,0.2647521232037569,0.0060862464614653,-0.1610036194324493,0.6938633322715759,-0.6797415018081665,0.5900748521089554,-0.6019571483135223,2.4624440670013428,-0.3288880884647369,0.7737052217125893,-0.7477244362235069,1.0788806671233724,1.014813780784607,0.2513915300369262,-0.266343355178833,10.93956334307768,-0.9042886213744702,-0.1460020087433004,-0.4857582039064376
1.06,0.5928258299827576,-0.5890427827835083,2.44971227645874,-0.0484724612941466,0.2513765808512964,0.0059117303294116,-0.1233789324760437,0.7016403675079346,-0.6892472505569458,0.5900748521089554,-0.6019571483135223,2.4624440670013428,-0.3288880884647369,0.7737052217125893,-0.7477244362235069,1.9789255954368288,1.881234347820282,0.3888517618179321,-0.4752874374389648,10.931078443950357,-0.8731376440574556,-0.1336825055422718,-0.5004756207189003
1.08,0.591172993183136,-0.5731515884399414,2.434493064880371,-0.0489831346454791,0.2304610006382405,0.0051281471082273,-0.1074627041816711,0.7060673832893372,-0.68939208984375,0.586785971224308,-0.5942200960963965,2.454966822639108,-0.3457019805908203,0.7937052220106124,-0.76539047062397,0.8260535246979688,0.7958114147186279,0.2213507890701294,-0.0072419643402099,11.082540187602715,-0.931962716087016,-0.1454905380868065,-0.5155868790679945
1.1,0.5902369618415833,-0.5570468306541443,2.419320583343506,-0.04761989096048,0.2040465738583343,0.0060476792467568,-0.0724773108959198,0.7171744108200073,-0.6905561685562134,0.5802082094550133,-0.5787459916621447,2.4400123339146376,-0.3793297648429871,0.8337052226066589,-0.8007225394248962,1.8362317958080416,1.7492696642875671,0.5553513765335083,-0.0582039356231689,11.046239162941674,-0.920716505703678,-0.1412721606217116,-0.5183457067739147
1.12,0.5898599028587341,-0.5407277345657349,2.4041082859039307,-0.0456024299379591,0.1703480861898979,0.0058337433692207,-0.0295445322990417,0.7295367121696472,-0.6836575269699097,0.5736304476857186,-0.5632718872278929,2.4250578451901674,-0.4129575490951538,0.8737052232027054,-0.8360546082258224,2.260332513394953,2.1466389298439026,0.6181150674819946,0.3449320793151855,11.046239162941674,-0.8538777359813465,-0.1206066279770297,-0.552670696380362
1.14,0.5898056030273438,-0.5325091481208801,2.39656138420105,-0.0543283188703141,0.1186217203545525,0.0068140339616535,-0.0198175013065338,0.7317214012145996,-0.6814795732498169,0.5653712967038155,-0.5457977827638388,2.408336753025651,-0.4465853333473205,0.913705223798752,-0.8713866770267487,0.5102241677910084,0.4863515496253967,0.1092344522476196,0.1088976860046386,11.072542527226688,-0.7891860156055284,-0.1160934255802693,-0.5584181843742626
1.16,0.5898001790046692,-0.5159074068069458,2.3819127082824707,-0.043528055979126,0.1090591985969649,0.0060487073881008,-0.0066357851028442,0.7417125701904297,-0.670364499092102,0.5571121457219124,-0.5283236782997847,2.3916156608611345,-0.4802131175994873,0.9537052243947984,-0.9067187458276748,0.9964009899504592,0.6590858101844788,0.4995584487915039,0.5557537078857422,11.417648167827792,-0.7194491190226889,-0.1496369878097675,-0.5656025494675931
1.18,0.5897445678710938,-0.5076147317886353,2.374466896057129,-0.0448648221862123,0.0344472070539246,0.0090780589114653,0.0019901990890502,0.7471910119056702,-0.6587719917297363,0.5480123001337052,-0.5098495738208294,2.374011266976595,-0.5138409018516541,0.9937052249908448,-0.9420508146286012,0.77266932424648,0.4312992095947265,0.2739220857620239,0.5796253681182861,11.195099140934415,-0.7239123736107956,-0.1491284353927569,-0.5980177959587673
1.2,0.5898534059524536,-0.4909491240978241,2.360168933868408,-0.0392981752449699,-0.0095756898618391,0.0105520624769212,0.0037980079650878,0.7516575455665588,-0.6525546312332153,0.5380717599391938,-0.490375469326973,2.355523571372032,-0.5474686861038208,1.033705225586891,-0.9773828834295272,0.3932990828232113,0.0903904438018798,0.2233266830444336,0.3108680248260498,11.39402843685548,-0.6279308535965887,-0.1555456949737737,-0.6072411773660261
1.22,0.5895143747329712,-0.4659486711025238,2.339364767074585,-0.0293523767946437,-0.0329679460522167,0.0076368217580094,-0.0085428357124328,0.7504197359085083,-0.6281518936157227,0.590043306350708,-0.4533662468194961,2.3275412023067474,-0.0962019935250282,0.851657547056675,-0.7083730883896351,1.368687508756801,-0.6170421838760376,-0.0618904829025268,1.2201368808746338,11.378884481970545,-0.4907923573382672,-0.1320247099948865,-0.5780451430669648
1.24,0.5889875292778015,-0.4571132957935333,2.33230209350586,-0.0336295428093168,-0.0832727997972627,0.0126736202536567,-0.0194822251796722,0.7613061666488647,-0.6270039081573486,0.590043306350708,-0.4533662468194961,2.3275412023067474,-0.0962019935250282,0.851657547056675,-0.7083730883896351,0.7737933942486908,-0.546969473361969,0.5443215370178223,0.0573992729187011,12.40579580596068,-0.4306804690028598,-0.1596832117971207,-0.5572984283341369
1.26,0.5876002311706543,-0.4401056170463562,2.3188576698303223,-0.0310906901940193,-0.1291035989222766,0.0136989411913929,-0.0331011414527893,0.7602406144142151,-0.619804859161377,0.590043306350708,-0.4533662468194961,2.3275412023067474,-0.0962019935250282,0.851657547056675,-0.7083730883896351,0.7720696025381075,-0.6809458136558533,-0.0532776117324829,0.359952449798584,12.160054322434462,-0.406812212519111,-0.0496294645095765,-0.6926039453297086
1.28,0.5852552652359009,-0.4230774939060211,2.305783033370972,-0.0264333695648789,-0.1388053895217523,0.0103952609774013,-0.0839759409427642,0.7658055424690247,-0.5966788530349731,0.5890812864154578,-0.4448496713489294,2.320457471422851,-0.1162019938230514,0.8716575473546981,-0.719536779820919,2.808035704348696,-2.543739974498749,0.2782464027404785,1.1563003063201904,12.160054322434462,-0.2572626634097429,-0.0892884643963807,-0.717419806340547
1.3,0.5817115902900696,-0.4058669805526733,2.293121576309204,-0.0260477204556261,-0.1669245696549149,0.0113720048727771,-0.1324944198131561,0.770369291305542,-0.5790621042251587,0.5871572465449572,-0.4278165204077959,2.3062900096550583,-0.1562019944190979,0.9116575479507446,-0.741864162683487,2.590955631599841,-2.4259239435195923,0.2281874418258667,0.8808374404907227,12.410138873525284,-0.2589362109681096,-0.0866486497036394,-0.709443688978549
1.32,0.5768771171569824,-0.3887200653553009,2.280787467956543,-0.028986726762585,-0.1861329916095682,0.011878707307333,-0.1885083317756652,0.7730421423912048,-0.562400221824646,0.5852332066744566,-0.4107833694666624,2.2921225478872658,-0.1962019950151443,0.9516575485467912,-0.7641915455460548,2.9250302525778986,-2.8006955981254578,0.1336425542831421,0.8330941200256348,12.410138873525284,-0.3319679427287207,-0.0774907323256573,-0.7387288279768136
1.34,0.5738989114761353,-0.3800880312919616,2.2746431827545166,-0.0337637461228304,-0.1985374626408335,0.0173208059894959,-0.2178449928760528,0.7735698819160461,-0.558205246925354,0.5813091667741537,-0.3917502184957265,2.2768387169763447,-0.2362019956111908,0.9916575491428375,-0.7865189284086227,1.4819885356597424,-1.4668330550193789,0.0263869762420654,0.2097487449645996,12.158463350255715,-0.3336341625386114,-0.0915003488622938,-0.8124704502464863
1.36,0.5669243931770325,-0.3629040718078613,2.26265025138855,-0.0314346296064631,-0.1996684252362704,0.0133777812033601,-0.2799783647060394,0.7732841968536377,-0.5430185794830322,0.5773851268738508,-0.3727170675247907,2.2615548860654235,-0.2762019962072373,1.031657549738884,-0.8088463112711907,3.1981527398335468,-3.1066685914993286,-0.0142842531204223,0.7593333721160889,11.489075945128208,-0.3836297839837825,-0.1163032433491159,-0.9654207805608738
1.38,0.5586520433425903,-0.3454117774963379,2.250950574874878,-0.0323632642842703,-0.1979887557720854,0.0150393701275588,-0.3430545330047607,0.7802157402038574,-0.5330836772918701,0.5724610869586467,-0.3526839165389537,2.2457128705829383,-0.3162019968032837,1.0716575503349304,-0.8311736941337585,3.211444994863118,-3.1538084149360657,0.3465771675109863,0.4967451095581054,11.535138028958045,-0.3020969523494983,-0.1441199530272153,-1.02911712344221
1.4,0.5490028262138367,-0.3279655277729034,2.239373683929444,-0.0381470772643739,-0.177338376196368,0.02082126883745,-0.4032352566719055,0.7861172556877136,-0.523722767829895,0.5665370470285416,-0.3316507655382156,2.229312670528889,-0.3562019973993301,1.1116575509309767,-0.8535010769963265,3.059482804357106,-3.0090361833572388,0.29507577419281,0.4680454730987549,12.168991832940264,-0.3552647308802971,-0.1286733865135513,-1.1448653612965678
1.42,0.5378331542015076,-0.3105762898921966,2.228140354156494,-0.035579835805675,-0.1643842041818868,0.0172612055416165,-0.4684250056743622,0.7837984561920166,-0.5132299661636353,0.5288410633802414,-0.2886596649885177,2.2131875455379486,-0.465297419577837,0.8861172571778297,-0.5986673831939697,3.303475099388524,-3.2594874501228333,-0.115939974784851,0.5246400833129883,11.630172653593036,-0.4429860529182093,-0.1254831258002338,-1.2257100038668254
1.44,0.5319721698760986,-0.3017298281192779,2.222476005554199,-0.035101572341341,-0.1513502836270102,0.018228860003993,-0.4955072700977325,0.7879995107650757,-0.507270097732544,0.5288410633802414,-0.2886596649885177,2.2131875455379486,-0.465297419577837,0.8861172571778297,-0.5986673831939697,1.4023354961804713,-1.354113221168518,0.2100527286529541,0.2979934215545654,11.630172653593036,-0.5895455794588437,-0.174073356278668,-1.3119125941179992
1.46,0.5193588137626648,-0.2840744853019714,2.21142840385437,-0.0322439109511765,-0.1174017134015584,0.018570296430247,-0.5454593896865845,0.7927369475364685,-0.5060738325119019,0.5288410633802414,-0.2886596649885177,2.2131875455379486,-0.465297419577837,0.8861172571778297,-0.5986673831939697,2.5095261550041807,-2.4976059794425964,0.2368718385696411,0.0598132610321044,12.096209559919773,-0.631522570774705,-0.1482242906641465,-1.3596477612011666
1.48,0.5055669546127319,-0.2665353715419769,2.2008509635925293,-0.0346881038140543,-0.0762914669669576,0.017601587800067,-0.5941173434257507,0.7918752431869507,-0.4865634441375732,0.524188089184463,-0.2797984924167394,2.207200871706009,-0.4777098521590233,0.9061172574758528,-0.6136563062667847,2.6215426045488748,-2.432897686958313,-0.0430852174758911,0.9755194187164308,12.525117302012404,-0.7680588027678997,-0.1838873643276619,-1.361723134410992
1.5,0.4911128878593445,-0.248633325099945,2.190514087677002,-0.0368772092639907,-0.0327501392676973,0.0182727267046371,-0.635533332824707,0.7974261045455933,-0.4705721139907837,0.5148821407929063,-0.2620761472731828,2.1952275240421293,-0.5025347173213959,0.9461172580718994,-0.6436341524124145,2.237084531025232,-2.070799469947815,0.2775430679321289,0.7995665073394775,11.517253617148526,-0.8988012741699003,-0.1773773399400544,-1.3256362776005426
1.52,0.476173847913742,-0.2306621968746185,2.1807892322540283,-0.0411318968675223,0.0108731358434924,0.0187821905542156,-0.6477997303009033,0.8018195629119873,-0.4590010643005371,0.5055761924013495,-0.2443538021296262,2.18325417637825,-0.5273595824837685,0.986117258667946,-0.6736119985580444,0.8712866554633842,-0.6133198738098145,0.2196729183197021,0.5785524845123291,11.517253617148526,-0.8988012741699003,-0.1773773399400544,-1.3256362776005426
1.54,0.4685770273208618,-0.2216651737689972,2.176001787185669,-0.0395312153515525,0.0313761044652543,0.0189233645644185,-0.67104172706604,0.8056443929672241,-0.4438412189483642,0.4950290007516741,-0.2246314569562673,2.169781936407089,-0.552184447646141,1.0261172592639922,-0.7035898447036744,1.400571891839067,-1.162099838256836,0.1912415027618408,0.7579922676086426,10.65838730126552,-0.924570015176499,-0.1683835379100754,-1.2731075464735906
1.56,0.453127771615982,-0.2035755664110183,2.1667001247406006,-0.0386432273749285,0.0721514138579762,0.0186680210594334,-0.6890099048614502,0.8130308389663696,-0.4274153709411621,0.4844818091019988,-0.2049091117829084,2.1563096964359283,-0.5770093128085136,1.0661172598600388,-0.7335676908493042,1.2720293634007334,-0.8984088897705078,0.3693222999572754,0.8212924003601074,10.092742213591464,-1.0081400168119397,-0.1829208028970246,-1.310766978988929
1.58,0.4376846849918365,-0.1855070739984512,2.1575441360473637,-0.037109042090322,0.1097693260279988,0.0181226527238939,-0.6950777173042297,0.8135572671890259,-0.4152971506118774,0.4733139958232641,-0.1841867665946483,2.1420880103111264,-0.6018341779708862,1.1061172604560852,-0.7635455369949341,0.678134828893649,-0.303390622138977,0.0263214111328125,0.6059110164642334,10.092742213591464,-1.084921094040668,-0.187311177059526,-1.397806170508774
1.6,0.4226130545139313,-0.1670896112918853,2.148432970046997,-0.0332579506828974,0.1435317859620611,0.017438651667337,-0.6916089057922363,0.8192116618156433,-0.4152166843414306,0.4615255609154701,-0.1624644213914871,2.1271168780326843,-0.6266590431332588,1.1461172610521315,-0.7935233831405639,0.3317050901024044,0.1734405755996704,0.2827197313308716,0.0040233135223388,9.48310883558861,-1.154567823019634,-0.2199269880039304,-1.4420505877027223
1.62,0.4077699482440948,-0.1485881507396698,2.139005422592163,-0.0297014625260783,0.1719110133786589,0.0170620812763237,-0.6730815768241882,0.8306757807731628,-0.4171210527420044,0.3880326092243195,-0.1261290282011032,2.127672135829925,-0.5916089043021202,0.9192116633057594,-0.4634387567639351,1.0935201886196897,0.9263664484024048,0.5732059478759766,-0.0952184200286865,9.142303577591065,-1.140580887332812,-0.1704269202866796,-1.3386792426657412
1.64,0.4005001783370971,-0.1394027322530746,2.134450912475586,-0.0272529371595686,0.1853850391362835,0.0161010409291687,-0.6673617362976074,0.8298476338386536,-0.4173141717910766,0.3880326092243195,-0.1261290282011032,2.127672135829925,-0.5916089043021202,0.9192116633057594,-0.4634387567639351,0.2891353401167346,0.2859920263290405,-0.0414073467254638,-0.0096559524536132,9.142303577591065,-1.1373326147492333,-0.1459155027838017,-1.256532725829271
1.66,0.3862679004669189,-0.1209469884634018,2.1243839263916016,-0.0226853041409494,0.2108690143079469,0.0148017041047574,-0.6488008499145508,0.8318462371826172,-0.4404616355895996,0.3880326092243195,-0.1261290282011032,2.127672135829925,-0.5916089043021202,0.9192116633057594,-0.4634387567639351,1.4868641489349073,0.928044319152832,0.0999301671981811,-1.1573731899261477,10.501171848366994,-1.1714210335329611,-0.1776316929880022,-1.1839658921827765
1.68,0.3728154599666595,-0.1023300066590309,2.1141960620880127,-0.0169815948954631,0.231293379420702,0.0144328145780251,-0.6229061484336853,0.8341363072395325,-0.4557341337203979,0.3821165201812982,-0.1169369115680456,2.123037748262286,-0.571608904004097,0.9392116636037826,-0.4730831712484359,1.5075055429449966,1.294735074043274,0.1145035028457641,-0.763624906539917,10.277857270763434,-1.2179664593192423,-0.1803130837067994,-1.1464014033607692
1.7,0.3599244952201843,-0.0836940631270408,2.1034493446350098,-0.0108770314686584,0.2491615902472005,0.013252612567536,-0.5927265882492065,0.8381907939910889,-0.4710280895233154,0.3702843420952559,-0.0985526783019304,2.1137689731270077,-0.5316089034080506,0.9792116641998292,-0.4923720002174377,1.703782409705473,1.508978009223938,0.2027243375778198,-0.764697790145874,10.32711966831448,-1.1636141032739002,-0.1703765435504319,-1.0327922005617207
1.72,0.3478514552116394,-0.0651175454258918,2.092463731765747,-0.0069075948929802,0.2640500406141912,0.0121328962794966,-0.561690092086792,0.8372803926467896,-0.4889774322509765,0.3584521640092135,-0.0801684450358152,2.1045001979917286,-0.4916089028120041,1.0192116647958755,-0.5116608291864395,1.7932316003533375,1.5518248081207275,-0.0455200672149658,-0.8974671363830566,10.699693151826978,-1.0901633096457373,-0.1460137772145189,-0.8911930156564025
1.74,0.3421195447444916,-0.0559678673744201,2.0867726802825928,-0.01959208220314,0.2785498937801439,0.0070595285006931,-0.5434698462486267,0.8329373598098755,-0.4990357160568237,0.3486199859529734,-0.0597842117398977,2.094266981408,-0.4516089022159577,1.059211665391922,-0.5309496581554413,1.0630244185161746,0.9110122919082642,-0.2171516418457031,-0.5029141902923584,10.9118986430085,-1.0740035115982,-0.1432316241237372,-0.7874038779543773
1.76,0.3314254283905029,-0.0372891314327716,2.075201749801636,-0.0011467551070614,0.279669271879938,0.0109913977725442,-0.5048762559890747,0.8347224593162537,-0.5135303735733032,0.3387878078967333,-0.0393999784439802,2.0840337648242717,-0.4116089016199111,1.0992116659879685,-0.5502384871244431,2.06321768476444,1.9296795129776,0.0892549753189086,-0.7247328758239746,11.215703802032747,-1.0402173349558657,-0.2090235409514327,-0.7901782648162649
1.78,0.3217564225196838,-0.0187361259013414,2.0636348724365234,8.704564881412853e-05,0.2860565463028174,0.0101283537276507,-0.4581702351570129,0.8377141952514648,-0.5206006765365601,0.3299556298553944,-0.0180157451331615,2.073318327516317,-0.3716089010238647,1.1392116665840148,-0.5695273160934449,2.366638993310587,2.3353010416030884,0.149586796760559,-0.3535151481628418,11.215703802032747,-1.0803090137161862,-0.183697944583325,-0.7451647508858839
1.8,0.3128602504730224,-0.0002922223939094,2.0517022609710693,0.0017446064813994,0.293472836374023,0.0080170823232697,-0.4177165031433105,0.8324304223060608,-0.5287384986877441,0.3221234518289566,0.0043684881925582,2.0621206694841385,-0.3316089004278183,1.1792116671800612,-0.5888161450624466,2.0800521866886754,2.02268660068512,-0.2641886472702026,-0.4068911075592041,11.30379252266357,-0.9958831547158348,-0.1477870461828585,-0.687837271504558
1.82,0.3051607608795166,0.0180650576949119,2.0398223400115967,0.0037872695663164,0.2947961613599044,0.006242998011955,-0.3734023869037628,0.8280265927314758,-0.535781979560852,0.2919744253158569,0.0413292987213935,2.025265336036682,-0.3663967363536358,0.9324304237961768,-0.5148294446989894,2.254298802191035,2.2157058119773865,-0.220191478729248,-0.3521740436553955,11.4438047931435,-1.020250058910572,-0.1616823341671904,-0.7164417779562935
1.84,0.3016251921653747,0.0272722486406564,2.033781051635742,-0.0124650427827803,0.2989793395091887,0.0005364023444249,-0.3508892655372619,0.8286428451538086,-0.5404382944107056,0.2919744253158569,0.0413292987213935,2.025265336036682,-0.3663967363536358,0.9324304237961768,-0.5148294446989894,1.1498931131759538,1.1256560683250427,0.0308126211166381,-0.2328157424926757,11.619565295254688,-0.9692783325999844,-0.1703018927236939,-0.7092657091434846
1.86,0.2955736517906189,0.045460008084774,2.021840810775757,0.0049069358860053,0.2988006987140323,0.0051570381733209,-0.2984842658042907,0.8234216570854187,-0.5375146865844727,0.2919744253158569,0.0413292987213935,2.025265336036682,-0.3663967363536358,0.9324304237961768,-0.5148294446989894,2.637277139674468,2.62024998664856,-0.2610594034194946,0.1461803913116455,11.619565295254688,-0.9757577806744704,-0.1591570891954109,-0.785232704333582
1.88,0.2905764281749725,0.0635610520839691,2.010107040405273,0.0022578143906056,0.3014257089992039,0.0038300679923767,-0.2762024998664856,0.8203719258308411,-0.5360502004623413,0.2883104579523206,0.0506536029593553,2.020117041589692,-0.3561327829957008,0.9524304240942,-0.5120476339012384,1.12685699362674,1.1140882968902588,-0.1524865627288818,0.0732243061065673,11.800102684923331,-1.0238174661060266,-0.1564903397949113,-0.7694139315724171
1.9,0.2866870164871216,0.0816710516810417,1.9983927011489868,-0.002005742668033,0.3039180926400533,0.0026008707244811,-0.1999492943286895,0.8147484660148621,-0.5275824666023254,0.2809825232252478,0.0693022114352788,2.0098204526957124,-0.3356048762798309,0.9924304246902466,-0.5064840123057366,3.846386996850212,3.812660276889801,-0.2811729907989502,0.4233866930007934,11.800102684923331,-1.055805185605791,-0.1735791867903379,-0.8178865682796924
1.92,0.2838917076587677,0.0995581150054931,1.986748456954956,-0.0042277657582359,0.305366655427507,0.0021998602900039,-0.1504062116146087,0.8099339008331299,-0.5255681276321411,0.2736545884981751,0.0879508199112024,1.9995238638017327,-0.315076969563961,1.032430425286293,-0.5009203907102346,2.490860616428689,2.4771541357040405,-0.2407282590866089,0.1007169485092163,12.217885533781557,-1.0104103644274367,-0.1796362844251782,-0.8150307736115818
1.94,0.283081591129303,0.1085935309529304,1.9810264110565183,-0.0063729343230925,0.3040209162385462,0.0016872553266033,-0.1205827295780181,0.810896635055542,-0.5192703008651733,0.2673530491068959,0.1085994284169282,1.989505455987528,-0.2945490628480911,1.0724304258823394,-0.4953567691147327,1.5248193007341722,1.4911741018295288,0.0481367111206054,0.3148913383483886,12.50478415658381,-0.9901243767092088,-0.195567695219372,-0.8397958129330945
1.96,0.2819928526878357,0.1264309585094452,1.9697487354278564,-0.0302050612063198,0.2925181119641655,-0.0035945859055793,-0.0732598453760147,0.8060423731803894,-0.5111458897590637,0.2610515097156167,0.1292480369226541,1.9794870481733235,-0.2740211561322212,1.112430426478386,-0.4897931475192308,2.412998799921929,2.366144210100174,-0.2427130937576294,0.4062205553054809,12.471280384747844,-1.1266230688116496,-0.1755599601205676,-0.8902556363038923
1.98,0.2820926606655121,0.1443454325199127,1.9589725732803345,-0.0140055881871423,0.2917473383704692,0.0004273894638189,-0.0222509354352951,0.8044177889823914,-0.4962113499641418,0.2552631679922342,0.1508966454432811,1.969607730899006,-0.2534932494163513,1.1524304270744323,-0.4842295259237289,2.6587537710565328,2.55044549703598,-0.0812292098999023,0.7467269897460938,12.993359944291116,-1.0896914523598815,-0.2260432054566544,-0.8957951020472087
2.0,0.2831990122795105,0.1620236188173294,1.9487950801849363,-0.016250909469854,0.2739819623150912,-0.0002186837068052,0.0271385908126831,0.8008348345756531,-0.4714572429656982,0.2499880239367485,0.1735452539788093,1.9598675041645768,-0.2329653427004814,1.192430427670479,-0.478665904328227,2.7680899003513635,2.4694763123989105,-0.179147720336914,1.2377053499221802,12.993359944291116,-1.0451902548059495,-0.2292438875761998,-0.8853816959060462
2.02,0.2853989601135254,0.1799975335597992,1.9390169382095337,-0.0180107128269387,0.2519031683922269,-3.483964708072007e-05,0.0743917375802993,0.8021723031997681,-0.4490017890930176,0.2845559418201446,0.202065360546112,1.925222218036652,-0.072861410677433,0.8542917147278786,-0.4547782633453607,2.616723194374247,2.3626573383808136,0.0668734312057495,1.1227726936340332,13.079708230015058,-0.9310124414795564,-0.2302501306745812,-0.8238564740744821
2.04,0.2867603600025177,0.1887464076280594,1.9343607425689695,-0.0195307938333567,0.2413588075296341,-0.0011873198447514,0.0952613353729248,0.8006024956703186,-0.4423794150352478,0.2845559418201446,0.202065360546112,1.925222218036652,-0.072861410677433,0.8542917147278786,-0.4547782633453607,1.097565767809035,1.0434798896312714,-0.0784903764724731,0.3311187028884887,13.079708230015058,-0.9310124414795564,-0.2302501306745812,-0.8238564740744821
2.06,0.2902572154998779,0.2066315561532974,1.9255776405334477,-0.0356874917399815,0.1845683556399914,-0.0017424476176128,0.1367732137441635,0.8033239245414734,-0.4107159376144409,0.2845559418201446,0.202065360546112,1.925222218036652,-0.072861410677433,0.8542917147278786,-0.4547782633453607,2.6140093837758207,2.0755939185619354,0.1360714435577392,1.5831738710403442,12.297981563576286,-0.924422604163026,-0.2502456456215771,-0.9293990845316704
2.08,0.2943257093429565,0.2243306189775467,1.917723536491394,-0.0217975458424665,0.1781334066002445,-0.0001628246313993,0.1702203601598739,0.8006447553634644,-0.3743371367454529,0.2838273277133703,0.2106082776933908,1.920674435403198,-0.0928614109754562,0.8649830907583237,-0.4514424674212932,2.4745235417671068,1.6723573207855225,-0.1339584589004516,1.8189400434494016,12.57037068403497,-0.9014341707882376,-0.2594480964553889,-1.043812821466931
2.1,0.2989757359027862,0.2421254366636276,1.9105420112609863,-0.0145444061187422,0.1365531150258901,0.0029639622823656,0.1961667090654373,0.7986122965812683,-0.3383016586303711,0.2823700994998216,0.2276941119879484,1.9115788701362908,-0.1328614115715027,0.8863658428192138,-0.4447708755731582,2.222554607435492,1.2973174452781675,-0.1016229391098022,1.8017739057540891,12.704991157966106,-0.8509262321489913,-0.2768283343242403,-1.054541848339954
2.12,0.3037614226341247,0.2596637904644012,1.903967022895813,-0.0030191583425435,0.0933759984306385,0.0042119973087017,0.2123035490512848,0.7949963808059692,-0.3095215559005737,0.280912871286273,0.244779946282506,1.902483304869384,-0.1728614121675491,0.907748594880104,-0.4380992837250232,1.659643609905898,0.8068419992923737,-0.1807957887649536,1.4390051364898682,12.156442916551896,-0.7862451722093137,-0.2757773064002861,-1.0909275660999351
2.14,0.3060973882675171,0.2685120105743408,1.900901675224304,0.0062350104116793,0.0379071630388182,0.0070332486734908,0.2137767523527145,0.7962881922721863,-0.2940881252288818,0.277455643042922,0.262934918180108,1.8937213191948832,-0.2128614127635955,0.9291313469409944,-0.4314276918768883,0.7778654882585958,0.0736601650714874,0.064590573310852,0.7716715335845947,11.90871779263898,-0.7121810339739942,-0.2639643670862769,-1.0796052630248465
2.16,0.3108014166355133,0.2860482931137085,1.8956090211868288,0.021368282382191,0.0208802359900947,0.0072279751691238,0.2145452052354812,0.7899031639099121,-0.2615368366241455,0.273998414799571,0.2810898900777102,1.8849593335203827,-0.2528614133596421,0.9505140990018844,-0.4247561000287533,1.6590249371610688,0.0384226441383361,-0.3192514181137085,1.6275644302368164,11.952408552025643,-0.6700170888295642,-0.1993748807628916,-1.110698882835382
2.18,0.3152124881744385,0.3032718896865845,1.890744924545288,0.0396674736796653,-0.0312164766890903,0.0078549838554353,0.2050897479057312,0.7820972800254822,-0.2285268902778625,0.2695411865413189,0.2997794307768345,1.8763641376420856,-0.2928614139556885,0.9718968510627748,-0.4180845081806182,1.7606774650091417,-0.472772866487503,-0.3902941942214966,1.650497317314148,11.607410408592386,-0.6137867398335441,-0.1633744358380166,-1.187630214276794
2.2,0.317167729139328,0.3118314445018768,1.888674259185791,0.0539866117195494,-0.0976544200932895,0.0081264953568782,0.1945218443870544,0.7763835191726685,-0.2170416712760925,0.2640839582681656,0.319003540277481,1.867935731559992,-0.3328614145517349,0.9932796031236648,-0.4114129163324833,0.8310203116979547,-0.5283951759338379,-0.285688042640686,0.574260950088501,11.821684290071971,-0.5715434601183973,-0.1235267724539694,-1.1474310830448315
2.22,0.3216548860073089,0.3367427885532379,1.8827375173568728,0.0683222886892218,-0.1292136938540571,0.0064884502046773,0.1654473692178726,0.7610942125320435,-0.1937735080718994,0.3268938213586807,0.3506506204605102,1.8778221756219864,0.0945218428969383,0.8011949900537729,-0.2553321570158005,2.012768878194536,-1.4537237584590912,-0.76446533203125,1.1634081602096558,10.892410699517768,-0.4111022948572846,-0.0671890874242397,-1.1097964851488398
2.24,0.3226958215236664,0.345029354095459,1.880935549736023,0.0755080088391083,-0.1509117064668891,0.0059300382002434,0.1243820786476135,0.7469529509544373,-0.1741209626197815,0.3268938213586807,0.3506506204605102,1.8778221756219864,0.0945218428969383,0.8011949900537729,-0.2553321570158005,2.383566608768073,-2.0532645285129547,-0.7070630788803101,0.982627272605896,10.892410699517768,-0.4111022948572846,-0.0671890874242397,-1.1097964851488398
2.26,0.3237767219543457,0.3608118891716003,1.8778613805770876,0.0816860614374714,-0.1893065218328355,0.0035116947223029,0.0753982365131378,0.72547447681427,-0.1510432362556457,0.3268938213586807,0.3506506204605102,1.8778221756219864,0.0945218428969383,0.8011949900537729,-0.2553321570158005,2.9126118415363025,-2.4491921067237854,-1.0739237070083618,1.153886318206787,10.461951450680772,-0.3931653932714257,-0.0339477115869417,-1.087277223093526
2.28,0.3235997855663299,0.3762325644493103,1.8746246099472048,0.0897392922672118,-0.218052895850574,0.0022202174458426,0.0203391909599304,0.702072262763977,-0.141996145248413,0.3278390397876501,0.358662570361048,1.8752688540518283,0.0745218425989151,0.8061572842299938,-0.262990254163742,3.025314849473955,-2.75295227766037,-1.1701107025146484,0.4523545503616333,11.04555706562678,-0.267864424439534,-0.0012826065217764,-1.0407634109187005
2.3000000000000003,0.3219402134418487,0.3911234438419342,1.8713998794555664,0.0925237234726764,-0.2366571724249021,0.0009639943623874,-0.0413214415311813,0.6820099949836731,-0.1453837752342224,0.3297294766455889,0.3746864701621235,1.8701622109115124,0.0345218420028686,0.8160818725824356,-0.2783064484596252,3.2465382427338367,-3.083031624555588,-1.0031133890151978,-0.1693814992904663,10.722400074857433,-0.2897509657278841,-0.0060411965070739,-1.0941567106043335
2.32,0.3187327682971954,0.4054619073867798,1.8683115243911743,0.0915009860015004,-0.2418076864333652,0.0011291375461397,-0.1095078885555267,0.6576602458953857,-0.1420444250106811,0.3316199135035276,0.3907103699631989,1.8650555677711964,-0.0054781585931777,0.8260064609348774,-0.2936226427555084,3.624035422833874,-3.40932235121727,-1.2174874544143677,0.166967511177063,10.722400074857433,-0.3213947332103203,-0.0136925268126633,-1.0549370611396578
2.34,0.3166110813617706,0.4126448333263397,1.866506099700928,0.0915702676910955,-0.2401118290641025,0.0015283118672926,-0.141967311501503,0.6490858793258667,-0.147840678691864,0.3315103503316641,0.4072304991818964,1.8591831149160865,-0.0454781591892242,0.8359310492873192,-0.3089388370513916,1.703474725957859,-1.6229711472988129,-0.4287183284759521,-0.289812684059143,9.85239824875498,-0.4095429913257448,-0.0411879592304913,-1.0051981219403865
2.36,0.3112410008907318,0.4262467622756958,1.862871527671814,0.085912686149805,-0.2277994034484817,0.0023591172362103,-0.2088689804077148,0.62615966796875,-0.1601627469062805,0.3314007871598005,0.423750628400594,1.853310662060976,-0.0854781597852707,0.845855637639761,-0.3242550313472748,3.5893167297928423,-3.3450834453105927,-1.146310567855835,-0.6161034107208252,10.168156905281194,-0.4216426154570893,-0.0108382159014219,-1.1326506137777148
2.38,0.3045183420181274,0.4395387470722198,1.8586585521698,0.0815683973521678,-0.20437854139927,0.0051901235240337,-0.2720866203308105,0.6051130294799805,-0.1765698194503784,0.3302912239730358,0.4405188723281026,1.847055304348469,-0.1254781603813171,0.8557802259922027,-0.3395712256431579,3.4309703505679083,-3.160881996154785,-1.0523319244384766,-0.820353627204895,10.590059342851418,-0.4105429161983775,0.0053830510884751,-1.1137963682299217
2.4,0.296728104352951,0.4523551762104034,1.8542965650558472,0.0728917344655705,-0.1750717468673613,0.0083155322950041,-0.2991327047348022,0.5970369577407837,-0.1822775602340698,0.3281816607713699,0.4575352309644222,1.8404170417785648,-0.1654781609773635,0.8657048143446445,-0.3548874199390411,1.439871453618612,-1.352304220199585,-0.4038035869598388,-0.2853870391845703,10.13545755243922,-0.5870773575385361,-0.0339282171053574,-1.072768013716626
2.42,0.2875761389732361,0.4648889899253845,1.849375605583191,0.0677963936737579,-0.1355999773920183,0.0118896136475724,-0.3549333810806274,0.5824450254440308,-0.2041348814964294,0.2817714691162109,0.4822070240974426,1.845182687044144,-0.3102444028481841,0.6164482738822699,-0.2363576404750347,3.08398381220239,-2.79003381729126,-0.7295966148376465,-1.092866063117981,10.0192753298752,-0.5870773575385361,-0.0339282171053574,-1.072768013716626
2.44,0.282795637845993,0.4709397256374359,1.8467415571212769,0.0627362935264524,-0.1127434171770234,0.0137967790102759,-0.4050759077072143,0.5605790019035339,-0.2214673161506652,0.2817714691162109,0.4822070240974426,1.845182687044144,-0.3102444028481841,0.6164482738822699,-0.2363576404750347,2.869150245723852,-2.5071263313293457,-1.0933011770248413,-0.866621732711792,10.0192753298752,-0.7220126036975961,-0.0328705302122754,-1.1934151076104622
2.46,0.2724434435367584,0.4829220473766327,1.8410630226135252,0.0552816780807653,-0.0634197905708651,0.0158573750483395,-0.4478591680526733,0.5435845255851746,-0.2415275573730468,0.2817714691162109,0.4822070240974426,1.845182687044144,-0.3102444028481841,0.6164482738822699,-0.2363576404750347,2.5107931361537625,-2.139163017272949,-0.8497238159179688,-1.0030120611190796,10.706265633084058,-0.8385580312161701,-0.0873377543712511,-1.278068589784968
2.48,0.2615767419338226,0.4945416450500488,1.835517406463623,0.0491909175780762,-0.0149091351069231,0.0169926253591315,-0.4774251580238342,0.5310431718826294,-0.2525433897972107,0.278669025087729,0.4883715068362653,1.8428191106393932,-0.3124667424708605,0.6203305371105671,-0.2471736565232276,1.6976320859246774,-1.4782994985580444,-0.6270676851272583,-0.5507916212081909,10.638645474232815,-0.8582627211362743,-0.0812909289633143,-1.246502774561237
2.5,0.2501794099807739,0.5060582756996155,1.8291646242141724,0.0486911506776416,0.0335162097378773,0.0194302753365878,-0.50094074010849,0.5205651521682739,-0.2677139639854431,0.2724641370307654,0.5007004723139108,1.8380919578298929,-0.3169114217162132,0.6280950635671616,-0.2688056886196136,1.4940865262052836,-1.175779104232788,-0.5239009857177734,-0.7585287094116211,10.653734770721712,-0.9490598769511144,-0.0872031657876722,-1.2671402657354187
2.52,0.2387317270040512,0.5171562433242798,1.823150873184204,0.0487541303693988,0.0714074816383118,0.0206727007339351,-0.5140128135681152,0.5088284611701965,-0.2782469987869262,0.2662592489738017,0.5130294377915562,1.833364805020392,-0.3213561009615659,0.635859590023756,-0.2904377207159996,1.024175085431496,-0.6536036729812622,-0.5868345499038696,-0.5266517400741577,10.638099342193527,-1.0754350852179253,-0.0850934129600319,-1.2600041256587142
2.54,0.2329284399747848,0.5226839780807495,1.8200727701187132,0.0501934986557152,0.087268613245462,0.0212105148195193,-0.5180777311325073,0.5005565285682678,-0.2758276462554931,0.2598321269545703,0.5257466295920313,1.827556050606072,-0.3258007802069187,0.6436241164803504,-0.3120697528123856,0.4764496050148069,-0.2032458782196045,-0.4135966300964355,0.1209676265716552,10.638099342193527,-1.179825618380318,-0.0917221428016379,-1.2112624393517106
2.56,0.221335157752037,0.5335519313812256,1.81360924243927,0.0561623250050641,0.1172193180641693,0.0227727293645622,-0.5203760266304016,0.4924991726875305,-0.2851483225822449,0.2534050049353391,0.5384638213925064,1.821747296191752,-0.3302454594522714,0.651388642936945,-0.3337017849087715,0.6266541174614647,-0.1149147748947143,-0.4028677940368652,-0.4660338163375854,10.242319095145833,-1.1769037146121897,-0.1215523347749962,-1.1137565501244815
2.58,0.2099475115537643,0.5439627170562744,1.8070627450942995,0.058505317718466,0.1452183959656858,0.0223001172738848,-0.5170708894729614,0.4787716269493103,-0.2927255630493164,0.2468667659349739,0.5513751263543963,1.8153977409750224,-0.3346901386976242,0.6591531693935394,-0.3553338170051575,0.8012240896282484,0.1652568578720092,-0.6863772869110107,-0.3788620233535766,10.242319095145833,-1.1703328064433214,-0.0690735497526044,-1.0837912662361449
2.6,0.2044620662927627,0.5491986274719238,1.8037151098251345,0.0607378571455776,0.1577189585603597,0.0231746448406121,-0.5084365010261536,0.4743634164333343,-0.2902257442474365,0.2402174099534749,0.5644805444777012,1.808507384955883,-0.3391348179429769,0.6669176958501339,-0.3769658491015434,0.5005848525618863,0.431719422340393,-0.2204105257987976,0.1249909400939941,10.150732104176768,-1.197139201522714,-0.0746196486113855,-1.0728195713182356
2.62,0.1884630173444748,0.5642099380493164,1.7936248779296875,0.0586425121412034,0.1912590093245269,0.0209929629098531,-0.4834011197090149,0.4555624723434448,-0.3023520112037658,0.179040241241455,0.5729167982935905,1.7892038226127625,-0.4084364995360374,0.4502460677176714,-0.2755834693089127,1.6787585939183252,1.2517690658569336,-0.9400472044944764,-0.6063133478164673,10.04541546949713,-1.1731409170343845,-0.0426522924047337,-1.0011248502269536
2.64,0.1832952052354812,0.5690436959266663,1.789939284324646,0.0578618350631336,0.2024655802193756,0.0215301917206689,-0.4762543737888336,0.4465140402317047,-0.3099560737609863,0.179040241241455,0.5729167982935905,1.7892038226127625,-0.4084364995360374,0.4502460677176714,-0.2755834693089127,0.690600948997537,0.3573372960090637,-0.4524216055870056,-0.3802031278610229,10.04541546949713,-1.139857037453944,-0.0486595828720633,-0.9704845255656508
