t,x,y,z,roll,pitch,yaw,v_x,v_y,v_z,ref_x,ref_y,ref_z,ref_v_x,ref_v_y,ref_v_z,a_com,a_x,a_y,a_z,thrust,wind_x,wind_y,wind_z
0.0,-0.3192368149757385,0.5404055714607239,2.701432228088379,-0.0153467466777348,0.1125207550339117,-0.0014186739603974,0.0659729540348053,0.020374059677124,-0.0730419158935546,-0.3,0.54,2.71,0.0,0.0,0.0,5.025598086100464,3.298647701740265,1.0187029838562012,-3.6520957946777344,11.378964053678828,-0.7472085960184804,0.1051165613021573,-1.0020104188401353
0.02,-0.3192368149757385,0.5404055714607239,2.701432228088379,-0.0228382561033767,0.1174250886391052,0.0019223083570836,0.0659729540348053,0.020374059677124,-0.0730419158935546,-0.300122,0.5400320000000001,2.71004,-0.0122,0.0032,0.004,0.0,0.0,0.0,0.0,11.378964053678828,-0.7472085960184804,0.1051165613021573,-1.0020104188401353
0.04,-0.3192368149757385,0.5404055714607239,2.701432228088379,-0.0206721674584644,0.1140968243700572,0.0021839518127281,0.0659729540348053,0.020374059677124,-0.0730419158935546,-0.3004235454953088,0.5400581151823121,2.7098770448302982,-0.0179545495308841,-0.000588481768797,-0.0202955169701774,0.0,0.0,0.0,0.0,11.378964053678828,-0.7472085960184804,0.1051165613021573,-1.0020104188401353
0.06,-0.3192368149757385,0.5404055714607239,2.701432228088379,-0.015841652738785,0.1108843107387553,0.0031083990583499,0.0659729540348053,0.020374059677124,-0.0730419158935546,-0.3007297439315751,0.539880863319874,2.7098711340475683,-0.0126652940957453,-0.0171367044750018,0.0197044386971731,0.0,0.0,0.0,0.0,11.630006403019252,-0.7472085960184804,0.1051165613021573,-1.0020104188401353
0.08,-0.3192368149757385,0.5404055714607239,2.701432228088379,-0.01068058849753,0.1062672442672949,0.0034119164263652,0.0659729540348053,0.020374059677124,-0.0730419158935546,-0.3008474039996581,0.539267085751078,2.7106652225944097,0.0008992872874488,-0.0442410524046107,0.0597044159869901,0.0,0.0,0.0,0.0,11.630006403019252,-0.7472085960184804,0.1051165613021573,-1.0020104188401353
0.1,-0.3192368149757385,0.5404055714607239,2.701432228088379,-0.0031443638636476,0.0985893931757591,0.0045337685046326,0.0659729540348053,0.020374059677124,-0.0730419158935546,-0.3006136798738832,0.5380003200398515,2.7122593107588275,0.022473125290042,-0.0824355187180049,0.0997044004547756,0.0,0.0,0.0,0.0,11.630006403019252,-0.7472085960184804,0.1051165613021573,-1.0020104188401353
0.12,-0.3192368149757385,0.5404055714607239,2.701432228088379,-0.0004768016569327,0.0940660125767229,0.0042709193428244,0.0659729540348053,0.020374059677124,-0.0730419158935546,-0.2999481673683464,0.5359516096897732,2.714220886634384,0.044078125263636,-0.1224355162898357,0.0964531871009045,0.0,0.0,0.0,0.0,11.630006403019252,-0.7472085960184804,0.1051165613021573,-1.0020104188401353
0.14,-0.3067356646060943,0.544786274433136,2.6946732997894287,0.0116967320705989,0.08040840424108,0.0022568108192963,0.1090210676193237,0.036877691745758,-0.0253200531005859,-0.298925591654628,0.5331028993887943,2.71583133995723,0.0581794461082088,-0.1624355138080663,0.0645921451836423,3.3177123681361307,2.1524056792259216,0.8251816034317017,2.386093139648437,11.630006403019252,-0.7472085960184804,0.1051165613021573,-1.0020104188401353
0.16,-0.3044405579566955,0.5455542802810669,2.694404363632202,0.0161199393000831,0.0732853305855359,0.0015576985664347,0.1032797992229461,0.0345602631568908,-0.0121021270751953,-0.2976518778771535,0.5294541891374274,2.716723186071844,0.0691919316392398,-0.2024355113286201,0.0245924662778084,0.729805122064174,-0.2870634198188782,-0.1158714294433593,0.6608963012695312,11.83388437630947,-0.7195090204316196,0.1238551531429433,-1.0104064108324866
0.18,-0.3044405579566955,0.5455542802810669,2.694404363632202,0.0098696078084472,0.0742302286277305,0.0059829535959092,0.1032797992229461,0.0345602631568908,-0.0121021270751953,-0.296161281060968,0.5250054789367105,2.716815038877258,0.079867749979309,-0.2424355087430711,-0.0154071857364608,0.0,0.0,0.0,0.0,11.613492514630709,-0.7637251132430493,0.1204582178116574,-0.9904353444991668
0.2,-0.2993145883083343,0.5469388961791992,2.694558620452881,0.0231046040040955,0.0596934674963105,0.0024729681302638,0.1146724820137023,0.0301051139831542,0.0028431415557861,-0.2944605311671099,0.5197567687888467,2.716106898962755,0.0902072394065072,-0.2824355060433042,-0.0554068057138321,0.9656637999107618,0.5696341395378113,-0.2227574586868286,0.7472634315490723,10.942010572854542,-0.7637251132430493,0.1204582178116574,-0.9904353444991668
0.22,-0.2982329130172729,0.5471999645233154,2.694613218307495,0.0217170694816515,0.0648336862998561,0.0058308130968789,0.1089674234390258,0.0281900167465209,0.0070703029632568,-0.2925563517739862,0.5137080586962113,2.7145987670367653,0.100210699905859,-0.3224355032202371,-0.0954063868851099,0.3677097507921846,-0.2852529287338257,-0.095754861831665,0.2113580703735351,10.00741687404161,-0.7939830746149131,0.1153044223306968,-1.103385751647363
0.24,-0.2982329130172729,0.5471999645233154,2.694613218307495,0.0341386197962756,0.0652268404744483,0.0042318250778032,0.1089674234390258,0.0281900167465209,0.0070703029632568,-0.2904554605055543,0.5068593486613724,2.7122906439670533,0.1098784269373385,-0.3624355002636596,-0.135405920086097,0.0,0.0,0.0,0.0,10.00741687404161,-0.7939830746149131,0.1153044223306968,-1.103385751647363
0.26,-0.2982329130172729,0.5471999645233154,2.694613218307495,0.0478739274812881,0.065104439039647,0.0037697179622968,0.1089674234390258,0.0281900167465209,0.0070703029632568,-0.2881645691201492,0.4992106386871155,2.709182530841425,0.1192107116031682,-0.4024354971620384,-0.175405392476687,0.0,0.0,0.0,0.0,10.00741687404161,-0.7939830746149131,0.1153044223306968,-1.103385751647363
0.28,-0.2982329130172729,0.5471999645233154,2.694613218307495,0.0681153695553292,0.0666371384017874,0.0013685951617566,0.1089674234390258,0.0281900167465209,0.0070703029632568,-0.2856903835948307,0.4907619287764724,2.705274429063943,0.1282078409286838,-0.4424354939022784,-0.2154047852715271,0.0,0.0,0.0,0.0,8.971933288411037,-0.7939830746149131,0.1153044223306968,-1.103385751647363
0.3,-0.2982329130172729,0.5471999645233154,2.694613218307495,0.0897085228183295,0.0694729972904548,-0.0007216135529578,0.1089674234390258,0.0281900167465209,0.0070703029632568,-0.2830396042017167,0.4815132189327553,2.7005663405172275,0.1368700983827162,-0.4824354904694274,-0.2554040694000234,0.0,0.0,0.0,0.0,8.971933288411037,-0.7939830746149131,0.1153044223306968,-1.103385751647363
0.32,-0.2982329130172729,0.5471999645233154,2.694613218307495,0.1106583579494362,0.0750787248686029,-0.0029142343932376,0.1089674234390258,0.0281900167465209,0.0070703029632568,-0.280218925568306,0.4714645091595979,2.695058267860001,0.1451977649583548,-0.5224354868463076,-0.2954031963227014,0.0,0.0,0.0,0.0,8.971933288411037,-0.7939830746149131,0.1153044223306968,-1.103385751647363
0.34,-0.2860393226146698,0.5470499396324158,2.6952311992645264,0.1351756038727486,0.070105442215079,-0.0081238839113536,0.0909523665904998,-0.0362098217010498,-0.0167584419250488,-0.2772350367009205,0.4606157994610045,2.688750215140225,0.1531911217802006,-0.5624354830130505,-0.3354020756548455,3.549538895504878,-0.9007528424263,-3.21999192237854,-1.1914372444152832,8.971933288411037,-0.7939830746149131,0.1153044223306968,-1.103385751647363
0.36,-0.283901572227478,0.545717716217041,2.694162130355835,0.1583303297815398,0.0770997206813653,-0.0107171363960174,0.0961987674236297,-0.059950053691864,-0.0481081008911132,-0.2740946209038274,0.4489670898414089,2.6816421893066704,0.1608504579291038,-0.602435478946506,-0.3754005077006123,1.9836358372746303,0.2623200416564941,-1.1870115995407104,-1.5674829483032229,8.717121311608025,-0.8059752503304949,0.1975107646758038,-1.0201952844620688
0.38,-0.2817858755588531,0.5438389182090759,2.6925809383392334,0.1769606339865758,0.0857507291579507,-0.0140306214849872,0.0952063500881195,-0.0845459103584289,-0.0711536407470703,-0.2708043552786148,0.4365183803057491,2.673734205344805,0.1681761045921511,-0.6424354746194808,-0.4153978884859149,1.685999677181562,-0.0496208667755126,-1.229792833328247,-1.1522769927978516,8.882231395125928,-0.7710753030768632,0.2669690009807392,-0.9897055275311192
0.4,-0.2796381115913391,0.5413029193878174,2.690434455871582,0.1927816429216089,0.0954155684936441,-0.0157726268886992,0.0966493785381317,-0.1141199469566345,-0.0965917110443115,-0.2673709060416973,0.4232696708595562,2.665026327551351,0.1751688190996105,-0.6824354699997914,-0.4553898908595146,1.9517949381703323,0.0721514225006103,-1.4787018299102783,-1.2719035148620603,8.748662431380126,-0.7789851428698396,0.2964545949377773,-0.9617205929742322
0.42,-0.2773724198341369,0.5379946827888489,2.687418937683105,0.2063086197610885,0.104886434181662,-0.0185743972156251,0.1019561290740966,-0.1488706469535827,-0.1356983184814453,-0.2638000535408119,0.4092209615089344,2.655526301434852,0.1819164309889297,-0.7224354650623908,-0.4946127207903446,2.629210668989341,0.2653375267982483,-1.737534999847412,-1.9553303718566892,8.85814753345403,-0.7914669812157746,0.2849200307735574,-0.9343166251650582
0.44,-0.2762397825717926,0.5359963774681091,2.685661554336548,0.212234890945394,0.1108567440658965,-0.0198752221288366,0.1035493612289428,-0.170961320400238,-0.1492702960968017,-0.2600958973370069,0.3943722522605222,2.6452568796844087,0.1884991893915606,-0.7624354597788193,-0.5323294542539863,1.298782909513492,0.0796616077423095,-1.1045336723327637,-0.6785988807678223,8.93473599061599,-0.7750964648016062,0.2645562759889517,-0.929098174382638
0.46,-0.2738303542137146,0.5316122770309448,2.6814870834350586,0.2244847525851393,0.1210733545478996,-0.0228881461845727,0.1084242761135101,-0.1972845196723938,-0.1878511905670166,-0.2562617310820657,0.3787235431217168,2.6342487328754807,0.1949174361025631,-0.8024354541017159,-0.568485226638825,2.347957108411082,0.243745744228363,-1.316159963607788,-1.9290447235107424,9.069857498287092,-0.7840867243221524,0.3218259409748052,-0.7423845255664958
0.48,-0.2710632979869842,0.5263617038726807,2.676482915878296,0.2323677816956907,0.1319258873359988,-0.0242252847668189,0.1245175302028656,-0.2362757921218872,-0.2251875400543213,-0.2523008453275662,0.3622748341009674,2.622533624732989,0.2011711393473825,-0.8424354479732197,-0.6030255876103574,2.81660928576069,0.8046627044677734,-1.9495636224746704,-1.8668174743652344,8.930643341752784,-0.778244827033214,0.3713828140881461,-0.7203365205071874
0.5,-0.2682686746120453,0.5203077793121338,2.6707394123077397,0.2423780131830211,0.1425026868226381,-0.0243565265752686,0.1257580518722534,-0.2724266052246094,-0.2584576606750488,-0.2482165316825746,0.3450261252080182,2.61014443458589,0.2072602251517758,-0.8824354413217093,-0.6358934270995511,2.4572958247420726,0.0620260834693908,-1.8075406551361084,-1.663506031036377,9.039114354287449,-0.713364872735097,0.3408529187980153,-0.6794510677659503
0.52,-0.2650988698005676,0.5132898688316345,2.664036512374878,0.2514226535067447,0.1543835509913021,-0.0268692961799609,0.1426412165164947,-0.315805971622467,-0.3016304969787597,-0.2440120833252627,0.3269774164542303,2.597115215756155,0.2131846105794117,-0.9224354340570746,-0.6670284558739473,3.1743914660888803,0.8441582322120667,-2.1689683198928837,-2.158641815185547,9.2211292293905,-0.7741032018440428,0.331003036020746,-0.6795786926206876
0.54,-0.2632872760295868,0.5094035267829895,2.660367965698242,0.24603168307583,0.1758003846661071,-0.027248856163912,0.1527316868305206,-0.3389185667037964,-0.3154599666595459,-0.239690795089166,0.3081287078530219,2.583481262509532,0.2189442130302669,-0.9624354260637588,-0.6963668687883705,1.4381097612869382,0.504523515701294,-1.1556297540664673,-0.6914734840393066,9.488900207159986,-0.7255842655429203,0.309659147046655,-0.6763564434271547
0.56,-0.2599183917045593,0.5010916590690613,2.6523184776306152,0.2666860368333513,0.1729032615161605,-0.0264330570742348,0.1515997946262359,-0.37403404712677,-0.3622269630432129,-0.235255963409674,0.2884799994204823,2.569279183615431,0.2245389549189354,-1.002435417190186,-0.7238410206217113,2.9246923325575147,-0.0565946102142334,-1.7557740211486816,-2.3383498191833496,9.726033097010712,-0.6950229906318011,0.2655600719993635,-0.6194711585371394
0.58,-0.2558107078075409,0.4914909601211548,2.643784046173096,0.2714930409713255,0.1806956926562922,-0.0278804593543118,0.1848457753658294,-0.4320314526557922,-0.3840494155883789,-0.2307108861881558,0.2680312911762599,2.554546982603385,0.2299687672328851,-1.042435407232059,-0.7493790805828946,3.5161106774820463,1.6622990369796753,-2.899870276451111,-1.0911226272583008,9.607396366564444,-0.7972846375886357,0.3793573137103372,-0.5912361527936547
0.6,-0.2514445185661316,0.4810527861118316,2.6346302032470703,0.2778450411173341,0.1898068557052008,-0.0274236525899926,0.1964785158634185,-0.4697178304195404,-0.4119229316711426,-0.2260588625864197,0.2467825831448921,2.539324145269264,0.2352335929407151,-1.082435395904711,-0.7729046528291919,2.414806731009889,0.5816370248794556,-1.8843188881874084,-1.3936758041381836,10.143214466893369,-0.6739710910301309,0.280832134106524,-0.4831779436467237
0.62,-0.2465732395648956,0.4694384932518005,2.624760389328003,0.2806330620356709,0.1984369219841815,-0.0290543690329547,0.2192075550556183,-0.5226432085037231,-0.4441416263580322,-0.2213031927508131,0.224733875357899,2.523651735192827,0.2403333906199454,-1.1224353827945928,-0.7943363548144887,3.299904981693129,1.1364519596099854,-2.646268904209137,-1.6109347343444824,10.3111615260118,-0.7237126614815909,0.3275781213345585,-0.4783045668682967
0.64,-0.2438853979110717,0.4632972180843353,2.6196630001068115,0.2823459514227791,0.2011703540177757,-0.0292555890037637,0.2363669872283935,-0.5457531213760376,-0.4540979862213135,-0.2164471774596568,0.2018851678572765,2.50757249818494,0.2452681384956882,-1.1624353672676546,-0.8135873459742368,1.5228618512402874,0.8579716086387634,-1.1554956436157229,-0.4978179931640625,10.265351521987212,-0.709955815694712,0.2883942630974402,-0.5215139399667262
0.66,-0.2382878959178924,0.4500056207180023,2.6091432571411133,0.2836145277550426,0.2088576904833279,-0.0300436860049308,0.2518875896930694,-0.5981218814849854,-0.4733884334564209,-0.2114941176845277,0.1782364607018127,2.4911309767371463,0.2500378390172162,-1.2024353482787271,-0.830564798805101,2.8963328066476945,0.7760301232337952,-2.618438005447388,-0.9645223617553712,10.603171776960153,-0.7356042483166145,0.4546507528650763,-0.4266800688677475
0.68,-0.232095256447792,0.4355001449584961,2.5980658531188965,0.2857398145281014,0.2143765553720352,-0.0307037976904004,0.2786687612533569,-0.6527464389801025,-0.4984831809997558,-0.2064473140538494,0.1537877539798442,2.47437363571234,0.2546425240506177,-1.2424353239181236,-0.8451693036755449,3.290448216407086,1.3390585780143738,-2.73122787475586,-1.254737377166748,10.804253719489225,-0.773331983227272,0.4128637468448027,-0.3897284533428075
0.7000000000000001,-0.225450187921524,0.4197839498519897,2.58672833442688,0.2887073261140646,0.2178741126955934,-0.0299546028969766,0.2990280985832214,-0.7072287797927856,-0.5101883411407471,-0.2013100662072106,0.1285390478397099,2.4573490006859693,0.2590822606132549,-1.2824352900953009,-0.8572941989614928,2.966411489858925,1.017966866493225,-2.7241170406341557,-0.5852580070495605,10.880073216019357,-0.759032570676774,0.385380394888557,-0.4623786048158684
0.72,-0.2181479632854461,0.4028699100017547,2.575400114059448,0.2905183801321658,0.2190232684804833,-0.0313609053608636,0.3286001086235046,-0.761131763458252,-0.5097699165344238,-0.1960856720397723,0.1024903425869837,2.440107810424313,0.2633571561305797,-1.3224352351773283,-0.8668248272041079,3.074170825203649,1.4786005020141602,-2.6951491832733154,0.0209212303161621,10.98451901376484,-0.7907336451072595,0.3733149630910425,-0.4485373840176236
0.74,-0.2141598761081695,0.3939995169639587,2.5698561668396,0.2902107084449159,0.2168881076127522,-0.0309817974038809,0.3443641066551208,-0.7923446893692017,-0.5122160911560059,-0.1907774268245525,0.0756416393164618,2.4227031853911742,0.2674673653913987,-1.3624350918748602,-0.8736376761098048,1.7526652191323555,0.7881999015808105,-1.5606462955474854,-0.1223087310791015,11.115453866823827,-0.7645596088965041,0.3644673321149718,-0.3704363794108707
0.76,-0.2058710157871246,0.3752056658267975,2.5580670833587646,0.2929058552375113,0.2178798232202356,-0.0318813419953386,0.3729987144470215,-0.8457232713699341,-0.5305087566375732,-0.1854198591466365,0.0480935667039452,2.4048304426827705,0.2682894024002004,-1.392372169376798,-0.9136365947305736,3.163793368025723,1.4317303895950315,-2.668929100036621,-0.9146332740783693,11.047325406596428,-0.8298614029906616,0.5089276407337273,-0.3518635338114722
0.78,-0.1970287710428238,0.355064183473587,2.546365976333618,0.2910442711047148,0.2121842912245907,-0.0326637106494477,0.3979009985923767,-0.9063667058944702,-0.5265498161315918,-0.1800499395367321,0.0199994237293876,2.3861577140024623,0.268702558590241,-1.417042128078961,-0.9536362733002433,3.283832789789095,1.2451142072677612,-3.032171726226806,0.1979470252990722,10.982678201070485,-0.814635494155344,0.5090730287112335,-0.4573964930672797
0.8,-0.1877024471759796,0.3337718546390533,2.5343592166900635,0.2908662589477611,0.2108920929125185,-0.0330775811643729,0.4196845889091491,-0.958154797554016,-0.5403041839599609,-0.1746756511484728,-0.008536415712851,2.366684990587531,0.2687262802356872,-1.4365418161449024,-0.9936360681928872,2.892107310934618,1.089179515838623,-2.589404582977295,-0.687718391418457,11.237854900621642,-0.8189115184137193,0.4655814843912711,-0.4265341290629282
0.8200000000000001,-0.177747294306755,0.3111362159252167,2.522519588470459,0.2917344388375041,0.2061216601840071,-0.0327268291520147,0.4479818940162658,-1.018603801727295,-0.5327832698822021,-0.169304607473326,-0.037411321636357,2.346412270830529,0.2683780872789926,-1.4509487762056856,-1.0336359075072832,3.358341752424611,1.414865255355835,-3.0224502086639404,0.3760457038879394,11.02415770673997,-0.8450387017975771,0.4822355375102581,-0.5298173088927128
0.84,-0.172511488199234,0.2994097769260406,2.5163819789886475,0.2911565253994456,0.2026766823773929,-0.0325100291594202,0.4629130661487579,-1.044544696807861,-0.5339956283569336,-0.1639440880647888,-0.0665240334305252,2.325339554077246,0.2676738535747372,-1.4603224032111466,-1.0736357678210944,1.4977814859837826,0.7465586066246033,-1.2970447540283203,-0.0606179237365722,11.02415770673997,-0.8169191117319247,0.457926634307548,-0.4716155656160773
0.86,-0.1618675738573074,0.2750169634819031,2.5042519569396973,0.2913365690652737,0.1967868842182131,-0.0319691582497816,0.4789761304855346,-1.0976766347885132,-0.5458509922027588,-0.1586010694930893,-0.095774307018669,2.3034668400219767,0.2666280035952106,-1.4647049556032383,-1.1136356377058128,2.8379457893801296,0.8031532168388367,-2.6565968990325928,-0.5927681922912598,10.534140917970944,-0.7850698050236733,0.4820428704734543,-0.5032060929065931
0.88,-0.1506919115781784,0.2493664324283599,2.492321014404297,0.2915120554716544,0.1878423181286687,-0.032994221112714,0.5029047727584839,-1.1542738676071167,-0.5368924140930176,-0.1532822526842828,-0.1250625791393249,2.2807941285490214,0.2652536772854361,-1.4641222564623455,-1.153635509589714,3.1048682763920588,1.196432113647461,-2.829861640930176,0.4479289054870605,10.54680114565872,-0.8636842484733354,0.5957330605561977,-0.5603415712694982
0.9,-0.1389738470315933,0.2224604934453964,2.480072021484375,0.2892769679010511,0.1787500873648064,-0.0320415332007961,0.5273128747940063,-1.2107672691345217,-0.5512046813964844,-0.1479940872082503,-0.1542896428712835,2.2573214196869995,0.2635628703178153,-1.4585841167335225,-1.1936353766124743,3.159153706484912,1.220405101776123,-2.8246700763702397,-0.7156133651733398,10.166009708443198,-0.843739107699933,0.5806151422530433,-0.5293080758222511
0.92,-0.1269067376852035,0.1945537626743316,2.4679415225982666,0.2861631465252171,0.1649503438072213,-0.0323037060449821,0.5430198907852173,-1.255802869796753,-0.5458724498748779,-0.1427427929623328,-0.1833563290127685,2.233048713618885,0.2615665542739393,-1.4480844974149651,-1.233635230198993,2.399660586080952,0.7853507995605469,-2.2517800331115723,0.2666115760803222,9.946566920735222,-0.8153613689026219,0.5652167555822569,-0.6576700505559108
0.94,-0.1207697913050651,0.1800582408905029,2.461555004119873,0.2861990857269545,0.159170533364724,-0.0318389020877539,0.545927107334137,-1.2830883264541626,-0.5623519420623779,-0.1375343796167687,-0.2121631881552951,2.207976010758684,0.2592747802824635,-1.4326014168376835,-1.2736350558210618,1.6004075385847565,0.1453608274459839,-1.3642728328704834,-0.823974609375,9.83496044449612,-0.8191846277892463,0.6059560513860447,-0.6239108084320084
0.96,-0.1084085926413536,0.1505198925733566,2.4488892555236816,0.2834165653164991,0.1429666240067214,-0.0321053496267901,0.5562539100646973,-1.3292256593704224,-0.5699586868286133,-0.1323746641211639,-0.2406101683091662,2.1821033120047377,0.2566967692780192,-1.4120965985494462,-1.3136348195735938,2.3943469408172366,0.5163401365280151,-2.3068666458129883,-0.3803372383117676,9.589280583229538,-0.868583205600977,0.5721568773136727,-0.7680998224097021
0.98,-0.0957083031535148,0.1199619993567466,2.4359865188598637,0.2817982215746604,0.1266067302057023,-0.0324188313847142,0.5715130567550659,-1.3751051425933838,-0.5806231498718262,-0.1272692864836355,-0.268596282667246,2.1554306199194597,0.2538409944748214,-1.3865148372585292,-1.3536343889542315,2.47563088450411,0.7629573345184326,-2.2939741611480717,-0.5332231521606445,9.400329682480788,-0.8820914298599651,0.6798465760289777,-0.7216016890900548
1.0,-0.0829453840851783,0.0880534276366233,2.4225382804870605,0.2765218100906189,0.1073665648235981,-0.0327428464143692,0.5743313431739807,-1.435885667800903,-0.605170726776123,-0.1221946481230609,-0.2959310588364501,2.1284456291999843,0.2536228415826378,-1.3469627796618808,-1.3448646829932691,3.280548168642447,0.1409143209457397,-3.039026260375977,-1.2273788452148438,9.219363622062248,-0.8222903859682993,0.6651789705328525,-0.6895672430559019
1.02,-0.0703038871288299,0.0555418655276298,2.408763885498047,0.2759221271177668,0.0886105326888386,-0.0323851590522301,0.5688673853874207,-1.4630203247070312,-0.6198477745056152,-0.1171241339873917,-0.3224703151391715,2.1017154742196333,0.2534285719842859,-1.3069628506102644,-1.32815081504183,1.566493033945873,-0.2731978893280029,-1.3567328453063965,-0.7338523864746094,9.134951601664852,-0.8206759392648123,0.5478399323663984,-0.7239758598295933
1.04,-0.0639706850051879,0.0386507995426654,2.401695489883423,0.2653775138610338,0.0829014404713477,-0.0307110548966474,0.5673311352729797,-1.4939758777618408,-0.6365525722503662,-0.1120587016352918,-0.3482095725034259,2.0753791191306123,0.2531146632257047,-1.266962885815169,-1.3054846938602542,1.7604378695627738,-0.0768125057220459,-1.5477776527404783,-0.8352398872375488,8.87260078791769,-0.846470672158175,0.6432609214211887,-0.684907494847918
1.06,-0.0512764118611812,0.0047476286999881,2.387035131454468,0.2790851966585564,0.0569508421654396,-0.0320094192693434,0.5712422728538513,-1.5256426334381104,-0.6597161293029785,-0.1070006951695593,-0.3731488304525961,2.04956116795839,0.2526859833475357,-1.226962909101859,-1.27631042336197,1.9714403285204196,0.1955568790435791,-1.5833377838134766,-1.1581778526306152,8.780854793982144,-0.8460709604392661,0.5015211703831443,-0.7302339884371397
1.08,-0.0388790145516395,-0.0300494786351919,2.371701955795288,0.2808309273562518,0.0339734627546589,-0.0322663280848688,0.5578829050064087,-1.5658698081970217,-0.6899929046630859,-0.1019523510956252,-0.3972880888078883,2.024398228448141,0.2521484240458796,-1.1869629264273625,-1.2399835276629143,2.604506394968953,-0.6679683923721313,-2.0113587379455566,-1.513838768005371,8.752511084367143,-0.781461506093618,0.6272628158617659,-0.6439633246347843
1.1,-0.0266602654010057,-0.0658417642116546,2.356006145477295,0.2783349999180349,0.0089334266288073,-0.034782035836293,0.5498437285423279,-1.6106528043746948,-0.7063114643096924,-0.0969177986021949,-0.4206273474760141,1.9999984968118671,0.2513068252971456,-1.1469629403852182,-1.1999896359644622,2.4168370310231864,-0.4019588232040405,-2.239149808883667,-0.8159279823303223,9.050382918535432,-0.7947170649708581,0.6186079660601004,-0.6327930525950901
1.12,-0.0148051315918564,-0.1024429500102996,2.3396663665771484,0.2675651728102608,-0.0148135846480546,-0.0364376531671062,0.5334810018539429,-1.647053360939026,-0.7352900505065918,-0.0919049396360648,-0.4431666064017371,1.976398683118853,0.2499790713158703,-1.1069629521870736,-1.159991733336966,2.466017944400943,-0.8181363344192505,-1.8200278282165527,-1.4489293098449707,9.307091589634638,-0.7479674364053804,0.5741280557982272,-0.5367258639858741
1.14,-0.0092427683994174,-0.1208825036883354,2.331281900405884,0.2472705799449292,-0.0157342108422698,-0.0356073883635181,0.5149533152580261,-1.655529499053955,-0.7446670532226562,-0.086923497459485,-0.4649058655475673,1.9535988358204588,0.2481651463421041,-1.06696296239595,-1.1199929965024606,1.1214368772661134,-0.9263843297958374,-0.4238069057464599,-0.4688501358032226,9.48450566268366,-0.7331368025419065,0.5670381795407722,-0.4994547188130394
1.16,0.0017866529524326,-0.1587328761816024,2.3141560554504395,0.2375804229783444,-0.0471037135486117,-0.0434053358908003,0.4963239729404449,-1.703266739845276,-0.7706630229949951,-0.0819831941491152,-0.485845125892287,1.9315989658070376,0.2458651601083653,-1.0269629693797393,-1.0799938968402505,2.873015401089298,-0.9314671158790588,-2.38686203956604,-1.2997984886169434,9.679128806074004,-0.8403465490410902,0.6573224026404777,-0.3943670873355619
1.18,0.0120576750487089,-0.1970793306827545,2.2967734336853027,0.2063656266902201,-0.0710906138708601,-0.0464441766319827,0.4621959924697876,-1.725590467453003,-0.7822179794311523,-0.0770937502301535,-0.5059843853600051,1.910399080860005,0.2430792317878109,-0.9869629773920744,-1.0399945978630118,2.119307011472769,-1.7063990235328674,-1.1161863803863523,-0.5777478218078613,9.586035970707144,-0.7552595145338018,0.6295140264324735,-0.2955835008177935
1.2,0.0216095633804798,-0.2359141856431961,2.279083490371704,0.1664760283305724,-0.0921052808937214,-0.0510108655506062,0.4298349618911743,-1.7475684881210327,-0.7960474491119385,-0.072264883130761,-0.525323644980078,1.889999183176757,0.2398074781514363,-0.946962984615212,-0.999995170461804,2.074562558857934,-1.618051528930664,-1.0989010334014893,-0.6914734840393066,9.9694183445381,-0.7850657992984617,0.6374611165741711,-0.2154063937407578
1.22,0.0303052682429552,-0.2751416563987732,2.261446714401245,0.1216469029375088,-0.1157279057224995,-0.0555882117117768,0.3913067281246185,-1.7652361392974854,-0.7936549186706543,-0.0675063082345588,-0.5438629047380753,1.870399274932027,0.2360500114687874,-0.906962991184516,-0.9599956540112122,2.1226721939430786,-1.9264116883277893,-0.8833825588226318,0.1196265220642089,9.516535559382646,-0.7745946212388796,0.6075605512434116,-0.1921969490305883
1.24,0.0344524644315242,-0.2948697507381439,2.2525925636291504,0.0733045527635326,-0.1245951750594111,-0.0476073012525427,0.375739187002182,-1.766895771026611,-0.7987189292907715,-0.0628277389640055,-0.5616021637749903,1.851599358570043,0.2318069387672265,-0.8669629992032738,-0.9199960741867916,0.8227194504138904,-0.7783770561218262,-0.0829815864562988,-0.2532005310058594,9.169099097775415,-0.7772098593552494,0.5563811863544644,-0.1046213635009341
1.26,0.0415567383170127,-0.334120512008667,2.2342400550842285,0.0490321657395243,-0.1458399769030342,-0.0568891735395434,0.319692313671112,-1.7662842273712158,-0.8258628845214844,-0.0582388859707545,-0.578541423814544,1.8335994334048569,0.2270783605578727,-0.8269630047520914,-0.8799964423318118,3.1138482226171527,-2.8023436665534973,0.0305771827697753,-1.3571977615356443,9.22017942946104,-0.7178669245809339,0.5466531521458537,-0.1268471765174862
1.28,0.0477736592292785,-0.3731457889080047,2.215463399887085,0.0028996899347808,-0.1667821311696994,-0.0585795100567231,0.2797614336013794,-1.756137490272522,-0.84494948387146,-0.0537494586450052,-0.5946806839610157,1.8163995012719731,0.2218643720170595,-0.7869630098950783,-0.8399967709565392,2.270313707199884,-1.9965440034866333,0.5073368549346924,-0.9543299674987792,8.219139525623632,-0.6857421084615843,0.5279596302141533,-0.185661563667098
1.3,0.0529563687741756,-0.4118163287639618,2.1964640617370605,-0.0449829334332077,-0.1860697796071679,-0.0570887626542355,0.2332219332456588,-1.7401742935180664,-0.8549702167510986,-0.0493691643045359,-0.610019944206807,1.799999562886656,0.2161650620298731,-0.7469630146840633,-0.7999970675751957,2.510559614621132,-2.326975017786026,0.7981598377227783,-0.5010366439819336,8.593615042854708,-0.6455618126405378,0.5172510030695343,-0.2822502320346976
1.32,0.0568153634667396,-0.4497995674610138,2.1768455505371094,-0.0921314170524148,-0.2038542718194715,-0.0566475700507394,0.1736547648906707,-1.709245681762695,-0.8828330039978027,-0.0451077085506648,-0.6245592045452631,1.7843996188334454,0.2099805133572333,-0.7069630191615428,-0.759997337745855,3.633580012914629,-2.978358417749405,1.546430587768555,-1.393139362335205,8.011767085695737,-0.6399993806931933,0.4848551968416508,-0.2579491245667414
1.34,0.0583252198994159,-0.4684891700744629,2.16674542427063,-0.1167625085561888,-0.2146680240006875,-0.0553913172930599,0.1484123170375824,-1.694594144821167,-0.907917022705078,-0.0409747953909856,-0.6382984649705065,1.7695996695990348,0.2033108026106841,-0.6669630233627939,-0.7199975856951994,1.924224975718664,-1.262122392654419,0.732576847076416,-1.2542009353637695,8.073072221915936,-0.7108009315531405,0.4948066294998531,-0.3054452716849345
1.36,0.0607551410794258,-0.5051384568214417,2.145998239517212,-0.1630064305441226,-0.2301177889351961,-0.0516734982915837,0.1093464493751525,-1.6492178440093994,-0.9336233139038086,-0.0369801273624982,-0.6512377254773087,1.7555997155949596,0.1961560002380595,-0.6269630273174219,-0.6799978147123006,3.258053137524166,-1.9532933831214905,2.268815040588379,-1.2853145599365234,8.073072221915936,-0.6975916521562685,0.4669108304136906,-0.4671268524683631
1.38,0.0617596432566642,-0.5409348011016846,2.1245312690734863,-0.209312012823949,-0.2418660746549216,-0.0481164975448255,0.0452025979757308,-1.6108355522155762,-0.9660136699676514,-0.0331334056549639,-0.6633769860609882,1.7423997571737682,0.1885161705153664,-0.5869630310505161,-0.6399980274068414,4.0733184142784,-3.2071925699710846,1.919114589691162,-1.619517803192139,7.965576005947241,-0.5542394068644408,0.4196525553539748,-0.2817958078668373
1.4,0.0615098252892494,-0.5751991868019104,2.10176157951355,-0.2540997176910476,-0.2544579971502411,-0.0437636360013049,-0.0112418085336685,-1.5418972969055176,-1.0246360301971436,-0.0294443302343869,-0.6747162467173285,1.729999794640858,0.1803913715423285,-0.546963034583521,-0.5999982258841674,5.332690500645406,-2.8222203254699707,3.4469127655029297,-2.9311180114746094,8.120443748072375,-0.6486496977608835,0.370566902079621,-0.2510342182833046
1.42,0.0601438619196414,-0.6081717610359192,2.077699899673462,-0.296381254747328,-0.2611998957887596,-0.0402377494049188,-0.0614683516323566,-1.4837658405303955,-1.082775592803955,-0.0259225997993282,-0.6852555079294758,1.7183998277233443,0.1717816547853881,-0.5069630359349129,-0.5599984098673824,4.817203699255527,-2.5113271549344063,2.9065728187561035,-2.906978130340576,8.84673967630988,-0.683820786439496,0.4947020657334098,-0.2829216408324265
1.44,0.0591729991137981,-0.6241699457168579,2.0654873847961426,-0.3420755489209627,-0.2712683899063406,-0.0148276318136307,-0.0811852663755416,-1.450986623764038,-1.1037611961364746,-0.0225779125827601,-0.6949947686800322,1.707599857776825,0.1626870668714135,-0.4669630391207186,-0.5199985847845607,2.18153003992366,-0.9858457371592522,1.638960838317871,-1.0492801666259766,9.860544927176306,-0.6783720514805395,0.4862660910990029,-0.3316751314497815
1.46,0.0560421235859394,-0.6547871232032776,2.039992332458496,-0.3608786852799931,-0.2734234039975758,-0.0336143927503982,-0.1408894062042236,-1.3777730464935305,-1.1472773551940918,-0.0194199654447277,-0.7039340294927886,1.697599884430654,0.1531076469318324,-0.4269630421549368,-0.4799987498325089,5.200593309554993,-2.9852069914340973,3.660678863525391,-2.17580795288086,9.76181808048068,-0.5891279168030132,0.4868610440997723,-0.2425658540235126
1.48,0.0515030175447464,-0.6836493611335754,2.0136373043060303,-0.3962024200478987,-0.2725275458397294,-0.0296259370979734,-0.204259768128395,-1.298800706863403,-1.185976266860962,-0.0164584548296883,-0.7120732899978736,1.688399908292087,0.1430434288764485,-0.3869630470498608,-0.4399989080241027,5.41987983290608,-3.1685180962085724,3.948616981506348,-1.9349455833435056,11.452817599194532,-0.5267637320123143,0.3732882589794558,-0.0687021106434268
1.5,0.0455960370600223,-0.7103700041770935,1.9862314462661743,-0.4231371040814667,-0.2649327359051708,-0.0290030644120573,-0.2658141255378723,-1.202428936958313,-1.233263611793518,-0.0137030761521464,-0.7194125509665357,1.6799999286496043,0.1324944388777364,-0.3469630498163477,-0.3999990562241722,6.187194425081509,-3.0777178704738617,4.818588495254517,-2.364367246627808,11.038142786845128,-0.6175526590719174,0.41495880303686,0.0092112497815409
1.52,0.0386391319334507,-0.7350063920021057,1.958376169204712,-0.4420555273412171,-0.2509716577726231,-0.0282121695246798,-0.3130607306957245,-1.108637452125549,-1.253487467765808,-0.0111635247787374,-0.7259518119893394,1.6723999461155927,0.12146069846317,-0.3069630524640322,-0.3599991971769735,5.3474500176402895,-2.3623302578926086,4.689574241638184,-1.011192798614502,11.914578187162531,-0.6748975108403581,0.5030623520966612,-0.036777494176229
1.54,0.0346433669328689,-0.7464182376861572,1.9443618059158323,-0.4469171802851853,-0.2398076810073206,-0.0277582180693456,-0.3401344418525696,-1.051471471786499,-1.2626498937606812,-0.0088494955693219,-0.7316910730639948,1.6655999608285468,0.1099422224783756,-0.2669630550015046,-0.3199993315276273,3.1956553295218213,-1.3536855578422546,2.858299016952514,-0.4581212997436523,13.637249016274382,-0.6244481969833484,0.4894277411080358,-0.0139818982678435
1.56,0.0256490912288427,-0.7676365375518799,1.9162198305130005,-0.4430687258439075,-0.2137315616436349,-0.0289193219558665,-0.404742419719696,-0.9548234939575196,-1.2663888931274414,-0.0067706831486342,-0.7366303341883744,1.659599972914881,0.0979390195903929,-0.2269630574364556,-0.2799994598389695,5.815712024072084,-3.2303988933563232,4.832398891448975,-0.1869499683380127,13.858828256622472,-0.6413152105342783,0.601650400884828,0.0149730271554293
1.58,0.0149745168164372,-0.7863481640815735,1.887704849243164,-0.4292628329242145,-0.1873050648372869,-0.0296575131122541,-0.4803558588027954,-0.8420231938362122,-1.2831741571426392,-0.0049367820298556,-0.740769595360497,1.6543999824904416,0.085451092287475,-0.1869630597757983,-0.2399995826049726,6.841608905347208,-3.780671954154968,5.640015006065369,-0.8392632007598877,14.87594369207318,-0.5749484486149886,0.3042070728799411,-0.0467406853504664
1.6,0.0031120360363274,-0.8026023507118225,1.860695958137512,-0.4156209671040642,-0.1645314649501588,-0.0247023257793663,-0.533811628818512,-0.731438398361206,-1.2154000997543335,-0.0033574867381949,-0.7441088565785127,1.6499999896617763,0.0724784368785913,-0.1469630620257693,-0.1999997002615376,7.014242509547175,-2.672788500785828,5.529239773750305,3.388702869415283,15.729280748938436,-0.7590312095458847,0.3899658577828798,-0.1532322697978701
1.62,-0.009837401099503,-0.8155554533004761,1.833874583244324,-0.3956256333616207,-0.1344931899313889,-0.0277839952017905,-0.5827246904373169,-0.5828896164894104,-1.2069618701934814,-0.0020424919348348,-0.7466481178406905,1.6463999945272083,0.0590210434574185,-0.1069630641920142,-0.1599998131952514,7.831096971472287,-2.4456530809402466,7.427439093589783,0.4219114780426025,15.724521079335318,-0.7921066060467602,0.4209392291369516,0.163637103068924
1.64,-0.0167352594435215,-0.8211631178855896,1.8212863206863403,-0.3917140280453627,-0.1240587982064447,-0.0259459428259578,-0.6121466755867004,-0.5367556214332581,-1.1623942852020264,-0.0010015174077276,-0.7483873791454073,1.643599997177762,0.045076409253301,-0.066963066279664,-0.1199999217494046,3.528550815115961,-1.4710992574691772,2.306699752807617,2.228379249572754,15.628109313829556,-0.8039889762321508,0.6335551327194344,-0.1369212374228314
1.66,-0.031611144542694,-0.8302940130233765,1.796578884124756,-0.3860377940987576,-0.0951449060671296,-0.0257189287041616,-0.6694148182868958,-0.4108902812004089,-1.1118346452713013,-0.0003374104457285,-0.7494036240083267,1.6415999985827143,0.0213342869466133,-0.0346614200122737,-0.0799999377553457,7.361725550131806,-2.8634071350097656,6.293267011642456,2.527981996536255,15.298590297028568,-0.8840686849941675,0.4584334703255435,0.0675907961591378
1.68,-0.0472415648400783,-0.8367770314216614,1.773659110069275,-0.3829156678516352,-0.0646078244975653,-0.0281505099655429,-0.7033689022064209,-0.291735827922821,-1.031389832496643,-6.203378502949616e-05,-0.7498751191104687,1.6403999995825804,0.0062033785029496,-0.012488088953125,-0.0399999582580503,7.386140983802848,-1.697704195976257,5.9577226638793945,4.02224063873291,15.563851668855024,-0.8689047328209917,0.2196986420173093,-0.2266275059003672
1.7,-0.0636321827769279,-0.8406462669372559,1.7516332864761353,-0.3795320033331641,-0.0272409683539489,-0.0314560684835719,-0.7375777959823608,-0.1741155982017517,-0.9911620616912842,-6.203378502949616e-05,-0.7498751191104687,1.6403999995825804,0.0062033785029496,-0.012488088953125,-0.0399999582580503,6.446518517188008,-1.710444688796997,5.881011486053467,2.0113885402679443,15.348958494211727,-0.8728659574927246,0.1971106030824509,-0.2914552848928732
1.72,-0.0802567675709724,-0.8419572710990906,1.7312095165252686,-0.3816901402840874,0.0087284846667777,-0.0359741841937809,-0.7481063008308411,-0.0589951872825622,-0.9190696477890016,-6.203378502949616e-05,-0.7498751191104687,1.6403999995825804,0.0062033785029496,-0.012488088953125,-0.0399999582580503,6.811915033014863,-0.5264252424240112,5.756020545959473,3.604620695114136,15.59820036723977,-0.9476330819558534,0.1777979516867526,-0.600837859963541
1.74,-0.0887887552380561,-0.8416546583175659,1.7213486433029177,-0.3825556099846981,0.0298789261115615,-0.0397298879277165,-0.7642954587936401,0.0008663535118103,-0.8944094181060791,-6.203378502949616e-05,-0.7498751191104687,1.6403999995825804,0.0062033785029496,-0.012488088953125,-0.0399999582580503,3.336772328851369,-0.8094578981399536,2.993077039718628,1.2330114841461182,15.998235882789231,-0.9315353699033218,0.148796217511723,-0.656013502573574
1.76,-0.1054301932454109,-0.8390520811080933,1.7027668952941897,-0.3854115154502693,0.071520874199669,-0.0487757525055029,-0.7488647103309631,0.1171159744262695,-0.8361786603927612,-6.203378502949616e-05,-0.7498751191104687,1.6403999995825804,0.0062033785029496,-0.012488088953125,-0.0399999582580503,6.546545559442211,0.7715374231338501,5.812481045722961,2.9115378856658936,15.73236130402438,-1.0923766881950006,0.1604408405581814,-0.8129694322974735
1.78,-0.1218617334961891,-0.8339742422103882,1.685424566268921,-0.382965127439059,0.1137487580707879,-0.0570829751002497,-0.7394193410873413,0.2285027503967285,-0.780404806137085,-6.203378502949616e-05,-0.7498751191104687,1.6403999995825804,0.0062033785029496,-0.012488088953125,-0.0399999582580503,6.246389292978583,0.4722684621810913,5.569338798522949,2.788692712783813,15.877857113623577,-1.0506576851450866,-0.091532370260009,-1.028876516630673
1.8,-0.137723758816719,-0.8262859582901001,1.669130802154541,-0.3680815194409992,0.1563849909287705,-0.0645188112188012,-0.7137911319732666,0.3459727764129638,-0.7332193851470947,-6.203378502949616e-05,-0.7498751191104687,1.6403999995825804,0.0062033785029496,-0.012488088953125,-0.0399999582580503,6.458032995551425,1.2814104557037354,5.873501300811768,2.359271049499512,16.244800013231725,-1.0943051517596782,-0.0855099244574165,-1.0829025568893431
1.82,-0.1527857929468155,-0.8162935972213745,1.6540995836257937,-0.3509484661318433,0.1984247974366646,-0.0709470232515405,-0.6777915358543396,0.4496562480926513,-0.6764048337936401,-6.203378502949616e-05,-0.7498751191104687,1.6403999995825804,0.0062033785029496,-0.012488088953125,-0.0399999582580503,6.179426847567004,1.79997980594635,5.184173583984375,2.840727567672729,15.9198048972803,-1.1153834683353423,-0.0176393492800786,-1.208350212789541
1.84,-0.1598045825958252,-0.8104470372200012,1.647136688232422,-0.3408832381075655,0.2327251257367565,-0.0680307958333658,-0.653160810470581,0.5005457997322083,-0.6536489725112915,-6.203378502949616e-05,-0.7498751191104687,1.6403999995825804,0.0062033785029496,-0.012488088953125,-0.0399999582580503,3.0472316623891382,1.2315362691879272,2.544477581977844,1.1377930641174316,16.268455490355336,-1.1639992177854617,-0.0304440875719709,-1.3184494360230214
1.86,-0.1729594767093658,-0.7969845533370972,1.634069561958313,-0.3115109904167329,0.2533294965521225,-0.0787101945415947,-0.5919702053070068,0.6058117747306824,-0.5880206823348999,-6.203378502949616e-05,-0.7498751191104687,1.6403999995825804,0.0062033785029496,-0.012488088953125,-0.0399999582580503,6.915975730896631,3.059530258178711,5.263298749923706,3.28141450881958,15.80493168290559,-1.1782284228815123,-0.0192040099290341,-1.440934950031887
1.88,-0.1850574314594268,-0.7816360592842102,1.6215704679489136,-0.2821822669857115,0.2853466584575402,-0.0817116749628424,-0.5444079637527466,0.6906822323799133,-0.5624592304229736,-6.203378502949616e-05,-0.7498751191104687,1.6403999995825804,0.0062033785029496,-0.012488088953125,-0.0399999582580503,5.029549986604524,2.3781120777130127,4.243522882461548,1.2780725955963137,15.449415905193746,-1.2875414058711807,-0.1436216501187475,-1.5838069430207222
1.9,-0.1954114735126495,-0.7648405432701111,1.6099318265914917,-0.2506809134784343,0.3123965086859173,-0.0822081664528977,-0.4659318923950195,0.7557982206344604,-0.5237388610839844,-6.203378502949616e-05,-0.7498751191104687,1.6403999995825804,0.0062033785029496,-0.012488088953125,-0.0399999582580503,5.4538639293296285,3.923803567886353,3.255799412727356,1.936018466949463,15.768002949637776,-1.41744458828881,-0.1107975244920467,-1.867235032019896
1.92,-0.2040536999702453,-0.7465637922286987,1.5993351936340332,-0.2089719757513871,0.3355642653501208,-0.0819946268581459,-0.3889001905918121,0.8224537968635559,-0.4768484830856323,-6.203378502949616e-05,-0.7498751191104687,1.6403999995825804,0.0062033785029496,-0.012488088953125,-0.0399999582580503,5.607039431366467,3.85158509016037,3.332778811454773,2.3445188999176025,15.53177286186201,-1.369748489678654,-0.1258012383952264,-1.986723914661714
1.94,-0.2077211141586303,-0.73704594373703,1.594508171081543,-0.1884937114821529,0.3451236373948724,-0.0809575277483992,-0.3462228775024414,0.835985541343689,-0.4533684253692627,-6.203378502949616e-05,-0.7498751191104687,1.6403999995825804,0.0062033785029496,-0.012488088953125,-0.0399999582580503,2.527733308503804,2.1338656544685364,0.6765872240066528,1.1740028858184814,15.351863070824038,-1.3978571902599024,-0.0516267559951139,-2.092495747375481
1.96,-0.2131653279066085,-0.7173259258270264,1.5852359533309937,-0.1394718575961651,0.3630131796316426,-0.0772770573075538,-0.2449896186590194,0.8874008059501648,-0.4172497987747192,-6.203378502949616e-05,-0.7498751191104687,1.6403999995825804,0.0062033785029496,-0.012488088953125,-0.0399999582580503,5.95740239485492,5.061662942171097,2.5707632303237915,1.8059313297271729,15.603536592167076,-1.649072433782784,-0.2850300708631039,-2.2914078667557725
1.98,-0.2165031880140304,-0.6973323822021484,1.5778374671936035,-0.0906822277825183,0.3673960045253462,-0.0727602670054959,-0.1502037048339843,0.8997094631195068,-0.3329318761825561,-6.203378502949616e-05,-0.7498751191104687,1.6403999995825804,0.0062033785029496,-0.012488088953125,-0.0399999582580503,6.372869167654664,4.739295691251755,0.615432858467102,4.215896129608154,15.614834892720864,-1.4877375525776746,-0.1274766309960538,-2.347064724195823
2.0,-0.2179524451494217,-0.6773045063018799,1.5721851587295532,-0.0301611253543221,0.3541333689051226,-0.0650608594112531,-0.0652165710926055,0.901254415512085,-0.2543538808822632,-6.203378502949616e-05,-0.7498751191104687,1.6403999995825804,0.0062033785029496,-0.012488088953125,-0.0399999582580503,5.787853903841043,4.249356687068939,0.0772476196289062,3.928899765014648,15.817432753045068,-1.4135277624550409,-0.1665158506084544,-2.124887936755358
2.02,-0.2171422690153122,-0.6575056910514832,1.5689737796783447,0.0129824464139316,0.3344190390861684,-0.0612470903143712,0.0364579260349273,0.8909466862678528,-0.1445120573043823,-6.203378502949616e-05,-0.7498751191104687,1.6403999995825804,0.0062033785029496,-0.012488088953125,-0.0399999582580503,7.501529653214638,5.083724856376648,-0.5153864622116089,5.492091178894043,16.218410386235973,-1.3640787089720563,-0.1456047890185297,-1.9391356833525155
2.04,-0.2158728986978531,-0.6478183269500732,1.5687471628189087,0.0031503465039674,0.3065773810406008,-0.0638317110510856,0.0846129655838012,0.8847802877426147,-0.0782561302185058,-6.203378502949616e-05,-0.7498751191104687,1.6403999995825804,0.0062033785029496,-0.012488088953125,-0.0399999582580503,4.106939304011762,2.407751977443695,-0.3083199262619018,3.3127963542938232,13.828214479811322,-1.0933108678866883,-0.1137589655251298,-1.4571850126287684
2.06,-0.2120739221572876,-0.6291736960411072,1.569135665893555,0.0272494006262617,0.2885389238482441,-0.0646743252163965,0.170953944325447,0.8390083909034729,0.0174826383590698,-6.203378502949616e-05,-0.7498751191104687,1.6403999995825804,0.0062033785029496,-0.012488088953125,-0.0399999582580503,6.840274658058141,4.317048937082291,-2.2885948419570923,4.786938428878784,12.973725793723588,-0.9079165511245786,-0.148687520131928,-1.0073664500148505
2.08,-0.2064587175846099,-0.6106401085853577,1.5707004070281982,0.040971199553409,0.2668353151103331,-0.0614798540589936,0.2526842057704925,0.834011435508728,0.0704133510589599,-6.203378502949616e-05,-0.7498751191104687,1.6403999995825804,0.0062033785029496,-0.012488088953125,-0.0399999582580503,4.875055267894628,4.086513072252274,-0.2498477697372436,2.646535634994507,12.524117612133525,-0.9902696685782536,-0.2617672965439303,-1.149558789295925
2.1,-0.1994297206401825,-0.5924972891807556,1.5732078552246094,0.0655062309476939,0.2528736140013944,-0.0545458070090904,0.316304862499237,0.8164268732070923,0.1128351688385009,-6.203378502949616e-05,-0.7498751191104687,1.6403999995825804,0.0062033785029496,-0.012488088953125,-0.0399999582580503,3.9231414127129782,3.1810328364372253,-0.8792281150817871,2.121090888977051,11.382651191068362,-0.8346327474714968,-0.1229007609880409,-1.3862483341764908
2.12,-0.1914979219436645,-0.5751551985740662,1.576279878616333,0.1022957360043756,0.2359049665920907,-0.0431750052192822,0.3569309413433075,0.7803940773010254,0.1382410526275634,-6.203378502949616e-05,-0.7498751191104687,1.6403999995825804,0.0062033785029496,-0.012488088953125,-0.0399999582580503,2.997623889915247,2.0313039422035217,-1.8016397953033447,1.270294189453125,11.174410366479606,-0.8291640134660541,-0.0522363639375775,-1.7479487176429502
2.14,-0.1872494667768478,-0.5667658448219299,1.5777242183685305,0.1204195263295828,0.2271936740279162,-0.0397109994702542,0.3765063881874084,0.7662990689277649,0.1398342847824096,-6.203378502949616e-05,-0.7498751191104687,1.6403999995825804,0.0062033785029496,-0.012488088953125,-0.0399999582580503,1.2087242953706827,0.9787723422050476,-0.7047504186630249,0.0796616077423095,10.679938658530771,-0.8782744780279726,-0.08860530947563,-1.8509407478026736
2.16,-0.1777621060609817,-0.550474226474762,1.5804826021194458,0.1674966982547476,0.2073230940728909,-0.0269800465858059,0.426931232213974,0.7331228256225586,0.1241272687911987,-6.203378502949616e-05,-0.7498751191104687,1.6403999995825804,0.0062033785029496,-0.012488088953125,-0.0399999582580503,3.118508604404462,2.5212422013282776,-1.658812165260315,-0.7853507995605469,10.466549072561977,-0.8696775399777368,-0.0356422946725733,-1.9349564088353588
2.18,-0.1677062809467315,-0.535212516784668,1.5834752321243286,0.2119115313234751,0.1808298863488269,-0.0161916828004024,0.4525121450424194,0.6867769360542297,0.1346683502197265,-6.203378502949616e-05,-0.7498751191104687,1.6403999995825804,0.0062033785029496,-0.012488088953125,-0.0399999582580503,2.698814081545408,1.2790456414222715,-2.317294478416443,0.5270540714263916,10.479856803733128,-0.858619819415756,0.1092409459506785,-2.049315326712793
2.2,-0.1570361852645874,-0.521133542060852,1.5860635042190552,0.2542207879107787,0.1515834546976742,-0.0080789765803818,0.4801543056964874,0.6335538625717163,0.1164722442626953,-6.203378502949616e-05,-0.7498751191104687,1.6403999995825804,0.0062033785029496,-0.012488088953125,-0.0399999582580503,3.1336412001654868,1.3821080327033997,-2.6611536741256714,-0.9098052978515624,10.542161349050277,-0.8289397100178466,0.11301398140155,-1.846283805737877
2.22,-0.1461957544088363,-0.508161723613739,1.5882643461227417,0.2955798887915972,0.1224887771550068,-0.0009136803070483,0.4878193736076355,0.5837318301200867,0.0990378856658935,-6.203378502949616e-05,-0.7498751191104687,1.6403999995825804,0.0062033785029496,-0.012488088953125,-0.0399999582580503,2.6669013120921927,0.3832533955574035,-2.491101622581482,-0.8717179298400879,10.653488727571585,-0.7562729965119628,0.1164515029109019,-1.845488023392968
2.24,-0.1403087526559829,-0.5025863647460938,1.589863419532776,0.3023980367114672,0.1075481700753925,0.0058110788402122,0.5129818916320801,0.5393922328948975,0.1232796907424926,-6.203378502949616e-05,-0.7498751191104687,1.6403999995825804,0.0062033785029496,-0.012488088953125,-0.0399999582580503,2.822595130723822,1.258125901222229,-2.2169798612594604,1.212090253829956,10.377269686652198,-0.7654604538153469,0.187056897294739,-1.7371660947838703
2.26,-0.1292241513729095,-0.4920751452445984,1.5918174982070925,0.3368798009584647,0.0718212046030561,0.0034420117513942,0.4988070726394653,0.4730048775672912,0.0879335403442382,-6.203378502949616e-05,-0.7498751191104687,1.6403999995825804,0.0062033785029496,-0.012488088953125,-0.0399999582580503,3.826733851747223,-0.7087409496307373,-3.31936776638031,-1.7673075199127195,10.31632607829124,-0.5049041619878994,0.002077242515588,-1.2654320400570611
2.28,-0.1179970055818557,-0.4832845628261566,1.5938105583190918,0.3577725759963673,0.034250190953689,0.0024973191287209,0.5052215456962585,0.3955762088298797,0.089687705039978,-6.203378502949616e-05,-0.7498751191104687,1.6403999995825804,0.0062033785029496,-0.012488088953125,-0.0399999582580503,3.885685686215469,0.3207236528396606,-3.871433436870575,0.0877082347869873,10.146373453312664,-0.58504960579564,0.1616337328304194,-1.2386870452182746
2.3000000000000003,-0.1068632379174232,-0.4764061272144317,1.5955348014831543,0.3736015433914427,0.0003206197711112,0.001673132052655,0.5010195374488831,0.3095296025276184,0.0775909423828125,-6.203378502949616e-05,-0.7498751191104687,1.6403999995825804,0.0062033785029496,-0.012488088953125,-0.0399999582580503,4.349714644729919,-0.2101004123687744,-4.302330315113068,-0.6048381328582764,10.398056784909386,-0.5032229061318896,0.1298621064099834,-1.0476565270872285
2.32,-0.1014554873108863,-0.4734426438808441,1.5958449840545654,0.3725307117373127,-0.0146462710875549,0.0081331600277678,0.4880215525627136,0.2765156328678131,0.0590676069259643,-6.203378502949616e-05,-0.7498751191104687,1.6403999995825804,0.0062033785029496,-0.012488088953125,-0.0399999582580503,2.0012394660850568,-0.6498992443084717,-1.650698482990265,-0.9261667728424072,10.074790045626742,-0.4759048279854794,0.062355422659612,-1.0073426947560595
2.34,-0.0911300256848335,-0.4693601429462433,1.5969277620315552,0.3903736377135972,-0.0497410401102118,-0.0010984623445519,0.4646457731723785,0.1837125420570373,0.0487250089645385,-6.203378502949616e-05,-0.7498751191104687,1.6403999995825804,0.0062033785029496,-0.012488088953125,-0.0399999582580503,4.812953889954275,-1.1687889695167542,-4.640154540538788,-0.5171298980712891,10.419071170385903,-0.5612064201813252,0.120415655359559,-1.0874978802919424
2.36,-0.0812731683254242,-0.4667920768260956,1.5972434282302856,0.3974793462522492,-0.0815720299018322,-0.0021628015221127,0.4435585737228393,0.1155629754066467,0.014204978942871,-6.203378502949616e-05,-0.7498751191104687,1.6403999995825804,0.0062033785029496,-0.012488088953125,-0.0399999582580503,3.962532614363415,-1.0543599724769592,-3.4074783325195312,-1.726001501083374,10.510055792537967,-0.59551160843121,0.0178332320793943,-0.9889630824851436
2.38,-0.0723726898431778,-0.4663412570953369,1.59702730178833,0.3970875915617282,-0.1096475131541706,-0.0051964443776313,0.4005215167999267,0.02028688788414,-0.0097256898880004,-6.203378502949616e-05,-0.7498751191104687,1.6403999995825804,0.0062033785029496,-0.012488088953125,-0.0399999582580503,5.362461662537838,-2.15185284614563,-4.763804376125336,-1.196533441543579,11.178209411724763,-0.5310452278339617,0.2125829841417291,-0.9483083745539892
2.4,-0.0644332244992256,-0.4676961600780487,1.5968475341796875,0.383256230121087,-0.138756878965638,-0.0089501870714401,0.3572759330272674,-0.0609706342220306,-0.008089542388916,-6.203378502949616e-05,-0.7498751191104687,1.6403999995825804,0.0062033785029496,-0.012488088953125,-0.0399999582580503,4.603162606651993,-2.162279188632965,-4.062876105308533,0.0818073749542236,12.098886552213116,-0.6049889318520849,0.1036149650648704,-0.9135700101242932
2.42,-0.0574710667133331,-0.4707850813865661,1.5959627628326416,0.3594776881320833,-0.156496112997064,-0.0101838159092639,0.3132970929145813,-0.1390014588832855,-0.0398147106170654,-6.203378502949616e-05,-0.7498751191104687,1.6403999995825804,0.0062033785029496,-0.012488088953125,-0.0399999582580503,4.751166770930351,-2.198942005634308,-3.901541233062744,-1.5862584114074707,11.948663935827426,-0.6555937478567623,0.0468549567264026,-0.7232980804302589
2.44,-0.0546693466603755,-0.4729591906070709,1.5955818891525269,0.3422844234852518,-0.1600536776492697,-0.010241590618568,0.2862359583377838,-0.1851367950439453,-0.0294828414916992,-6.203378502949616e-05,-0.7498751191104687,1.6403999995825804,0.0062033785029496,-0.012488088953125,-0.0399999582580503,2.7237482294002158,-1.3530567288398745,-2.306766808032989,0.5165934562683105,11.657144735941529,-0.6714310490754837,0.0077828895271935,-0.8048952556548672
2.46,-0.0497464910149574,-0.4786323308944702,1.594820857048035,0.2973845141844625,-0.1686451511478364,-0.0097502582536853,0.2215285003185272,-0.2552913129329681,-0.0342464447021484,-6.203378502949616e-05,-0.7498751191104687,1.6403999995825804,0.0062033785029496,-0.012488088953125,-0.0399999582580503,4.777918851106013,-3.2353729009628296,-3.5077258944511414,-0.2381801605224609,13.072873316154528,-0.5992930314134172,0.1409149374851904,-0.6917213395427775
2.48,-0.0457484610378742,-0.4856255352497101,1.5942294597625732,0.2432855821213634,-0.1682330603810623,-0.0054447937237976,0.1799113452434539,-0.314694195985794,-0.0266128778457641,-6.203378502949616e-05,-0.7498751191104687,1.6403999995825804,0.0062033785029496,-0.012488088953125,-0.0399999582580503,3.6465605213959145,-2.080857753753662,-2.9701441526412964,0.3816783428192138,12.66031558800796,-0.7056161748805131,0.0938010829556298,-0.7025658691469208
2.5,-0.0430193915963172,-0.4937418699264526,1.5938715934753418,0.1849758460001143,-0.161658658171905,-0.0006273611603187,0.1228081285953521,-0.3652350604534149,-0.016103982925415,-6.203378502949616e-05,-0.7498751191104687,1.6403999995825804,0.0062033785029496,-0.012488088953125,-0.0399999582580503,3.848893738836333,-2.8551608324050903,-2.5270432233810425,0.525444746017456,12.108491174780738,-0.6637126016554633,0.0573595993805995,-0.8352833306526998
2.52,-0.0417423695325851,-0.5026683807373047,1.5929781198501587,0.1287475286253917,-0.146105988254187,0.0063835009176364,0.0574659928679466,-0.4016929864883423,-0.0402063131332397,-6.203378502949616e-05,-0.7498751191104687,1.6403999995825804,0.0062033785029496,-0.012488088953125,-0.0399999582580503,3.930552567271535,-3.2671067863702774,-1.8228963017463684,-1.2051165103912354,12.15772724026965,-0.7147074608050465,0.0022031117950817,-0.9044375453351856
2.54,-0.0415970720350742,-0.5074575543403625,1.593031883239746,0.1008260939813831,-0.1391911212797696,0.007898187730179,0.0325377099215984,-0.418165773153305,-0.0178581476211547,-6.203378502949616e-05,-0.7498751191104687,1.6403999995825804,0.0062033785029496,-0.012488088953125,-0.0399999582580503,1.865618190384968,-1.2464141473174095,-0.8236393332481384,1.117408275604248,12.519128276552692,-0.8616422186514283,-0.0505546257347915,-1.185796042297388
2.56,-0.0416876561939716,-0.5169418454170227,1.5926405191421509,0.052698232647788,-0.1190707367534757,0.0159747648921495,-0.0040762871503829,-0.426793098449707,-0.0176113843917846,-6.203378502949616e-05,-0.7498751191104687,1.6403999995825804,0.0062033785029496,-0.012488088953125,-0.0399999582580503,1.880875072571522,-1.8306998535990715,-0.4313662648200989,0.0123381614685058,12.119407296954703,-0.7015402179188202,0.0077342760284644,-1.3525955288785456
2.58,-0.0427906028926372,-0.526733934879303,1.5927927494049072,0.012970233092639,-0.0989241965454564,0.0213928025173541,-0.0496326014399528,-0.4406440258026123,0.0068503618240356,-6.203378502949616e-05,-0.7498751191104687,1.6403999995825804,0.0062033785029496,-0.012488088953125,-0.0399999582580503,2.676566358281037,-2.2778157144784927,-0.6925463676452637,1.2230873107910156,11.427922963718627,-0.6627009675382673,0.0362850030292611,-1.5612477867148402
2.6,-0.0449188314378261,-0.5364999771118164,1.5930711030960083,-0.019365166833047,-0.0733273350883862,0.0264185167367763,-0.0957702845335006,-0.4394719004631042,0.0125259160995483,-6.203378502949616e-05,-0.7498751191104687,1.6403999995825804,0.0062033785029496,-0.012488088953125,-0.0399999582580503,2.3250116103938363,-2.306884154677391,0.0586062669754028,0.2837777137756347,11.536701963729229,-0.7361543275940603,-0.0502483804985384,-1.5355520612240663
2.62,-0.0475864857435226,-0.5459909439086914,1.5936919450759888,-0.0411667131435272,-0.0421051192617366,0.0319878761436109,-0.1200444400310516,-0.427093505859375,0.027937889099121,-6.203378502949616e-05,-0.7498751191104687,1.6403999995825804,0.0062033785029496,-0.012488088953125,-0.0399999582580503,1.5652381526659742,-1.2137077748775482,0.6189197301864624,0.7705986499786377,11.063226877031411,-0.8113666967212623,-0.0541756834740087,-1.5610469707846326
2.64,-0.0490408018231391,-0.550715446472168,1.594401717185974,-0.0638271132970571,-0.0093016382403655,0.0482003670200864,-0.1277443915605545,-0.4259669780731201,0.0542503595352172,-6.203378502949616e-05,-0.7498751191104687,1.6403999995825804,0.0062033785029496,-0.012488088953125,-0.0399999582580503,1.3719551913786523,-0.3849975764751434,0.0563263893127441,1.3156235218048096,10.917763848670802,-0.8104415616701334,-0.0448059329376758,-1.6620967883111355
2.66,-0.05229252576828,-0.5597290992736816,1.595096468925476,-0.0609479052347774,0.0080750072423769,0.0361910796545017,-0.1463275849819183,-0.4056143760681152,0.0312638282775878,-6.203378502949616e-05,-0.7498751191104687,1.6403999995825804,0.0062033785029496,-0.012488088953125,-0.0399999582580503,1.7943969079943838,-0.9291596710681916,1.017630100250244,-1.1493265628814695,10.460790031821034,-0.7875475525547875,-0.1344015947621338,-1.445073465352456
