t,x,y,z,roll,pitch,yaw,v_x,v_y,v_z,ref_x,ref_y,ref_z,ref_v_x,ref_v_y,ref_v_z,a_com,a_x,a_y,a_z,thrust,wind_x,wind_y,wind_z
0.0,-1.2209112644195557,0.1320180296897888,2.4697697162628174,0.0041740456473517,0.0621643690384387,0.0012123873712228,0.0039911270141601,-0.0006363540887832,0.0188130140304565,-1.22,0.13,2.47,0.2983111968822912,-0.0317872586841785,0.0,0.962111659683564,0.1995563507080078,-0.0318177044391632,0.9406507015228271,11.964108640710036,-0.8424770254293685,0.0692651514997858,-2.3794871893037324
0.02,-1.2209306955337524,0.1320010125637054,2.470223426818848,0.0043642973929548,0.0670537003392962,0.0015563623930204,3.7550926208496094e-05,-0.0005951151251792,0.019124150276184,-1.214033776062354,0.1293642548263164,2.47,0.2983111968822912,-0.0317872586841785,0.0,0.1983007204900407,-0.197678804397583,0.0020619481801986,0.0155568122863769,11.911261808611926,-0.8500323434465242,0.0759030825884381,-2.421685727245635
0.04,-1.2209514379501345,0.1320303976535797,2.4707047939300537,0.0048407512282902,0.070631720555694,0.0017713429346417,-0.0009039044380187,0.0002782791852951,0.0210392475128173,-1.2080675521247082,0.1287285096526328,2.47,0.2983111968822912,-0.0317872586841785,0.0,0.1152904294614464,-0.0470727682113647,0.0436697155237197,0.095754861831665,12.021812925031554,-0.8702104150096583,0.07369877702572,-2.4375186506322324
0.06,-1.2208986282348633,0.1320402920246124,2.470900058746338,0.0038325614903541,0.0714859291958155,0.0013805499749089,8.046627044677734e-05,0.0010708719491958,0.0203418731689453,-1.2021013281870625,0.1280927644789493,2.47,0.2983111968822912,-0.0317872586841785,0.0,0.0721720159854888,0.0492185354232788,0.0396296381950378,-0.0348687171936035,13.754343219385191,-0.8772034886021743,0.0737543569629611,-2.390207388353321
0.08,-1.220954179763794,0.1320179402828216,2.4715352058410645,0.0032419176642101,0.0759665610338326,0.0005096647953769,-0.0019392371177673,0.0002320110797882,0.0240272283554077,-1.1961351042494164,0.1274570193052657,2.47,0.2983111968822912,-0.0317872586841785,0.0,0.2142704610123164,-0.1009851694107055,-0.0419430434703826,0.1842677593231201,12.3075151196972,-0.8662809302347485,0.0757072832845782,-2.360738214899857
0.1,-1.2209454774856567,0.1320858895778656,2.4722251892089844,0.0064915209505519,0.0883716400278445,-0.0001305444743058,-0.0010541081428527,0.0010259449481964,0.0298154354095459,-1.1901688803117705,0.1268212741315822,2.47,0.2983111968822912,-0.0317872586841785,0.0,0.2954535716115729,0.0442564487457275,0.0396966934204101,0.2894103527069092,12.333379345624962,-0.8827364028416284,0.0665330887792916,-2.3140661382555923
0.12,-1.220730900764465,0.1320257633924484,2.472945213317871,0.0139297232000978,0.10799947042636,0.0005183184097455,0.0050237774848937,0.0001760199666023,0.0317251682281494,-1.1842026563741246,0.1261855289578986,2.47,0.2983111968822912,-0.0317872586841785,0.0,0.3213648456846109,0.3038942813873291,-0.0424962490797042,0.0954866409301757,12.333379345624962,-0.8970982706129561,0.0732878869686582,-2.2563596207840604
0.14,-1.2203867435455322,0.1319410651922226,2.4738211631774902,0.0229421719683207,0.1331731871385237,0.0013854285814389,0.0125715136528015,-0.0032585486769676,0.0359094142913818,-1.178236432436479,0.125549783784215,2.47,0.2983111968822912,-0.0317872586841785,0.0,0.4644149495478482,0.3773868083953857,-0.1717284321784973,0.2092123031616211,12.142908957051986,-0.9076457520397514,0.0785105500931283,-2.2161988973412363
0.16,-1.2200376987457275,0.1318756192922592,2.474384069442749,0.0270649104819983,0.1472092741508278,0.0020779086292312,0.0176972150802612,-0.0042187795042991,0.0408715009689331,-1.1722702084988328,0.1249140386105315,2.47,0.2983111968822912,-0.0317872586841785,0.0,0.3599206946007418,0.2562850713729858,-0.0480115413665771,0.2481043338775634,12.28857860988228,-0.9715296656109564,0.0886949194796768,-2.4185821365456666
0.18,-1.219030261039734,0.1315911263227462,2.475497245788574,0.033092837508838,0.1810739081152025,0.0027393443321787,0.0348472595214843,-0.0082276761531829,0.0477433204650878,-1.166303984561187,0.1242782934368479,2.47,0.2983111968822912,-0.0317872586841785,0.0,0.9452740077156118,0.8575022220611572,-0.2004448324441909,0.3435909748077392,12.186868961513028,-1.0405864024226772,0.109640551652149,-2.349470746618042
0.2,-1.2175008058547974,0.1312912553548813,2.47659969329834,0.0389389005336213,0.2157764760316803,0.0045919778325682,0.0570800900459289,-0.0131481885910034,0.0498515367507934,-1.1603377603252298,0.1236425482313771,2.47,0.2983111968822912,-0.0317872586841785,0.0,1.1434102191325894,1.111641526222229,-0.2460256218910217,0.1054108142852783,12.213441494783185,-1.0723956704796171,0.1216174165444578,-2.3011773546129044
0.22,-1.2152845859527588,0.1307796835899353,2.477738380432129,0.0411122546617967,0.2492480415430468,0.0064425082221254,0.0842776894569397,-0.0182574614882469,0.0504255294799804,-1.154371536387584,0.1230068030576935,2.47,0.2983111968822912,-0.0317872586841785,0.0,1.3839649118686843,1.359879970550537,-0.255463644862175,0.0286996364593505,11.97422327568438,-1.1281147289009892,0.1296254099046242,-2.224154827168615
0.24,-1.212012767791748,0.1302205622196197,2.479209899902344,0.0382512028956407,0.2796012339821063,0.0073700469604171,0.1234808564186096,-0.0240905955433845,0.0587296485900878,-1.148405312449938,0.1223710578840099,2.47,0.2983111968822912,-0.0317872586841785,0.0,2.0247667439267083,1.960158348083496,-0.2916567027568817,0.4152059555053711,12.30601032726463,-1.189720587564528,0.1402216291794572,-2.1742725334357496
0.26,-1.2101283073425293,0.1299437433481216,2.4795639514923096,0.0382526683028023,0.2932098579238695,0.0086941072144741,0.1438790559768676,-0.025792121887207,0.0511980056762695,-1.142439088512292,0.1217353127103263,2.47,0.2983111968822912,-0.0317872586841785,0.0,1.090535856928271,1.0199099779129028,-0.0850763171911239,-0.3765821456909179,12.3256725181418,-1.2167320035053684,0.1413464025292665,-2.099597507381912
0.28,-1.2054647207260132,0.1290488988161087,2.480776071548462,0.0330559912114645,0.3098121499339528,0.0091571749835046,0.188639760017395,-0.0336808338761329,0.0582307577133178,-1.1364728648729574,0.12109956756843,2.47,0.2983111968822912,-0.0317872586841785,0.0,2.2995717015688557,2.238035202026367,-0.3944355994462967,0.351637601852417,12.231791841863924,-1.3723336520155682,0.1661160709743564,-2.1055545281794847
0.3,-1.1999303102493286,0.1279913485050201,2.4816038608551025,0.0278742657211996,0.3138940994399929,0.0092459348323549,0.2294549345970153,-0.0439288839697837,0.0458979606628418,-1.1305066409353115,0.1204638223947464,2.47,0.2983111968822912,-0.0317872586841785,0.0,2.192600561989744,2.040758728981018,-0.5124025046825409,-0.6166398525238037,12.36193327174351,-1.3870211242795687,0.1397622885635274,-1.9861761157294624
0.32,-1.1931313276290894,0.1268550455570221,2.482685089111328,0.0201188667764793,0.3020300781134265,0.0081013919211302,0.2775013446807861,-0.0493616983294487,0.0429528951644897,-1.1245404169976656,0.1198280772210629,2.47,0.2983111968822912,-0.0317872586841785,0.0,2.422109826470526,2.4023205041885376,-0.2716407179832458,-0.1472532749176025,14.130340565099688,-1.4195818597756642,0.0963834050831793,-2.003816821248583
0.34,-1.185307860374451,0.1256583631038665,2.4835336208343506,0.0131949791502106,0.275052524887929,0.006166406439912,0.3290051221847534,-0.0524921715259552,0.043419599533081,-1.1185741930600197,0.1191923320473793,2.47,0.2983111968822912,-0.0317872586841785,0.0,2.580046885513844,2.5751888751983643,-0.156523659825325,0.0233352184295654,12.613561564481644,-1.4013213579948058,0.0741521064319451,-1.9694630267478856
0.36,-1.1810569763183594,0.1251851469278335,2.483928918838501,0.0065089268832889,0.2382016369830733,0.0007306869708287,0.3507524728775024,-0.0525391101837158,0.042271614074707,-1.1126079691223738,0.1185565868736957,2.47,0.2983111968822912,-0.0317872586841785,0.0,1.0888839883151489,1.0873675346374512,-0.002346932888031,-0.0573992729187011,12.646715883058278,-1.323119318560179,0.0616773282242518,-1.963187614400009
0.38,-1.171991944313049,0.123886838555336,2.484914541244507,0.0044106279421202,0.217976059506614,0.0038207073247639,0.3874102234840393,-0.0556736066937446,0.0409895181655883,-1.106641745184728,0.1179208417000121,2.47,0.2983111968822912,-0.0317872586841785,0.0,1.840692476910942,1.8328875303268437,-0.1567248255014419,-0.0641047954559326,12.788334212033078,-1.2479784692169076,0.062222886410295,-1.9820312605130352
0.4,-1.1623919010162354,0.1226577758789062,2.485724687576294,0.0017194956552704,0.1744059336565988,0.0020070419312974,0.4199641942977905,-0.0568658486008644,0.0404047966003418,-1.100675521247082,0.1172850965263286,2.47,0.2983111968822912,-0.0317872586841785,0.0,1.6290521445126636,1.627698540687561,-0.0596120953559875,-0.0292360782623291,12.930850935780654,-1.272007802167785,0.0453097153562838,-2.004930803559141
0.42,-1.1521809101104736,0.1215233877301216,2.4869940280914307,-0.0022584591185995,0.1243732112684743,0.00048137758638,0.4457482695579529,-0.0531776435673236,0.0467884540557861,-1.094709297309436,0.116649351352645,2.47,0.2983111968822912,-0.0317872586841785,0.0,1.3408695647783957,1.2892037630081177,0.1844102516770362,0.3191828727722168,12.58253046417667,-1.2151381082903494,0.0317614347952075,-2.2486627825381302
0.44,-1.1418023109436035,0.1204264163970947,2.488743305206299,-0.0070537494203224,0.0751619279504931,-0.001626208607673,0.4632657766342163,-0.0502055883407592,0.0679188966751098,-1.0887430733717902,0.1160136061789614,2.47,0.2983111968822912,-0.0317872586841785,0.0,1.3803910421735763,0.8758753538131714,0.1486027613282203,1.0565221309661863,12.890171390612068,-1.0943357668728269,0.0459802895068496,-2.2555465469885085
0.46,-1.1365203857421875,0.1199647188186645,2.489575862884521,-0.0085812377999281,0.0528553655023715,-0.0012783428642473,0.4678523540496826,-0.0488525815308094,0.0743401050567627,-1.0827768494341443,0.1153778610052778,2.47,0.2983111968822912,-0.0317872586841785,0.0,0.4003099951801258,0.2293288707733154,0.0676503404974937,0.3210604190826416,12.448174537817977,-0.8951489579793538,0.0350294311484576,-2.23736415837737
0.48,-1.1262872219085691,0.119055300951004,2.491462230682373,-0.0110931503207813,0.0086780278656972,-0.0026385973786298,0.4651674628257751,-0.0440083444118499,0.0782346725463867,-1.0768106254964984,0.1147421158315943,2.47,0.2983111968822912,-0.0317872586841785,0.0,0.3385370366745567,-0.1342445611953735,0.2422118559479713,0.1947283744812011,12.255788891643078,-0.8951489579793538,0.0350294311484576,-2.23736415837737
0.5,-1.1164110898971558,0.1181292310357093,2.493682622909546,-0.0124505268903783,-0.0301311615642457,-0.0023987753234237,0.4524591565132141,-0.0412984751164913,0.0924021005630493,-1.0708444015588523,0.1141063706579107,2.47,0.2983111968822912,-0.0317872586841785,0.0,0.9611977652116168,-0.6354153156280518,0.1354934647679329,0.7083714008331299,12.2842890649722,-0.8101146342964423,0.0423357472576771,-2.317452398678334
0.52,-1.1068902015686035,0.1174254119396209,2.4960649013519287,-0.0128380481170191,-0.059362790477942,-0.0027121069910189,0.4364329576492309,-0.0366725027561187,0.1035600900650024,-1.0648781776212066,0.1134706254842271,2.47,0.2983111968822912,-0.0317872586841785,0.0,1.003418407286514,-0.8013099431991577,0.2312986180186271,0.5578994750976562,11.330627296194509,-0.7421001055474813,0.0364441125693065,-2.3036729311175805
0.54,-1.0981831550598145,0.1168817579746246,2.498901844024658,-0.0139713925094114,-0.0786881098263889,-0.0033550239751877,0.4101285338401794,-0.0280681438744068,0.1174324750900268,-1.0589119536835607,0.1128348803105435,2.47,0.2983111968822912,-0.0317872586841785,0.0,1.5479024274595066,-1.3152211904525757,0.430217944085598,0.6936192512512207,11.881358889852436,-0.6565849224025485,0.0428107424363781,-2.353548642866919
0.56,-1.0940568447113037,0.1165599673986435,2.500195026397705,-0.0122014129400785,-0.0829833338329611,-0.0040584267372016,0.3911492228507995,-0.0300663895905017,0.1192563772201538,-1.0529457297459148,0.11219913513686,2.47,0.2983111968822912,-0.0317872586841785,0.0,0.9585586191696488,-0.948965549468994,-0.0999122858047485,0.0911951065063476,10.763372167099988,-0.6089184764924991,0.0639381407483757,-2.2503880949258472
0.58,-1.0863823890686035,0.1160325035452842,2.502906560897827,-0.008785776588159,-0.0820909414506236,-0.0043685690137883,0.3621169924736023,-0.0252167880535125,0.1221746206283569,-1.046979505808269,0.1115633899631764,2.47,0.2983111968822912,-0.0317872586841785,0.0,1.4789398063577035,-1.4516115188598633,0.2424800768494606,0.1459121704101562,11.15026903498756,-0.5360937912895984,0.0327440758337408,-2.335059629091476
0.6,-1.0795245170593262,0.1156493350863456,2.505611658096313,-0.0054513832012708,-0.068791625268938,-0.0032325672215986,0.3269773721694946,-0.0204892270267009,0.1218742132186889,-1.041013281870623,0.1109276447894928,2.47,0.2983111968822912,-0.0317872586841785,0.0,1.7728740740608646,-1.7569810152053833,0.23637805134058,-0.0150203704833984,10.731395256522774,-0.5316891878675937,0.0462865234012573,-2.337855791721468
0.62,-1.0732895135879517,0.1153269931674003,2.508347272872925,-0.0017289654406929,-0.0445015420685241,-0.0027930337742456,0.2945896983146667,-0.015873983502388,0.1224160194396972,-1.0350470579329771,0.1102918996158092,2.47,0.2983111968822912,-0.0317872586841785,0.0,1.635967179145518,-1.619383692741394,0.2307621762156486,0.027090311050415,10.443714328128864,-0.5766079313706557,0.0577503359659681,-2.2012250333615824
0.64,-1.067501187324524,0.1149747744202613,2.5109457969665527,0.0014684981208829,-0.0134286157688763,-0.0022435631928901,0.2705249190330505,-0.0151776149868965,0.1200181245803833,-1.0290808339953312,0.1096561544421257,2.47,0.2983111968822912,-0.0317872586841785,0.0,1.2096987545858235,-1.2032389640808103,0.0348184257745742,-0.1198947429656982,11.61748427255452,-0.6385404626635142,0.0753968357600799,-2.17193024238728
0.66,-1.0648027658462524,0.1148840487003326,2.511937141418457,0.0049945838873161,0.0071733040995213,-0.0013915772667429,0.2595868706703186,-0.0144669972360134,0.1140689849853515,-1.0231146100576851,0.1090204092684421,2.47,0.2983111968822912,-0.0317872586841785,0.0,0.6235746577084962,-0.5469024181365967,0.0355308875441551,-0.2974569797515869,10.451044969162467,-0.7026595169390762,0.0768320351508984,-2.0769481811133077
0.68,-1.0597593784332275,0.1148680746555328,2.513840436935425,0.0092445025705246,0.0471557829090554,4.7323233091517314e-05,0.2360022068023681,-0.0085191987454891,0.0955027341842651,-1.0171483861200394,0.1083846640947585,2.47,0.2983111968822912,-0.0317872586841785,0.0,1.5299659681320794,-1.179233193397522,0.2973899245262146,-0.9283125400543212,10.367868868152982,-0.6869800379130119,0.0781770021543197,-2.022246993415524
0.7000000000000001,-1.0547449588775637,0.1145829930901527,2.5153167247772217,0.0134105500212785,0.0880985263088682,0.0007963223414284,0.2263006567955017,-0.0067737512290477,0.0760406255722045,-1.0111821621823935,0.107748918921075,2.47,0.2983111968822912,-0.0317872586841785,0.0,1.0908028364420663,-0.4850775003433227,0.0872723758220672,-0.9731054306030272,10.51086265105323,-0.8108863702017217,0.1157047990990012,-1.9873960768346053
0.72,-1.049799919128418,0.1144655048847198,2.5164263248443604,0.0172461140995651,0.1311440883752552,0.0018657411196839,0.2240878343582153,-0.0090578198432922,0.0581824779510498,-1.0052159382447476,0.1071131737473914,2.47,0.2983111968822912,-0.0317872586841785,0.0,0.9069550554361706,-0.1106411218643188,-0.114203430712223,-0.8929073810577393,10.71246041674476,-0.8831563848278963,0.1277350771106706,-1.920690917348849
0.74,-1.0446579456329346,0.1142748817801475,2.517284393310547,0.0206960412266844,0.1648341700606058,0.0028302259463855,0.2269577980041504,-0.0069325044751167,0.0442725419998168,-0.999249714307102,0.1064774285737078,2.47,0.2983111968822912,-0.0317872586841785,0.0,0.7180528791645391,0.1434981822967529,0.1062657684087753,-0.6954967975616455,11.00807278139746,-0.9727966621450423,0.1212619771193361,-1.990427608190504
0.76,-1.0420238971710205,0.114097349345684,2.517415761947632,0.0246377784978953,0.1798346405275487,0.0029063227139716,0.2315148711204528,-0.0102847628295421,0.0326049327850341,-0.993283490369456,0.1058416834000242,2.47,0.2983111968822912,-0.0317872586841785,0.0,0.6483395257328997,0.2278536558151245,-0.1676129177212715,-0.5833804607391357,11.336729873557488,-1.047542544536157,0.1456447637120012,-1.8975424705673685
0.78,-1.0363569259643557,0.1138080358505249,2.517613410949707,0.02820991660579,0.2070308212675708,0.0038914654457734,0.2460846304893493,-0.0105179473757743,0.0125420093536376,-0.9873172664318104,0.1052059382263407,2.47,0.2983111968822912,-0.0317872586841785,0.0,1.2398116386312743,0.7284879684448242,-0.0116592273116111,-1.0031461715698242,11.337268539843537,-1.126312235253187,0.1397555433410379,-1.79482184652868
0.8,-1.0302015542984009,0.1135467737913131,2.517541885375977,0.0311304127629735,0.2221304252627821,0.0056134228880771,0.2660027146339416,-0.0123879499733448,0.0028377771377563,-0.9813510424941644,0.1045701930526571,2.47,0.2983111968822912,-0.0317872586841785,0.0,1.1117543665371052,0.9959042072296144,-0.0935001298785209,-0.4852116107940674,11.45960770981128,-1.1593118640002198,0.1543498400450721,-1.7365370613459807
0.8200000000000001,-1.0234750509262085,0.1130521744489669,2.516997098922729,0.0322495627589628,0.2271553219374139,0.004934203939635,0.2898421883583069,-0.0170068815350532,-0.0138670206069946,-0.9753848185565188,0.1039344478789735,2.47,0.2983111968822912,-0.0317872586841785,0.0,1.4736903541106288,1.1919736862182615,-0.2309465780854225,-0.8352398872375488,11.741795294748954,-1.1858753562776534,0.1634541707563736,-1.6617379284168163
0.84,-1.0163134336471558,0.1124251335859298,2.5158908367156982,0.034558129305728,0.2236529952518296,0.0045039502107068,0.3124827146530151,-0.0252369046211242,-0.0371485948562622,-0.9694185946188728,0.1032987027052899,2.47,0.2983111968822912,-0.0317872586841785,0.0,1.6750809013468548,1.1320263147354126,-0.4115011543035507,-1.164078712463379,11.90890970311102,-1.1993660243254236,0.1566086155005889,-1.6633103608143331
0.86,-1.012380838394165,0.1120892912149429,2.515583276748657,0.032820562508441,0.2159597282536764,0.0038117161580949,0.3266474604606628,-0.0251089967787265,-0.039723515510559,-0.9634523706812272,0.1026629575316064,2.47,0.2983111968822912,-0.0317872586841785,0.0,0.7198725591855559,0.7082372903823853,0.0063953921198844,-0.1287460327148437,12.148207857621856,-1.2226756095387594,0.1328423171214872,-1.7426054323918558
0.88,-1.004303216934204,0.1113922223448753,2.5145630836486816,0.0331717254632797,0.199033623933453,0.0027663093238122,0.3505405783653259,-0.0313563644886016,-0.0482422113418579,-0.9574861467435812,0.1020272123579228,2.47,0.2983111968822912,-0.0317872586841785,0.0,1.3062148226600303,1.1946558952331543,-0.3123683854937553,-0.4259347915649414,12.381293739406829,-1.280915497793589,0.1611690890243449,-1.694453366593821
0.9,-0.9957094192504884,0.1105740517377853,2.513566493988037,0.0302839255344377,0.1745187297759458,0.0005664083944434,0.375106930732727,-0.0340928882360458,-0.0453776121139526,-0.9515199228059356,0.1013914671842392,2.47,0.2983111968822912,-0.0317872586841785,0.0,1.2441866415415297,1.2283176183700562,-0.1368261873722076,0.1432299613952636,12.440802278768388,-1.2543260724429952,0.1484310682392722,-1.7058030858051791
0.92,-0.9867745041847228,0.1097470596432685,2.5127031803131104,0.0277903192274208,0.1453367995102662,-0.0015957578622053,0.394396036863327,-0.0370161607861518,-0.041847825050354,-0.9455536988682898,0.1007557220105556,2.47,0.2983111968822912,-0.0317872586841785,0.0,0.9913053697449912,0.9644553065299988,-0.1461636275053024,0.1764893531799316,12.91212447405087,-1.136864208835881,0.1578153607391972,-1.683015085377582
0.94,-0.9773861169815063,0.1085385158658027,2.5118775367736816,0.0229299632514466,0.1132812564577528,-0.0034403803686426,0.4122743010520935,-0.0457995571196079,-0.038001537322998,-0.939587474930644,0.1001199768368721,2.47,0.2983111968822912,-0.0317872586841785,0.0,1.0143647160113418,0.893913209438324,-0.4391698166728019,0.1923143863677978,12.467420932411189,-1.136864208835881,0.1578153607391972,-1.683015085377582
0.96,-0.9727355241775512,0.1080262139439582,2.5117976665496826,0.0180209044459646,0.0957010385860866,-0.0046147655709274,0.4167911410331726,-0.0447489693760871,-0.0311511754989624,-0.9336212509929982,0.0994842316631885,2.47,0.2983111968822912,-0.0317872586841785,0.0,0.4136213097197593,0.225841999053955,0.0525293871760368,0.3425180912017822,12.359170747999087,-1.0340549742209366,0.1372425087220031,-1.7705300693684047
0.98,-0.963181734085083,0.1069506406784057,2.511503219604492,0.0131932854303689,0.0609444391490966,-0.0057101537456182,0.4243898391723633,-0.0496220402419567,-0.0153905153274536,-0.9276550270553524,0.0988484864895049,2.47,0.2983111968822912,-0.0317872586841785,0.0,0.908137437445607,0.3799349069595337,-0.2436535432934761,0.7880330085754395,13.203421193776649,-1.0340549742209366,0.1372425087220031,-1.7705300693684047
1.0,-0.9540255069732666,0.1058533266186714,2.51132607460022,0.0062502769213476,0.0337791275870908,-0.0076257489006954,0.420975387096405,-0.0488899648189544,-0.010610818862915,-0.9216888031177066,0.0982127413158213,2.47,0.2983111968822912,-0.0317872586841785,0.0,0.2959726156973905,-0.1707226037979126,0.0366037711501121,0.2389848232269287,11.94187724364292,-0.952232563165729,0.1112111933848626,-1.7744933566410754
1.02,-0.9449443817138672,0.1047359406948089,2.5117993354797363,0.0015630333935685,0.0070378174523185,-0.0087901585506313,0.4103404283523559,-0.049830749630928,0.0066626071929931,-0.9157225791800608,0.0975769961421378,2.47,0.2983111968822912,-0.0317872586841785,0.0,1.015330822021811,-0.5317479372024536,-0.0470392405986785,0.8636713027954102,11.698961245759165,-0.9005718865854901,0.1106736735568229,-1.8965129240231904
1.04,-0.9362443089485168,0.1037319973111152,2.5121586322784424,-0.0025451226213694,-0.0103084345075963,-0.0089983061432075,0.4000769555568695,-0.0477299094200134,0.0187325477600097,-0.909756355242415,0.0969412509684542,2.47,0.2983111968822912,-0.0317872586841785,0.0,0.7991180587166067,-0.5131736397743225,0.1050420105457305,0.6034970283508301,13.028944382640477,-0.8691754539561376,0.097022704684208,-1.9104915155574265
1.06,-0.9320966601371764,0.1032534837722778,2.5126352310180664,-0.0065747551864302,-0.0154606243469917,-0.0085150391023182,0.3917272388935089,-0.047084167599678,0.027015209197998,-0.9037901313047692,0.0963055057947706,2.47,0.2983111968822912,-0.0317872586841785,0.0,0.5889338489025524,-0.4174858331680298,0.0322870910167694,0.414133071899414,13.578018412286838,-0.8125065175369096,0.0939051053313564,-1.909878306530096
1.08,-0.9241762161254884,0.1023942455649375,2.5137593746185303,-0.012714348758458,-0.0192897293075998,-0.00889337615388,0.3690692782402038,-0.0412429869174957,0.0433391332626342,-0.8978239073671235,0.095669760621087,2.47,0.2983111968822912,-0.0317872586841785,0.0,1.4265106638197886,-1.132898032665253,0.2920590341091156,0.8161962032318115,11.647003849828709,-0.7456522657780923,0.0778468286540779,-2.0521638848737385
1.1,-0.9167253375053406,0.1014900356531143,2.5148696899414062,-0.0134525756599337,-0.01762199368065,-0.0080157592352563,0.3458547592163086,-0.039677582681179,0.0502753257751464,-0.8918576834294777,0.0950340154474035,2.47,0.2983111968822912,-0.0317872586841785,0.0,1.213955467165604,-1.1607259511947632,0.078270211815834,0.3468096256256103,11.324365913711064,-0.7467195831843777,0.0831657254353572,-1.9581848971670808
1.12,-0.9095842838287354,0.1008633896708488,2.5163216590881348,-0.0125139922803985,-0.0034298001729081,-0.0075970738659558,0.3283184766769409,-0.0344442576169967,0.057651400566101,-0.8858914594918319,0.0943982702737199,2.47,0.2983111968822912,-0.0317872586841785,0.0,0.986553819932909,-0.8768141269683838,0.2616662532091141,0.3688037395477295,13.626341162325843,-0.7916623780746717,0.069560419253053,-1.952808129293488
1.14,-0.9031113386154176,0.1001052260398864,2.518293619155884,-0.0098017592956733,0.0105801821951936,-0.0068061475083838,0.3063149750232696,-0.0311582162976264,0.0770384073257446,-0.8799252355541861,0.0937625251000363,2.47,0.2983111968822912,-0.0317872586841785,0.0,1.4754729611841313,-1.1001750826835632,0.1643020659685135,0.9693503379821776,11.021447741826703,-0.7935482667117328,0.0693686663255521,-2.0227236125364847
1.16,-0.8999949097633362,0.1000005304813385,2.5193021297454834,-0.0045652300782538,0.0197290776235411,-0.0044841450387105,0.2940626442432403,-0.0292707793414592,0.0858306884765625,-0.8739590116165403,0.0931267799263527,2.47,0.2983111968822912,-0.0317872586841785,0.0,0.7599115666342142,-0.6126165390014648,0.094371847808361,0.4396140575408935,10.890152172710714,-0.8339548014686327,0.0627912110370832,-2.108538272220948
1.18,-0.8939810395240784,0.0994974002242088,2.521341323852539,0.00309940723932,0.0381801767432636,-0.0043221065853263,0.2779828011989593,-0.0250861980020999,0.0913667678833007,-0.8679927876788945,0.0924910347526692,2.47,0.2983111968822912,-0.0317872586841785,0.0,0.8756715259047451,-0.8039921522140503,0.2092290669679641,0.276803970336914,10.56828958990718,-0.8429855886238766,0.0633505004873245,-2.044144884187283
1.2,-0.8883139491081238,0.0990818217396736,2.5235486030578613,0.0109945126047046,0.0552362489899246,-0.0029871187965242,0.262821614742279,-0.0206709466874599,0.0955456495285034,-0.8620265637412488,0.0918552895789856,2.47,0.2983111968822912,-0.0317872586841785,0.0,0.8167298677504519,-0.7580593228340149,0.2207625657320022,0.2089440822601318,10.572448913660535,-0.89137729700831,0.0864993274624182,-1.952789904639268
1.22,-0.8826853036880493,0.0987131372094154,2.52555513381958,0.0175411051863004,0.071969017230085,-0.0011563401651499,0.2541540563106537,-0.0176459178328514,0.0948107242584228,-0.856060339803603,0.091219544405302,2.47,0.2983111968822912,-0.0317872586841785,0.0,0.4604820406092326,-0.4333779215812683,0.1512514427304268,-0.0367462635040283,10.792670527884638,-0.9630773788087212,0.1200090488848027,-2.1394060078892667
1.24,-0.8772116899490356,0.0983135923743248,2.52744460105896,0.0222355100807216,0.0910488886801914,-0.0017620715387609,0.249800831079483,-0.0172851607203483,0.0876599550247192,-0.8500941158659572,0.0905837992316184,2.47,0.2983111968822912,-0.0317872586841785,0.0,0.4189696177564803,-0.2176612615585327,0.0180378556251525,-0.3575384616851806,10.788059318790602,-0.9983350121119294,0.1479644578821739,-2.0307122264579918
1.26,-0.8744062781333923,0.0980601906776428,2.5283849239349365,0.0233373748462608,0.1000568839500133,-0.0002015754551082,0.2509595453739166,-0.0196032598614692,0.0852835178375244,-0.8441278919283114,0.0899480540579349,2.47,0.2983111968822912,-0.0317872586841785,0.0,0.1758099552704047,0.0579357147216796,-0.1159049570560455,-0.1188218593597412,10.597757244280729,-1.0397105282036945,0.1674094025716701,-1.989437278569188
1.28,-0.8689947724342346,0.0976446866989135,2.5295450687408447,0.0270105029185145,0.1211414091421594,-9.40996308421371e-05,0.2480573952198028,-0.0205324776470661,0.0664275884628295,-0.8381616679906656,0.0893123088842513,2.47,0.2983111968822912,-0.0317872586841785,0.0,0.9550287872540428,-0.1451075077056884,-0.0464608892798423,-0.9427964687347412,10.584961767183811,-1.0136916382975212,0.1556857826135366,-1.7984513192387372
1.3,-0.8632776141166687,0.0969913899898529,2.53064513206482,0.0251046478834868,0.1376078006146755,0.0009131860394591,0.2503949403762817,-0.0240480154752731,0.0508546829223632,-0.8321954440530198,0.0886765637105677,2.47,0.2983111968822912,-0.0317872586841785,0.0,0.8067504424424238,0.116877257823944,-0.1757768914103508,-0.7786452770233154,10.685437358595664,-1.070492119788763,0.1672661101833622,-1.7838575876874656
1.32,-0.8573894500732422,0.0963795557618141,2.531299114227295,0.0239431730716006,0.1485772629485128,0.0008715385218374,0.2611197531223297,-0.0284654460847377,0.0394660234451293,-0.826229220115374,0.0880408185368841,2.47,0.2983111968822912,-0.0317872586841785,0.0,0.8127682116009728,0.5362406373023987,-0.2208715304732322,-0.5694329738616943,10.965684279652578,-1.104336848855038,0.1570517016607333,-1.7563562417691014
1.34,-0.8513726592063904,0.0957222580909729,2.531437397003174,0.0233863835351746,0.1602880286237087,0.0015300945454535,0.2678614854812622,-0.0285554677248001,0.017825961112976,-0.8202629961777282,0.0874050733632006,2.47,0.2983111968822912,-0.0317872586841785,0.0,1.133304192212574,0.3370866179466247,-0.0045010820031166,-1.082003116607666,10.922569346722412,-1.0974275888540068,0.1412841232975725,-1.7052801274615952
1.36,-0.8481607437133789,0.0953698903322219,2.5314829349517822,0.0210518921392115,0.1630245311718006,0.0016889995401663,0.2742666006088257,-0.0305138155817985,0.0118607282638549,-0.8142967722400823,0.086769328189517,2.47,0.2983111968822912,-0.0317872586841785,0.0,0.4484546495204009,0.3202557563781738,-0.0979173928499221,-0.2982616424560547,11.031785214277988,-1.1334161381697327,0.1545072921758515,-1.714341496552275
1.38,-0.8416547179222107,0.0945916324853897,2.530952453613281,0.0198671365111194,0.1671298838034506,0.0005199193944052,0.2869346737861633,-0.0338464602828025,-0.0087010860443115,-0.8083305483024366,0.0861335830158334,2.47,0.2983111968822912,-0.0317872586841785,0.0,1.2189901623608703,0.6334036588668823,-0.1666322350502014,-1.0280907154083252,11.236295447571138,-1.163355321815297,0.1497867559982716,-1.6128401703046902
1.4,-0.83479905128479,0.0937839895486831,2.5301225185394287,0.017938296043567,0.1664720466428852,0.0019184665803836,0.3006380796432495,-0.0356827676296234,-0.0306093692779541,-0.8023643243647908,0.0854978378421498,2.47,0.2983111968822912,-0.0317872586841785,0.0,1.295307136359478,0.6851702928543091,-0.0918153673410415,-1.095414161682129,11.365068453459571,-1.1656689966299556,0.1377475863649178,-1.6313179148130346
1.42,-0.8276596665382385,0.0929298549890518,2.5289835929870605,0.0152304431353846,0.1610949544123874,0.0004559302833085,0.3148886561393738,-0.0373899936676025,-0.0442993640899658,-0.7963981004271451,0.0848620926684663,2.47,0.2983111968822912,-0.0317872586841785,0.0,0.991727670746298,0.7125288248062134,-0.0853613018989563,-0.6844997406005859,11.555561883338669,-1.1571873202232272,0.1309573522996553,-1.6694742785249772
1.44,-0.8201568126678467,0.0921484902501106,2.527611017227173,0.0145657428273816,0.1552829525660332,0.0015356272643837,0.3294503688812256,-0.0367987342178821,-0.0565087795257568,-0.7904318764894993,0.0842263474947827,2.47,0.2983111968822912,-0.0317872586841785,0.0,0.9506088719826162,0.7280856370925903,0.0295629724860191,-0.6104707717895508,11.829558263183571,-1.1469850346481143,0.1258509545083403,-1.6729553306154807
1.46,-0.8163596987724304,0.0916817560791969,2.52689266204834,0.01344861075156,0.1500500397090035,-8.91605623988484e-06,0.336255133152008,-0.0386814773082733,-0.0599044561386108,-0.7844656525518535,0.0835906023210991,2.47,0.2983111968822912,-0.0317872586841785,0.0,0.3917274498436923,0.3402382135391235,-0.0941371545195579,-0.1697838306427002,11.809421972217024,-1.1281259551692295,0.1336554245205035,-1.6761126591725313
1.48,-0.8084661364555359,0.090764544904232,2.525476694107056,0.0099224492895038,0.1387511235479671,-0.0005933809748166,0.3481172025203705,-0.0403214804828166,-0.0620770454406738,-0.7784994286142077,0.0829548571474155,2.47,0.2983111968822912,-0.0317872586841785,0.0,0.6085196060682702,0.5931034684181213,-0.082000158727169,-0.1086294651031494,12.162257456153384,-1.1457740522497113,0.1220923521811478,-1.635761783301626
1.5,-0.8003304600715637,0.0898191705346107,2.5237433910369877,0.0077002596300417,0.1252551991236418,-0.0013050974312151,0.3606578707695007,-0.041908174753189,-0.0708585977554321,-0.772533204676562,0.082319111973732,2.47,0.2983111968822912,-0.0317872586841785,0.0,0.769580437477482,0.6270334124565125,-0.0793347135186195,-0.439077615737915,12.407174126889004,-1.117293893221756,0.1080096801906188,-1.603951209460087
1.52,-0.7920895218849182,0.0889897793531417,2.522132873535156,0.0069368116453421,0.1085370773332402,-0.0011811328714107,0.3684738278388977,-0.0399322248995304,-0.0752359628677368,-0.7665669807389162,0.0816833668000484,2.47,0.2983111968822912,-0.0317872586841785,0.0,0.4586798667405527,0.3907978534698486,0.0987974926829338,-0.2188682556152343,12.23314696833404,-1.082054643236842,0.0964327090358221,-1.662731849786975
1.54,-0.7837859988212585,0.088202841579914,2.5205564498901367,0.0081388380322795,0.0921380941234828,-0.0016395694465455,0.3722503781318664,-0.0363674014806747,-0.0717061758041381,-0.7606007568012704,0.0810476216263648,2.47,0.2983111968822912,-0.0317872586841785,0.0,0.3139653437773523,0.1888275146484375,0.1782411709427833,0.1764893531799316,12.545265452064086,-1.0590150565276348,0.1073697602240316,-1.7267480400029198
1.56,-0.7796056270599365,0.0876779034733772,2.5197973251342773,0.0077169105139679,0.0832661661269797,-0.0017967557590111,0.3719285130500793,-0.0417502596974372,-0.0709712505340576,-0.7546345328636246,0.0804118764526812,2.47,0.2983111968822912,-0.0317872586841785,0.0,0.2721161280834197,-0.0160932540893554,-0.2691429108381271,0.0367462635040283,13.173513949056542,-1.0397641842436869,0.1283760257328626,-1.7351687387677337
1.58,-0.7712405323982239,0.0868045017123222,2.5183708667755127,0.0075482105468511,0.0660330142655993,-0.0027996378328076,0.374271422624588,-0.0408537313342094,-0.0639492273330688,-0.7486683089259788,0.0797761312789977,2.47,0.2983111968822912,-0.0317872586841785,0.0,0.3728330665848355,0.1171454787254333,0.0448264181613922,0.3511011600494385,11.97889669489632,-1.0369749502794985,0.0913438262017237,-1.7951564390172825
1.6,-0.7630724310874939,0.086111269891262,2.517143964767456,0.0080786495464356,0.0498200658599149,-0.0033844075250118,0.3719969093799591,-0.0352492555975914,-0.059700608253479,-0.742702084988333,0.0791403861053141,2.47,0.2983111968822912,-0.0317872586841785,0.0,0.3695751711958864,-0.1137256622314453,0.2802237868309021,0.2124309539794922,11.976563414773407,-0.9921623018492745,0.0980863686139829,-1.85276476629586
1.62,-0.7550985813140869,0.0851856768131256,2.516247034072876,0.0082966303412529,0.037631715532795,-0.0036849120057981,0.3631938993930816,-0.036423560231924,-0.0477862358093261,-0.7367358610506872,0.0785046409316305,2.47,0.2983111968822912,-0.0317872586841785,0.0,0.7430078178277592,-0.440150499343872,-0.0587152317166328,0.5957186222076416,12.61624683001537,-0.9600632101636912,0.1329379874903621,-1.8979666863917088
1.64,-0.7472642064094543,0.084336869418621,2.5154082775115967,0.0066487815950617,0.0287922399389549,-0.0034429788548009,0.3556850552558899,-0.0399240106344223,-0.0390529632568359,-0.7307696371130414,0.0778688957579469,2.47,0.2983111968822912,-0.0317872586841785,0.0,0.601884421573338,-0.3754422068595886,-0.1750225201249122,0.4366636276245117,12.186130964587392,-0.9505995302039324,0.121081159696016,-1.9148242545909264
1.66,-0.7435348033905029,0.083822414278984,2.514963150024414,0.0055028315737875,0.0271163599124215,-0.0049909362200147,0.3494784235954284,-0.0391049310564994,-0.0361990928649902,-0.7248034131753956,0.0772331505842634,2.47,0.2983111968822912,-0.0317872586841785,0.0,0.3440121514462314,-0.3103315830230713,0.040953978896141,0.1426935195922851,11.850483975985298,-0.9300040392553628,0.0979723192641331,-2.0470631360893905
1.68,-0.7361896634101868,0.0830081030726432,2.5145623683929443,0.0054490300657056,0.0254243350574809,-0.0027096794695678,0.3358581662178039,-0.0378235056996345,-0.0240272283554077,-0.71883718923775,0.0765974054105798,2.47,0.2983111968822912,-0.0317872586841785,0.0,0.9155705156043225,-0.6810128688812256,0.0640712678432464,0.608593225479126,11.911561197224728,-0.8825162317760462,0.0962077343392314,-2.0249075405015557
1.7,-0.7292109131813049,0.0822291523218154,2.514049768447876,0.0061185762888048,0.0287258305342073,-0.003468791553181,0.3222875297069549,-0.035848394036293,-0.0205510854721069,-0.7128709653001041,0.0759616602368962,2.47,0.2983111968822912,-0.0317872586841785,0.0,0.7073662607471788,-0.67853182554245,0.0987555831670761,0.173807144165039,11.588456294359275,-0.9078345599780556,0.1048273077981443,-1.9954293526740583
1.72,-0.7223793864250183,0.0816068351268768,2.513856172561645,0.0062051469333159,0.0353030895318402,-0.0016330986009233,0.3107312321662903,-0.0315285287797451,-0.0158894062042236,-0.7069047413624583,0.0753259150632126,2.47,0.2983111968822912,-0.0317872586841785,0.0,0.6594325255090835,-0.5778148770332336,0.2159932628273964,0.233083963394165,11.632739858937384,-0.9159495043803844,0.1118657239998381,-2.0614491069750702
1.74,-0.7157819271087646,0.0808397680521011,2.5136611461639404,0.0045776808021169,0.0471400815177321,-0.0017270417452364,0.3021521866321563,-0.031261146068573,-0.0087440013885498,-0.7009385174248125,0.0746901698895291,2.47,0.2983111968822912,-0.0317872586841785,0.0,0.5584091818971808,-0.4289522767066955,0.0133691355586051,0.3572702407836914,11.508790028077785,-0.9230037409680514,0.1324832988671302,-2.061555855480326
1.76,-0.7126060724258423,0.0804871395230293,2.513721704483032,0.0031533237760612,0.0529200968700914,-0.0008324688295645,0.2952682971954345,-0.0319625437259674,-0.0065714120864868,-0.6949722934871667,0.0740544247158455,2.47,0.2983111968822912,-0.0317872586841785,0.0,0.3626294138864321,-0.3441944718360901,-0.0350698828697204,0.1086294651031494,11.462780707933234,-0.932069433130825,0.1258067156946033,-2.0200059977939504
1.78,-0.7064580917358398,0.0798084288835525,2.513528823852539,0.005817590775901,0.0678978759727316,0.0004983991496501,0.2828791737556457,-0.0303247198462486,-0.0042110681533813,-0.6890060695495209,0.0734186795421619,2.47,0.2983111968822912,-0.0317872586841785,0.0,0.63589321066876,-0.6194561719894409,0.081891193985939,0.1180171966552734,11.37647067403941,-0.9399004280693544,0.1117779127484028,-2.0179627801934803
1.8,-0.7002560496330261,0.0792660266160965,2.5134148597717285,0.0091051553845358,0.0803717923070817,0.0026022319261686,0.2778755128383636,-0.0274750404059886,-0.0069040060043334,-0.6830398456118751,0.0727829343684784,2.47,0.2983111968822912,-0.0317872586841785,0.0,0.3178411936662212,-0.2501830458641052,0.1424839720129966,-0.1346468925476074,11.593786443221688,-0.9974031255534974,0.1171239313925709,-1.9765386368220677
1.82,-0.6941026449203491,0.0785278230905532,2.513197422027588,0.0103059384350495,0.0945571727223916,0.0027111915352365,0.2779975533485412,-0.0288136303424835,-0.0074565410614013,-0.6770736216742292,0.0721471891947948,2.47,0.2983111968822912,-0.0317872586841785,0.0,0.0726638130966616,0.0061020255088806,-0.0669294968247413,-0.0276267528533935,11.552108979561126,-1.0214866651501908,0.1323582957019331,-1.9653313640633856
1.84,-0.688065230846405,0.0778548270463943,2.5129523277282715,0.014150945692897,0.1065666365053919,0.0044818687788463,0.2742934226989746,-0.0317519903182983,-0.0104069709777832,-0.6711073977365835,0.0715114440211112,2.47,0.2983111968822912,-0.0317872586841785,0.0,0.2786556114095428,-0.1852065324783325,-0.1469179987907409,-0.1475214958190918,11.596424704456696,-1.0742950226382633,0.1088628122224174,-1.9049834435552488
1.86,-0.684983491897583,0.0774628371000289,2.5127816200256348,0.0162468474019378,0.1123676770071663,0.0032751744021373,0.2751249074935913,-0.029965303838253,-0.0097793340682983,-0.6651411737989377,0.0708756988474276,2.47,0.2983111968822912,-0.0317872586841785,0.0,0.1034111168081461,0.0415742397308349,0.0893343240022659,0.0313818454742431,11.596424704456696,-1.0742950226382633,0.1088628122224174,-1.9049834435552488
1.88,-0.6786848306655884,0.0768440812826156,2.512416362762451,0.0194734007511475,0.1205860390789906,0.0038347942827316,0.2803726494312286,-0.0279409065842628,-0.015605092048645,-0.6591749498612919,0.070239953673744,2.47,0.2983111968822912,-0.0317872586841785,0.0,0.4048963933266557,0.2623870968818664,0.1012198626995086,-0.291287899017334,11.684526598036427,-1.0927018284525818,0.1282588023650654,-1.850929263323983
1.9,-0.6723989844322205,0.0760812684893608,2.5119853019714355,0.0197527653882732,0.1272546961191242,0.0033043822964177,0.2831514179706573,-0.0310852937400341,-0.0179171562194824,-0.6532087259236461,0.0696042085000605,2.47,0.2983111968822912,-0.0317872586841785,0.0,0.239553573920157,0.1389384269714355,-0.1572193577885627,-0.1156032085418701,11.71286053739459,-1.0932004834676738,0.1500200785665083,-1.8567096137183003
1.92,-0.6658971905708313,0.0753538385033607,2.5113956928253174,0.0194259186644211,0.1329055918689271,0.0037451576652177,0.2877219021320343,-0.0335304625332355,-0.0229650735855102,-0.6472425019860004,0.0689684633263769,2.47,0.2983111968822912,-0.0317872586841785,0.0,0.3617652748360778,0.2285242080688476,-0.1222584396600723,-0.2523958683013916,11.873684160626908,-1.1257241111567529,0.1412858280986332,-1.8525896723381845
1.94,-0.6592015624046326,0.0745812952518463,2.510631561279297,0.0204554098992053,0.1353972091940394,0.003383569705213,0.2969419956207275,-0.0337493978440761,-0.0304591655731201,-0.6412762780483546,0.0683327181526933,2.47,0.2983111968822912,-0.0317872586841785,0.0,0.594178995188602,0.4610046744346618,-0.0109467655420303,-0.3747045993804931,12.092889455638216,-1.1450455288202552,0.1467370265049243,-1.88259264616872
1.96,-0.6558032631874084,0.0742567107081413,2.5104458332061768,0.0205941688099572,0.1315748166347569,0.0017342188634854,0.3017927706241607,-0.0351360999047756,-0.0250518321990966,-0.6353100541107088,0.0676969729790098,2.47,0.2983111968822912,-0.0317872586841785,0.0,0.3697709255637483,0.2425387501716613,-0.0693351030349731,0.2703666687011719,12.02094509141807,-1.1450455288202552,0.1467370265049243,-1.88259264616872
1.98,-0.6488458514213562,0.0733611136674881,2.50961709022522,0.0152278657392929,0.1337099660898407,0.0020036292792689,0.3077030181884765,-0.0363124161958694,-0.0302231311798095,-0.6293438301730631,0.0670612278053262,2.47,0.2983111968822912,-0.0317872586841785,0.0,0.3970424392811041,0.2955123782157898,-0.0588158145546913,-0.2585649490356445,12.353240778823874,-1.129534294177006,0.1401788789028217,-1.798026633618536
2.0,-0.6416794061660767,0.0724666640162468,2.508652925491333,0.0133732729611344,0.1303071487262437,0.0008513452740621,0.3177867829799652,-0.0402760505676269,-0.0403404235839843,-0.6233776062354173,0.0664254826316426,2.47,0.2983111968822912,-0.0317872586841785,0.0,0.7412022588245006,0.5041882395744324,-0.1981817185878753,-0.5058646202087402,12.45078202480181,-1.1523343525899057,0.1376736129192658,-1.8049946519513755
2.02,-0.634308934211731,0.071663774549961,2.5075924396514893,0.0135646425698631,0.1259195190189221,0.0013338454574648,0.327080637216568,-0.0381901301443576,-0.0455546379089355,-0.6174113822977715,0.065789737457959,2.47,0.2983111968822912,-0.0317872586841785,0.0,0.5429429565109888,0.4646927118301391,0.1042960211634635,-0.2607107162475586,12.061551492271974,-1.1487168813031263,0.1191749725680661,-1.903265368147409
2.04,-0.6267803311347961,0.070789597928524,2.506799459457397,0.0127682645914331,0.1171595128695508,0.0011548000014644,0.3352291882038116,-0.0377339869737625,-0.0417029857635498,-0.6114451583601257,0.0651539922842755,2.47,0.2983111968822912,-0.0317872586841785,0.0,0.4512265895114247,0.4074275493621826,0.0228071585297584,0.1925826072692871,12.530180317985469,-1.1251014667054875,0.1333700518206319,-1.9454801864571465
2.06,-0.6230825185775757,0.0703597962856292,2.506344795227051,0.0127943540191722,0.1143150378691839,0.0008618733127663,0.3353431820869446,-0.036463625729084,-0.0410860776901245,-0.6054789344224799,0.0645182471105919,2.47,0.2983111968822912,-0.0317872586841785,0.0,0.0708411580303098,0.0056996941566467,0.0635180622339248,0.0308454036712646,12.19865125812612,-1.107164155194292,0.1375771652527905,-1.9386623141287107
2.08,-0.6153146028518677,0.0694010928273201,2.5054759979248047,0.0109442118903518,0.1046747023663834,0.0002474737531316,0.3431698679924011,-0.0410046055912971,-0.0394767522811889,-0.5995127104848341,0.0638825019369083,2.47,0.2983111968822912,-0.0317872586841785,0.0,0.4595308440233987,0.3913342952728271,-0.2270489931106567,0.0804662704467773,12.46343129064826,-1.1487140549029822,0.1502160094383928,-2.014319638752906
2.1,-0.607670247554779,0.0684809535741806,2.504889965057373,0.011928758689231,0.0922539828859416,-0.0006146123156332,0.3467760980129242,-0.042273961007595,-0.032733678817749,-0.5935464865471883,0.0632467567632247,2.47,0.2983111968822912,-0.0317872586841785,0.0,0.3875732120101782,0.1803115010261535,-0.0634677708148956,0.337153673171997,12.48702253169131,-1.1076604231507532,0.1171385865134576,-2.044721686494845
2.12,-0.5999383330345154,0.0675517097115516,2.504179716110229,0.0113413788618829,0.0794412222690335,-0.0022622819149846,0.3459660708904266,-0.0416111201047897,-0.0291663408279418,-0.5875802626095425,0.0626110115895412,2.47,0.2983111968822912,-0.0317872586841785,0.0,0.1858857332821337,-0.0405013561248779,0.0331420451402664,0.1783668994903564,13.089212181869698,-1.0947443000524038,0.1162347327402863,-2.043188889108721
2.14,-0.5923667550086975,0.0666291862726211,2.5034549236297607,0.0132770898954195,0.068901009325274,-0.0021402116245876,0.3443285822868347,-0.0416647642850875,-0.0322884321212768,-0.5816140386718968,0.0619752664158576,2.47,0.2983111968822912,-0.0317872586841785,0.0,0.1762930845842457,-0.0818744301795959,-0.0026822090148925,-0.156104564666748,12.461048147994916,-1.1014559567416442,0.1290047664043445,-2.1307849783118984
2.16,-0.5885593891143799,0.0661868080496788,2.503246784210205,0.0135014007516304,0.0646520100159947,-0.002021679462301,0.3443178534507751,-0.0421401858329772,-0.0257438421249389,-0.575647814734251,0.061339521242174,2.47,0.2983111968822912,-0.0317872586841785,0.0,0.3280922087473544,-0.0005364418029785,-0.0237710773944854,0.3272294998168945,12.424112478256577,-1.0656135885285587,0.1281318394812904,-2.14637953234809
2.18,-0.5811651945114136,0.0652911365032196,2.502652168273926,0.0141691490308987,0.0588225608429757,-0.0022202703788166,0.3352949023246765,-0.0414557196199893,-0.0247299671173095,-0.5696815907966052,0.0607037760684904,2.47,0.2983111968822912,-0.0317872586841785,0.0,0.4552748717856666,-0.4511475563049316,0.0342233106493949,0.0506937503814697,12.309800311384151,-1.029191584040082,0.1290400605628071,-2.156054389544229
2.2,-0.5738946795463562,0.0643901154398918,2.5022494792938232,0.0127605091833155,0.0549363785791394,-0.0027601749114276,0.3299559652805328,-0.0404255837202072,-0.0224393606185913,-0.5637153668589594,0.0600680308948069,2.47,0.2983111968822912,-0.0317872586841785,0.0,0.2950097746911108,-0.2669468522071838,0.051506794989109,0.114530324935913,11.85625038021226,-1.0458570804403269,0.1387596214157986,-2.2066287649458056
2.22,-0.5667462944984436,0.0633479803800582,2.5019421577453613,0.0099007475919456,0.0520501189381883,-0.0037547413330369,0.3244252502918243,-0.0437210127711296,-0.0159752368927001,-0.5577491429213136,0.0594322857211233,2.47,0.2983111968822912,-0.0317872586841785,0.0,0.4561621325242169,-0.2765357494354248,-0.1647714525461197,0.3232061862945556,13.519497011477142,-1.0395000454396497,0.1501991519541606,-2.329547509334997
2.24,-0.5597301125526428,0.0624340288341045,2.5018112659454346,0.0062050045605767,0.053853633956658,-0.0042402103451336,0.318702757358551,-0.0440119504928588,-0.0098598003387451,-0.5517829189836678,0.0587965405474397,2.47,0.2983111968822912,-0.0317872586841785,0.0,0.4190171069739815,-0.2861246466636657,-0.0145468860864639,0.3057718276977539,11.75980288876326,-1.0115694355364495,0.1192775855234003,-2.3170524431224835
2.26,-0.5563795566558838,0.0619039684534072,2.5015811920166016,0.0054042893787883,0.0570350750043784,-0.0053013075622354,0.3130379319190979,-0.0440059974789619,-0.0121557712554931,-0.5458166950460219,0.0581607953737561,2.47,0.2983111968822912,-0.0317872586841785,0.0,0.3056213553909584,-0.2832412719726562,0.0002976506948471,-0.1147985458374023,11.745982488650045,-1.0115694355364495,0.1192775855234003,-2.3170524431224835
2.28,-0.5496101975440979,0.060993954539299,2.501511573791504,0.0052847021087519,0.0638477317087169,-0.0041431135800731,0.3063257038593292,-0.0414585694670677,-0.007338523864746,-0.5398504711083763,0.0575250502000726,2.47,0.2983111968822912,-0.0317872586841785,0.0,0.432288293346549,-0.3356114029884338,0.1273714005947113,0.2408623695373535,12.109607954339026,-1.0105749362911136,0.1136463403060988,-2.349516091376342
2.3000000000000003,-0.5428943037986755,0.0600467026233673,2.501289367675781,0.0039449176085867,0.0712507090573386,-0.0042544020367583,0.3034181892871856,-0.0417884811758995,-0.006566047668457,-0.5338842471707304,0.056889305026389,2.47,0.2983111968822912,-0.0317872586841785,0.0,0.1513208693198384,-0.1453757286071777,-0.0164955854415893,0.0386238098144531,12.461841357802314,-1.016193123798684,0.121580864091483,-2.269096041891883
2.32,-0.5363961458206177,0.0591050237417221,2.501138925552368,0.0021143100747187,0.0801798963370092,-0.0035744087727492,0.297316163778305,-0.0425009429454803,-0.0083845853805542,-0.5279180232330847,0.0562535598527054,2.47,0.2983111968822912,-0.0317872586841785,0.0,0.3203490147263746,-0.3051012754440307,-0.035623088479042,-0.0909268856048584,11.702277553611566,-1.0407898048317938,0.1164843965387165,-2.460787505589533
2.34,-0.529922366142273,0.0583172589540481,2.501023530960083,0.0017026039694677,0.0891791836242611,-0.002763915502786,0.2918685972690582,-0.0389124825596809,-0.0059813261032104,-0.5219517992954389,0.0556178146790218,2.47,0.2983111968822912,-0.0317872586841785,0.0,0.3475941741717562,-0.2723783254623413,0.1794230192899704,0.1201629638671875,11.69098525649042,-1.0571785427409106,0.0993341582535536,-2.3903718564198737
2.36,-0.526739239692688,0.0578582026064395,2.5009539127349854,0.0008235399307202,0.0942205504468258,-0.0023460610410607,0.290750116109848,-0.0380443707108497,-0.0053215026855468,-0.5159855753577931,0.0549820695053383,2.47,0.2983111968822912,-0.0317872586841785,0.0,0.0781022603399947,-0.0559240579605102,0.0434055924415588,0.0329911708831787,11.818856160162795,-1.0888317568494026,0.1125006641893722,-2.319530127996859
2.38,-0.5201548337936401,0.057081289589405,2.500638961791992,0.0001172392167516,0.1022873550352856,-0.0021772266609906,0.292835533618927,-0.035695843398571,-0.0097846984863281,-0.5100193514201473,0.0543463243316547,2.47,0.2983111968822912,-0.0317872586841785,0.0,0.2728766364119682,0.1042708754539489,0.1174263656139373,-0.2231597900390625,11.93242466513766,-1.0984729638944843,0.1042827917421981,-2.295801086653084
2.4,-0.5136832594871521,0.0562979690730571,2.5003130435943604,0.0003434625177406,0.1112077350825659,-0.0017977066140222,0.2937595546245575,-0.0351052545011043,-0.0144195556640625,-0.5040531274825015,0.0537105791579711,2.47,0.2983111968822912,-0.0317872586841785,0.0,0.2381412979863694,0.0462010502815246,0.0295294448733329,-0.2317428588867187,11.879183454188931,-1.105911433738498,0.1057827412585021,-2.35212457378026
2.42,-0.5070363879203796,0.0555327199399471,2.4998953342437744,-4.348172140331421e-05,0.1160933117293451,-0.0017349939243312,0.2951650321483612,-0.0348428189754486,-0.0167316198348999,-0.4980869035448557,0.0530748339842875,2.47,0.2983111968822912,-0.0317872586841785,0.0,0.135921670504685,0.0702738761901855,0.0131217762827873,-0.1156032085418701,11.829739933733435,-1.1192684459173188,0.0960925619891372,-2.3064127980174223
2.44,-0.5002923011779785,0.0549094751477241,2.499276876449585,0.0018317369972545,0.1207802589947194,-0.0015167269176579,0.3012965619564056,-0.031241113319993,-0.0233137607574462,-0.4921206796072098,0.052439088810604,2.47,0.2983111968822912,-0.0317872586841785,0.0,0.4844907649783894,0.3065764904022217,0.1800852827727794,-0.3291070461273193,11.944528990113213,-1.1453634583281698,0.0887861809823521,-2.2736016241069548
2.46,-0.4968109428882599,0.0546323359012603,2.4990129470825195,0.0031762246582421,0.1206090762463873,-0.0007465489891752,0.3039834499359131,-0.0295661576092243,-0.0250303745269775,-0.486154455669564,0.0518033436369204,2.47,0.2983111968822912,-0.0317872586841785,0.0,0.1800805825262858,0.1343443989753723,0.0837477855384349,-0.0858306884765625,12.24866951918102,-1.137191377790645,0.1008263023765574,-2.2576004070874425
2.48,-0.4899429380893707,0.0539230145514011,2.498364210128784,0.0059427863416736,0.1227170552880473,-0.0002536835522851,0.3078485131263733,-0.0293612200766801,-0.0295472145080566,-0.4801882317319181,0.0511675984632368,2.47,0.2983111968822912,-0.0317872586841785,0.0,0.2974161910234981,0.1932531595230102,0.0102468766272068,-0.225841999053955,12.117917495782422,-1.1510993261738809,0.1013278673781186,-2.2261043880369824
2.5,-0.4828718602657318,0.0532368123531341,2.497826099395752,0.0095580556439519,0.121758061765746,-0.0004156224968056,0.3136293590068817,-0.0313992798328399,-0.0267040729522705,-0.4742220077942723,0.0505318532895532,2.47,0.2983111968822912,-0.0317872586841785,0.0,0.3378436049790911,0.2890422940254211,-0.1019029878079891,0.1421570777893066,12.794270673171468,-1.1670423816599422,0.1001882621413894,-2.2303788393583392
2.52,-0.4754760265350342,0.0525608584284782,2.497218608856201,0.0117791109077026,0.1163168435691288,0.0006198398421271,0.3255054950714111,-0.0306485127657651,-0.0257760286331176,-0.4682557838566265,0.0498961081158697,2.47,0.2983111968822912,-0.0317872586841785,0.0,0.5967988046036373,0.593806803226471,0.0375383533537387,0.0464022159576416,12.155617061404882,-1.173891015389274,0.0925570826908649,-2.19476188327252
2.54,-0.4682918488979339,0.0518886148929595,2.4964587688446045,0.0150824086314434,0.1124524691649806,-0.0003045337317031,0.3280502557754516,-0.0303344428539276,-0.0307649374008178,-0.4622895599189806,0.0492603629421861,2.47,0.2983111968822912,-0.0317872586841785,0.0,0.2804623755639354,0.1272380352020263,0.0157034955918788,-0.2494454383850097,12.634334161838524,-1.1183409588667557,0.100530272611535,-2.1576047522720865
2.56,-0.4643800258636474,0.0514993406832218,2.4961836338043213,0.021459993495097,0.1004387875270637,-8.376891657912152e-05,0.3333831429481506,-0.0324579998850822,-0.0262856483459472,-0.4563233359813348,0.0486246177685025,2.47,0.2983111968822912,-0.0317872586841785,0.0,0.3640508566752286,0.2666443586349487,-0.1061778515577316,0.2239644527435302,12.67087064459338,-1.1337866309853653,0.1121170362969035,-2.2068997669582604
2.58,-0.4569123387336731,0.0507970452308654,2.495745897293091,0.0169359199243523,0.1010169246018334,-0.0011888980986333,0.3371362388134002,-0.0288333278149366,-0.0264358520507812,-0.4503571120436889,0.0479888725948189,2.47,0.2983111968822912,-0.0317872586841785,0.0,0.26099107907548,0.1876547932624817,0.1812336035072803,-0.0075101852416992,12.216295461636946,-1.0791555485155138,0.1049281015245831,-2.1574455318792194
2.6,-0.4493631422519684,0.0498924665153026,2.495322704315185,0.017867320562598,0.0934205337163148,-0.0009177890382548,0.3378798961639404,-0.036154668778181,-0.0193709135055542,-0.4443908881060431,0.0473531274211354,2.47,0.2983111968822912,-0.0317872586841785,0.0,0.5100696432913067,0.037182867527008,-0.3660670481622219,0.3532469272613525,12.57626195637704,-1.0841380149866358,0.1323440139189406,-2.243660994781979
2.62,-0.4416741728782654,0.0490840449929237,2.495011806488037,0.0174998495172636,0.0859908370802577,-0.0007873378297825,0.3428587317466736,-0.0385425053536891,-0.0165170431137084,-0.4384246641683972,0.0467173822474518,2.47,0.2983111968822912,-0.0317872586841785,0.0,0.3107858727672385,0.2489417791366577,-0.1193918287754058,0.1426935195922851,12.217369200798204,-1.0880325679945977,0.0991531969467053,-2.209479718009136
2.64,-0.4340929388999939,0.0481879599392414,2.494786739349365,0.0148924107551233,0.0784392484730807,-0.0016197584177426,0.3435795903205871,-0.0383513979613781,-0.012059211730957,-0.4324584402307514,0.0460816370737682,2.47,0.2983111968822912,-0.0317872586841785,0.0,0.2259890470577307,0.0360429286956787,0.0095553696155548,0.2228915691375732,12.359391819474697,-1.051936088481934,0.098682193190871,-2.2541032393689333
2.66,-0.4303840696811676,0.0476241335272789,2.4948930740356445,0.0128425391277546,0.0733201926959921,-0.0024408073604741,0.3401081264019012,-0.0424201413989067,-0.0065124034881591,-0.4264922162931056,0.0454458919000846,2.47,0.2983111968822912,-0.0317872586841785,0.0,0.3852687911755261,-0.1735731959342956,-0.2034371718764305,0.2773404121398926,12.077607234563402,-1.0415963298993032,0.0925982228573829,-2.2712652805904336
2.68,-0.4228771924972534,0.046695802360773,2.4947335720062256,0.0109317916109772,0.0688963143508491,-0.0019812004447594,0.3396481275558471,-0.0434342697262764,-0.0046616792678833,-0.4205259923554597,0.0448101467264011,2.47,0.2983111968822912,-0.0317872586841785,0.0,0.1079957793418391,-0.0229999423027038,-0.0507064163684845,0.0925362110137939,12.266069109281489,-1.0415963298993032,0.0925982228573829,-2.2712652805904336
2.7,-0.4153218865394592,0.0457802824676036,2.4948935508728027,0.0080819811002713,0.0632071406446286,-0.0031503554117272,0.3388991355895996,-0.0414866507053375,1.0728836059570312e-05,-0.4145597684178139,0.0441744015527175,2.47,0.2983111968822912,-0.0317872586841785,0.0,0.2558593671629851,-0.0374495983123779,0.0973809510469436,0.2336204051971435,13.18098330246039,-1.0216305748667642,0.0915610028619067,-2.310924210000786
2.72,-0.407973974943161,0.044809516519308,2.495073080062866,0.0047238987818985,0.0593492362709344,-0.0030891262316712,0.3353223800659179,-0.0424414314329624,0.007638931274414,-0.4085935444801679,0.0435386563790339,2.47,0.2983111968822912,-0.0317872586841785,0.0,0.4239524111104584,-0.178837776184082,-0.0477390363812446,0.3814101219177246,12.10773812312982,-0.9986769268730904,0.1051923903797183,-2.294163876102242
2.74,-0.4008247256278991,0.0439319424331188,2.495380163192749,0.0035335332944166,0.0589502925642532,-0.0020941342138316,0.3261861205101013,-0.0415876507759094,0.0109487771987915,-0.4026273205425222,0.0429029112053503,2.47,0.2983111968822912,-0.0317872586841785,0.0,0.4877377884804674,-0.4568129777908325,0.0426890328526496,0.165492296218872,12.953135233113244,-0.980976996703958,0.0929320479034727,-2.2688566949414484
2.76,-0.3973067700862884,0.0434625260531902,2.4955594539642334,0.0058376475262114,0.0530221787365333,-0.001580751171726,0.323632001876831,-0.0428907871246337,0.012359619140625,-0.3966610966048762,0.0422671660316668,2.47,0.2983111968822912,-0.0317872586841785,0.0,0.159782362301206,-0.1277059316635131,-0.0651568174362182,0.0705420970916748,12.046352959411252,-0.9881479135587636,0.0738260583982359,-2.247663579558861
2.78,-0.3901205658912658,0.042457427829504,2.4959442615509038,0.000261641559739,0.057551582355137,-0.0024213364340653,0.3203321993350982,-0.0413463339209556,0.0153207778930664,-0.3906948726672305,0.0416314208579832,2.47,0.2983111968822912,-0.0317872586841785,0.0,0.2347471707493945,-0.1649901270866394,0.0772226601839065,0.1480579376220703,11.759258201082956,-0.9881479135587636,0.0738260583982359,-2.247663579558861
2.8000000000000003,-0.383336454629898,0.0416269563138484,2.4962868690490723,-0.0018556258781409,0.0605936814132899,-0.002825373447533,0.3143320977687835,-0.041300319135189,0.0163668394088745,-0.3847286487295845,0.0409956756842996,2.47,0.2983111968822912,-0.0317872586841785,0.0,0.3045389173055555,-0.3000050783157348,0.00230073928833,0.0523030757904052,12.404563434621195,-0.9753385028197044,0.0728503589073851,-2.373947208777841
2.82,-0.3765199482440948,0.0408414453268051,2.49669885635376,-0.0020137606293629,0.0624113175421559,-0.0024651539907914,0.3060138821601867,-0.0363596081733703,0.01697838306427,-0.3787624247919388,0.040359930510616,2.47,0.2983111968822912,-0.0317872586841785,0.0,0.4847095041408652,-0.4159107804298401,0.2470355480909347,0.0305771827697753,12.081166170531104,-0.983647219205217,0.0618991468438297,-2.353082937376466
