t,x,y,z,roll,pitch,yaw,v_x,v_y,v_z,ref_x,ref_y,ref_z,ref_v_x,ref_v_y,ref_v_z,a_com,a_x,a_y,a_z,thrust,wind_x,wind_y,wind_z
0.0,-1.2485270500183103,0.1353671997785568,2.4825029373168945,0.0136406630517358,0.0910904722996732,-0.0017065938472147,0.0159859657287597,-0.0061529874801635,-0.0412255525588989,-1.2483227998018265,0.1351289991289377,2.4814451038837437,0.1126037016510963,-0.0077221863321028,-0.1398629918694496,2.232127090354999,0.7992982864379883,-0.3076493740081787,-2.0612776279449463,11.602233582018016,-1.004738281632776,0.1559506424746549,-1.5061046528231126
0.02,-1.2481043338775637,0.1351033151149749,2.481590986251831,0.0145485576703468,0.0880939320156498,-0.0012691513369481,0.0190946459770202,-0.0084546580910682,-0.0415635108947753,-1.2477277517318726,0.1350595504045486,2.4804416596889496,0.1159859672188758,-0.0092867396306246,-0.141225554049015,0.1941378139609574,0.1554340124130249,-0.1150835305452346,-0.0168979167938232,10.674254239349011,-0.9959317693348646,0.1571359856684079,-1.4827145498126462
0.04,-1.247664451599121,0.1348359882831573,2.480853319168091,0.0163043335838846,0.0849643132278091,-0.0011606754753594,0.0194084644317626,-0.0119522586464881,-0.0371164083480834,-1.2477277517318726,0.1350595504045486,2.4804416596889496,0.1159859672188758,-0.0092867396306246,-0.141225554049015,0.2833214284545214,0.0156909227371215,-0.1748800277709961,0.2223551273345947,11.693585989993608,-0.9746552389700032,0.1304147074051873,-1.5446347768447544
0.06,-1.2472270727157593,0.1346352398395538,2.4799485206604004,0.0185742715638353,0.0863205731305932,-0.0010285963897454,0.0197383761405944,-0.0105316936969757,-0.0369554758071899,-1.2477277517318726,0.1350595504045486,2.4804416596889496,0.1159859672188758,-0.0092867396306246,-0.141225554049015,0.0733611919567519,0.0164955854415893,0.071028247475624,0.0080466270446777,11.25247848254594,-0.9746552389700032,0.1304147074051873,-1.5446347768447544
0.08,-1.2470026016235352,0.1345569789409637,2.479533433914185,0.0203966622840269,0.0950819744577031,-0.0009249499086367,0.0202882289886474,-0.0089833885431289,-0.0365638732910156,-1.246567892059684,0.1349666830082424,2.4790294041484597,0.1359859675168991,-0.0099134900607168,-0.1612255543470382,0.0844532346126305,0.0274926424026489,0.077415257692337,0.0195801258087158,10.015254728146829,-0.9745189675113528,0.1480571282796241,-1.5322330425660071
0.1,-1.246599197387695,0.1343986392021179,2.4785335063934326,0.0216560432634445,0.1109201590472759,-0.0003131648301779,0.0177830457687377,-0.0078528374433517,-0.0417298078536987,-1.2442481727153063,0.1347809482156299,2.476204893067479,0.1759859681129455,-0.0111669909209012,-0.2012255549430847,0.2925789152538522,-0.1252591609954834,0.056527554988861,-0.2582967281341553,9.94878929959532,-0.9855364927487048,0.1764997048221802,-1.526251194222997
0.12,-1.245886206626892,0.1341793835163116,2.4774303436279297,0.0226237402907673,0.1380798983688129,0.0009498390483664,0.0251188874244689,-0.0084958970546722,-0.0473195314407348,-1.2419284533709287,0.1345952134230174,2.473380381986499,0.215985968708992,-0.0124204917810857,-0.2412255555391311,0.4622583375157792,0.36679208278656,-0.0321529805660247,-0.2794861793518066,9.753909935634963,-1.016792785565818,0.1873150822412988,-1.4638215870115476
0.14,-1.2451776266098022,0.1338977962732315,2.4761102199554443,0.0239047844843586,0.1631102134334526,0.0022069647159044,0.0319853425025939,-0.0112689658999443,-0.0545239448547363,-1.2376087339967488,0.1343468035873957,2.4685558708757163,0.2559859693050384,-0.0136739926412701,-0.2812255561351776,0.5165793472458307,0.34332275390625,-0.1386534422636032,-0.3602206707000732,9.769115486523331,-1.0992836673449522,0.1817356918411597,-1.5050822965847095
0.16,-1.2441678047180176,0.1335123032331466,2.474231481552124,0.0238414705292077,0.1748541340323173,0.002459447581089,0.0386640429496765,-0.015009306371212,-0.0719743967056274,-1.233289014622569,0.134098393751774,2.463731359764933,0.2959859699010849,-0.0149274935014545,-0.3212255567312241,0.9527768053210736,0.333935022354126,-0.187017023563385,-0.8725225925445557,9.591396209171307,-1.0992836673449522,0.1817356918411597,-1.5050822965847095
0.18,-1.2435442209243774,0.1333412081003189,2.473213195800781,0.0229364745536512,0.2143005167098427,0.0028857059038153,0.0458148121833801,-0.0143501535058021,-0.0790339708328247,-1.227969295233488,0.1338186463946476,2.45790684863925,0.3359859704971313,-0.016180994361639,-0.3612255573272705,0.5035016633315456,0.3575384616851806,0.0329576432704925,-0.3529787063598633,9.855477099025848,-1.1313804567726604,0.16693925244645,-1.467303090285624
0.2,-1.2419978380203247,0.1329451501369476,2.470639705657959,0.0224403505149217,0.2324025478258884,0.0033190151599082,0.0618571043014526,-0.0153948739171028,-0.0998103618621826,-1.2216495758295058,0.1335075615160167,2.451082337498665,0.3759859710931778,-0.0174344952218234,-0.4012255579233169,1.3134924831761918,0.8021146059036255,-0.0522360205650329,-1.0388195514678955,9.61279039274541,-1.2320918098665383,0.1778127326459561,-1.2072346285771545
0.22,-1.2400120496749878,0.132567897439003,2.467697858810425,0.0210378363943491,0.2554671458189662,0.0037021323711488,0.079473853111267,-0.0173994898796081,-0.12409508228302,-1.238904982805252,0.1321754064410925,2.46564918756485,0.1618571057915687,-0.0329566802829504,-0.1998103633522987,1.5034260621190083,0.8808374404907227,-0.100230798125267,-1.21423602104187,9.696875075454956,-1.2320918098665383,0.1778127326459561,-1.2072346285771545
0.24,-1.2371047735214231,0.1321783810853958,2.4642724990844727,0.0199258931754712,0.2761656758958595,0.0040130720108933,0.1100939512252807,-0.0172523036599159,-0.1432621479034423,-1.238904982805252,0.1321754064410925,2.46564918756485,0.1618571057915687,-0.0329566802829504,-0.1998103633522987,1.806231212215554,1.5310049057006836,0.0073593109846115,-0.9583532810211182,10.869974178425764,-1.2723659242303285,0.1673641398660086,-1.1703525245619224
0.26,-1.2337069511413574,0.1317733377218246,2.46005654335022,0.0194019411962718,0.292942396397081,0.0041186628980763,0.1418647170066833,-0.0178775936365127,-0.1719295978546142,-1.238904982805252,0.1321754064410925,2.46564918756485,0.1618571057915687,-0.0329566802829504,-0.1998103633522987,2.1398570236084224,1.5885382890701294,-0.0312644988298416,-1.4333724975585938,10.76200639474382,-1.2499761547140722,0.1685530237553137,-1.0536810028223822
0.28,-1.2317403554916382,0.1313825100660324,2.4576361179351807,0.0205085290451322,0.3014936163568819,0.0047045044695334,0.1577863097190857,-0.0231068953871727,-0.1880550384521484,-1.2372864117473363,0.131845839638263,2.463651083931327,0.1818571060895919,-0.0364690415561199,-0.2198103636503219,1.1628333347514617,0.7960796356201172,-0.2614650875329971,-0.806272029876709,10.987660477900135,-1.2487540768034897,0.1642988412920258,-1.042228730385219
0.3,-1.227185845375061,0.1308952569961547,2.4524059295654297,0.0224601021960788,0.3006914311651654,0.0055379490550153,0.1875481009483337,-0.022919476032257,-0.2237176895141601,-1.234049269631505,0.1311867060326039,2.459654876664281,0.2218571066856384,-0.0434937641024589,-0.2598103642463684,2.3225115844483684,1.4880895614624023,0.0093709677457809,-1.783132553100586,11.100445685753584,-1.2667471981419327,0.1097257130491751,-1.0327584600137285
0.32,-1.2216023206710815,0.1301688253879547,2.446627378463745,0.0253928857253806,0.2914232304138401,0.0057774024284989,0.2281057834625244,-0.0273079052567482,-0.2476966381072998,-1.2308121275156736,0.1305275724269449,2.455658669397235,0.2618571072816849,-0.0505184866487979,-0.2998103648424148,2.365995508032871,2.0278841257095337,-0.2194214612245559,-1.1989474296569824,11.18906974780748,-1.343506627262943,0.1184575868268491,-0.9355172717032686
0.34,-1.215186595916748,0.1294235736131668,2.440463066101074,0.0285433902576359,0.2750856161635406,0.0056979449855973,0.2699831128120422,-0.0331128761172294,-0.268714427947998,-1.22557498537004,0.129517202693969,2.449662462100387,0.3018571078777313,-0.057543209195137,-0.3398103654384612,2.3606968727087674,2.093866467475891,-0.2902485430240631,-1.050889492034912,11.403069337852685,-1.3074899849159376,0.1085609477862566,-1.0589452786512727
0.36,-1.2079874277114868,0.1285127401351928,2.433881521224976,0.0327143047406902,0.2547207107184468,0.0055596381439616,0.3063350915908813,-0.0372619181871414,-0.2867817878723144,-1.220337843224406,0.128506832960993,2.4436662548035386,0.3418571084737778,-0.064567931741476,-0.3798103660345078,2.0402882185305726,1.817598938941956,-0.2074521034955978,-0.9033679962158204,11.489203637964238,-1.2495394841084193,0.0919777206564305,-1.0939444851861544
0.38,-1.2040901184082031,0.1281126737594604,2.4306089878082275,0.0374769341233274,0.2329588363400058,0.0049660806107868,0.3236755728721618,-0.038447119295597,-0.2930259704589844,-1.2141007010638714,0.1273208451643586,2.436670047491789,0.3818571090698242,-0.0715926542878151,-0.4198103666305542,0.9234267823027394,0.8670240640640259,-0.0592600554227829,-0.3122091293334961,11.672116525242927,-1.2110796529141064,0.0978971987868632,-1.17602284557751
0.4,-1.1957608461380005,0.1273030042648315,2.4234631061553955,0.0413705362122498,0.2118866916214829,0.0044299552412762,0.3594696521759033,-0.0406653061509132,-0.310937762260437,-1.206863558888435,0.1259592393040657,2.428673840165138,0.4218571096658706,-0.0786173768341541,-0.4598103672266006,2.0043507375620515,1.7897039651870728,-0.1109093427658081,-0.8955895900726318,11.40938364498561,-1.1672243216219351,0.1522837620889768,-1.2704697198315436
0.42,-1.1815561056137085,0.1254976838827133,2.4132211208343506,0.0425111225176345,0.197117489382361,0.0110307089817927,0.412810742855072,-0.0476618483662605,-0.3134268522262573,-1.177787363529205,0.1252697389572858,2.4079162180423737,0.4594696536660194,-0.0556935463100671,-0.4109377637505531,2.6927769712103813,2.667054533958435,-0.3498271107673645,-0.1244544982910156,11.608865834034075,-1.1672243216219351,0.1522837620889768,-1.2704697198315436
0.44,-1.17672598361969,0.1248522922396659,2.409855365753174,0.0463828934208908,0.1722592924135228,0.0028650902954369,0.4282844066619873,-0.055141020566225,-0.3061741590499878,-1.177787363529205,0.1252697389572858,2.4079162180423737,0.4594696536660194,-0.0556935463100671,-0.4109377637505531,0.9327028555698604,0.7736831903457642,-0.3739586099982261,0.3626346588134765,11.854412739110558,-1.0788880114293034,0.1606820370115836,-1.2744041796948882
0.46,-1.166392803192139,0.1233645677566528,2.4028685092926025,0.0452411091952774,0.1538858748234133,0.001625063634617,0.4503965377807617,-0.063161663711071,-0.3088188171386719,-1.177787363529205,0.1252697389572858,2.4079162180423737,0.4594696536660194,-0.0556935463100671,-0.4109377637505531,1.1835025089505289,1.1056065559387207,-0.4010321572422981,-0.1322329044342041,11.457948184858653,-0.998505779580985,0.1135835770025978,-1.2029073257820295
0.48,-1.1611007452011108,0.1227426081895828,2.399656057357788,0.0428733234362071,0.1353367110292237,0.0004320372654951,0.4602456092834472,-0.061989203095436,-0.3052139282226562,-1.1731926669925452,0.1247128034941852,2.4038068404048683,0.4794696539640427,-0.0586991943418979,-0.4309377640485763,0.5276696349446305,0.4924535751342773,0.0586230307817459,0.1802444458007812,12.276072826486145,-0.9590377421643822,0.1143833592061841,-1.270529151728221
0.5,-1.1504017114639282,0.1210049465298652,2.392688751220703,0.0378513194294144,0.11933837887024,-0.0004524969407699,0.4755932092666626,-0.0718223452568054,-0.3061205148696899,-1.1640032739192248,0.1235989325679838,2.395588085129857,0.5194696545600891,-0.0647104904055595,-0.4709377646446228,0.9124985059701056,0.7673799991607666,-0.4916571080684662,-0.0453293323516845,11.596326079015398,-0.9128354594613554,0.1752043880994076,-1.254826536625086
0.52,-1.1392500400543213,0.1192363649606704,2.3860859870910645,0.0306919982889339,0.1057381908875921,-0.0013045391315465,0.4916408658027649,-0.0788904726505279,-0.3053265810012817,-1.1548138808459043,0.1224850616417825,2.387369329854846,0.5594696551561356,-0.0707217864692211,-0.5109377652406693,0.8776617174942792,0.8023828268051147,-0.3534063696861267,0.0396966934204101,11.25201028925676,-0.906206441232074,0.1668044435630246,-1.307652235348751
0.54,-1.1280667781829834,0.1172538474202156,2.379544973373413,0.0229783899005736,0.0972306172883475,-0.0023409773520899,0.5025359988212585,-0.0843997299671173,-0.2957350015640259,-1.1436244877427817,0.1210706259123981,2.3771505745500328,0.599469655752182,-0.0767330825328826,-0.5509377658367157,0.7762960707298688,0.5447566509246826,-0.2754628658294678,0.4795789718627929,10.786809667873058,-0.847571076523157,0.146312369049075,-1.3614408279470698
0.56,-1.1167550086975098,0.1152805984020233,2.372997045516968,0.0180438318154511,0.0943391106505867,-0.0029136690184379,0.5061382055282593,-0.089004747569561,-0.2945011854171753,-1.1324350946396589,0.1196561901830136,2.36693181924522,0.6394696563482285,-0.0827443785965442,-0.5909377664327622,0.2987657216072761,0.1801103353500366,-0.2302508801221847,0.0616908073425293,10.61058001431502,-0.8136919403262691,0.1275404508520835,-1.3271610407349343
0.58,-1.111094951629639,0.1141850277781486,2.369778871536255,0.0109994919248012,0.0957144679530395,-0.0032956219841948,0.5077877640724182,-0.0918869525194168,-0.2936428785324096,-1.120245701521635,0.1180914720520377,2.3557130639255046,0.6794696569442749,-0.0887556746602058,-0.6309377670288085,0.1714995588333766,0.0824779272079467,-0.1441102474927902,0.0429153442382812,10.364122913485517,-0.8363080230940044,0.1147281369643044,-1.4962547163666169
0.6,-1.0997285842895508,0.1121958568692207,2.3631346225738525,0.0063967506562559,0.1016445008951493,-0.0033553584617439,0.5125781893730164,-0.0907195210456848,-0.2983957529067993,-1.10705630838871,0.1163764715194702,2.343494308590889,0.7194696575403213,-0.0947669707238674,-0.670937767624855,0.3424211063340017,0.2395212650299072,0.0583715736865997,-0.2376437187194824,10.325110961256089,-0.8606450383718043,0.0825928695400141,-1.4739194868752536
0.62,-1.0883073806762695,0.1100760921835899,2.3565683364868164,0.002965366225828,0.1107111326447513,-0.0024920559529843,0.5127203464508057,-0.0924510508775711,-0.2972370386123657,-1.0740996748209,0.1076598808169364,2.348214834928513,0.5651773698627949,-0.0984670938923955,-0.3983957543969154,0.1044153126893094,0.0071078538894653,-0.0865764915943145,0.0579357147216796,10.622087673505575,-0.8606450383718043,0.0825928695400141,-1.4739194868752536
0.64,-1.0767301321029663,0.1079539582133293,2.3497347831726074,0.0016633166059563,0.1209632610370414,-0.0021744791893792,0.5174651741981506,-0.0954427197575569,-0.3014963865280151,-1.0740996748209,0.1076598808169364,2.348214834928513,0.5651773698627949,-0.0984670938923955,-0.3983957543969154,0.352155923228608,0.2372413873672485,-0.1495834439992904,-0.2129673957824707,11.299817591111603,-0.899201445828515,0.0660597228442948,-1.3976068437972566
0.66,-1.065136194229126,0.1061149835586547,2.3424038887023926,0.0018675719594255,0.1276613595024937,-0.0019544326799484,0.52135169506073,-0.0891249477863311,-0.3187000751495361,-1.0740996748209,0.1076598808169364,2.348214834928513,0.5651773698627949,-0.0984670938923955,-0.3983957543969154,0.9367312705385694,0.1943260431289672,0.3158885985612869,-0.8601844310760498,11.261021755251022,-0.9168635480273596,0.0452736052688882,-1.3780505169583457
0.68,-1.0592995882034302,0.1050784513354301,2.338803291320801,0.0017782651959599,0.127630267488615,-0.0018849076600063,0.5218693614006042,-0.0899488851428031,-0.3220045566558838,-1.068447901122272,0.1066752098780125,2.3442308773845437,0.5756972059607506,-0.1000166084617376,-0.4183957546949386,0.1722385644434964,0.0258833169937133,-0.0411968678236007,-0.1652240753173828,11.114423113687735,-0.9387363434002934,0.0776059769669146,-1.3406267730936905
0.7000000000000001,-1.0475000143051147,0.1031929329037666,2.3314011096954346,0.0015456811356468,0.1187437949884137,-0.0018249671031963,0.5278372764587402,-0.0857544094324112,-0.3289353847503662,-1.057144353725016,0.1047058680001646,2.336262962296605,0.596736878156662,-0.1031156376004219,-0.4583957552909851,0.503105393286192,0.2983957529067993,0.2097237855195999,-0.3465414047241211,11.068914286845938,-0.9775578206653704,0.0616061561703337,-1.2769292324721389
0.72,-1.0356138944625854,0.1013388484716415,2.324083089828491,0.0018753381310984,0.1063948518080451,-0.0017408559195106,0.5329281091690063,-0.0841410607099533,-0.3312045335769653,-1.0458408063277602,0.1027365261223167,2.328295047208667,0.6177765503525734,-0.1062146667391061,-0.4983957558870315,0.2901228540697375,0.2545416355133056,0.0806674361228942,-0.113457441329956,11.131618134824294,-0.98605701270468,0.0735464327820815,-1.2420145990834757
0.74,-1.0235902070999146,0.0994234979152679,2.316704750061035,0.0022221094229737,0.0921311044493417,-0.0016233714845364,0.5379706621170044,-0.0848122835159301,-0.3306680917739868,-1.0334852753207089,0.1006122327875346,2.3183271320909262,0.6388162225484848,-0.1093136958777904,-0.538395756483078,0.2557618525924561,0.2521276473999023,-0.0335611402988433,0.0268220901489257,10.778990826921472,-0.9799860872288032,0.0761908756943648,-1.2641304470325698
0.76,-1.0114092826843262,0.0976759418845176,2.309500932693481,0.0036032259065488,0.0771450428281209,-0.0018385169168175,0.5446037650108337,-0.0824154019355773,-0.3280985355377197,-1.021129744313657,0.0984879394527524,2.308359216973185,0.6598558947443962,-0.1124127250164747,-0.5783957570791245,0.3753189129317252,0.3316551446914673,0.1198440790176391,0.1284778118133545,11.08822023623543,-0.9567753031897116,0.0676057196767277,-1.2923628311312954
0.78,-1.0054869651794434,0.09677205234766,2.305917739868164,0.0062632675634255,0.0629139708375642,-0.0019748118805087,0.5421656370162964,-0.0802303999662399,-0.331735610961914,-1.008248221501708,0.0962861703895032,2.297391301840544,0.6808955669403076,-0.1155117541551589,-0.6183957576751709,0.2446784592328968,-0.1219063997268676,0.1092500984668731,-0.1818537712097168,10.517602334435196,-0.9033231397963208,0.0777284497390307,-1.2532820310276558
0.8,-0.987573504447937,0.0942552983760833,2.294971466064453,0.0024808021659273,0.0569135490092774,0.0004559671405649,0.5363050103187561,-0.0769644826650619,-0.3269129991531372,-0.994840706884861,0.0940069255977869,2.285423386693001,0.701935239136219,-0.1186107832938432,-0.6583957582712173,0.4131305658148811,-0.2930313348770141,0.1632958650588989,0.2411305904388427,10.521725881071234,-0.9058551411475708,0.1023928676714691,-1.298892669388378
0.8200000000000001,-0.975724458694458,0.0925054103136062,2.2874999046325684,0.0038848790064362,0.0449612214541228,0.0008428523734424,0.5339164733886719,-0.0782299786806106,-0.3308451175689697,-0.9607582539319992,0.0904070742428302,2.2786258161067963,0.5858952067792416,-0.0731647431384772,-0.4269130006432533,0.2385798821562449,-0.1194268465042114,-0.0632748007774353,-0.1966059207916259,10.631495642021491,-0.8915020759129711,0.1044550748337554,-1.2970996772655627
0.84,-0.9698859453201294,0.091699831187725,2.283665180206299,0.0117508267519505,0.0343758642823842,-0.0023634863644982,0.5303826928138733,-0.0771939754486084,-0.3359681367874145,-0.9607582539319992,0.0904070742428302,2.2786258161067963,0.5858952067792416,-0.0731647431384772,-0.4269130006432533,0.3154609078796371,-0.1766890287399292,0.0518001616001129,-0.2561509609222412,10.89879200849282,-0.8548124916630914,0.0868099794104809,-1.253239035252576
0.86,-0.9582279324531556,0.0901025086641311,2.275978803634644,0.0136958356294513,0.0293592741347944,-0.0026325849464922,0.5255922675132751,-0.0746849328279495,-0.3425073623657226,-0.9607582539319992,0.0904070742428302,2.2786258161067963,0.5858952067792416,-0.0731647431384772,-0.4269130006432533,0.4242786248354157,-0.2395212650299072,0.1254521310329437,-0.3269612789154053,11.479845997906525,-0.8048720660706296,0.1271994702221568,-1.3217327615810874
0.88,-0.9526858925819396,0.0893189087510109,2.272132873535156,0.0134037366542582,0.0270257830891606,-0.0028089329774559,0.5183677673339844,-0.0716962814331054,-0.3457581996917724,-0.9548993018642068,0.0896754268114455,2.274356686100364,0.5958132460713387,-0.0724047952331602,-0.4469130009412765,0.4233597268308428,-0.3612250089645386,0.1494325697422027,-0.1625418663024902,11.306208188242636,-0.8048720660706296,0.1271994702221568,-1.3217327615810874
0.9,-0.9416060447692872,0.0876939445734024,2.264110326766968,0.0119382479007482,0.0266846239168831,-0.0024110105530564,0.5048426985740662,-0.0724048912525177,-0.3545397520065307,-0.943181397728622,0.0882121319486759,2.265818426087499,0.6156493246555328,-0.0708848994225263,-0.486913001537323,0.8070707433266304,-0.6762534379959106,-0.0354304909706115,-0.439077615737915,10.763242481501493,-0.8254720789611881,0.1616217664954101,-1.2474906248009217
0.92,-0.9308056235313416,0.086122490465641,2.256123781204224,0.0082190054458244,0.0291594387264783,-0.0022648498478174,0.4923060536384582,-0.0719194114208221,-0.3602045774459839,-0.9314634935930372,0.0867488370859064,2.2572801660746338,0.635485403239727,-0.0693650036118924,-0.5269130021333694,0.6882830162221822,-0.6268322467803955,0.0242739915847778,-0.2832412719726562,11.217190337684317,-0.8140699689378387,0.1545186562322153,-1.2283567037696768
0.94,-0.9201287031173706,0.0843972638249397,2.2479872703552246,0.0030784054023759,0.0337637752638527,-0.0022077591634191,0.4832401871681213,-0.0741753131151199,-0.3627687692642212,-0.9187537855282426,0.0853615370136685,2.2467419060319664,0.6553214818239212,-0.0678451078012585,-0.5669130027294159,0.4843916467927318,-0.4532933235168457,-0.1127950847148895,-0.1282095909118652,10.31026268163987,-0.8283408528719615,0.1494107705772635,-1.2481202564998255
0.96,-0.9098381400108336,0.0829450935125351,2.2398805618286133,-0.0033076285937021,0.0410941880479361,-0.0023141178066972,0.4717683792114258,-0.0714914351701736,-0.3654724359512329,-0.906044077463448,0.0839742369414307,2.236203645989299,0.6751575604081154,-0.0663252119906246,-0.6069130033254624,0.6043909996292333,-0.5735903978347778,0.1341938972473144,-0.1351833343505859,10.653820381079186,-0.8299470183400621,0.1234301816534275,-1.3319002653630867
0.98,-0.9047897458076476,0.082203984260559,2.235731840133667,-0.0097518034734324,0.0505961151398902,-0.0028194957582438,0.463496446609497,-0.0698634982109069,-0.3687125444412231,-0.8928384674340487,0.0826249342644587,2.2246653859317305,0.6949936389923096,-0.0648053161799907,-0.6469130039215087,0.4515898325391756,-0.4135966300964355,0.0813968479633331,-0.1620054244995117,10.532479322055678,-0.8532858611741873,0.1188998545297614,-1.3479723015279852
1.0,-0.8948209285736084,0.080741636455059,2.227334499359131,-0.014315484832413,0.0622603622866938,-0.0026690801403628,0.4541690647602081,-0.0659089162945747,-0.3767377138137817,-0.8791369554400444,0.0813136289827525,2.2121271258592605,0.7148297175765037,-0.0632854203693568,-0.6869130045175552,0.646223865532834,-0.466369092464447,0.1977290958166122,-0.4012584686279297,10.62655699652396,-0.9129263881782694,0.1114018161214771,-1.3432800465709736
1.02,-0.8848515152931213,0.0795247703790664,2.2187421321868896,-0.0194452743559553,0.0771392312891585,-0.0031261509661588,0.4486101865768432,-0.0602823123335838,-0.3822684288024902,-0.872112475335598,0.0774461906403303,2.2084976136684418,0.5255960747599602,-0.059202897362411,-0.4767377153038978,0.4825676301764688,-0.2779439091682434,0.2813301980495453,-0.2765357494354248,10.415897739031152,-0.9235562108907368,0.0943703230528053,-1.3769179826067666
1.04,-0.8752941489219666,0.0781433656811714,2.2099905014038086,-0.0219350810204426,0.0927134996401257,-0.0038600981423057,0.4393525421619415,-0.0584610924124717,-0.390239953994751,-0.872112475335598,0.0774461906403303,2.2084976136684418,0.5255960747599602,-0.059202897362411,-0.4767377153038978,0.6175881232760722,-0.4628822207450866,0.091060996055603,-0.3985762596130371,11.147243404064284,-0.9412681517897334,0.0940158376690755,-1.318229565559376
1.06,-0.86552894115448,0.0770735964179039,2.200864791870117,-0.0227823403994803,0.1076920987664951,-0.0041313199815429,0.4347579181194305,-0.0551514141261577,-0.4022401571273803,-0.872112475335598,0.0774461906403303,2.2084976136684418,0.5255960747599602,-0.059202897362411,-0.4767377153038978,0.6634557552604521,-0.2297312021255493,0.1654839143157005,-0.6000101566314697,11.414070244860795,-1.0008226681852674,0.0649590883925565,-1.306465397997441
1.08,-0.8607144951820374,0.0765891671180725,2.196258783340454,-0.0226334141419068,0.1174213159901537,-0.0041820178137909,0.4372577369213104,-0.0515782088041305,-0.4082000255584717,-0.8668565145879984,0.0768541616667062,2.203730236515403,0.5398814767599106,-0.0578616935759782,-0.4967377156019211,0.3692455891121602,0.1249909400939941,0.1786602661013603,-0.2979934215545654,11.467613553544652,-1.046679286456442,0.0506863860134669,-1.3220433002540768
1.1,-0.8509325981140137,0.0758416205644607,2.1869516372680664,-0.0204963139676002,0.1286561905096344,-0.004406065366906,0.4359206557273865,-0.0387559086084365,-0.415307879447937,-0.8563445930927992,0.0756701037194579,2.194195482209325,0.5684522807598114,-0.0551792860031127,-0.5367377161979675,0.7360719315081002,-0.0668540596961975,0.6411150097846985,-0.3553926944732666,11.101913680389773,-1.035176959837689,0.0559568530671364,-1.2788528042395666
1.12,-0.8409973382949829,0.0751305446028709,2.177365064620972,-0.0171787446412132,0.1350901894783429,-0.0047776107178458,0.443636029958725,-0.0328190065920352,-0.4251086711883545,-0.8458326715976,0.0744860457722097,2.184660727903247,0.5970230847597122,-0.0524968784302473,-0.576737716794014,0.6907049366788024,0.385768711566925,0.2968451008200645,-0.490039587020874,11.129791373195076,-1.0769306469355469,0.0762140113899708,-1.2251609024716998
1.14,-0.8310126066207886,0.0743427351117134,2.1681745052337646,-0.0128846932004413,0.1404499936455816,-0.0044188982347139,0.4481998085975647,-0.0337249226868152,-0.4224854707717895,-0.8338922099024058,0.0734361082036048,2.173125973567367,0.6255938887596131,-0.0498144708573818,-0.6167377173900604,0.2670671257407845,0.228188931941986,-0.0452958047389984,0.131160020828247,11.07190931822879,-1.081226798910498,0.0810905901243356,-1.2972582388482805
1.16,-0.8205851912498474,0.0740798190236091,2.158855676651001,-0.0087305334589046,0.1441001473990274,-0.0038555149419105,0.4592733085155487,-0.02364132553339,-0.4164612293243408,-0.8219517482072115,0.0723861706349998,2.1615912192314863,0.6541646927595138,-0.0471320632845163,-0.6567377179861069,0.8071443752565525,0.5536749958992004,0.5041798576712608,0.3012120723724365,11.054530532591343,-1.1150390083147883,0.0485804086588999,-1.2991803295857285
1.18,-0.8153876066207886,0.0738638117909431,2.1540822982788086,-0.0048152612154815,0.1472264789226368,-0.0037661148297789,0.4630082845687866,-0.0222039967775344,-0.4194438457489013,-0.8092970164120198,0.0714032932557165,2.149056464880705,0.6827354967594147,-0.0444496557116508,-0.6967377185821533,0.2495594158047753,0.1867488026618957,0.071866437792778,-0.1491308212280273,10.877388748074736,-1.111238745217703,0.0923842330502368,-1.2857372253873054
1.2,-0.8047294020652771,0.0736793875694274,2.1445236206054688,-0.0026322437991798,0.1487322459197535,-0.0038307066931143,0.4740656912326813,-0.011823009699583,-0.4276782274246216,-0.7959280145168305,0.0704874760657549,2.1355217105150226,0.7113063007593154,-0.0417672481387853,-0.7367377191781997,0.8628965413431284,0.5528703331947327,0.5190493538975716,-0.4117190837860107,10.826146403897836,-1.127951622740475,0.0927598087402608,-1.302256191885611
1.22,-0.7937594652175903,0.0733904093503952,2.135117530822754,0.0005501311389797,0.1517418865075692,-0.0038836540997958,0.4866331815719604,-0.0106515549123287,-0.4267072677612304,-0.781026117503643,0.0730882370844483,2.1231397092342377,0.5288058891892433,-0.0293634347617626,-0.5276782289147377,0.6329630368639014,0.6283745169639587,0.0585727393627166,0.0485479831695556,11.112199983064327,-1.1459677567322195,0.1208214355848503,-1.3268131548041642
1.24,-0.7824869751930237,0.0731318965554237,2.125645637512207,0.0026541712947203,0.1534843030670494,-0.0035987250721991,0.5004546046257019,-0.0123185478150844,-0.4247546195983886,-0.781026117503643,0.0730882370844483,2.1231397092342377,0.5288058891892433,-0.0293634347617626,-0.5276782289147377,0.7028930135806288,0.6910711526870728,-0.0833496451377868,0.0976324081420898,11.641561446943342,-1.1326190509977725,0.1136443159242241,-1.2831985556526635
1.26,-0.7710864543914795,0.0730441957712173,2.116238594055176,0.0063708733905022,0.1525608193037795,-0.0028908762793853,0.5101427435874939,-0.0077898055315017,-0.4247760772705078,-0.781026117503643,0.0730882370844483,2.1231397092342377,0.5288058891892433,-0.0293634347617626,-0.5276782289147377,0.534719561185568,0.4844069480895996,0.2264371141791343,-0.001072883605957,11.55743118738792,-1.1149356213838768,0.0945442926542344,-1.2542958493479943
1.28,-0.7651874423027039,0.0729002505540847,2.1114797592163086,0.0112118154217605,0.146504085019363,-0.0023128173397754,0.5164258480072021,-0.0090068578720092,-0.4279464483261108,-0.7757380586117506,0.0727946027368307,2.11786292694509,0.5397539287805557,-0.0328715197741985,-0.5476782292127609,0.3571059722921811,0.3141552209854126,-0.0608526170253753,-0.1585185527801513,12.696056417121326,-1.1191869310708678,0.1185645680941709,-1.204142515348096
1.3,-0.7532684206962585,0.0728207305073738,2.102121353149414,0.0168637624118626,0.1358333755585073,-0.0018201347474282,0.5324279069900513,-0.0078558549284935,-0.4215681552886963,-0.7651619408279657,0.0722073340415954,2.107309362366796,0.5616500079631805,-0.0398876897990703,-0.5876782298088074,0.863240003616745,0.800102949142456,0.0575501471757888,0.3189146518707275,11.268880646320213,-1.0999374316849415,0.1046491398960025,-1.1954237248489128
1.32,-0.7410845756530762,0.0726121068000793,2.0927600860595703,0.0215221896821842,0.1247666259669122,-0.0016964957038116,0.5423145294189453,-0.0064832344651222,-0.4211926460266113,-0.7545858230441809,0.0716200653463602,2.096755797788501,0.5835460871458054,-0.0469038598239421,-0.6276782304048538,0.4994256631218702,0.4943311214447021,0.0686310231685638,0.018775463104248,11.50403581285309,-1.083716773921909,0.1202915559075941,-1.1771030183026543
1.34,-0.7286887168884277,0.0724017098546028,2.0836422443389893,0.0283781213337946,0.1081549269660192,-0.0013700496005782,0.5530433654785156,-0.0094279646873474,-0.4157799482345581,-0.7429149013012648,0.0706819881498813,2.084202233180404,0.6054421663284302,-0.053920029848814,-0.6676782310009003,0.6186207575383331,0.5364418029785156,-0.1472365111112594,0.2706348896026611,10.937882386238016,-1.0662959831992298,0.1439027756470181,-1.2272975283327443
1.36,-0.7162925601005554,0.0721797570586204,2.0744330883026123,0.0343927331624424,0.0891660110233278,-0.0013404999354245,0.5578203201293945,-0.009727869182825,-0.4123574495315552,-0.7312439795583486,0.0697439109534025,2.0716486685723066,0.627338245511055,-0.0609361998736858,-0.7076782315969468,0.2942054376410218,0.2388477325439453,-0.0149952247738838,0.1711249351501464,10.788209088013446,-1.0233124086926266,0.1491854370085506,-1.2543553605077378
1.38,-0.7100368738174438,0.0720057934522628,2.070080041885376,0.0402469057710434,0.0700496600824412,-0.0018696912489972,0.5606219172477722,-0.0128223001956939,-0.4078513383865356,-0.719025655835867,0.0686304295063018,2.0580951039493085,0.6492343246936798,-0.0679523698985576,-0.7476782321929931,0.3071216670896736,0.1400798559188842,-0.154721550643444,0.2253055572509765,11.065595614150425,-1.0064080287304007,0.1822571230245324,-1.4200410462657542
1.4,-0.6975876688957214,0.0715001970529556,2.061008930206299,0.0463798631626142,0.0523562400396613,-0.0024193841909006,0.5601498484611511,-0.0190148502588272,-0.4064995050430298,-0.7062599301338196,0.0673415438085794,2.043541539311409,0.6711304038763046,-0.0749685399234294,-0.7876782327890396,0.3177970209596356,-0.0236034393310546,-0.309627503156662,0.0675916671752929,10.292390751693349,-0.94551453813694,0.1786855428094464,-1.3573737924789353
1.42,-0.6852153539657593,0.0708789303898811,2.052262783050537,0.0523186241043613,0.031776553319838,-0.0035771767730239,0.5584841966629028,-0.0253544189035892,-0.4008883237838745,-0.6695801764726639,0.0705494545400142,2.040683954954148,0.5812135189771652,-0.012838028371334,-0.4921350330114364,0.4314217241799291,-0.0832825899124145,-0.3169784322381019,0.2805590629577636,10.246626061764346,-0.8467512446150769,0.2041078124912914,-1.3179856663217713
1.44,-0.673061728477478,0.070061944425106,2.043423175811768,0.0574232955099259,0.0191204749009808,-0.0043709720181837,0.5518336296081543,-0.0323606841266155,-0.3956794738769531,-0.6695801764726639,0.0705494545400142,2.040683954954148,0.5812135189771652,-0.012838028371334,-0.4921350330114364,0.5487483755737437,-0.3325283527374267,-0.3503132611513138,0.2604424953460693,11.545679779346756,-0.8467512446150769,0.2041078124912914,-1.3179856663217713
1.46,-0.6612161993980408,0.0689820125699043,2.0346014499664307,0.0595750385708688,0.0103727045000473,-0.005166543206716,0.5399810075759888,-0.0426806509494781,-0.397379994392395,-0.6695801764726639,0.0705494545400142,2.040683954954148,0.5812135189771652,-0.012838028371334,-0.4921350330114364,0.7903767049417001,-0.5926311016082764,-0.5159983411431313,-0.0850260257720947,11.641443244118364,-0.8098377293214882,0.2115363614327504,-1.2585274916777212
1.48,-0.6553359031677246,0.0684520155191421,2.030268669128418,0.0584477895016497,-0.0007705636338071,-0.0060497475139118,0.5371003150939941,-0.0455987267196178,-0.3942525386810303,-0.6637680412828922,0.0704210742563009,2.035762604624033,0.585426253080368,-0.0116026639938354,-0.5092621386051178,0.257849445426225,-0.1440346240997314,-0.1459037885069847,0.1563727855682373,12.695506371471764,-0.7972733886901967,0.2041840877948682,-1.2752237574375282
1.5,-0.6440806984901428,0.0671421512961387,2.021428108215332,0.0513937746791323,-0.0091895565458095,-0.0070551108580146,0.5193896293640137,-0.053854901343584,-0.3948533535003662,-0.6521437709033489,0.0701643136888742,2.0259199039638043,0.5938517212867737,-0.0091319352388381,-0.5435163497924804,0.9774888578580976,-0.8855342864990234,-0.4128087311983108,-0.0300407409667968,10.581627758930154,-0.7333360824654445,0.217543880129883,-1.128689056852668
1.52,-0.6333509087562561,0.0656634792685508,2.0128278732299805,0.0402333456309683,-0.0171553949976084,-0.007552328347425,0.4946623742580414,-0.062742069363594,-0.3924179077148437,-0.6405195005238056,0.0699075531214475,2.0160772033035754,0.6022771894931793,-0.0066612064838409,-0.5777705609798431,1.3194225030917317,-1.2363627552986145,-0.4443584010004997,0.121772289276123,10.800500833885051,-0.7042844825750793,0.2211885885504501,-1.0499812599790304
1.54,-0.6229897141456604,0.0639744102954864,2.004111289978028,0.0247542510212215,-0.0217032476514702,-0.0073547604587852,0.4745471477508545,-0.0712741762399673,-0.3896284103393554,-0.628473956733942,0.0697743289917707,2.0045217920839784,0.610702657699585,-0.0041904777288436,-0.6120247721672059,1.1013633378603385,-1.0057613253593445,-0.4266053438186645,0.139474868774414,10.345065484162204,-0.7421460218324661,0.1946906563598275,-1.1081927766766917
1.56,-0.6131517887115479,0.0622288472950458,1.995410680770874,0.0137417146753344,-0.0244559779095179,-0.006025400957714,0.4544802010059356,-0.0772792175412178,-0.391886830329895,-0.6164284129440785,0.0696411048620939,1.9929663808643816,0.6191281259059906,-0.0017197489738464,-0.6462789833545686,1.053379482364737,-1.0033473372459412,-0.3002520650625229,-0.1129209995269775,11.104483307108694,-0.7428868923273709,0.1548311518582582,-1.1761203417591095
1.58,-0.6084248423576355,0.0612756237387657,1.9911909103393557,-0.0056367867722336,-0.0254854658030376,-0.0076630452319485,0.4414848983287811,-0.0796007513999939,-0.3884857892990112,-0.6041722324490547,0.069569648951292,1.9805546143651007,0.6275535941123962,0.0007509797811508,-0.6805331945419312,0.6816056250172435,-0.649765133857727,-0.1160766929388046,0.1700520515441894,10.223574525568893,-0.7435184523056125,0.1227236472906142,-1.4614566005165954
1.6,-0.599494457244873,0.0596538670361042,1.9825189113616943,-0.0191253718960023,-0.022026044516427,-0.007764240818536,0.4150168597698211,-0.078603059053421,-0.3887620568275451,-0.5917054152488708,0.069559961259365,1.967286492586136,0.6359790623188019,0.003221708536148,-0.7147874057292938,1.3244138127151983,-1.323401927947998,0.0498846173286438,-0.0138133764266967,9.923595983024825,-0.764645799546408,0.0710835550171661,-1.29057572929382
1.62,-0.5907976627349854,0.0580211579799652,1.974075198173523,-0.034162667401055,-0.0126179317479293,-0.0074729018875648,0.3966115415096283,-0.0732254832983017,-0.3851035237312317,-0.578743614256382,0.0557237140834331,1.963080808520317,0.4551655277609825,-0.0585882179439067,-0.4547687992453575,0.976036533227442,-0.9202659130096436,0.2688787877559662,0.1829266548156738,10.155560491501546,-0.7524752833207389,0.0419477578183733,-1.2600024779086214
1.64,-0.5827884078025818,0.0565330497920513,1.9652862548828125,-0.0418379780120511,-0.0049547266738699,-0.006831720247521,0.3758861124515533,-0.0702183842658996,-0.3877347707748413,-0.578743614256382,0.0557237140834331,1.963080808520317,0.4551655277609825,-0.0585882179439067,-0.4547687992453575,1.055354816206942,-1.0362714529037476,0.1503549516201019,-0.1315623521804809,12.526462709939096,-0.7533493072623922,0.025288711893154,-1.1350877639045618
1.66,-0.5752981305122375,0.0552908293902874,1.9561814069747925,-0.0514499421207606,0.010111126243093,-0.0059268278889886,0.3487394750118255,-0.0614323914051055,-0.4026103019714355,-0.578743614256382,0.0557237140834331,1.963080808520317,0.4551655277609825,-0.0585882179439067,-0.4547687992453575,1.6088932711764965,-1.3573318719863892,0.4392996430397033,-0.7437765598297119,10.903131445252257,-0.7845407638586729,-0.015134803019023,-1.1938695954549163
1.68,-0.5716227889060974,0.054791260510683,1.951696753501892,-0.056703280783419,0.0254824813486292,-0.0057032460442831,0.3409329056739807,-0.0562837272882461,-0.4024547338485718,-0.5741919589787722,0.055137831903994,1.9585331205278635,0.4631952613592148,-0.0545852497220039,-0.46797014772892,0.4676416054407121,-0.3903284668922424,0.2574332058429718,0.0077784061431884,11.157076862273698,-0.8887847072451603,-0.0275063232014456,-1.0785081791075437
1.7,-0.5645345449447632,0.0540915839374065,1.9423861503601076,-0.057815884208161,0.0469757947792646,-0.0053901321002418,0.3250166773796081,-0.0414230301976203,-0.4125934839248657,-0.5650886484235524,0.0539660675451159,1.9494377445429565,0.4792547285556793,-0.0465793132781982,-0.4943728446960449,1.2010005144123264,-0.7958114147186279,0.7430348545312881,-0.5069375038146973,11.34095319764765,-0.8887847072451603,-0.0275063232014456,-1.0785081791075437
1.72,-0.557865560054779,0.0535846799612045,1.933176159858704,-0.0557317844607128,0.059489742093747,-0.0051981346320548,0.3095376491546631,-0.0271480623632669,-0.4167133569717407,-0.5559853378683328,0.0527943031862378,1.9403423685580488,0.4953141957521438,-0.0385733768343925,-0.5207755416631699,1.07278652977053,-0.7739514112472534,0.7137483917176723,-0.20599365234375,11.341738535585591,-0.8976824691335957,-0.0363187957711091,-0.9921787545645449
1.74,-0.5513123273849487,0.0534610860049724,1.9234541654586792,-0.0502724214343763,0.0758870968168876,-0.0046577131914773,0.2974998950958252,-0.0141862034797668,-0.425969660282135,-0.5460790539532899,0.0520228356495499,1.929926857724786,0.5113736629486084,-0.0305674403905868,-0.5471782386302948,0.9982440326278624,-0.6018877029418945,0.648092944175005,-0.4628151655197143,11.023176357725788,-0.9754090598749084,-0.0290109404072976,-1.238959493891915
1.76,-0.5449347496032715,0.0535434707999229,1.9141254425048828,-0.041377701870602,0.0957467389758272,-0.0037180396317796,0.2909432351589203,-0.0009272061288356,-0.428641140460968,-0.536172770038247,0.0512513681128621,1.9195113468915224,0.527433130145073,-0.0225615039467811,-0.5735809355974197,0.7515444208862694,-0.3278329968452453,0.6629498675465584,-0.1335740089416504,11.554696406321,-1.0295015672384027,-0.0122733322319599,-1.2685000832796545
1.78,-0.5417481064796448,0.0537292212247848,1.9093577861785889,-0.0356705069796107,0.1113446675658728,-0.0033479969751214,0.2895350754261017,0.0058145262300968,-0.4251918196678161,-0.5258649994432926,0.0506800489872694,1.908435768634081,0.5434925973415374,-0.0145555675029754,-0.5999836325645447,0.385135310529556,-0.0704079866409301,0.3370866179466247,0.1724660396575927,11.387536969486064,-1.0729757897937051,0.0128868270689525,-1.2880471225396004
1.8,-0.5321412682533264,0.0547626800835132,1.8953384160995483,-0.0347393578606764,0.1159115584629709,0.0012402644319449,0.287853330373764,0.0274322088807821,-0.4227080941200256,-0.5151557421684265,0.0503088782727718,1.8967001229524607,0.559552064538002,-0.0065496310591697,-0.6263863295316696,1.091239389643205,-0.0840872526168823,1.0808841325342655,0.1241862773895263,11.563728299634931,-1.109946258516325,0.0455430740961153,-1.2518629362746947
1.82,-0.5289402604103088,0.0550413951277732,1.8907629251480105,-0.0270289035770099,0.1377388480028586,-0.0035949520092588,0.2881765365600586,0.0295239128172397,-0.4183843731880188,-0.5177486017346382,0.0561342905275523,1.874203011393547,0.3486895933747291,0.0151106445118784,-0.4480208791792393,0.2406982046802878,0.0161603093147277,0.1045851968228817,0.2161860466003418,11.425085411963664,-1.1460528987272691,0.0590120233114449,-1.312520504395246
1.84,-0.5223295092582703,0.0561303608119487,1.881309032440185,-0.0217765589623708,0.1523652408560281,-0.0034124207092413,0.2930058538913727,0.0412070304155349,-0.420425534248352,-0.5177486017346382,0.0561342905275523,1.874203011393547,0.3486895933747291,0.0151106445118784,-0.4480208791792393,0.6402809562534768,0.2414658665657043,0.5841558799147606,-0.1020580530166626,11.9709344831208,-1.1766332722890889,0.0407906776422559,-1.181332197140721
1.86,-0.5152961611747742,0.0573080815374851,1.8719873428344729,-0.015304683559756,0.1663332224949859,-0.0033411196222811,0.30699223279953,0.0510004460811615,-0.4224506020545959,-0.5177486017346382,0.0561342905275523,1.874203011393547,0.3486895933747291,0.0151106445118784,-0.4480208791792393,0.8596957092224162,0.6993189454078674,0.4896707832813263,-0.1012533903121948,12.10667541726616,-1.219002801367086,0.0772995934957869,-1.262066937704004
1.88,-0.5117697715759277,0.0579745173454284,1.867328405380249,-0.005893605795539,0.1765331273827155,-0.0029886790643493,0.311511754989624,0.0534538254141807,-0.4230594635009765,-0.5142617058008909,0.0562853969726711,1.8697228026017547,0.3608568459749222,0.0126463316380977,-0.453083436191082,0.2589201770784131,0.2259761095046997,0.1226689666509628,-0.0304430723190307,12.26870248461637,-1.2142784184901667,0.106203558282825,-1.2950464873698129
1.9,-0.5043612718582153,0.0592452250421047,1.858042597770691,0.0066020855763446,0.1798074545379872,-0.0022132327788582,0.324646532535553,0.0565303191542625,-0.418877899646759,-0.5072879139333963,0.0565876098629087,1.8607623850181696,0.3851913511753082,0.0077177058905363,-0.4632085502147675,0.7061739714487862,0.6567388772964478,0.1538246870040893,0.2090781927108764,12.277036864595177,-1.256932473978564,0.1147143677802748,-1.3272836765335936
1.92,-0.4965755343437195,0.0605582781136035,1.848955988883972,0.0220322978926461,0.1767407956968593,-0.0014203017318689,0.3418703377246856,0.0581346154212951,-0.4133793711662292,-0.5003141220659018,0.0568898227531462,1.8518019674345847,0.4095258563756943,0.0027890801429748,-0.4733336642384529,0.9075613576458704,0.8611902594566345,0.0802148133516311,0.2749264240264892,12.450429484908454,-1.299875984923332,0.1235643711098586,-1.334498926547632
1.94,-0.4883729815483093,0.0619030520319938,1.8400747776031492,0.0381841198421608,0.1687715573965185,-0.0009211370773976,0.3597365319728851,0.0598011091351509,-0.4042759537696838,-0.4921236049383878,0.0569456043560057,1.842335294149816,0.4338603615760803,-0.0021395456045866,-0.4834587782621383,1.006044614453606,0.8933097124099731,0.0833246856927871,0.4551708698272705,12.720620233782029,-1.2892071393012796,0.1499077078079481,-1.3630278798134778
1.96,-0.4798415303230285,0.06308364123106,1.8318121433258057,0.0544898264460374,0.1575583094614023,-0.0011307538798515,0.3765150904655456,0.0568206682801246,-0.3857365250587463,-0.4839330878108739,0.0570013859588652,1.832868620865047,0.4581948667764663,-0.007068171352148,-0.4935838922858238,1.2590804876077957,0.8389279246330261,-0.1490220427513122,0.926971435546875,12.627458506282892,-1.2717262288734876,0.1982022268705015,-1.406587724706304
1.98,-0.4752911329269409,0.0635740011930465,1.8276269435882568,0.0682549898249143,0.1465344317424673,-0.001278105573462,0.3896639347076416,0.0518944561481475,-0.3813323378562927,-0.4751342080533504,0.0569339519180357,1.823148819729686,0.4825293719768524,-0.0119967970997095,-0.5037090063095093,0.7357930004192655,0.6574422121047974,-0.246310606598854,0.2202093601226806,12.158305796948298,-1.247297770383453,0.2374753975200647,-1.3984270627584885
2.0,-0.4661067426204681,0.0644945874810218,1.81971287727356,0.0794799244095827,0.1350627180262013,-0.00174866827912,0.4075106978416443,0.0476373732089996,-0.3666794300079345,-0.4657269656658173,0.0567433022335171,1.8131758907437323,0.5068638771772385,-0.0169254228472709,-0.5138341203331948,1.1740287666029077,0.8923381567001343,-0.2128541469573974,0.7326453924179077,12.150338507614832,-1.1370835266808772,0.3227650222304754,-1.491257909694858
2.02,-0.4565827846527099,0.0649256333708763,1.812425136566162,0.0859259616714177,0.1240448317992696,-0.0028492733902372,0.4209378361701965,0.0304117240011692,-0.3420406579971313,-0.4457312077283859,0.0668764561414718,1.8013789057731628,0.4358171578496694,0.0205191969871521,-0.3738613622263074,1.646268599382894,0.6713569164276123,-0.8612824603915215,1.2319386005401611,12.425610751034585,-1.1370835266808772,0.3227650222304754,-1.491257909694858
2.04,-0.4469673931598663,0.0651502832770347,1.8054298162460327,0.0869356673775119,0.1128820335486761,-0.0039977627994006,0.4306353628635406,0.0147531554102897,-0.3213688731193542,-0.4457312077283859,0.0668764561414718,1.8013789057731628,0.4358171578496694,0.0205191969871521,-0.3738613622263074,1.3843369209810268,0.4848763346672058,-0.782928429543972,1.033589243888855,12.231414697493165,-1.1134808007747703,0.3135333046797263,-1.5307284323500998
2.06,-0.4369853734970093,0.0649621933698654,1.798813819885254,0.0848383713444921,0.1000367577469096,-0.0056007747564959,0.4409417510032654,0.0008225999772548,-0.3062546253204345,-0.4457312077283859,0.0668764561414718,1.8013789057731628,0.4358171578496694,0.0205191969871521,-0.3738613622263074,1.149698327482763,0.5153194069862366,-0.6965277716517448,0.7557123899459839,12.079881967595613,-1.082087755904566,0.3129573836300006,-1.5055526597359186
2.08,-0.4320071637630462,0.0646970868110656,1.795801281929016,0.0774586612247369,0.0846669781993521,-0.0072937059586782,0.4458528757095337,-0.0091570615768432,-0.293009877204895,-0.4413730361498892,0.0670816481113433,1.7976402921508998,0.4414784498512745,0.0150955617427825,-0.3752977486699819,0.8647776350874133,0.2455562353134155,-0.4989830777049064,0.6622374057769775,12.090528158112647,-1.0350585828906678,0.3168654218181635,-1.5106338870758396
2.1,-0.4220263659954071,0.0637847185134887,1.7899092435836792,0.0671252430387576,0.0646754464862444,-0.008992147500515,0.4463725686073303,-0.0287834554910659,-0.2740868926048279,-0.4326566929928958,0.0674920320510864,1.7901630649063736,0.4528010338544845,0.0042482912540435,-0.3781705215573311,1.363400862694678,0.0259846448898315,-0.981319695711136,0.9461492300033568,12.099065820830674,-1.0022730098177606,0.3328703978704693,-1.5210577465630082
2.12,-0.4119591116905212,0.0627091825008392,1.784473180770874,0.0555877800015459,0.0443488354581225,-0.0107528851561282,0.4510811567306518,-0.0447278469800949,-0.254882276058197,-0.4239403498359024,0.0679024159908294,1.7826858376618475,0.4641236178576946,-0.0065989792346954,-0.3810432944446802,1.270050903284619,0.2354294061660766,-0.7972195744514465,0.960230827331543,11.860273676655195,-0.9717660777523148,0.2756524987086979,-1.526960681629963
2.14,-0.4021773338317871,0.0612200535833835,1.7796181440353394,0.0434114782212293,0.0257189574913557,-0.0120560665417588,0.4466032385826111,-0.0577049627900123,-0.2315497398376464,-0.4146578774787485,0.0677704364061355,1.775064971772954,0.4754462018609047,-0.0174462497234344,-0.3839160673320293,1.353573540824311,-0.2238959074020385,-0.6488557904958725,1.1666268110275269,11.527579944936406,-0.8908992985039076,0.2291773120677304,-1.5237752752146214
2.16,-0.3926063179969787,0.0596323683857917,1.7749310731887815,0.0336669905756653,0.0101028256018093,-0.0122556254750908,0.4354378581047058,-0.069228321313858,-0.2146974205970764,-0.4053754051215946,0.0676384568214416,1.7674441058840604,0.4867687858641147,-0.0282935202121734,-0.3867888402193785,1.1634583970554804,-0.5582690238952637,-0.5761679261922836,0.8426159620285034,11.486719177527904,-0.8407265212537676,0.1860637385084489,-1.4496030231765986
2.18,-0.3878384828567505,0.058658730238676,1.7727755308151243,0.0244860191459244,-0.0001353282262195,-0.0121101627079749,0.4306614995002746,-0.0740079283714294,-0.2074635028839111,-0.3958098681643605,0.0672352954745292,1.759751420672983,0.4980913698673248,-0.0391407907009124,-0.3896616131067276,0.4949439630497486,-0.2388179302215576,-0.2389803528785705,0.3616958856582641,10.99401808419134,-0.8278464838334304,0.1440418201875069,-1.4818728520043136
2.2,-0.3786992132663727,0.0568412356078624,1.768471598625183,0.0178150574849951,-0.007159379920717,-0.0110451066069685,0.4196289181709289,-0.0802715569734573,-0.1993042230606079,-0.3859612666070461,0.0665609523653984,1.751986916139722,0.5094139538705349,-0.0499880611896514,-0.3925343859940767,0.754196163620136,-0.5516290664672852,-0.3131814301013946,0.4079639911651611,12.226537202904638,-0.7168500799927172,0.1045682887670854,-1.5388645754854091
2.22,-0.3700070977210998,0.0549657717347145,1.7643624544143677,0.0119383939735468,-0.0080365417080368,-0.0101078843476844,0.4012061655521393,-0.08309156447649,-0.1892942190170288,-0.3577177673578262,0.0528276577591896,1.7585063874721527,0.3974506501108408,-0.0694944290444254,-0.2292298283427953,1.057769395145691,-0.9211376309394836,-0.1410003751516342,0.5005002021789551,11.087486752814584,-0.7168500799927172,0.1045682887670854,-1.5388645754854091
2.24,-0.3616805374622345,0.0528620705008506,1.760553002357483,0.0067328199764625,-0.0054907673037409,-0.0087509997439384,0.3829202055931091,-0.0895312130451202,-0.1781684160232544,-0.3577177673578262,0.0528276577591896,1.7585063874721527,0.3974506501108408,-0.0694944290444254,-0.2292298283427953,1.1176190066017522,-0.9142979979515076,-0.3219824284315109,0.5562901496887207,11.087486752814584,-0.7168500799927172,0.1045682887670854,-1.5388645754854091
2.26,-0.3537532389163971,0.0511272959411144,1.7566335201263428,-0.0018681577376182,-0.0057549220711794,-0.0067684242660911,0.3657118082046509,-0.086365707218647,-0.1739010214805603,-0.3577177673578262,0.0528276577591896,1.7585063874721527,0.3974506501108408,-0.0694944290444254,-0.2292298283427953,0.9004998945024204,-0.8604198694229126,0.1582752913236618,0.2133697271347046,10.800129123961597,-0.7415305267876524,0.0502943525157027,-1.4442494742240355
2.28,-0.3499906957149505,0.0500712543725967,1.754709243774414,-0.0030057048123658,0.0037122386654866,-0.005195983945419,0.3566573560237884,-0.0861430838704109,-0.173209011554718,-0.3537432608567178,0.0521327134687453,1.7562140891887248,0.3930149964988231,-0.0673390034586191,-0.2352149493992328,0.4541793235831207,-0.4527226090431213,0.0111311674118042,0.0346004962921142,10.859729789921856,-0.7513510288280972,0.0614572492120808,-1.4015787313034869
2.3000000000000003,-0.3427385687828064,0.0483707897365093,1.7510212659835815,-0.008145783015077,0.0026458981769254,-0.0038009779192168,0.3374641537666321,-0.0810887962579727,-0.1716265082359314,-0.345794247854501,0.0507428248878568,1.7516294926218687,0.3841436892747879,-0.0630281522870063,-0.2471851915121078,0.9955264347410988,-0.9596601128578186,0.2527143806219101,0.079125165939331,11.1057766015997,-0.7752881065051026,0.0520471197950182,-1.510195203329483
2.32,-0.3359156847000122,0.0466419458389282,1.7475062608718872,-0.0168075361558524,0.0062179549131678,-0.0028790746953328,0.3166877627372741,-0.0771594420075416,-0.1620671153068542,-0.3378452348522842,0.0493529363069683,1.747044896055013,0.3752723820507526,-0.0587173011153936,-0.2591554336249828,1.1602588528025273,-1.0388195514678955,0.196467712521553,0.4779696464538574,10.657538867451876,-0.7631967437022442,0.0552785619693445,-1.4792718566394834
2.34,-0.3293542265892029,0.044961504638195,1.7439767122268677,-0.0210890483766736,0.0057591926120236,-0.002318166507846,0.3011476993560791,-0.0767089128494262,-0.158502459526062,-0.3303397872112691,0.0481785902846604,1.7418617873825133,0.3664010748267173,-0.0544064499437808,-0.2711256757378578,0.7975012809541555,-0.7770031690597534,0.0225264579057693,0.1782327890396118,10.545265490847669,-0.8071825273548054,0.0504460847707891,-1.4045800394656456
2.36,-0.3233198523521423,0.0436221361160278,1.740253448486328,-0.0279686067105319,0.004845927512586,-0.0016520625357697,0.2834062278270721,-0.0679457187652587,-0.1631882786750793,-0.322834339570254,0.0470042442623525,1.7366786787100137,0.3575297676026821,-0.0500955987721681,-0.2830959178507328,1.0167476133100215,-0.8870735764503479,0.438159704208374,-0.2342909574508667,10.490559429502357,-0.8103944452048952,0.0195156365486676,-1.3338441964374057
2.38,-0.3202981650829315,0.0430555865168571,1.7383229732513428,-0.032711432199056,0.0032883085792668,-0.0010085425983415,0.2763486504554748,-0.0633877217769622,-0.1668334007263183,-0.3155506746098399,0.045937669519335,1.731196313984692,0.3486584603786468,-0.0457847476005554,-0.2950661599636078,0.4579073314269795,-0.3528788685798645,0.2278998494148254,-0.1822561025619506,10.61988822100284,-0.8238853688162986,0.0332004988130657,-1.3205376162180185
2.4,-0.3147831559181213,0.0418652594089508,1.7342770099639893,-0.037580110255231,0.0018602780036092,-0.0001424523306723,0.259513795375824,-0.0546273775398731,-0.1762667298316955,-0.3084887923300266,0.0449788660556077,1.7254146932065486,0.3397871531546116,-0.0414738964289426,-0.3070364020764827,1.0596505021886988,-0.841742753982544,0.4380172118544578,-0.4716664552688598,10.9920446029887,-0.8200400423830098,0.0405751994783172,-1.3901578373092796
2.42,-0.3097281455993652,0.0411499962210655,1.7301298379898071,-0.0405545781583223,0.0015515891458893,0.0008178832326923,0.2378254383802414,-0.0428757816553115,-0.184345543384552,-0.3018074661493301,0.0391338905319571,1.7254636734724045,0.2710974654182791,-0.0375735722482204,-0.1940120663493871,1.2978367226116083,-1.084417849779129,0.5875797942280769,-0.4039406776428222,10.860572949969992,-0.78108753367831,0.0212449059210991,-1.3186877730842153
2.44,-0.3049561977386474,0.040495965629816,1.7259273529052734,-0.0406384529048174,0.0029121910445039,0.0014762937964362,0.2211065590381622,-0.0308091100305318,-0.1878672838211059,-0.3018074661493301,0.0391338905319571,1.7254636734724045,0.2710974654182791,-0.0375735722482204,-0.1940120663493871,1.0458586738390183,-0.8359439671039581,0.6033335812389851,-0.1760870218276977,11.732704950689822,-0.8202658928682294,0.0385143186131669,-1.2970913593293738
2.46,-0.3006756007671356,0.0401670597493648,1.7213220596313477,-0.0378193854728124,0.0068174925288318,0.0018151548466795,0.2036822587251663,-0.022116070613265,-0.1981750130653381,-0.3018074661493301,0.0391338905319571,1.7254636734724045,0.2710974654182791,-0.0375735722482204,-0.1940120663493871,1.101617512887327,-0.8712150156497955,0.4346519708633423,-0.5153864622116089,11.831600547254313,-0.8280785938249717,0.055375061815787,-1.2525305027110014
2.48,-0.2984565496444702,0.0400385670363903,1.719097375869751,-0.0332735934526392,0.0129408781797474,0.0020602165697469,0.2006647735834121,-0.0168943963944911,-0.2010208368301391,-0.2990964914951473,0.0387581548094749,1.7235235528089106,0.2734141994267702,-0.0341628111898899,-0.1975611336529255,0.33342844482745,-0.1508742570877075,0.2610837109386921,-0.1422911882400512,11.679169100801571,-0.8433563612317735,0.0528878074268495,-1.2659645705725393
2.5,-0.2945927381515503,0.0400762893259525,1.7141168117523191,-0.0235697468327437,0.0282814406788565,0.0020958354059977,0.1814333349466323,-0.0067648664116859,-0.2158507704734802,-0.2936745421867817,0.0380066833645105,1.719643311481923,0.2780476674437523,-0.0273412890732288,-0.2046592682600021,1.3156581447878817,-0.9615719318389891,0.5064764991402626,-0.7414966821670532,11.302945354033,-0.7975907917622824,0.0649524197978549,-1.3040357052545424
2.52,-0.2910837233066559,0.0402558743953704,1.7090883255004885,-0.0136330577023827,0.0436749289321096,0.0015034744107358,0.1658885926008224,0.004889415577054,-0.2252036333084106,-0.2882525928784161,0.0372552119195461,1.7157630701549351,0.2826811354607343,-0.0205197669565677,-0.2117574028670787,1.0781202930096765,-0.7772371172904968,0.5827140994369984,-0.467643141746521,11.752031212023212,-0.8214678313616668,0.0679098099280473,-1.3548202861003078
2.54,-0.2876887321472168,0.0406599193811416,1.7041382789611816,-0.0044816709828431,0.0620429494857496,0.0015441592781478,0.1553401350975036,0.0131316762417554,-0.2245169878005981,-0.2825989701692015,0.0368448165804147,1.7115279220975936,0.2873146034777164,-0.0136982448399066,-0.2188555374741554,0.670216939911262,-0.5274228751659393,0.4121130332350731,0.034332275390625,12.23240399343149,-0.8788432528057045,0.1110707241533587,-1.4818358679378256
2.56,-0.2844688296318054,0.0411632359027862,1.698951244354248,0.0018706511141345,0.0819786726193939,0.0015857493581827,0.1488351076841354,0.0204156339168548,-0.2280843257904052,-0.2769453474599868,0.0364344212412834,1.707292774040252,0.2919480714946985,-0.0068767227232456,-0.225953672081232,0.5198493084414759,-0.3252513706684112,0.3641978837549686,-0.1783668994903564,11.73406792503647,-0.9334305779544998,0.1434666054668025,-1.5700062166513646
2.58,-0.2829305231571197,0.0414301194250583,1.6964609622955322,0.0069723069428249,0.1010849103640465,0.0011987448742881,0.1431629061698913,0.0237089674919843,-0.2300557494163513,-0.2711758880503475,0.0361945639550685,1.7028801726177334,0.2965815395116806,-5.520060658454696e-05,-0.2330518066883087,0.3424413350057437,-0.283610075712204,0.1646666787564754,-0.0985711812973022,11.778727002995764,-0.969416865587254,0.1715405694168362,-1.5991902203563122
2.6,-0.2797733247280121,0.0420022867619991,1.691388726234436,0.0096884584410409,0.1139555925911905,0.0011279470526066,0.1416682451963424,0.026612626388669,-0.2286770939826965,-0.2652905919402837,0.0361252447217702,1.698290117830038,0.3012150075286627,0.0067663215100765,-0.2401499412953853,0.1772423285990953,-0.0747330486774444,0.1451829448342323,0.0689327716827392,12.122217605514834,-1.0508311108032709,0.1969381556632865,-1.5849802933355726
2.62,-0.2765138149261474,0.0426123663783073,1.6863536834716797,0.0137545073163441,0.1314991546756455,0.0006856069453504,0.1443759351968765,0.0266005564481019,-0.2274137735366821,-0.2726899124681949,0.0433329180814325,1.6799548715353012,0.1912418194115162,0.022092280909419,-0.2093343529850244,0.1493963635080808,0.1353845000267028,-0.0006034970283508,0.0631660223007202,11.855609623309649,-1.1009243436629712,0.2010706709571868,-1.6465835769931747
2.64,-0.2730866074562073,0.0433332063257694,1.6809855699539185,0.0154992013607388,0.1419617945220757,0.0004458925451526,0.1504511386156082,0.0299456901848316,-0.2340710163116455,-0.2726899124681949,0.0433329180814325,1.6799548715353012,0.1912418194115162,0.022092280909419,-0.2093343529850244,0.4806685387571616,0.3037601709365845,0.1672566868364811,-0.3328621387481689,12.042200177582345,-1.138961916514879,0.1952618630717401,-1.699766344366319
