t,x,y,z,roll,pitch,yaw,v_x,v_y,v_z,ref_x,ref_y,ref_z,ref_v_x,ref_v_y,ref_v_z,a_com,a_x,a_y,a_z,thrust,wind_x,wind_y,wind_z
0.0,1.4627094268798828,0.3553145825862884,2.3773462772369385,0.0178912414886841,0.0817701973752295,0.0018507410312091,0.0018239021301269,-0.0067578256130218,-0.0031435489654541,1.46,0.3700000000000001,2.38,0.0,0.0,0.0,0.3836558552091423,0.0911951065063476,-0.3378912806510925,-0.157177448272705,11.16550229637096,-0.7769676589884701,0.1582765289275736,-1.2921124375533168
0.02,1.46280038356781,0.3552031219005584,2.377291679382324,0.0162483829548158,0.0819887476563515,0.0021089457684048,0.004093050956726,-0.0050157308578491,-0.0024569034576416,1.459878,0.3700320000000001,2.38004,-0.0122,0.0032,0.004,0.1471004128703892,0.113457441329956,0.0871047377586364,0.034332275390625,12.650855275906906,-0.8098892173184925,0.1357109652174915,-1.391387217355997
0.04,1.4628630876541138,0.3549368381500244,2.377140760421753,0.0185728541123705,0.0816701874561552,0.0016422326894075,0.0028216838836669,-0.0119827687740325,-0.006791353225708,1.4594154256525842,0.3700387866683383,2.38051999925907,-0.0340574347415874,-0.0025213331661761,0.0439999259070513,0.4151609517761992,-0.0635683536529541,-0.3483518958091736,-0.2167224884033203,12.577390760637172,-0.795069641396845,0.1518211883311573,-1.3251481518030537
0.06,1.463054895401001,0.3547048568725586,2.377000570297241,0.0261391242977001,0.0768334693500975,0.0027750316480778,0.0086313486099243,-0.0104391574859619,-0.0063085556030273,1.4584150015296002,0.3698452266509056,2.3817999975122794,-0.0659849775568097,-0.0168346685771079,0.0839998994138621,0.3015295739419432,0.2904832363128662,0.0771805644035339,0.0241398811340332,12.61069093016158,-0.8208982512045834,0.1165373120426087,-1.3694631200994027
0.08,1.4632000923156738,0.3542272448539734,2.377599239349365,0.0379484869919782,0.0612512764963702,0.0054891916211969,0.0065338611602783,-0.0214925408363342,0.026940107345581,1.4566953019963946,0.3692737563491106,2.3838798962065493,-0.1059849757637505,-0.0403123616023887,0.1239899700131259,1.7550287212478,-0.1048743724822998,-0.5526691675186157,1.66243314743042,12.898442499786142,-0.7953337534548945,0.1463174718115115,-1.3854020072098123
0.1,1.4632443189620972,0.3539757430553436,2.377694606781006,0.0480705633242289,0.0526492361931205,0.0054108886742404,0.0049406290054321,-0.0252395868301391,0.0258994102478027,1.45417560249984,0.3681369107049341,2.386759691290146,-0.1459849738917051,-0.0733722028152548,0.1639895383465371,0.2101296791760367,-0.0796616077423095,-0.1873522996902465,-0.052034854888916,12.390200966827251,-0.7950815664549072,0.1117217063878693,-1.1689616671855492
0.12,1.4632878303527832,0.3531551659107208,2.378750801086426,0.0650476273426923,0.0285762935725744,0.006192894735062,0.0019580125808715,-0.0369259715080261,0.0475287437438964,1.450855903041384,0.3662694672375248,2.39030265100308,-0.1859849719538883,-0.1133721439256845,0.1903064329468538,1.2382403392121142,-0.1491308212280273,-0.5843192338943481,1.0814666748046875,12.58373386542371,-0.7953767704666335,0.1473772354692624,-1.3811801814793172
0.14,1.4630070924758911,0.3520758748054504,2.3801770210266118,0.0846413521793185,-0.0002735782242485,0.0061862844042739,-0.012633204460144,-0.0485680997371673,0.0641798973083496,1.4467362036226603,0.3636020249156912,2.394173625279801,-0.2259849699184954,-0.1533720882576761,0.1967909947252289,1.2507034815142957,-0.7295608520507812,-0.5821064114570618,0.8325576782226562,12.816258512391869,-0.7669233990538935,0.1552216427061227,-1.4156007475917671
0.16,1.462229609489441,0.3508451282978058,2.381945371627808,0.1044435062633156,-0.0306321297273402,0.0064171908401841,-0.0349867343902587,-0.0553835928440094,0.079575777053833,1.441816504245439,0.3601345837857037,2.398173901268577,-0.2659849678036352,-0.1933720247410793,0.2032366041524017,1.3992536937268856,-1.1176764965057373,-0.340774655342102,0.7697939872741699,12.733330510107407,-0.7537362573983887,0.1948486101902571,-1.4453342461347851
0.18,1.460999846458435,0.3488397598266601,2.384432792663574,0.1220837886656274,-0.0661148010584429,0.0057351589217451,-0.0553393363952636,-0.0902415812015533,0.111933946609497,1.4360968049113632,0.355867144030084,2.4023027036349265,-0.3059849656039468,-0.2333719508208783,0.2096436324824868,2.586676872795432,-1.017630100250244,-1.7428994178771973,1.6179084777832031,12.615378863209116,-0.7679228759628652,0.2916488667148808,-1.5783049772600135
0.2,1.4600749015808103,0.3477569222450256,2.3857388496398926,0.1313540208868664,-0.0827956552965413,0.0051587380054942,-0.0709497928619384,-0.0943467020988464,0.1125562191009521,1.4295771056221886,0.350799705897356,2.406559260833875,-0.3459849633135079,-0.2733718624519268,0.21601208741238,0.8076595689598486,-0.7805228233337402,-0.2052560448646545,0.0311136245727539,12.554133366597853,-0.714430075324,0.2243764664140348,-1.5112763122759298
0.22,1.4577034711837769,0.3448748886585235,2.3890693187713623,0.1479064833247741,-0.115784783095852,0.0034699371947628,-0.1067143678665161,-0.1296915113925933,0.1498711109161377,1.422257406379796,0.3449322697462318,2.410942801378894,-0.3859849609257533,-0.3133717526604823,0.2223419670894966,3.1307992272135565,-1.7882287502288818,-1.7672404646873474,1.8657445907592771,12.665684531399164,-0.5930884282735526,0.3747469213413678,-1.6342082306925425
0.24,1.4542590379714966,0.3413194715976715,2.392482042312622,0.1646111515321579,-0.1448862657141507,0.0012513068912629,-0.1549994945526123,-0.1599937677383422,0.1535725593566894,1.414137707186205,0.3382648361414466,2.415452553529984,-0.4259849584333787,-0.3533716078180318,0.2286332480195711,2.856300456575735,-2.4142563343048096,-1.515112817287445,0.1850724220275879,12.666359617761373,-0.5699659793053994,0.3418893988256146,-1.5566275221259522
0.26,1.4498406648635864,0.3368773460388183,2.3964195251464844,0.1772500252271051,-0.1710122219152957,-0.0006523030076859,-0.198826789855957,-0.1998956501483917,0.1771867275238037,1.4052180080435883,0.3307974061110186,2.420087744457677,-0.4659849558282253,-0.3933713952247872,0.2348858447496761,3.1900709128860867,-2.1913647651672363,-1.995094120502472,1.180708408355713,12.51761097898634,-0.571349733518351,0.3706561073523791,-1.6672066791841442
0.28,1.447086215019226,0.334464818239212,2.3983347415924072,0.1833545506152794,-0.1874847389045848,-0.00173024973757,-0.2285027503967285,-0.2164690196514129,0.184868574142456,1.3954983089542952,0.3225299821945442,2.424847596838443,-0.5059849531011406,-0.4333709964226452,0.2410993933269367,1.7423762353274916,-1.4837980270385742,-0.828668475151062,0.3840923309326172,12.386826298220967,-0.5277543148612516,0.3525195288738901,-1.6706347504027077
0.3,1.440769076347351,0.3287063241004944,2.4028842449188232,0.1968016233886622,-0.2016494750990646,-0.0022199772245978,-0.284271240234375,-0.2591322362422943,0.2047276496887207,1.384978609920866,0.3134625938699902,2.4297312463016305,-0.5459849502417887,-0.4733678360327356,0.2472655529918351,3.648512501761636,-2.788424491882324,-2.1331608295440674,0.9929537773132324,12.203679773995646,-0.5481740247534663,0.3900578395273563,-1.6827682189503137
0.32,1.4329415559768677,0.3218804597854614,2.4074575901031494,0.2058664734471207,-0.2198063475514766,-0.0044895301484192,-0.3522384166717529,-0.3071638941764831,0.2058005332946777,1.3736589109463904,0.3036271815874209,2.434635410634693,-0.5859849472057541,-0.5101733922242091,0.2431508803144871,4.16164880666561,-3.3983588218688965,-2.401582896709442,0.0536441802978515,12.158070116436647,-0.3995173220132335,0.4733207858368898,-1.692980700086632
0.34,1.423736572265625,0.3143580257892608,2.412381410598755,0.2147110536053624,-0.236245272080719,-0.0075039127616571,-0.4142242670059204,-0.3385095298290252,0.2215719223022461,1.361539212034634,0.2930873963465923,2.4393576856688277,-0.6259849439698575,-0.5438051318586569,0.2290766230988982,3.561436236737848,-3.099292516708374,-1.5672817826271055,0.788569450378418,11.995700214373755,-0.4300260243106128,0.4366577662942946,-1.7560936711004898
0.36,1.4129142761230469,0.3058336973190307,2.416961431503296,0.2235085690053738,-0.2450708853849132,-0.0063514329922013,-0.4870033264160156,-0.3835947811603546,0.2061009407043457,1.3486195131898069,0.281902215488526,2.443715407217671,-0.6659849405128563,-0.5747129539479744,0.2066955317854823,4.349949036434184,-3.6389529705047607,-2.2542625665664677,-0.7735490798950195,11.897824418333585,-0.4107768332701735,0.5181015910991277,-1.72410466211395
0.38,1.400642156600952,0.2960916757583618,2.4217419624328613,0.2281130965811899,-0.25448221850238,-0.0067802630918398,-0.5522453784942627,-0.4383909702301025,0.2151238918304443,1.3348998144165831,0.2701226791877829,2.4475550285774736,-0.7059849368094956,-0.6032406761263248,0.1772666041947565,4.283853797392084,-3.262102603912353,-2.739809453487396,0.4511475563049316,11.89803321281579,-0.4457345740845002,0.5123023128671057,-1.8495409346567155
0.4,1.3939415216445925,0.2908928096294403,2.4242868423461914,0.2313663296116545,-0.2598560137888968,-0.0083961930511985,-0.5831176042556763,-0.4586362838745117,0.2211320400238037,1.3203801157201929,0.2577936907283609,2.4507454543888,-0.7459849328295517,-0.6296581698158817,0.1417759769378777,1.87020379420102,-1.5436112880706787,-1.012265682220459,0.3004074096679687,12.022464098857654,-0.4336761057042718,0.4478612071756979,-1.820221035057176
0.42,1.3793195486068726,0.2797394692897796,2.428712844848633,0.2337300891677635,-0.264939443835077,-0.0076097852782151,-0.6579887866973877,-0.501900315284729,0.1991701126098632,1.3050604171064586,0.2449539113709167,2.453181136355558,-0.7859849285438626,-0.6543197659285385,0.1017922197378961,4.460884617937202,-3.7435591220855713,-2.1632015705108643,-1.0980963706970217,11.600433855300253,-0.1822117007516725,0.6163815379413836,-1.764953332816428
0.44,1.3630743026733398,0.2675121128559112,2.433105707168579,0.2372696546890976,-0.271968941255275,-0.008093063966607,-0.7310360670089722,-0.5502310395240784,0.197678804397583,1.2889407185814878,0.2316302246433979,2.454817003275076,-0.8259849239532218,-0.6780489068233447,0.0617944722138627,4.380065087017328,-3.652364015579224,-2.4165362119674683,-0.0745654106140136,12.497571633530695,-0.2449881707370326,0.6105887803564223,-1.864717407339885
0.46,1.3453799486160278,0.2543822228908539,2.43721604347229,0.2400026105377569,-0.2759372394539584,-0.0081159611706002,-0.7962459325790405,-0.5908450484275818,0.1849651336669922,1.2720210201518016,0.2178412283225684,2.4556529049951483,-0.8659849190153959,-0.7008507252595856,0.0217956997934339,3.893411649930599,-3.260493278503418,-2.030700445175171,-0.635683536529541,11.741853744528273,-0.2897530713186316,0.582516620050035,-1.8602192663593509
0.48,1.3259464502334597,0.2400557398796081,2.441401481628418,0.2359775327386079,-0.2778016249767015,-0.0070750726434414,-0.8745074272155762,-0.6446917057037354,0.1883447170257568,1.2543013218248622,0.2036054405400648,2.4556888275190087,-0.905984913678554,-0.7227280529907865,-0.0182034474073894,4.7528269551496605,-3.9130747318267822,-2.6923328638076782,0.1689791679382324,11.887497039559094,-0.256645608760088,0.6040138032287026,-1.8455123377953184
0.5,1.315485596656799,0.2325746566057205,2.443413734436035,0.2336260661241168,-0.27708523040713,-0.008555215880157,-0.9117954969406128,-0.6633753180503845,0.1777875423431396,1.2357816236092936,0.1889413246939256,2.4549247651587414,-0.9459849078783142,-0.7436835316231227,-0.0582027886193419,2.151122643771356,-1.864403486251831,-0.9341806173324584,-0.5278587341308594,12.01729771160035,-0.3156151007889754,0.5406779648182981,-1.794665927004495
0.52,1.2937290668487549,0.2168283313512802,2.4472899436950684,0.2255734706756727,-0.2744208321275266,-0.0080269373005443,-0.9790438413619996,-0.7085846662521362,0.1744294166564941,1.2164619255151767,0.1738672925891643,2.4533607147899565,-0.9859849015333424,-0.7637196788530081,-0.098202248259156,4.055090011446106,-3.362417221069336,-2.260467410087585,-0.1679062843322754,11.70322652856794,-0.1156873236625589,0.6875754945578444,-1.7544341061405262
0.54,1.2704888582229614,0.2001567631959915,2.4510390758514404,0.2145666895361795,-0.2682962041208769,-0.0059390145102368,-1.0458093881607056,-0.750220537185669,0.1687109470367431,1.196342227554455,0.1584017067809013,2.450996674431655,-1.0259848945388308,-0.7828389019732863,-0.1382017875709941,3.944580105193713,-3.3382773399353027,-2.081793546676636,-0.2859234809875488,11.617154449458212,-0.1099752382181807,0.664891229210985,-1.8112081854440727
0.56,1.2455768585205078,0.1826611310243606,2.454588890075684,0.2021159407286816,-0.2597130091375588,-0.0039945899029705,-1.1210399866104126,-0.7873034477233887,0.1597416400909423,1.1754225297415015,0.1425628827330475,2.447832642715576,-1.0659848867565025,-0.8010435028121036,-0.1782013840368763,4.217592223098855,-3.761529922485352,-1.8541455268859863,-0.448465347290039,11.218843582523276,-0.1366245593816192,0.6351446069738133,-1.8068515270557928
0.58,1.2193347215652466,0.1642447113990783,2.458005428314209,0.1882112034353266,-0.2507832801811374,-0.0018036165098925,-1.1808961629867554,-0.8287388682365417,0.1537442207336425,1.15370283209395,0.1263690909012926,2.443868618641097,-1.1059848779986643,-0.8183356803633784,-0.218201023411036,3.652268118048357,-2.9928088188171387,-2.071771025657654,-0.2998709678649902,10.671151125693086,-0.2115514519954162,0.6193427433272861,-1.8167606554143032
0.6,1.2055306434631348,0.1547747403383255,2.4597573280334477,0.1835781893341537,-0.2433244430385047,-0.0041869910772802,-1.2165051698684692,-0.8434990644454956,0.1491200923919677,1.1311831346339485,0.1098385587718264,2.439104601445939,-1.1459848680014784,-0.8347175325832442,-0.2582006961047232,1.9411641649722997,-1.7804503440856934,-0.7380098104476929,-0.2312064170837402,10.517084323922518,-0.1968537415176749,0.5636103217455763,-1.8437796846561527
0.62,1.1772327423095703,0.135418951511383,2.462733507156372,0.1711850708145715,-0.2340917061424205,-0.0016728656321699,-1.2734055519104004,-0.8710104823112488,0.1339280605316162,1.1078634373901604,0.0929894728678809,2.4335405905313823,-1.185984856377328,-0.850191057811307,-0.2982003953509913,3.250126698125683,-2.8450191020965576,-1.3755708932876587,-0.7596015930175781,10.09362770276948,-0.0436868794648383,0.6660211587130023,-1.8101462293690005
0.64,1.1478064060211182,0.1154474318027496,2.4654197692871094,0.1594245640933466,-0.2221943143413944,-0.0011823768094972,-1.324185132980347,-0.8987183570861816,0.1208817958831787,1.0837437404011567,0.0758399807298867,2.427176585415952,-1.225984842523044,-0.8647581559881128,-0.3382001161920357,2.965003035183808,-2.5389790534973145,-1.385393738746643,-0.652313232421875,9.938022554799318,-0.063142887315624,0.6577357368785698,-1.8538274920670883
0.66,1.117209553718567,0.0948627218604087,2.4671761989593506,0.148793267664131,-0.2079160557132765,0.0013172068779859,-1.3768583536148071,-0.92631196975708,0.0790393352508544,1.0588240437216891,0.0584081928725912,2.420012585705201,-1.265984825423708,-0.878420629741437,-0.3781998548830366,3.635473539996447,-2.6336610317230225,-1.379680633544922,-2.092123031616211,9.384114115748162,-0.0670200894261493,0.6252580621790934,-1.8365165819170408
0.68,1.08553147315979,0.0737331435084343,2.468903064727783,0.138073563068122,-0.1956518983043989,0.0022196606735446,-1.4255136251449585,-0.9508310556411744,0.0777089595794677,1.033104347435777,0.0407121847214407,2.4120485910711453,-1.3059848031674897,-0.8911801853736138,-0.4181996085225329,2.7250187704359785,-2.4327635765075684,-1.225954294204712,-0.0665187835693359,9.239509532191732,-0.1190652593969645,0.573923296929165,-1.9508288770706388
0.7000000000000001,1.069309949874878,0.0632423087954521,2.469386100769043,0.1341098283107666,-0.1892939882867622,0.0014318690989393,-1.4496320486068726,-0.9522508978843688,0.0506830215454101,1.006584651689627,0.0227699985301319,2.403284601237787,-1.3459847714474902,-0.9030384337572462,-0.4581993748133093,1.8125366402534384,-1.2059211730957031,-0.070992112159729,-1.3512969017028809,8.912941414786474,-0.1603707190647943,0.5299839547452035,-1.7715008372494974
0.72,1.0363675355911257,0.041759293526411,2.4698805809021,0.1262042045085135,-0.1736521030137444,0.0026771231069467,-1.48240864276886,-0.9667356610298156,0.0222516059875488,0.9792649568082248,0.0045996452817175,2.393720615970632,-1.3859847166927757,-0.9139968910842156,-0.4981991519022065,2.2871701285994845,-1.6388297080993652,-0.7242381572723389,-1.4215707778930664,8.571772987431359,-0.0468145910647016,0.6230657302479443,-1.7140670277263372
0.74,1.0026179552078247,0.0198370721191167,2.469574451446533,0.1188182588452061,-0.1609642439454457,0.0026620052149387,-1.5187311172485352,-0.9864999651908876,-0.0137758255004882,0.9511452644194204,-0.0137808934168029,2.383356635068917,-1.4259845221876586,-0.9240569787678354,-0.5381989382692227,2.7422279677860617,-1.8161237239837649,-0.9882152080535888,-1.8013715744018557,8.019928905578581,-0.0345010680338355,0.6115188906507999,-1.6701973752454626
0.76,0.9679522514343262,-0.0024179492611438,2.468258142471313,0.111810781147645,-0.1437469973852052,0.003097956275526,-1.559956669807434,-1.0014760494232178,-0.0592339038848876,0.9222586796795192,-0.0323532157206624,2.3721926579110884,-1.462673951802453,-0.9331752516181044,-0.5781987775136992,3.158427683643632,-2.0612776279449463,-0.7488042116165161,-2.2729039192199707,7.796364311273464,-0.0789835054617951,0.5512373584962065,-1.6255384864372693
0.78,0.9505631923675536,-0.0135953612625598,2.4671900272369385,0.0973765874898741,-0.1152951382578837,0.0043970048799829,-1.565248727798462,-1.006029725074768,-0.0843501091003418,0.8926922293495451,-0.0510984114182971,2.360228683571171,-1.4939710811949585,-0.9413443181453623,-0.6181986564780314,1.3034239564937489,-0.2646028995513916,-0.2276837825775146,-1.255810260772705,7.562173661709039,-0.1610483576852354,0.5189076099432549,-1.6258562977468896
0.8,0.9150970578193665,-0.035977054387331,2.464254140853882,0.1087409318857969,-0.1197103322625257,0.0037532241299375,-1.5959761142730713,-1.007176160812378,-0.1321148872375488,0.8625530130195506,-0.0699977283453411,2.347464711458537,-1.5199505518044996,-0.9485873745590384,-0.6581985547853793,2.84031715876814,-1.5363693237304688,-0.0573217868804931,-2.388238906860352,6.889418370730709,-0.0738046615994943,0.5073196076068786,-1.6007334252179009
0.8200000000000001,0.879418134689331,-0.0585973709821701,2.45996356010437,0.1075991349940451,-0.1043479468587333,0.0044918386463279,-1.6055514812469482,-1.0179142951965332,-0.1930761337280273,0.8319468421114035,-0.0890328393785206,2.333900741276969,-1.5406665390101897,-0.954923728758902,-0.6981984633714889,3.131800103937618,-0.4787683486938476,-0.5369067192077637,-3.048062324523926,7.120811852200404,-0.0662856771238693,0.5552455204542249,-1.438463306676354
0.84,0.8429204225540161,-0.0813703462481498,2.454179525375366,0.1101454474410022,-0.0819535539808835,0.0047857103129417,-1.6423970460891724,-1.0247838497161863,-0.2602815628051758,0.8009786429955698,-0.1081857676324057,2.319536772872951,-1.5561533725732044,-0.960369096629606,-0.7381983770302833,3.847517422080328,-1.842278242111206,-0.343477725982666,-3.360271453857422,7.115316944867573,-0.0229891228776169,0.5266400948273522,-1.421857154614774
0.86,0.8064271807670593,-0.1044512912631034,2.447474718093872,0.1105979194759498,-0.0616325083948748,0.0044903579268109,-1.6421959400177002,-1.0386425256729126,-0.3017163276672363,0.7697528474961662,-0.1274388168256072,2.3043728061824496,-1.5664261773671513,-0.9649358226905368,-0.7781982920198499,2.184572659640649,0.0100553035736083,-0.6929337978363037,-2.071738243103028,7.109354036083914,-0.1652722346131176,0.5271420945284855,-1.4139837522069558
0.88,0.7697482705116272,-0.1276487410068512,2.439016103744507,0.1112551859967963,-0.0406638288312637,0.0047337212203125,-1.6505509614944458,-1.0438852310180664,-0.3806376457214355,0.7383737741222203,-0.146774505413622,2.2884088412128585,-1.5714811600274488,-0.9686330361109452,-0.8181982049392719,3.976765892853468,-0.4177510738372803,-0.2621352672576904,-3.946065902709961,6.822141846147588,-0.0830394149340272,0.4796392647081149,-1.211577529892672
0.9,0.7511624693870544,-0.1391839683055877,2.434171676635742,0.1119553734275877,-0.0291343384198945,0.0057893047739443,-1.664031744003296,-1.0433021783828735,-0.4189932346343994,0.7069460070099237,-0.1661755032503384,2.2716448780449725,-1.571295551202218,-0.9714667475606984,-0.8581981118493174,2.0329920365600307,-0.6740391254425049,0.0291526317596435,-1.9177794456481931,6.902013253700716,-0.092296467304956,0.483166593368301,-1.1938299016961436
0.92,0.7143261432647705,-0.1625307649374008,2.4233267307281494,0.1138816320750657,-0.0044993181576036,0.0067353303850832,-1.657634735107422,-1.0506058931350708,-0.4880225658416748,0.6755747794915674,-0.1856245696237963,2.254080916856489,-1.5658272006334053,-0.9734398897850928,-0.8981980069989804,3.4854391900157573,0.3198504447937011,-0.3651857376098633,-3.451466560363769,6.894677791585309,-0.1511431734691627,0.5253222219280865,-0.9531425826992036
0.94,0.6773668527603149,-0.1862040013074875,2.411009788513184,0.1137740549462358,0.021758447348855,0.0063967065667407,-1.6631680727005005,-1.065295696258545,-0.5542623996734619,0.6443663694101405,-0.2051044915456515,2.235716957987833,-1.555013807509271,-0.9745523024004182,-0.9381978798666546,3.403719923402987,-0.2766668796539306,-0.734490156173706,-3.3119916915893555,7.020374803269533,-0.0829113179019453,0.5162103228967112,-0.9347857511929728
0.96,0.6404104828834534,-0.2097873836755752,2.3969452381134038,0.1111401436605958,0.0473126332222224,0.0074539095526243,-1.663036584854126,-1.061252236366272,-0.6329047679901123,0.613428513821411,-0.2245980211600606,2.2165530021377884,-1.5387717513637025,-0.9748006590405008,-0.978197705137837,3.937317916871161,0.0065743923187255,0.2021729946136474,-3.93211841583252,7.112706741904731,-0.1268604608581195,0.4606710211824736,-0.8947663634391381
0.98,0.6036579012870789,-0.2336904555559158,2.3812685012817383,0.1090165521243362,0.0759951611822283,0.0076416318561709,-1.653866171836853,-1.0756382942199707,-0.7054531574249268,0.5828708516977956,-0.2440878110781553,2.196589051257046,-1.5169944609978354,-0.9741783327689733,-1.0181973829364035,3.726366844884852,0.4585206508636474,-0.7193028926849365,-3.627419471740722,7.407393439141288,-0.1512464502415281,0.523126947108165,-0.902373787209042
1.0,0.5852768421173096,-0.2455852925777435,2.3728816509246826,0.1082378850833105,0.0905557544543693,0.0078244348937159,-1.646932601928711,-1.0720112323760986,-0.7381546497344971,0.5528357778271978,-0.2635576464920161,2.175941740319878,-1.4865129260619387,-0.9728052086170962,-1.0465337107803432,1.6812328575804516,0.3466784954071045,0.1813530921936035,-1.6350746154785156,7.41567691425962,-0.1319158209615221,0.4618503944135462,-0.8729177049236322
1.02,0.548941433429718,-0.2697074115276336,2.35476303100586,0.1020679603328328,0.1191193348910544,0.0079820724743052,-1.6350934505462646,-1.0854953527450562,-0.8153378963470459,0.5235055185335511,-0.282992198879097,2.1550912861511966,-1.4465130033027345,-0.9706500300909976,-1.038511706087839,3.96208296393278,0.5919575691223145,-0.674206018447876,-3.8591623306274414,7.442456747050073,-0.1563427399837312,0.518901223855174,-0.6017032077813158
1.04,0.512779176235199,-0.2936368584632873,2.33495831489563,0.0984597750242546,0.14604254190818,0.0069879551759242,-1.627301573753357,-1.0768251419067385,-0.8912122249603271,0.4949752580840417,-0.3023717738037149,2.1344004972889845,-1.4065130416481992,-0.9673074623707928,-1.0305671801333862,3.8382286417216367,0.3895938396453857,0.4335105419158935,-3.7937164306640634,7.575504818310492,-0.1626339305530874,0.4587851989582256,-0.654746602558191
1.06,0.4770662486553192,-0.317961186170578,2.3139488697052,0.0899904136417442,0.1698387465052973,0.0055895966586745,-1.6070817708969116,-1.0945947170257568,-0.945425033569336,0.46724499699727,-0.3216726255114717,2.1138688585472702,-1.3665130670289722,-0.9627777084048896,-1.0225966940380369,3.026395068700125,1.0109901428222656,-0.8884787559509277,-2.7106404304504395,7.832834561235359,-0.2216817538507711,0.5420878989916655,-0.6996587510822082
1.08,0.4421736896038055,-0.3422059118747711,2.291328430175781,0.0810055597169487,0.1887082353954292,0.0045282243751278,-1.5701651573181152,-1.091012716293335,-1.0179197788238523,0.4403147354677045,-0.3408709938771435,2.0934979255470445,-1.326513085927576,-0.95705912816229,-1.014496605984494,4.071595257663297,1.8458306789398196,0.1791000366210937,-3.62473726272583,8.03244430367613,-0.2205245918136874,0.4458089624537243,-0.6381058084290012
1.1,0.4249009191989898,-0.3543752133846283,2.279520034790039,0.0748109731181525,0.1965729518040869,0.0039018882988072,-1.555561900138855,-1.0947678089141846,-1.0460937023162842,0.4141844735990589,-0.3599430674174489,2.0732913330227665,-1.2865131009369788,-0.9501482258682488,-1.006162646443352,1.5977529579006942,0.7301628589630127,-0.1877546310424804,-1.408696174621582,8.381446213650179,-0.1325076382775823,0.4868117155250414,-0.6956925539712263
1.12,0.3905763030052185,-0.3785848021507263,2.2546374797821045,0.0666855728753783,0.2173035137227716,0.0035133023001499,-1.5446077585220337,-1.0894315242767334,-1.1197149753570557,0.3888542114561528,-0.3788649459084556,2.053254812201515,-1.246513113353641,-0.942039623232424,-0.997489435681772,3.731139570036579,0.5477070808410645,0.2668142318725586,-3.681063652038574,8.496046532204218,-0.2101612421810791,0.4709208423900617,-0.4704408951908905
1.14,0.3570454716682434,-0.4030052125453949,2.2283897399902344,0.0574986868228238,0.2343390178478406,0.0007309658702939,-1.5088874101638794,-1.0989184379577637,-1.1811482906341553,0.3643239490834326,-0.3976126023178863,2.033396218048172,-1.2065131239183773,-0.9327260177106416,-0.9883699796524926,3.584688634998421,1.7860174179077148,-0.4743456840515136,-3.0716657638549805,9.309005013289152,-0.3142749990883551,0.5079813248580858,-0.5711836027737649
1.16,0.3243844211101532,-0.4272700846195221,2.2011830806732178,0.0463276270209848,0.2454137353822076,-0.0004625624178578,-1.4697473049163818,-1.091919183731079,-1.224299669265747,0.340593685366794,-0.4161618446610475,2.013725565851061,-1.1665131310941843,-0.9221981243856782,-0.9786951421891384,2.933845120452827,1.957005262374878,0.3499627113342285,-2.15756893157959,9.418529499508168,-0.2732398819745508,0.4413202615822002,-0.6126369859939952
1.18,0.292401909828186,-0.451493352651596,2.172740936279297,0.0364359606644818,0.2592609558311297,-0.0035914362579476,-1.4392130374908447,-1.0900471210479736,-1.2798964977264404,0.3176634226639551,-0.4344882719433109,1.9942550835261228,-1.12651313918971,-0.9104446038406652,-0.9683530903046887,3.17287465904007,1.5267133712768557,0.0936031341552734,-2.779841423034668,9.785828796862916,-0.2451091833906932,0.4752622945872576,-0.5478948247335738
1.2,0.2769751846790313,-0.4636869132518768,2.158184051513672,0.0311249689613762,0.2602781852691155,-0.002992540547585,-1.4093385934829712,-1.0924489498138428,-1.3012683391571045,0.295533159807848,-0.4525672376426282,1.9749992656515032,-1.0865131464209974,-0.8974519660910559,-0.9572286971572608,1.840520844990336,1.4937222003936768,-0.120091438293457,-1.0685920715332031,10.997490425695103,-0.2890659314760859,0.4664933738912167,-0.6125489352690163
1.22,0.2463336437940597,-0.4878363013267517,2.1286098957061768,0.0184582091661614,0.269739848537157,-0.0068370459248331,-1.3788692951202393,-1.086722493171692,-1.3308370113372805,0.2742028968141864,-0.47037380190244,1.955974949644488,-1.046513152945158,-0.8832044598901301,-0.9452029035443014,2.142123259111339,1.523464918136597,0.2863228321075439,-1.478433609008789,10.766106569923068,-0.3296306700448189,0.4267798178252987,-0.4676684154198436
1.24,0.2167785316705703,-0.511793315410614,2.0979316234588623,-0.0209988475118594,0.2799544222210148,-0.0173082627018216,-1.3299800157546997,-1.0780656337738037,-1.3805222511291504,0.2536726346824478,-0.4878826850113089,1.9372014013338368,-1.0065131608800135,-0.8676839377651375,-0.9321520207359264,3.512024311096169,2.444463968276977,0.4328429698944092,-2.484261989593506,11.168935085217528,-0.4106056468114471,0.4322464028399855,-0.4852862169841082
1.26,0.188287541270256,-0.5355671644210815,2.0673933029174805,-0.0049249310989784,0.2773017763185133,-0.0087024927327824,-1.2820945978164673,-1.0698232650756836,-1.3742244243621826,0.2339423714104857,-0.5050682213108941,1.9187004115145967,-0.9665131663161886,-0.8508696921933814,-0.9179469611881214,2.449802295523905,2.394270896911621,0.4121184349060058,0.3148913383483886,11.95836447050715,-0.3794088271660478,0.4128794102355561,-0.6333210126597874
1.28,0.1609600782394409,-0.5592328310012817,2.0366086959838867,-0.0241892925205374,0.276741294909524,-0.0106368710521208,-1.2297358512878418,-1.0649549961090088,-1.3853073120117188,0.215012108034075,-0.5219043009446784,1.900496417975854,-0.9265131713248764,-0.832738271185046,-0.9024523926861228,2.6869912446047257,2.6179373264312744,0.2434134483337402,-0.5541443824768066,12.27788470095311,-0.3596675160592642,0.4088457984829421,-0.4623469234988677
1.3,0.1476669013500213,-0.5707960724830627,2.021205425262451,-0.0353197445905129,0.2785868489169501,-0.0117767002826672,-1.2028024196624756,-1.0518577098846436,-1.3901996612548828,0.1968818445611961,-0.5383643161847547,1.8826166361952024,-0.8865131759630239,-0.8132632528225772,-0.8855257853790482,1.5173033041207615,1.3466715812683103,0.6548643112182617,-0.2446174621582031,12.850912861268624,-0.3658996379535527,0.3587920854475891,-0.5589404092898441
1.32,0.1222048252820968,-0.5938180685043335,1.9905437231063845,-0.0605344032156862,0.2754550875885321,-0.0126465356827758,-1.1457934379577637,-1.035989761352539,-1.3797765970230105,0.1795515809987969,-0.5544210985674307,1.865091214926539,-0.8465131802768907,-0.7924149854450364,-0.8670163414873172,3.0043535301323296,2.850449085235596,0.7933974266052246,0.5211532115936279,12.845840060479532,-0.518532920791791,0.3518262423279921,-0.5795080016834754
1.34,0.0978131666779518,-0.6161795854568481,1.9601404666900637,-0.0895232158140517,0.2722049318929982,-0.0140624367109103,-1.097624659538269,-1.0062682628631592,-1.368146538734436,0.1630213173529824,-0.5700468512446006,1.8479534137187936,-0.8065131843045644,-0.7701602822719592,-0.8467637792872321,2.889142148924234,2.4084389209747314,1.486074924468994,0.5815029144287109,13.21379136275209,-0.4738958505666417,0.3269405728264771,-0.549540641431472
1.36,0.074730634689331,-0.6379368305206299,1.930113673210144,-0.1187575747894915,0.2685997885701741,-0.0149001235641983,-1.0387139320373535,-0.9790760278701782,-1.3512057065963743,0.1472910536291588,-0.5852130746997867,1.831239806501884,-0.7665131880777751,-0.7464620632466228,-0.8245969424036975,3.3529402217049,2.9455363750457764,1.359611749649048,0.8470416069030762,13.515740555972116,-0.5124922998107856,0.3424222398096582,-0.6050104186472476
1.38,0.0526912398636341,-0.658955454826355,1.900623679161072,-0.1440472049470303,0.263758158003231,-0.0149899786170018,-0.9917727708816528,-0.9458380937576294,-1.327049732208252,0.1323607898321487,-0.599890484674507,1.814990515093732,-0.7265131916232357,-0.7212789342254211,-0.8003321984114877,3.119192192441511,2.347058057785034,1.6618967056274414,1.207798719406128,14.263139311725809,-0.4851406020424262,0.2930092501981693,-0.6547050477565789
1.4,0.0422616191208362,-0.6691773533821106,1.8861175775527956,-0.1570597823061067,0.2611122680109383,-0.0147727871515348,-0.9622198343276978,-0.92260479927063,-1.310521960258484,0.1182305259662799,-0.6140489209302485,1.799249477276201,-0.6865131949636414,-0.6945646913487268,-0.7737715833416099,2.053246987886063,1.477646827697754,1.1616647243499756,0.8263885974884033,14.525778633276786,-0.5454116218741469,0.2394453824787292,-0.7207457942963058
1.42,0.0221231877803802,-0.6886228322982788,1.8577144145965576,-0.1791615059774202,0.2547146694294971,-0.0145345912212922,-0.9062294363975524,-0.8750465512275696,-1.278142333030701,0.1049002614089461,-0.627657245853656,1.7840647542935746,-0.6465131961184373,-0.6662677343652643,-0.7447006404510055,4.014085162497011,2.799519896507263,2.377912402153015,1.6189813613891602,14.558745882994115,-0.705889746460965,0.110306415736249,-0.8264978500629803
1.44,0.0029923000838607,-0.7068121433258057,1.8298048973083496,-0.196636401781356,0.2493798035178444,-0.012968755579935,-0.8608899116516113,-0.8185189962387085,-1.2559282779693604,0.0923699974567176,-0.6406832270127237,1.7694888887110365,-0.6065131991044052,-0.6363303815414922,-0.712885917802837,3.78962439414343,2.266976237297058,2.826377749443054,1.1107027530670166,14.914650726324908,-0.6738297278448602,0.1049141865003763,-0.8559736661076389
1.46,-0.0148283457383513,-0.7238842844963074,1.8028031587600708,-0.2097532233257606,0.2465059037609124,-0.0115771643519451,-0.8019290566444397,-0.7682463526725769,-1.2150782346725464,0.0806397334463122,-0.653093411413645,1.755579307912402,-0.5665132019361321,-0.6046880585506437,-0.6780721620605707,4.379625312642511,2.948042750358581,2.51363217830658,2.0425021648406982,15.126151244130597,-0.717186310736016,0.1195658025709977,-0.9812333230031602
1.48,-0.0315452069044113,-0.7395586967468262,1.7766942977905271,-0.2202986977569013,0.2462274575922826,-0.0108786004769726,-0.7522587180137634,-0.705348551273346,-1.1748987436294556,0.0697094698872003,-0.6648529777634233,1.7423987743532652,-0.5265132066263783,-0.5712686335540597,-0.6399812578512605,4.482651966477257,2.483516931533813,3.144890069961548,2.008974552154541,15.3898535148237,-0.6874435365836868,0.0520503031778155,-1.060225449985534
1.5,-0.0394430607557296,-0.7467332482337952,1.7639527320861816,-0.2237523466001547,0.2473762188721041,-0.010144560312685,-0.7239160537719727,-0.6731781363487244,-1.162576675415039,0.0595792057290234,-0.6759277728929789,1.72999907089234,-0.4865132091913209,-0.536210879401491,-0.5999890882412475,2.230513157227465,1.4171332120895386,1.608520746231079,0.6161034107208252,15.416781284629906,-0.722854895561795,0.0442067767722994,-1.1612310278637508
1.52,-0.05436447635293,-0.7602337598800659,1.7394980192184448,-0.2337823421180988,0.2530384045275171,-0.0107504785537972,-0.6714637279510498,-0.6075230240821838,-1.1004620790481567,0.0502489415206506,-0.6862873633134787,1.718399264930855,-0.4465132116459571,-0.4997481626484877,-0.5599915079072648,5.224955342530929,2.6226162910461426,3.2827556133270264,3.105729818344116,15.481362677379366,-0.8926220600385248,-0.157109329182829,-1.4283634542357473
1.54,-0.0680969655513763,-0.7722919583320618,1.7155616283416748,-0.2407511205603777,0.2638610605788795,-0.0129386323506676,-0.6179620027542114,-0.5426189303398132,-1.0771375894546509,0.0417186772642091,-0.6959036219290385,1.7075994207234464,-0.40651321399819,-0.4618776989075013,-0.5199929128335973,4.364346399621026,2.675086259841919,3.2452046871185303,1.166224479675293,15.500511176903274,-0.9087594364241344,-0.1579119138701148,-1.3833394520229791
1.56,-0.0804242268204689,-0.7827253937721252,1.6925222873687744,-0.2491923893962895,0.2751890523759535,-0.0159060053522515,-0.554726779460907,-0.4695045948028564,-1.0367703437805176,0.0339884129616763,-0.7047483637047605,1.6975995526903442,-0.3665132162550937,-0.4225964786646907,-0.4799938904766134,5.237822555528349,3.161761164665222,3.65571677684784,2.018362283706665,15.481399313042855,-0.9416290925436378,-0.180395277283532,-1.6051882041592898
1.58,-0.091455802321434,-0.7916234135627747,1.6707645654678345,-0.2582034386200457,0.2876353878378466,-0.0182208546185976,-0.4964208900928497,-0.4004108905792236,-0.9790974855422974,0.0270581486148926,-0.7128003025972212,1.6883996664313636,-0.3265132184232747,-0.3825974105813778,-0.4399947354214639,5.361826945106684,2.9152944684028625,3.4546852111816406,2.8836429119110107,15.290785525404315,-0.9396604864819698,-0.1709604892249557,-1.7165093632669273
1.6,-0.0962859094142913,-0.7954467535018921,1.6600518226623535,-0.285908801741159,0.3054795169809072,-0.0281691742504736,-0.4568120539188385,-0.3668296337127685,-0.9666842222213744,0.0209278842255729,-0.7200522538843933,1.6799997632424652,-0.2865132205086959,-0.3425977181358332,-0.399995583468367,2.66957385272681,1.9804418087005613,1.679062843322754,0.6206631660461426,15.221038541548296,-0.9946107420302224,-0.2026783022283463,-1.6955521272665983
1.62,-0.1049148142337799,-0.8018724322319031,1.6394981145858765,-0.2938743056032886,0.3180231807256606,-0.0334085552235496,-0.3883007168769836,-0.2891555428504944,-0.9249168634414672,0.0155976197953207,-0.7265042100872353,1.672399843060554,-0.2465132225165251,-0.3025979021483738,-0.3599964347227369,5.583811412017993,3.425566852092743,3.883704543113709,2.0883679389953613,15.25255941249452,-1.2013472448860285,-0.5033932127082539,-1.9489514672903792
1.64,-0.1118076220154762,-0.8066907525062561,1.6194216012954712,-0.2739997730316203,0.3243227419050732,-0.0306054451598699,-0.3101763427257538,-0.2168244123458862,-0.9034430980682372,0.0110673553256408,-0.7321561694423171,1.6655999058211175,-0.2065132244514601,-0.2625980333597961,-0.3199972892209076,5.430546214677797,3.906218707561493,3.616556525230408,1.073688268661499,15.85015922079765,-1.210653046042463,-0.4929695777915405,-1.9701419231789608
1.66,-0.1167378723621368,-0.8101018071174622,1.6002508401870728,-0.2777284262186986,0.3368334234370745,-0.0344808510147592,-0.2218612730503082,-0.1534974575042724,-0.8626842498779297,0.0073370908179484,-0.737008131128671,1.6595999514589916,-0.166513226317785,-0.2225981352756038,-0.2799981469916958,5.803261679239343,4.415753483772278,3.1663477420806885,2.037942409515381,16.23537067043344,-1.1779622528460518,-0.4977566285077889,-2.1404211386387195
1.68,-0.1183595210313797,-0.8112928867340088,1.5918060541152954,-0.2509383973927536,0.3173159135820597,-0.0272852332931362,-0.1728455722332,-0.1164937019348144,-0.8104723691940308,0.0044068261670631,-0.7410600948296566,1.6543999796884543,-0.1265132261194171,-0.1825982165631257,-0.2399990060621247,4.03047681341369,2.450785040855408,1.8501877784729004,2.6105940341949463,15.056492026341855,-1.095860760669467,-0.5592334519489475,-2.125261377285664
1.7,-0.1222157552838325,-0.8143013715744019,1.5766005516052246,-0.1887713693437267,0.2871449494403488,-0.0123971047377709,-0.1735305488109588,-0.135381817817688,-0.684247612953186,0.0022765616937827,-0.7443120597422966,1.649999991103325,-0.0865132298599463,-0.1425982889607072,-0.1999998724508095,6.381598389623403,-0.0342488288879394,-0.9444057941436768,6.311237812042236,16.342248489747817,-0.9588156930872856,-0.4765992600087142,-1.7216659753739705
1.72,-0.1249186843633651,-0.8165282607078552,1.565311312675476,-0.0666227738202757,0.2198366059612378,0.0101358263591283,-0.121631808578968,-0.1002100110054016,-0.5080157518386841,0.0009247996138145,-0.7467640256159158,1.646399993548549,-0.0486629781368738,-0.1025982984012104,-0.1599998830267871,9.352567041191092,2.5949370115995407,1.7585903406143188,8.811593055725098,16.335342014313483,-1.3871740886783253,-0.8838249598062798,-1.5434855490278407
1.74,-0.1252932697534561,-0.8186460137367249,1.5593408346176147,0.0140407357533048,0.1741863912413061,0.0214069715272784,-0.0168563425540924,-0.0952988862991333,-0.2686715126037597,0.000229060198971,-0.7484306354994033,1.643599995778774,-0.0209109633474778,-0.0640626899475393,-0.1199998939507064,13.065955981247132,5.238773301243782,0.2455562353134155,11.967211961746216,16.39563817720955,-1.3178230544952654,-0.6827360861003305,-0.921624728148876
1.76,-0.1245281770825386,-0.8205642104148865,1.5567458868026731,0.0668185514936553,0.1611459561239338,0.0238250142852893,0.0344291701912879,-0.0863188505172729,-0.1167726516723632,-1.909439505386384e-05,-0.7494107101875588,1.641599997750295,-0.0039044960550123,-0.0339447788680156,-0.0799999088971797,8.02871546582263,2.56427563726902,0.4490017890930176,7.594943046569824,13.723791544090544,-0.8382993483828575,-0.5316727154113101,-0.035479290653853
1.78,-0.1225880309939384,-0.8228866457939148,1.557170271873474,0.0930561129344803,0.1623199103975083,0.0247700590343755,0.0873065739870071,-0.1045095920562744,0.0190973281860351,-2.9069677801993543e-05,-0.7498750789881194,1.6403999993306615,0.0029069677801993,-0.0124921011880508,-0.0399999330661634,7.346355276025637,2.6438701897859573,-0.9095370769500732,6.793498992919922,12.024995829074214,-0.7056853143919741,-0.2900798823676506,0.3651158859123199
1.8,-0.1212688758969307,-0.8241711854934692,1.5587204694747925,0.0962645977411747,0.1636859041015413,0.02413042881999,0.1048458740115165,-0.1173654198646545,0.0918978452682495,-2.9069677801993543e-05,-0.7498750789881194,1.6403999993306615,0.0029069677801993,-0.0124921011880508,-0.0399999330661634,3.798952040177087,0.8769650012254715,-0.6427913904190063,3.6400258541107178,11.769452771507076,-0.5955620910222268,-0.1746422466247162,0.4868685668672823
1.82,-0.1179394647479057,-0.8273402452468872,1.562762975692749,0.0879470066635518,0.1720242471088069,0.0230465249057104,0.1498235017061233,-0.1426076889038086,0.1819127798080444,-2.9069677801993543e-05,-0.7498750789881194,1.6403999993306615,0.0029069677801993,-0.0124921011880508,-0.0399999330661634,5.187207239807192,2.248881384730339,-1.2621134519577026,4.500746726989746,10.438221591780348,-0.7616879996364583,-0.0070094808137671,0.0483400771913013
1.84,-0.113759770989418,-0.8312779068946838,1.5686246156692505,0.0641573723300204,0.1724662611724218,0.0193086922981358,0.1880862116813659,-0.1771947741508484,0.2637737989425659,-2.9069677801993543e-05,-0.7498750789881194,1.6403999993306615,0.0029069677801993,-0.0124921011880508,-0.0399999330661634,4.837749449454265,1.9131354987621307,-1.7293542623519895,4.093050956726074,9.889497239780212,-0.7179090380137307,0.0078861142899587,-0.1100992667570008
1.86,-0.1088524982333183,-0.835169792175293,1.5750607252120972,0.0419948441337565,0.1749898982513206,0.0151664571262881,0.2208272814750671,-0.1751348376274109,0.2896249294281006,-2.9069677801993543e-05,-0.7498750789881194,1.6403999993306615,0.0029069677801993,-0.0124921011880508,-0.0399999330661634,2.088361760505554,1.6370534896850586,0.102996826171875,1.2925565242767334,9.294470639204064,-0.670344194559668,-0.1133923026734269,0.0036922236186979
1.88,-0.1062045246362686,-0.8372740745544434,1.5785304307937622,-0.0046464996817618,0.1766455225051933,0.0029935457031595,0.2336512506008148,-0.1832753419876098,0.3017807006835937,-2.9069677801993543e-05,-0.7498750789881194,1.6403999993306615,0.0029069677801993,-0.0124921011880508,-0.0399999330661634,0.9727342522400736,0.641198456287384,-0.4070252180099487,0.6077885627746582,9.24755510759678,-0.6351473393553141,-0.0117765096421526,-0.0846397337652843
1.9,-0.1003500670194625,-0.8414483666419983,1.5855525732040403,0.0107855668420808,0.1660967903919102,0.0078325506017156,0.2634505927562713,-0.1878431439399719,0.3159964084625244,-2.9069677801993543e-05,-0.7498750789881194,1.6403999993306615,0.0029069677801993,-0.0124921011880508,-0.0399999330661634,1.6665472954809308,1.4899671077728271,-0.228390097618103,0.7107853889465332,8.902448480556359,-0.6703500201565645,-0.1141763249101369,-0.2123273402088678
1.92,-0.094144806265831,-0.8453481793403625,1.592510223388672,-0.0090635328760954,0.153336015476529,0.0016087890860289,0.2792367339134216,-0.1754915714263916,0.3130942583084106,-2.9069677801993543e-05,-0.7498750789881194,1.6403999993306615,0.0029069677801993,-0.0124921011880508,-0.0399999330661634,1.0126525461735745,0.7893070578575134,0.6175786256790161,-0.1451075077056884,8.819949893367266,-0.6645279642522243,-0.1154723808085047,-0.1226884223247585
1.94,-0.0875123813748359,-0.8491466045379639,1.5994863510131836,-0.0316418690954,0.1331128947120112,-0.0062726202581755,0.2984591126441955,-0.1709291338920593,0.3139257431030273,-2.9069677801993543e-05,-0.7498750789881194,1.6403999993306615,0.0029069677801993,-0.0124921011880508,-0.0399999330661634,0.9886949065405268,0.9611189365386964,0.2281218767166137,0.0415742397308349,8.730491932100449,-0.6717650351242513,-0.0241948591880945,-0.1232486997142729
1.96,-0.08047516644001,-0.8526701927185059,1.6059985160827637,-0.0547632153677593,0.1087566160432797,-0.0121463105990554,0.3166746795177459,-0.1585614681243896,0.2930474281311035,-2.9069677801993543e-05,-0.7498750789881194,1.6403999993306615,0.0029069677801993,-0.0124921011880508,-0.0399999330661634,1.5171272764112729,0.9107783436775208,0.6183832883834839,-1.0439157485961914,9.00186019624698,-0.6169741452291176,-0.0326755766277798,-0.0110334392201509
1.98,-0.0731870234012603,-0.8555396199226379,1.61245858669281,-0.0780325698060045,0.0783338590420033,-0.0170718531812787,0.3279664516448974,-0.1291242241859436,0.2907031774520874,-2.9069677801993543e-05,-0.7498750789881194,1.6403999993306615,0.0029069677801993,-0.0124921011880508,-0.0399999330661634,1.5807837927031334,0.5645886063575745,1.4718621969223022,-0.1172125339508056,9.009271958221689,-0.5420103447094615,-0.0259210729471585,-0.0319054332406898
2.0,-0.0694411247968673,-0.8568416833877563,1.615517258644104,-0.0889818635790543,0.0634448827630906,-0.0197551466641852,0.3305557668209076,-0.1208147406578064,0.2806019783020019,-2.9069677801993543e-05,-0.7498750789881194,1.6403999993306615,0.0029069677801993,-0.0124921011880508,-0.0399999330661634,0.6666826341198392,0.1294657588005066,0.4154741764068603,-0.5050599575042725,8.457350699260132,-0.4842850548785449,0.0849130530264277,0.0983769216188595
2.02,-0.0619075335562229,-0.8590136170387268,1.6214892864227295,-0.1105333075099642,0.0304913068168118,-0.0227260585414427,0.3390116095542907,-0.0977370142936706,0.268741250038147,-2.9069677801993543e-05,-0.7498750789881194,1.6403999993306615,0.0029069677801993,-0.0124921011880508,-0.0399999330661634,1.3645142042304317,0.4227921366691589,1.153886318206787,-0.593036413192749,8.429331579641712,-0.4824626363083454,0.035512472129365,0.1375129051944358
2.04,-0.0546630322933197,-0.8603571653366089,1.626997947692871,-0.1277364079868248,0.0031854386638095,-0.0245302599497666,0.3260025680065155,-0.0604596734046936,0.247889757156372,-2.9069677801993543e-05,-0.7498750789881194,1.6403999993306615,0.0029069677801993,-0.0124921011880508,-0.0399999330661634,2.232498634458403,-0.6504520773887634,1.8638670444488523,-1.0425746440887451,8.375493105947953,-0.4034623287857706,0.0604240238050176,0.1872441837153332
2.06,-0.047397568821907,-0.8610708117485046,1.6321979761123655,-0.1397795700617764,-0.0258856859054536,-0.0239601725768449,0.3269458413124084,-0.0321140885353088,0.2340012788772583,-2.9069677801993543e-05,-0.7498750789881194,1.6403999993306615,0.0029069677801993,-0.0124921011880508,-0.0399999330661634,1.578964672678366,0.0471636652946472,1.4172792434692385,-0.6944239139556885,8.476801517201693,-0.435911028890094,0.1397597751352021,0.1638333378584331
2.08,-0.0405398905277252,-0.8612138032913208,1.6363985538482666,-0.147036039664703,-0.0483016177695982,-0.024971580821743,0.3085955381393432,-0.0064346194267272,0.1890259981155395,-2.9069677801993543e-05,-0.7498750789881194,1.6403999993306615,0.0029069677801993,-0.0124921011880508,-0.0399999330661634,2.747246184744565,-0.9175151586532592,1.2839734554290771,-2.248764038085937,8.436076718695858,-0.3578041359030293,0.1479906288364992,0.1395907083558805
2.1,-0.0371022969484329,-0.8608866930007935,1.638384222984314,-0.1478425085399738,-0.059724194189644,-0.0240055954886864,0.3086969554424286,0.014382004737854,0.1782810688018798,-2.9069677801993543e-05,-0.7498750789881194,1.6403999993306615,0.0029069677801993,-0.0124921011880508,-0.0399999330661634,1.1713193768506711,0.0050708651542663,1.040831208229065,-0.5372464656829834,8.915563813994595,-0.3825889485442943,0.1294320773892734,0.0206541967592611
2.12,-0.0306213982403278,-0.8598656058311462,1.6413381099700928,-0.1459844757488311,-0.0734045501040718,-0.0204545755585389,0.291640430688858,0.0459489226341247,0.1329249143600464,-2.9069677801993543e-05,-0.7498750789881194,1.6403999993306615,0.0029069677801993,-0.0124921011880508,-0.0399999330661634,2.8916155034385693,-0.8528262376785278,1.5783458948135376,-2.267807722091675,8.967047673374964,-0.2618957606409444,0.0749604657108616,0.1896134975760834
2.14,-0.0246074758470058,-0.8580490350723267,1.6439290046691897,-0.1391959605878703,-0.0833472257919555,-0.0207673820792799,0.2706265151500702,0.0817456841468811,0.1165902614593505,-2.9069677801993543e-05,-0.7498750789881194,1.6403999993306615,0.0029069677801993,-0.0124921011880508,-0.0399999330661634,2.230366374869089,-1.050695776939392,1.7898380756378174,-0.81673264503479,9.078622443440963,-0.2874576445218058,0.1145026714981243,0.00026724425605
2.16,-0.0191462207585573,-0.8557093143463135,1.6451022624969482,-0.1287778079771644,-0.0843597535131733,-0.0185439228519885,0.2457564771175384,0.1052874326705932,0.0527966022491455,-2.9069677801993543e-05,-0.7498750789881194,1.6403999993306615,0.0029069677801993,-0.0124921011880508,-0.0399999330661634,3.620208443833401,-1.243501901626587,1.177087426185608,-3.189682960510254,9.199236437019408,-0.2934810342180201,0.1708894913176692,0.0899198016557994
2.18,-0.0139981908723711,-0.8528335094451904,1.6457856893539429,-0.1191057071748241,-0.0789662493000702,-0.0195875981827337,0.2316613495349884,0.1294112205505371,0.0307542085647583,-2.9069677801993543e-05,-0.7498750789881194,1.6403999993306615,0.0029069677801993,-0.0124921011880508,-0.0399999330661634,1.7793937749851787,-0.7047563791275024,1.2061893939971924,-1.1021196842193604,9.62872659920231,-0.3158917971970627,0.1418250138385762,-0.0927464295110327
2.2,-0.0116889094933867,-0.8511051535606384,1.6454845666885376,-0.1107276559911866,-0.0773481879883952,-0.01829404555669,0.2249755263328552,0.1500561833381652,0.0076818466186523,-2.9069677801993543e-05,-0.7498750789881194,1.6403999993306615,0.0029069677801993,-0.0124921011880508,-0.0399999330661634,1.5837049963336391,-0.3342911601066589,1.0322481393814087,-1.153618097305298,9.685795072598012,-0.2911474497283358,0.1410846861077342,-0.1275334749260321
2.22,-0.0073689357377588,-0.8472615480422974,1.6450631618499756,-0.0932796928432758,-0.0663676826268142,-0.0176070657008398,0.194398820400238,0.1729622483253479,-0.0189632177352905,-2.9069677801993543e-05,-0.7498750789881194,1.6403999993306615,0.0029069677801993,-0.0124921011880508,-0.0399999330661634,2.3289387139384634,-1.5288352966308594,1.1453032493591309,-1.3322532176971436,10.0425051285265,-0.206297435912492,0.1242668354002792,-0.1165005293479616
2.24,-0.0035721699241548,-0.8431007266044617,1.6435261964797974,-0.0701557420104268,-0.0524915201035564,-0.0165076821652377,0.1708544641733169,0.1872369647026062,-0.06916344165802,-2.9069677801993543e-05,-0.7498750789881194,1.6403999993306615,0.0029069677801993,-0.0124921011880508,-0.0399999330661634,2.862763839231026,-1.177217811346054,0.713735818862915,-2.5100111961364746,10.092709553844998,-0.2990644813057601,0.1405730247682773,-0.1723878242654278
2.26,4.3975138396490365e-05,-0.8386105895042419,1.6419938802719116,-0.0475966373310648,-0.0382622113235075,-0.0139495716972577,0.1627265363931656,0.2020561695098877,-0.0689542293548584,-2.9069677801993543e-05,-0.7498750789881194,1.6403999993306615,0.0029069677801993,-0.0124921011880508,-0.0399999330661634,0.8451565105164035,-0.4063963890075683,0.7409602403640747,0.010460615158081,10.434218715710813,-0.3682468761198032,0.1262303524405073,-0.4332865609208631
2.28,0.0015432256041094,-0.8362250328063965,1.6408544778823853,-0.0357375825980308,-0.0128549765650699,-0.0135430799266424,0.1513677835464477,0.2113714814186096,-0.0946712493896484,-2.9069677801993543e-05,-0.7498750789881194,1.6403999993306615,0.0029069677801993,-0.0124921011880508,-0.0399999330661634,1.4808455537794862,-0.5679376423358917,0.4657655954360962,-1.285851001739502,10.398438404102762,-0.3285254110529697,0.1415332258168276,-0.3537871200276026
2.3000000000000003,0.0047336523421108,-0.8314827680587769,1.6387931108474731,-0.0073243858420775,-0.0103859603106724,-0.0109754220702952,0.1435692012310028,0.2134019136428833,-0.0927615165710449,-2.9069677801993543e-05,-0.7498750789881194,1.6403999993306615,0.0029069677801993,-0.0124921011880508,-0.0399999330661634,0.4140882170099475,-0.3899291157722473,0.101521611213684,0.0954866409301757,10.645081201048924,-0.4089044149857725,0.1885916897490048,-0.5989789166520714
2.32,0.0077199707739055,-0.8266263604164124,1.6363390684127808,0.0172627288850291,0.0083420411663224,-0.0071678688247687,0.1343843340873718,0.2185383439064026,-0.1104319095611572,-2.9069677801993543e-05,-0.7498750789881194,1.6403999993306615,0.0029069677801993,-0.0124921011880508,-0.0399999330661634,1.0283329819702842,-0.4592433571815491,0.2568215131759643,-0.8835196495056152,10.66734201971076,-0.3818923604599832,0.1641464907780892,-0.5568552963502656
2.34,0.0108341900631785,-0.8217753767967224,1.6341646909713743,0.0409158598479328,0.0249403444064917,-0.0044410879230447,0.1401398628950119,0.2182942628860473,-0.0978469848632812,-2.9069677801993543e-05,-0.7498750789881194,1.6403999993306615,0.0029069677801993,-0.0124921011880508,-0.0399999330661634,0.6920368795289764,0.2877764403820038,-0.0122040510177612,0.6292462348937988,10.735402681954838,-0.3979449669494193,0.1933137791126025,-0.6204215390075105
2.36,0.0137128196656703,-0.817429780960083,1.631712555885315,0.0617806896302677,0.0395606103988505,-0.0003251402971655,0.1295383274555206,0.1955518126487732,-0.1103460788726806,-2.9069677801993543e-05,-0.7498750789881194,1.6403999993306615,0.0029069677801993,-0.0124921011880508,-0.0399999330661634,1.401640955742131,-0.5300767719745636,-1.1371225118637085,-0.6249547004699707,10.872974246807187,-0.3481489975957521,0.2213891373663415,-0.5499441360258613
2.38,0.0166121553629636,-0.8133236169815063,1.6293182373046875,0.0812169414585201,0.0525041340833865,0.0034253599482858,0.1304701119661331,0.1847773790359497,-0.1077443361282348,-2.9069677801993543e-05,-0.7498750789881194,1.6403999993306615,0.0029069677801993,-0.0124921011880508,-0.0399999330661634,0.5561602902033601,0.0465892255306243,-0.5387216806411743,0.13008713722229,10.86820246846355,-0.4189559504911429,0.1314497979062996,-0.6235783781038176
2.4,0.0182639192789793,-0.811366081237793,1.628482699394226,0.0892263138227632,0.0533818764758301,0.0060285138178464,0.1409309357404709,0.1764464378356933,-0.0969350337982177,-2.9069677801993543e-05,-0.7498750789881194,1.6403999993306615,0.0029069677801993,-0.0124921011880508,-0.0399999330661634,0.8597593154214612,0.5230411887168884,-0.4165470600128174,0.5404651165008545,11.116973694650367,-0.4380605956642554,0.1540812705097036,-0.649933892450175
2.42,0.0214543640613555,-0.807843804359436,1.6263270378112793,0.1028810152635969,0.0593782669721312,0.0091819094293162,0.1435700207948684,0.158502459526062,-0.0970047712326049,-2.9069677801993543e-05,-0.7498750789881194,1.6403999993306615,0.0029069677801993,-0.0124921011880508,-0.0399999330661634,0.9068571977034476,0.1319542527198791,-0.8971989154815674,-0.0034868717193603,10.746760715184791,-0.4010038741316775,0.2021928877598696,-0.6324078636354407
2.44,0.0249402280896902,-0.8047242164611816,1.624292492866516,0.1093264572994311,0.0612321376780198,0.0110464351747789,0.1568638831377029,0.1403814554214477,-0.0915545225143432,-2.9069677801993543e-05,-0.7498750789881194,1.6403999993306615,0.0029069677801993,-0.0124921011880508,-0.0399999330661634,1.156290163454434,0.6646931171417236,-0.9060502052307128,0.2725124359130859,10.813957525349906,-0.4025171812722103,0.1955554575214879,-0.6233295444083436
2.46,0.0286199264228343,-0.8020921349525452,1.6224654912948608,0.1130734035136867,0.0617773345229263,0.0142272243178855,0.1655864268541336,0.1184436678886413,-0.0822150707244873,-2.9069677801993543e-05,-0.7498750789881194,1.6403999993306615,0.0029069677801993,-0.0124921011880508,-0.0399999330661634,1.2694237378183095,0.4361271858215332,-1.0968893766403198,0.4669725894927978,10.905924129726372,-0.3582961564502053,0.2073505526797308,-0.644474661001954
2.48,0.0325625836849212,-0.7999897003173828,1.620484709739685,0.1165663467630071,0.0604932248109831,0.0169896615479533,0.1774195730686187,0.0946095585823059,-0.0891351699829101,-2.9069677801993543e-05,-0.7498750789881194,1.6403999993306615,0.0029069677801993,-0.0124921011880508,-0.0399999330661634,1.374750786057381,0.5916573107242584,-1.1917054653167725,-0.3460049629211426,11.041230424838432,-0.3452447070604628,0.1928211767256497,-0.6271002833651811
2.5,0.0345954373478889,-0.799010157585144,1.6191705465316772,0.1180845422363804,0.0605745375145599,0.0175582614131656,0.1845108270645141,0.086367130279541,-0.096103549003601,-2.9069677801993543e-05,-0.7498750789881194,1.6403999993306615,0.0029069677801993,-0.0124921011880508,-0.0399999330661634,0.6457201672096965,0.3545626997947693,-0.4121214151382446,-0.3484189510345459,10.963005563616209,-0.3060742461735979,0.1797876348252876,-0.7131359763944761
2.52,0.038576666265726,-0.7974712252616882,1.6169332265853882,0.1145803627548915,0.0556863890112229,0.0187545211255286,0.1791553050279617,0.0692519545555114,-0.1006793975830078,-2.9069677801993543e-05,-0.7498750789881194,1.6403999993306615,0.0029069677801993,-0.0124921011880508,-0.0399999330661634,0.9254042989013876,-0.2677761018276214,-0.855758786201477,-0.2287924289703369,11.051638796203406,-0.3142681739365018,0.2595577679631684,-0.7918116031050528
2.54,0.0429643206298351,-0.7964149117469788,1.6146785020828247,0.1110478813296306,0.0460640038603832,0.0196196942290874,0.1974444389343261,0.0475341081619262,-0.1014626026153564,-2.9069677801993543e-05,-0.7498750789881194,1.6403999993306615,0.0029069677801993,-0.0124921011880508,-0.0399999330661634,1.420185446643314,0.914456695318222,-1.0858923196792605,-0.0391602516174316,11.536473052922249,-0.3894973640405355,0.2715529625606769,-0.8510292688975053
2.56,0.0472488701343536,-0.7956529855728149,1.612539768218994,0.1110190180599282,0.0360388110809822,0.0210685291185258,0.1928047239780426,0.0342866778373718,-0.0962430238723754,-2.9069677801993543e-05,-0.7498750789881194,1.6403999993306615,0.0029069677801993,-0.0124921011880508,-0.0399999330661634,0.7487746111709196,-0.2319857478141784,-0.6623715162277222,0.2609789371490478,11.327293645213558,-0.304088816763304,0.2524289274082922,-0.9041031065016852
2.58,0.0518723130226135,-0.7952707409858704,1.6108520030975342,0.1049831601163483,0.0152858952967671,0.0206273852430917,0.2080549299716949,0.0172010064125061,-0.0759494304656982,-2.9069677801993543e-05,-0.7498750789881194,1.6403999993306615,0.0029069677801993,-0.0124921011880508,-0.0399999330661634,1.52996640832637,0.7625102996826172,-0.8542835712432861,1.0146796703338623,11.400726243153258,-0.3318461334550288,0.2847584838806165,-0.8581597914026816
2.6,0.0539014786481857,-0.7951729893684387,1.6099244356155396,0.1028372990371417,0.0093937818638925,0.019764754916037,0.1905726194381714,0.006665289402008,-0.0805896520614624,-2.9069677801993543e-05,-0.7498750789881194,1.6403999993306615,0.0029069677801993,-0.0124921011880508,-0.0399999330661634,1.0466185682635805,-0.874115526676178,-0.5267858505249023,-0.232011079788208,11.248183745391543,-0.2196775604604892,0.2866160008402856,-0.7551186848607924
2.62,0.0581860058009624,-0.7953133583068848,1.6088035106658936,0.0906056197606905,-0.0128418385383331,0.0183437489723488,0.1928037256002426,-0.006316602230072,-0.0504416227340698,-2.9069677801993543e-05,-0.7498750789881194,1.6403999993306615,0.0029069677801993,-0.0124921011880508,-0.0399999330661634,1.6450007730840326,0.1115553081035614,-0.6490945816040039,1.507401466369629,11.215685644735911,-0.3286555062398152,0.3293328594682098,-0.8809915207825247
2.64,0.061999425292015,-0.7956575155258179,1.6082813739776611,0.0731846236690838,-0.0341065817656216,0.0143072309423293,0.1716038733720779,-0.0154870748519897,-0.0234961509704589,-2.9069677801993543e-05,-0.7498750789881194,1.6403999993306615,0.0029069677801993,-0.0124921011880508,-0.0399999330661634,1.774534975119475,-1.0599926114082336,-0.4585236310958862,1.347273588180542,11.8129399674458,-0.2533181420259554,0.3373077405524931,-0.77477933516937
