t,x,y,z,roll,pitch,yaw,v_x,v_y,v_z,ref_x,ref_y,ref_z,ref_v_x,ref_v_y,ref_v_z,a_com,a_x,a_y,a_z,thrust,wind_x,wind_y,wind_z
0.0,-0.44974085688591,-1.4315391778945925,2.9025802612304688,0.0573425514231292,0.0874162750742706,0.027246717017095,-0.0731559097766876,0.0054287910461425,0.0328302383422851,-0.4511910080909729,-1.4311417043209076,2.902968525886536,0.0176722779870033,0.1114423051476478,-0.0695515647530555,4.018421162934763,-3.657795488834381,0.2714395523071289,1.6415119171142578,12.427654374001577,-0.0731559097766876,0.0054287910461425,0.0328302383422851
0.02,-0.4513170719146728,-1.4315688610076904,2.903619766235352,0.0546367198248814,0.1012849644647155,0.0130204139205286,-0.0709296762943267,-0.0013357400894165,0.0467777252197265,-0.4525571763515472,-1.431191772222519,2.903275489807129,0.0111598744988441,0.1093609109520912,-0.0715042129158973,0.7830188171403242,0.1113116741180419,-0.3382265567779541,0.6973743438720703,12.06245774532863,-0.0709296762943267,-0.0013357400894165,0.0467777252197265
0.04,-0.4527812302112579,-1.4317728281021118,2.9046740531921387,0.0601728114230273,0.0840168692677321,0.0263507391515997,-0.0658871233463287,-0.0091785192489624,0.0474429130554199,-0.4525571763515472,-1.431191772222519,2.903275489807129,0.0111598744988441,0.1093609109520912,-0.0715042129158973,0.4673836754624771,0.2521276473999023,-0.3921389579772949,0.0332593917846679,11.514734460752608,-0.0658871233463287,-0.0091785192489624,0.0474429130554199
0.06,-0.4540349543094635,-1.432148814201355,2.9058494567871094,0.0177344039565279,0.1113228684839686,0.0124839997414545,-0.0564175844192504,-0.0169193744659423,0.0528931617736816,-0.4525571763515472,-1.431191772222519,2.903275489807129,0.0111598744988441,0.1093609109520912,-0.0715042129158973,0.6695114227416324,0.4734769463539123,-0.387042760848999,0.2725124359130859,11.007905137191756,-0.0564175844192504,-0.0169193744659423,0.0528931617736816
0.08,-0.4550966620445251,-1.4324660301208496,2.907106876373291,-0.0110683096778417,0.1203748132222221,0.0119533293714084,-0.047776848077774,-0.0142747163772583,0.0565838813781738,-0.4524455776065588,-1.430098163112998,2.90256044767797,0.0311598747968673,0.1293609112501144,-0.0915042132139205,0.4880521286910261,0.432036817073822,0.1322329044342041,0.1845359802246093,10.555716815867072,-0.047776848077774,-0.0142747163772583,0.0565838813781738
0.1,-0.4555703401565552,-1.432552695274353,2.907630920410156,-0.0184184978070139,0.10938246322772,0.0235315212388687,-0.0413784384727478,-0.0121289491653442,0.052034854888916,-0.4522223801165819,-1.4279109448939562,2.901130363419652,0.0711598753929138,0.1693609118461609,-0.131504213809967,0.4069324403429481,0.3199204802513122,0.1072883605957031,-0.2274513244628906,10.555716815867072,-0.0413784384727478,-0.0121289491653442,0.052034854888916
0.12,-0.4561864733695984,-1.4328315258026123,2.908953666687012,-0.1242893703254061,0.1632945927157902,0.0082965511546618,-0.0277259945869445,-0.0125473737716674,0.059523582458496,-0.451999182626605,-1.4257237266749143,2.899700279161334,0.1111598759889602,0.2093609124422073,-0.1715042144060135,0.7788538756043577,0.6826221942901611,-0.0209212303161621,0.3744363784790039,10.241608524710957,-0.0277259945869445,-0.0125473737716674,0.059523582458496
0.14,-0.4567150771617889,-1.432323694229126,2.908846139907837,-0.1340565519000748,0.1606469209235099,0.0190678200888729,-0.0237871706485748,0.0228524208068847,-0.0048387050628662,-0.4497759851068258,-1.42153650842607,2.896270194873214,0.1511598765850067,0.2493609130382537,-0.2115042150020599,3.678030670482399,0.1969411969184875,1.7699897289276123,-3.2181143760681152,10.184924388819582,-0.0237871706485748,0.0228524208068847,-0.0048387050628662
0.16,-0.4566034078598022,-1.431365728378296,2.9085655212402344,-0.2132202967950904,0.2076647445522573,0.0026872622091861,0.0050251185894012,0.0431084632873535,-0.0126278400421142,-0.4475527875870466,-1.417349290177226,2.8928401105850936,0.1911598771810532,0.2893609136343003,-0.2515042155981064,1.803556134299881,1.4406144618988037,1.0128021240234375,-0.3894567489624023,10.58228313615109,0.0050251185894012,0.0431084632873535,-0.0126278400421142
0.18,-0.4560413956642151,-1.429573655128479,2.9070851802825928,-0.2217471960001109,0.2081602044678902,0.0115095051255501,0.0252905488014221,0.0806432962417602,-0.066615343093872,-0.4443295900523663,-1.4121620719134806,2.888410026282072,0.2311598777770996,0.3293609142303467,-0.2915042161941528,3.440276817480341,1.0132715106010437,1.876741647720337,-2.69937515258789,10.63912827803506,0.0252905488014221,0.0806432962417602,-0.066615343093872
0.2,-0.4555303156375885,-1.4283785820007324,2.9060354232788086,-0.2329230955643032,0.2178358383475712,0.0094764666128644,0.0333184003829956,0.0997889041900634,-0.0877833366394043,-0.454776868224144,-1.425541490316391,2.903754413127899,0.1252905502915382,0.1806432977318763,-0.1666153445839882,1.4824680902717582,0.4013925790786743,0.9572803974151612,-1.058399677276611,10.63912827803506,0.0333184003829956,0.0997889041900634,-0.0877833366394043
0.22,-0.4542829096317291,-1.425273895263672,2.9029741287231445,-0.2399375522284981,0.2377860520402272,0.0081389901355562,0.0561332702636718,0.1397109031677246,-0.1377582550048828,-0.454776868224144,-1.425541490316391,2.903754413127899,0.1252905502915382,0.1806432977318763,-0.1666153445839882,3.39550318645146,1.1407434940338137,1.9960999488830569,-2.498745918273926,12.089549277149672,0.0561332702636718,0.1397109031677246,-0.1377582550048828
0.24,-0.4524054229259491,-1.421263337135315,2.8987913131713867,-0.2118100992313079,0.2652171522339749,-0.000680349291143,0.0844869017601013,0.180475115776062,-0.1882266998291015,-0.454776868224144,-1.425541490316391,2.903754413127899,0.1252905502915382,0.1806432977318763,-0.1666153445839882,3.540025907951897,1.4176815748214722,2.03821063041687,-2.523422241210937,12.630083372104307,0.0844869017601013,0.180475115776062,-0.1882266998291015
0.26,-0.4497624635696411,-1.4163227081298828,2.89380431175232,-0.1870798897451786,0.2555942963756911,0.0117552303356411,0.1189331710338592,0.2223283052444458,-0.2244150638580322,-0.4535239627212286,-1.423735057339072,2.9020882596820594,0.1452905505895614,0.2006432980298995,-0.1866153448820114,3.258769946869169,1.7223134636878967,2.092659473419189,-1.8094182014465328,13.005901238333536,0.1189331710338592,0.2223283052444458,-0.2244150638580322
0.28,-0.4464728832244873,-1.41058611869812,2.8882503509521484,-0.1175686516616486,0.250497867997717,0.0070306217253775,0.1480311155319214,0.2581465244293213,-0.2499282360076904,-0.4510181517153978,-1.4201221913844346,2.8987559527903795,0.1852905511856079,0.240643298625946,-0.2266153454780578,2.636549427151984,1.4548972249031067,1.7909109592437744,-1.2756586074829102,13.216208704163364,0.1480311155319214,0.2581465244293213,-0.2499282360076904
0.3,-0.4445624649524688,-1.4074757099151611,2.88521146774292,-0.0793325649300095,0.2374880576742226,0.0105523735102411,0.1648123562335968,0.2750980854034424,-0.2660965919494629,-0.4485123407095671,-1.4165093254297971,2.8954236458987,0.2252905517816543,0.2806432992219925,-0.2666153460741043,1.4408167760048132,0.8390620350837708,0.8475780487060547,-0.808417797088623,13.580457355791168,0.1648123562335968,0.2750980854034424,-0.2660965919494629
0.32,-0.4398852586746216,-1.4009120464324951,2.8795595169067383,-0.0360928708017828,0.2153621858668141,0.0137590804556303,0.210474282503128,0.2953648567199707,-0.2543377876281738,-0.444006529673934,-1.4108964594453572,2.890091338977218,0.2652905523777008,0.3206432998180389,-0.3066153466701507,2.56613669224134,2.2830963134765625,1.013338565826416,0.5879402160644531,13.179825984470426,0.210474282503128,0.2953648567199707,-0.2543377876281738
0.34,-0.4345960617065429,-1.393968939781189,2.873920440673828,-0.0060420799689822,0.1905623613924466,0.0151503292021889,0.2380138635635376,0.3124397993087768,-0.253758430480957,-0.4395007186383009,-1.4052835934609174,2.884759032055736,0.3052905529737473,0.3606433004140854,-0.3466153472661972,1.6204303780924418,1.3769790530204773,0.8537471294403076,0.0289678573608398,12.72643111021307,0.2380138635635376,0.3124397993087768,-0.253758430480957
0.36,-0.4287235140800476,-1.3866453170776367,2.8683269023895264,0.0120499822876511,0.1585061428234178,0.0146650778366761,0.2642646431922912,0.3295630216598511,-0.2517092227935791,-0.4339949075877666,-1.3986707274615764,2.8784267251193523,0.3452905535697937,0.4006433010101318,-0.3866153478622436,1.5704357889991274,1.312538981437683,0.8561611175537109,0.1024603843688964,12.489260464801646,0.2642646431922912,0.3295630216598511,-0.2517092227935791
0.38,-0.4222651124000549,-1.3795708417892456,2.863688945770264,0.0243012929508831,0.1320415984490922,0.0277046026952483,0.2906280755996704,0.3183513879776001,-0.2087080478668213,-0.4274890965223312,-1.391057861447334,2.871094418168068,0.3852905541658401,0.4406433016061782,-0.4266153484582901,2.583521019464066,1.3181716203689575,-0.5605816841125488,2.15005874633789,11.887303955477364,0.2906280755996704,0.3183513879776001,-0.2087080478668213
0.4,-0.4188591539859772,-1.3760755062103271,2.861500740051269,0.0202876530134431,0.1187666711197888,0.0261194782667365,0.2973805367946625,0.3162270784378052,-0.2028179168701172,-0.4077337086200714,-1.3636532723903656,2.8532535433769226,0.3906280770897865,0.4183513894677162,-0.3087080493569374,0.4604401871282301,0.3376230597496032,-0.1062154769897461,0.2945065498352051,11.887303955477364,0.2973805367946625,0.3162270784378052,-0.2028179168701172
0.42,-0.4119022488594055,-1.369197964668274,2.8573520183563232,0.003823781018363,0.0972620525864518,0.0222487755823107,0.3130607306957245,0.309489369392395,-0.186692476272583,-0.4077337086200714,-1.3636532723903656,2.8532535433769226,0.3906280770897865,0.4183513894677162,-0.3087080493569374,1.1739836438597724,0.7840096950531006,-0.3368854522705078,0.806272029876709,11.925105691680074,0.3130607306957245,0.309489369392395,-0.186692476272583
0.44,-0.4047985672950744,-1.3621498346328735,2.853182792663574,-0.0406637625029222,0.089482946742938,0.0051575219057288,0.3196656703948974,0.3171658515930176,-0.187615156173706,-0.4077337086200714,-1.3636532723903656,2.8532535433769226,0.3906280770897865,0.4183513894677162,-0.3087080493569374,0.5084411116494283,0.3302469849586487,0.3838241100311279,-0.0461339950561523,11.47108781033603,0.3196656703948974,0.3171658515930176,-0.187615156173706
0.46,-0.397806704044342,-1.3551485538482666,2.8490028381347656,-0.039044362300716,0.0716360404564925,0.0154779179754618,0.314633846282959,0.315057635307312,-0.1880979537963867,-0.4038274278491735,-1.3594697584956883,2.850166462883353,0.4106280773878097,0.4383513897657394,-0.3287080496549606,0.2738472354491903,-0.2515912055969238,-0.1054108142852783,-0.0241398811340332,11.447963990548487,0.314633846282959,0.315057635307312,-0.1880979537963867
0.48,-0.3941452801227569,-1.3517868518829346,2.847240924835205,-0.0738613100649578,0.0844977810185828,0.0021067275058417,0.3241261839866638,0.3058415651321411,-0.1711678504943847,-0.3960148663073778,-1.351102730706334,2.8439923018962148,0.4506280779838562,0.4783513903617858,-0.368708050251007,1.0743239995123774,0.4746168851852417,-0.4608035087585449,0.8465051651000977,11.273288814710668,0.3241261839866638,0.3058415651321411,-0.1711678504943847
0.5,-0.3870410025119781,-1.3444206714630127,2.84309720993042,-0.0755881160964055,0.0715295945660422,0.0127130661281261,0.3196924924850464,0.3314781188964844,-0.186467170715332,-0.3882023047655821,-1.3427357029169795,2.837818140909076,0.4906280785799026,0.5183513909578323,-0.4087080508470535,1.5091054539582904,-0.2216845750808715,1.281827688217163,-0.7649660110473633,11.273288814710668,0.3196924924850464,0.3314781188964844,-0.186467170715332
0.52,-0.3797617852687835,-1.3367249965667725,2.838398694992065,-0.1038603861453071,0.1019515923417514,-0.0008816122393238,0.3275647759437561,0.3463053703308105,-0.2114331722259521,-0.378389743193984,-1.332368675097823,2.829643979892135,0.5306280791759491,0.5583513915538788,-0.4487080514430999,1.5042618317461294,0.3936141729354858,0.7413625717163086,-1.248300075531006,11.001670336340794,0.3275647759437561,0.3463053703308105,-0.2114331722259521
0.54,-0.3724416196346283,-1.328697681427002,2.8336336612701416,-0.1132492529249774,0.118899111826079,-0.002509967251611,0.3294074535369873,0.3612291812896728,-0.2144265174865722,-0.368577181622386,-1.3220016472786664,2.821469818875194,0.5706280797719956,0.5983513921499253,-0.4887080520391464,0.7666089454502404,0.09213387966156,0.7461905479431152,-0.1496672630310058,11.253035757140424,0.3294074535369873,0.3612291812896728,-0.2144265174865722
0.56,-0.3650186061859131,-1.3203047513961792,2.82846999168396,-0.1117705965479575,0.1182287378406444,0.0081618544525935,0.3340356051921844,0.3776818513870239,-0.2323651313781738,-0.3577646200358867,-1.3106346194446086,2.812295657843352,0.610628080368042,0.6383513927459716,-0.5287080526351928,1.2388543189452652,0.2314075827598571,0.8226335048675537,-0.8969306945800781,11.253035757140424,0.3340356051921844,0.3776818513870239,-0.2323651313781738
0.58,-0.3574599027633667,-1.3113127946853638,2.822753429412842,-0.1212392097919018,0.1619280307940724,-0.0062516432735497,0.3401416540145874,0.4046380519866943,-0.2572453022003174,-0.3459520584344864,-1.2982675915956496,2.802121496796608,0.6506280809640884,0.6783513933420181,-0.5687080532312393,1.8593974044904196,0.3053024411201477,1.3478100299835205,-1.2440085411071775,11.336445669873685,0.3401416540145874,0.4046380519866943,-0.2572453022003174
0.6,-0.3534622192382812,-1.3066638708114624,2.819830179214477,-0.1139667418828265,0.1533352393639096,0.0055587824326665,0.3509777784347534,0.4135268926620483,-0.2641010284423828,-0.3404528200626373,-1.291080892086029,2.809891164302826,0.4073871821165085,0.5046380534768105,-0.3572453036904335,0.780118682168442,0.5418062210083008,0.4444420337677002,-0.3427863121032715,11.336445669873685,0.3509777784347534,0.4135268926620483,-0.2641010284423828
0.62,-0.3455230295658111,-1.2968878746032717,2.813074350357056,-0.1056652887489678,0.1780913574821976,0.003778145895629,0.3572635352611542,0.4399198293685913,-0.3040122985839844,-0.3404528200626373,-1.291080892086029,2.809891164302826,0.4073871821165085,0.5046380534768105,-0.3572453036904335,2.4129895001802866,0.3142878413200378,1.3196468353271484,-1.995563507080078,13.026441960889317,0.3572635352611542,0.4399198293685913,-0.3040122985839844
0.64,-0.3370449542999267,-1.286764144897461,2.806381702423096,-0.1007479060679559,0.2198306455772466,-0.0108228464262896,0.381513386964798,0.4555678367614746,-0.3011691570281982,-0.3404528200626373,-1.291080892086029,2.809891164302826,0.4073871821165085,0.5046380534768105,-0.3572453036904335,1.449999049070968,1.21249258518219,0.782400369644165,0.1421570777893066,13.212638736321423,0.381513386964798,0.4555678367614746,-0.3011691570281982
0.66,-0.3280336260795593,-1.276364803314209,2.799379825592041,-0.0870523856433333,0.2266989654620379,-0.0121084871142964,0.4055097699165344,0.4679703712463379,-0.3150844573974609,-0.3363789482414722,-1.286034511551261,2.806318711265922,0.4208362877368927,0.5246380537748336,-0.3772453039884567,1.5192801262287126,1.1998191475868225,0.6201267242431641,-0.6957650184631348,13.212352770616237,0.4055097699165344,0.4679703712463379,-0.3150844573974609
0.68,-0.3185124397277832,-1.265488624572754,2.791901111602783,-0.0701988611569609,0.223519440759236,-0.0121835502558923,0.4284533858299255,0.4894280433654785,-0.3365421295166015,-0.328231204599142,-1.2759417504817248,2.799173805192113,0.4477344989776611,0.5646380543708801,-0.4172453045845031,1.9021520028156949,1.1471807956695557,1.0728836059570312,-1.0728836059570312,13.06847038936121,0.4284533858299255,0.4894280433654785,-0.3365421295166015
0.7000000000000001,-0.3134829401969909,-1.2599343061447144,2.78804087638855,-0.05569323651734,0.2084768896765573,0.0018849236996863,0.446929782629013,0.4958760738372803,-0.3411555290222168,-0.3200834609568119,-1.2658489894121885,2.7920288991183044,0.4746327102184295,0.6046380549669266,-0.4572453051805496,1.0052832817681625,0.9238198399543762,0.3224015235900879,-0.2306699752807617,13.06847038936121,0.446929782629013,0.4958760738372803,-0.3411555290222168
0.72,-0.3030779361724853,-1.2486770153045654,2.780487060546875,-0.0350079252943403,0.189574639956061,-0.0113615067327978,0.4682251811027527,0.5065780878067017,-0.3399217128753662,-0.3105908067524432,-1.2537562283128498,2.7828839930146936,0.501530921459198,0.644638055562973,-0.497245305776596,1.1932617079262953,1.0647699236869812,0.5351006984710693,0.0616908073425293,13.010209640824542,0.4682251811027527,0.5065780878067017,-0.3399217128753662
0.74,-0.2920856773853302,-1.237412691116333,2.7730305194854736,-0.0201393437669863,0.1622641058113591,0.0026757400027608,0.4946516454219818,0.506894588470459,-0.3355443477630615,-0.3010981525480747,-1.2416634672135114,2.7737390869110823,0.5284291326999665,0.6846380561590195,-0.5372453063726426,1.3394210637548516,1.3213232159614563,0.0158250331878662,0.2188682556152343,13.010209640824542,0.4946516454219818,0.506894588470459,-0.3355443477630615
0.76,-0.2807011604309082,-1.2259968519210815,2.7655789852142334,-0.0054368316708388,0.1227096472249063,-0.0103774318483577,0.5123032331466675,0.5137127637863159,-0.3353190422058105,-0.2909330430626869,-1.2285707060992717,2.76359418079257,0.5553273439407349,0.7246380567550659,-0.5772453069686889,0.9461987455526492,0.8825793862342834,0.3409087657928467,0.0112652778625488,12.194670589854468,0.5123032331466675,0.5137127637863159,-0.3353190422058105
0.78,-0.2690803408622741,-1.2147890329360962,2.758451461791992,0.0006000770033594,0.0973238574315863,-0.0106142943287134,0.5229368805885315,0.5043518543243408,-0.3207385540008545,-0.2800954782962799,-1.2144779449701308,2.752449274659157,0.5822255551815033,0.7646380573511123,-0.6172453075647354,1.0164788735729071,0.5316823720932007,-0.4680454730987549,0.7290244102478027,11.984740597989912,0.5229368805885315,0.5043518543243408,-0.3207385540008545
0.8,-0.2631139755249023,-1.208931803703308,2.7545933723449707,0.0108495551941536,0.0730374902803218,0.0015170112491767,0.5313482880592346,0.5130261182785034,-0.3258883953094482,-0.2429334968328476,-1.1895714402198792,2.742414534091949,0.506777485832572,0.6043518558144569,-0.4207385554909706,0.656725772846596,0.4205703735351562,0.4337131977081299,-0.2574920654296875,11.759948838106538,0.5313482880592346,0.5130261182785034,-0.3258883953094482
0.8200000000000001,-0.2514388561248779,-1.1976317167282104,2.74748969078064,0.0142294497482419,0.035719728552753,0.0006022502940598,0.5253803730010986,0.5085039138793945,-0.3196656703948974,-0.2429334968328476,-1.1895714402198792,2.742414534091949,0.506777485832572,0.6043518558144569,-0.4207385554909706,0.4867973092844111,-0.2983957529067993,-0.2261102199554443,0.311136245727539,11.759948838106538,0.5253803730010986,0.5085039138793945,-0.3196656703948974
0.84,-0.2395045608282089,-1.186434030532837,2.7403786182403564,0.0140455421183531,0.0002124693840638,0.0027387348711407,0.5370432734489441,0.5038958787918091,-0.3199982643127441,-0.2429334968328476,-1.1895714402198792,2.742414534091949,0.506777485832572,0.6043518558144569,-0.4207385554909706,0.627231721413548,0.583145022392273,-0.2304017543792724,-0.0166296958923339,12.092750428602812,0.5370432734489441,0.5038958787918091,-0.3199982643127441
0.86,-0.2282651662826538,-1.1752328872680664,2.7336246967315674,-0.0061488820572768,-0.023789050378047,-0.0086769785942416,0.5057727694511414,0.5040514469146729,-0.3039264678955078,-0.2378657219745218,-1.1835279216617345,2.73820714853704,0.5035456068813801,0.6243518561124801,-0.4407385557889938,1.7579613631949784,-1.5635251998901367,0.0077784061431884,0.8035898208618164,11.456329129055575,0.5057727694511414,0.5040514469146729,-0.3039264678955078
0.88,-0.2174622863531112,-1.163906455039978,2.7270383834838867,-0.0061252507736736,-0.0544822990137006,0.0027076301258092,0.4861295819282532,0.509689450263977,-0.2963840961456299,-0.2277301722578704,-1.1714408845454454,2.7297923774272204,0.4970818489789962,0.6643518567085266,-0.4807385563850402,1.0891846370559402,-0.9821593761444092,0.2819001674652099,0.3771185874938965,11.456329129055575,0.4861295819282532,0.509689450263977,-0.2963840961456299
0.9,-0.212244763970375,-1.158324956893921,2.7239131927490234,-0.0152433080518652,-0.0669802104573191,0.0029399800745653,0.4727494120597839,0.5031555891036987,-0.2840566635131836,-0.217594622541219,-1.1593538474291565,2.721377606317401,0.4906180910766125,0.7043518573045731,-0.5207385569810867,0.9665478294921408,-0.6690084934234619,-0.326693058013916,0.6163716316223145,11.349262039898804,0.4727494120597839,0.5031555891036987,-0.2840566635131836
0.92,-0.2025180757045745,-1.146853804588318,2.7172951698303223,-0.0543519640433223,-0.0807847522741607,-0.0034692239698561,0.4377009868621826,0.5162018537521362,-0.2978110313415527,-0.2077822607196867,-1.1452668102830648,2.7109628351777797,0.4841543331742287,0.7443518579006195,-0.5607385575771332,1.9923477134193976,-1.752421259880066,0.652313232421875,-0.687718391418457,10.667339164160694,0.4377009868621826,0.5162018537521362,-0.2978110313415527
0.94,-0.1932594329118728,-1.1350699663162231,2.7107982635498047,-0.0762012926159024,-0.0916235097997448,-0.0009529274061802,0.4166389107704162,0.5302727222442627,-0.292360782623291,-0.1979698988981544,-1.1311797731369733,2.7005480640381574,0.4776905752718449,0.784351858496666,-0.6007385581731797,1.2954782905446416,-1.053103804588318,0.7035434246063232,0.2725124359130859,10.799013008829206,0.4166389107704162,0.5302727222442627,-0.292360782623291
0.96,-0.1847975403070449,-1.123144268989563,2.70450496673584,-0.0979074724923225,-0.0979829614646519,0.0017622786068276,0.3807851672172546,0.536656379699707,-0.2831983566284179,-0.1883191310241818,-1.116092735975981,2.6891332928836347,0.471226817369461,0.8243518590927124,-0.640738558769226,1.877626200416269,-1.792687177658081,0.3191828727722168,0.4581212997436523,10.8549014281607,0.3807851672172546,0.536656379699707,-0.2831983566284179
0.98,-0.1809486746788025,-1.117011785507202,2.7010321617126465,-0.1165279105149104,-0.0997179062077366,0.0044003745006088,0.3654422760009765,0.5461996793746948,-0.2950751781463623,-0.1626765608787536,-1.0897018015384674,2.6862784028053284,0.3789391713216901,0.6461996808648109,-0.3950751796364784,1.0811310847097482,-0.7671445608139038,0.4771649837493896,-0.5938410758972168,10.905750985547456,0.3654422760009765,0.5461996793746948,-0.2950751781463623
1.0,-0.1809486746788025,-1.117011785507202,2.7010321617126465,-0.1165279105149104,-0.0997179062077366,0.0044003745006088,0.3654422760009765,0.5461996793746948,-0.2950751781463623,-0.1626765608787536,-1.0897018015384674,2.6862784028053284,0.3789391713216901,0.6461996808648109,-0.3950751796364784,0.0,0.0,0.0,0.0,10.905750985547456,0.3654422760009765,0.5461996793746948,-0.2950751781463623
1.02,-0.1677579581737518,-1.0907938480377195,2.687077045440674,-0.1343650253636517,-0.0918019993599818,0.0092202369203131,0.2751108407974243,0.5980467796325684,-0.3138506412506103,-0.1626765608787536,-1.0897018015384674,2.6862784028053284,0.3789391713216901,0.6461996808648109,-0.3950751796364784,5.291599003576926,-4.516571760177612,2.5923550128936768,-0.9387731552124025,12.03205981418614,0.2751108407974243,0.5980467796325684,-0.3138506412506103
1.04,-0.1677579581737518,-1.0907938480377195,2.687077045440674,-0.1314821409226278,-0.0824188769208748,0.010783339775497,0.2751108407974243,0.5980467796325684,-0.3138506412506103,-0.1588871691655367,-1.0832398047298193,2.6823276510089635,0.3816385503858328,0.6661996811628341,-0.4150751799345016,0.0,0.0,0.0,0.0,12.46797463026178,0.2751108407974243,0.5980467796325684,-0.3138506412506103
1.06,-0.1677579581737518,-1.0907938480377195,2.687077045440674,-0.1209307411761632,-0.0674471324350809,0.0112546500105399,0.2751108407974243,0.5980467796325684,-0.3138506412506103,-0.1513083857391029,-1.070315811112523,2.6744261474162343,0.3870373085141182,0.7061996817588806,-0.4550751805305481,0.0,0.0,0.0,0.0,11.886528038231972,0.2751108407974243,0.5980467796325684,-0.3138506412506103
1.08,-0.1538076102733612,-1.0467015504837036,2.662522792816162,-0.1082647519870669,-0.0520377473366771,0.0113714130726216,0.1789254695177078,0.6894618272781372,-0.3823328018188476,-0.1437296023126691,-1.0573918174952268,2.6665246438235046,0.3924360666424036,0.7461996823549271,-0.4950751811265945,7.466281353584321,-4.809268563985825,4.570752382278442,-3.424108028411865,11.597903270281677,0.1789254695177078,0.6894618272781372,-0.3823328018188476
1.1,-0.152053877711296,-1.038864016532898,2.6582839488983154,-0.095278848547157,-0.0543177265652472,0.0184639773402623,0.160730704665184,0.7004266977310181,-0.3858411312103271,-0.135880880979821,-1.0424678238481282,2.656623140200973,0.397834824770689,0.7861996829509735,-0.535075181722641,1.076552631326279,-0.9097382426261902,0.548243522644043,-0.1754164695739746,11.597903270281677,0.160730704665184,0.7004266977310181,-0.3858411312103271
1.12,-0.1489593237638473,-1.0228828191757202,2.6497349739074707,-0.0555918456719591,0.0078033894252234,0.0098497766663826,0.1392549276351928,0.719153881072998,-0.3847038745880127,-0.128032159646973,-1.0275438302010296,2.646721636578441,0.4032335828989744,0.82619968354702,-0.5750751823186875,1.4258416353079206,-1.0737888514995575,0.936359167098999,0.0568628311157226,12.07961395446,0.1392549276351928,0.719153881072998,-0.3847038745880127
1.14,-0.1463395953178405,-1.0066368579864502,2.640822410583496,-0.0413540532888355,0.0043385600701606,0.0197942521075964,0.1178877800703048,0.7310682535171509,-0.4010653495788574,-0.1200484693609177,-1.01161983653903,2.635820132941008,0.4086323410272598,0.8661996841430664,-0.6150751829147338,1.4715681513896366,-1.0683573782444,0.5957186222076416,-0.8180737495422363,11.722142587842429,0.1178877800703048,0.7310682535171509,-0.4010653495788574
1.16,-0.1442747712135315,-0.9900087118148804,2.6316750049591064,-0.0037726849932344,0.0663731067596985,0.0083897721310762,0.0929170846939086,0.7482665777206421,-0.4116332530975342,-0.1119298101216554,-0.9946958428621292,2.6239186292886734,0.4140310991555452,0.9061996847391128,-0.6550751835107803,1.6054583206745243,-1.248534768819809,0.8599162101745605,-0.5283951759338379,11.66293058849351,0.0929170846939086,0.7482665777206421,-0.4116332530975342
1.18,-0.142072319984436,-0.9735651016235352,2.623208522796631,0.0146082327569558,0.0659154272680141,0.0203574719497617,0.0991103053092956,0.7399624586105347,-0.3809916973114013,-0.1038111508823931,-0.9777718491852282,2.61201712563634,0.4194298572838306,0.9461996853351592,-0.6950751841068268,1.617265683785749,0.3096610307693481,-0.4152059555053711,1.5320777893066406,11.66293058849351,0.0991103053092956,0.7399624586105347,-0.3809916973114013
1.2,-0.1411075890064239,-0.9652735590934752,2.6186599731445312,0.0305154739189042,0.0845506004115777,0.0212053810146859,0.0901423394680023,0.7404908537864685,-0.3960871696472168,-0.1371168047189712,-0.9365669786930084,2.604158937931061,0.1682242602109909,0.8399624601006508,-0.4809916988015175,0.8783178494057877,-0.4483982920646667,0.0264197587966918,-0.7547736167907715,11.455802904581104,0.0901423394680023,0.7404908537864685,-0.3960871696472168
1.22,-0.1390029937028885,-0.9489789605140686,2.6098365783691406,0.056485407693852,0.1184224935421747,0.0220319391265511,0.0947067886590957,0.7332569360733032,-0.3970527648925781,-0.1371168047189712,-0.9365669786930084,2.604158937931061,0.1682242602109909,0.8399624601006508,-0.4809916988015175,0.4303955624677851,0.2282224595546722,-0.3616958856582641,-0.0482797622680664,10.99088360085716,0.0947067886590957,0.7332569360733032,-0.3970527648925781
1.24,-0.1367378085851669,-0.9328661561012268,2.6008150577545166,0.0776680928843166,0.1471493792042989,0.02276150801907,0.10193333029747,0.7250761985778809,-0.405968427658081,-0.1371168047189712,-0.9365669786930084,2.604158937931061,0.1682242602109909,0.8399624601006508,-0.4809916988015175,0.7046921536535344,0.3613270819187164,-0.4090368747711181,-0.4457831382751465,12.234779130713378,0.10193333029747,0.7250761985778809,-0.405968427658081
1.26,-0.1340782940387725,-0.9171501398086548,2.591868162155152,0.0896431849227877,0.1713583451998943,0.0218542566240276,0.1196781545877456,0.707220733165741,-0.4026103019714355,-0.1354345621168613,-0.928167354092002,2.5993490209430457,0.1820470511913299,0.859962460398674,-0.5009916990995407,1.2698163669446327,0.8872412145137787,-0.8927732706069946,0.1679062843322754,11.360962357338847,0.1196781545877456,0.707220733165741,-0.4026103019714355
1.28,-0.1310134977102279,-0.9017872214317322,2.582714557647705,0.0797370814980932,0.2142931848737004,0.0024098292333715,0.1379158347845077,0.6913313269615173,-0.411912202835083,-0.1320700769126415,-0.9113681048899888,2.589729186967016,0.209692633152008,0.8999624609947204,-0.5409916996955871,1.2957734834446506,0.9118840098381042,-0.7944703102111816,-0.465095043182373,11.056263148683684,0.1379158347845077,0.6913313269615173,-0.411912202835083
1.3,-0.1293689012527465,-0.8941923975944519,2.5778841972351074,0.0647445134864375,0.2259485552804685,-0.0005766694879152,0.150175541639328,0.6835153698921204,-0.4220616817474365,-0.1287055917084217,-0.8945688556879758,2.580109352990985,0.2373382151126861,0.9399624615907668,-0.5809917002916336,0.8865685524384055,0.6129853427410126,-0.3907978534698486,-0.5074739456176758,11.254647074717925,0.150175541639328,0.6835153698921204,-0.4220616817474365
1.32,-0.1273581087589264,-0.88692307472229,2.573655366897583,0.0430807508021814,0.2328649057722661,-0.0038545845337375,0.1644925028085708,0.6688866019248962,-0.4076635837554931,-0.123958827406168,-0.8757696064561605,2.568489518985152,0.2649837970733642,0.9799624621868134,-0.6209917008876801,1.2512807989676955,0.7158480584621429,-0.731438398361206,0.719904899597168,11.166831052954876,0.1644925028085708,0.6688866019248962,-0.4076635837554931
1.34,-0.1273581087589264,-0.88692307472229,2.573655366897583,0.0231265625916856,0.2347164509898196,-0.0064915988194516,0.1644925028085708,0.6688866019248962,-0.4076635837554931,-0.1192120631039142,-0.8569703572243451,2.55686968497932,0.2926293790340424,1.0199624627828598,-0.6609917014837265,0.0,0.0,0.0,0.0,11.398776310990344,0.1644925028085708,0.6688866019248962,-0.4076635837554931
1.36,-0.1273581087589264,-0.88692307472229,2.573655366897583,-0.0102782575039984,0.2301889324572944,-0.0106406545727888,0.1644925028085708,0.6688866019248962,-0.4076635837554931,-0.1137741592526435,-0.8371711079776287,2.544249850958586,0.3202749609947204,1.0599624633789062,-0.7009917020797729,0.0,0.0,0.0,0.0,11.398776310990344,0.1644925028085708,0.6688866019248962,-0.4076635837554931
1.38,-0.1273581087589264,-0.88692307472229,2.573655366897583,-0.0352119418964593,0.2211793807006681,-0.0130253925111458,0.1644925028085708,0.6688866019248962,-0.4076635837554931,-0.1076451158523559,-0.816371858716011,2.530630016922951,0.3479205429553985,1.0999624639749526,-0.7409917026758194,0.0,0.0,0.0,0.0,11.398776310990344,0.1644925028085708,0.6688866019248962,-0.4076635837554931
1.4,-0.1098765134811401,-0.8367184996604919,2.539757013320923,-0.0156667868010825,0.2107787440867493,0.0021097325963939,0.2575158774852752,0.6383523344993591,-0.4492592811584472,-0.1191334836184978,-0.8534787446260452,2.5532721877098083,0.2022052109241485,0.7688866034150124,-0.5076635852456093,5.3188090222095,4.65116873383522,-1.5267133712768557,-2.079784870147705,11.398776310990344,0.2575158774852752,0.6383523344993591,-0.4492592811584472
1.42,-0.1000716090202331,-0.8154795169830322,2.524222612380981,-0.0705697905871012,0.1968269856669248,-0.0149440693876777,0.3025199770927429,0.641251802444458,-0.464097261428833,-0.1191334836184978,-0.8534787446260452,2.5532721877098083,0.2022052109241485,0.7688866034150124,-0.5076635852456093,2.3737847176754903,2.2502049803733826,0.1449733972549438,-0.7418990135192871,12.862070203564144,0.3025199770927429,0.641251802444458,-0.464097261428833
1.44,-0.0927560925483703,-0.8011410236358643,2.513458490371704,-0.0791370364324015,0.1846322752411149,-0.0146904710699172,0.3291982412338257,0.6452322006225586,-0.4843854904174804,-0.1191334836184978,-0.8534787446260452,2.5532721877098083,0.2022052109241485,0.7688866034150124,-0.5076635852456093,1.6875911699323125,1.3339132070541382,0.1990199089050293,-1.014411449432373,13.12030124100238,0.3291982412338257,0.6452322006225586,-0.4843854904174804
1.46,-0.0851659849286079,-0.786520779132843,2.5024330615997314,-0.0765960109768446,0.1672504603800216,-0.0129592766321705,0.3415548503398895,0.6579110026359558,-0.4961442947387695,-0.1171114315092563,-0.8457898785918951,2.5481955518573525,0.2097477525472641,0.7888866037130355,-0.5276635855436325,1.062670325361247,0.6178304553031921,0.6339401006698608,-0.5879402160644531,13.147342449786263,0.3415548503398895,0.6579110026359558,-0.4961442947387695
1.48,-0.0770910903811454,-0.7716459035873413,2.491454839706421,-0.0699998281378783,0.1509585775575712,-0.011526266125633,0.3633702397346496,0.6693693995475769,-0.4940199851989746,-0.1130673272907734,-0.8304121465235949,2.5380422801524403,0.2248328357934951,0.828886604309082,-0.5676635861396789,1.236647449002872,1.0907694697380066,0.5729198455810547,0.1062154769897461,13.11841914407978,0.3633702397346496,0.6693693995475769,-0.4940199851989746
1.5,-0.0729757845401763,-0.7642449140548706,2.486184597015381,-0.0570649619634653,0.126107993485444,0.00193116712422,0.3658680617809295,0.6726792454719543,-0.4858124256134033,-0.1090232230722904,-0.8150344144552946,2.527889008447528,0.2399179190397262,0.8688866049051285,-0.6076635867357254,0.4597777435041388,0.1248911023139953,0.165492296218872,0.4103779792785644,13.11841914407978,0.3658680617809295,0.6726792454719543,-0.4858124256134033
1.52,-0.064665287733078,-0.7491796612739563,2.4754979610443115,-0.0276562465530393,0.0837860201927909,-0.0056738002934563,0.3739723563194275,0.6779363751411438,-0.4808986186981201,-0.1042248646914959,-0.797656682357192,2.5157357367128137,0.2550030022859573,0.908886605501175,-0.6476635873317719,0.5419005921893894,0.4052147269248962,0.2628564834594726,0.2456903457641601,12.822633298215806,0.3739723563194275,0.6779363751411438,-0.4808986186981201
1.54,-0.0562196709215641,-0.7339456677436829,2.465108871459961,-0.0045877917817366,0.0496188235147417,-0.0041614531280876,0.3800527453422546,0.6855297088623047,-0.4675090312957763,-0.0994265063107013,-0.7802789502590894,2.503582464978099,0.2700880855321884,0.9488866060972214,-0.6876635879278183,0.8275126864206349,0.3040194511413574,0.3796666860580444,0.6694793701171875,12.57753942466934,0.3800527453422546,0.6855297088623047,-0.4675090312957763
1.56,-0.0479932464659214,-0.7188361287117004,2.455444574356079,0.0168228278100345,0.0155835820732925,-0.003748957629886,0.3701891005039215,0.679929256439209,-0.4348933696746826,-0.094251020848751,-0.7619012181460857,2.490429193228483,0.2851731687784195,0.9888866066932678,-0.7276635885238647,1.7265847357006707,-0.4931822419166565,-0.2800226211547851,1.6307830810546875,12.192313604116862,0.3701891005039215,0.679929256439209,-0.4348933696746826
1.58,-0.04008075222373,-0.7037464380264282,2.4459500312805176,0.0304295797191644,-0.0194650978248919,0.0080883202231136,0.3560622334480285,0.6790360808372498,-0.4272544384002685,-0.088698408305645,-0.7425234860181809,2.4762759214639667,0.3002582520246505,1.028886607289314,-0.7676635891199112,0.8042378480369315,-0.7063433527946472,-0.0446587800979614,0.3819465637207031,11.45997998355324,0.3560622334480285,0.6790360808372498,-0.4272544384002685
1.6,-0.0363287925720214,-0.6963158249855042,2.441281080245972,0.0387306279671387,-0.0364053535185726,0.0073660872103709,0.3411181569099426,0.6702572107315063,-0.4169654846191406,-0.0222776405513286,-0.6697946339845657,2.424587309360504,0.2997463382780552,0.7790360823273659,-0.5272544398903847,1.0077903475176182,-0.7472038269042969,-0.4389435052871704,0.5144476890563965,11.219326915448164,0.3411181569099426,0.6702572107315063,-0.4169654846191406
1.62,-0.0289520341902971,-0.6814147233963013,2.431845188140869,0.052614736152541,-0.0667379171403563,-0.0065651644349328,0.3319541215896606,0.6705495715141296,-0.4246151447296142,-0.0222776405513286,-0.6697946339845657,2.424587309360504,0.2997463382780552,0.7790360823273659,-0.5272544398903847,0.5970391904732119,-0.4582017660140991,0.0146180391311645,-0.3824830055236816,11.902350297840712,0.3319541215896606,0.6705495715141296,-0.4246151447296142
1.64,-0.0225999858230352,-0.6668958067893982,2.4229180812835693,0.0528194882752159,-0.0834987184007874,-0.0080116951238908,0.2858421802520752,0.6533512473106384,-0.4017198085784912,-0.0222776405513286,-0.6697946339845657,2.424587309360504,0.2997463382780552,0.7790360823273659,-0.5272544398903847,2.7139868767194857,-2.3055970668792725,-0.8599162101745605,1.1447668075561523,11.1680872984316,0.2858421802520752,0.6533512473106384,-0.4017198085784912
1.66,-0.0170351285487413,-0.6526460647583008,2.4137282371521,0.0559726075564977,-0.107300889480368,0.0035206832631717,0.2504185736179352,0.6412383913993835,-0.4135429859161377,-0.0192801771685481,-0.6620042731612921,2.4193147649616003,0.2884831592440605,0.799036082625389,-0.5472544401884079,1.9629956110843367,-1.7711803317070007,-0.6056427955627441,-0.5911588668823242,11.1680872984316,0.2504185736179352,0.6412383913993835,-0.4135429859161377
1.68,-0.0123689463362097,-0.6385716199874878,2.404745817184448,0.0307571872100151,-0.1017508435219644,-0.0108637783448892,0.2099781930446624,0.6333500146865845,-0.4042088985443115,-0.013285250402987,-0.6464235515147447,2.408769676163793,0.2659568011760712,0.8390360832214355,-0.5872544407844543,2.112330499199313,-2.0220190286636357,-0.3944188356399536,0.4667043685913086,10.89996628615927,0.2099781930446624,0.6333500146865845,-0.4042088985443115
1.7,-0.0103204287588596,-0.631705105304718,2.400275468826294,0.0325096570736131,-0.1208429957588874,0.0001538633244739,0.1855892539024353,0.6250083446502686,-0.4051423072814941,-0.0072903236374258,-0.6308428298681974,2.398224587365985,0.2434304431080818,0.879036083817482,-0.6272544413805008,1.2896463307324613,-1.2194469571113586,-0.4170835018157959,-0.0466704368591308,10.89996628615927,0.1855892539024353,0.6250083446502686,-0.4051423072814941
1.72,-0.0069352071732282,-0.6177740693092346,2.3908584117889404,0.0096304507803261,-0.122146946463875,-0.0021991827540716,0.1523349732160568,0.6268966197967529,-0.4237675666809082,-0.0024217147752642,-0.6132621081918478,2.385679498538375,0.2209040850400924,0.9190360844135284,-0.6672544419765473,1.9080834983647448,-1.662714034318924,0.0944137573242187,-0.9312629699707032,11.17193102651163,0.1523349732160568,0.6268966197967529,-0.4237675666809082
1.74,-0.0044559361413121,-0.6040379405021667,2.3814735412597656,-0.0322793296492587,-0.0947653680377958,-0.0134940742834445,0.111567199230194,0.6181257963180542,-0.4223191738128662,0.0024468940868973,-0.5956813865154981,2.373134409710765,0.1983777269721031,0.9590360850095748,-0.7072544425725937,2.086286522842125,-2.0383886992931366,-0.4385411739349365,0.0724196434020996,10.858926249286014,0.111567199230194,0.6181257963180542,-0.4223191738128662
1.76,-0.002795765409246,-0.5900452733039856,2.371143579483032,-0.0618241941067959,-0.0779517308552523,-0.014141111069401,0.0747076794505119,0.6296700239181519,-0.4648482799530029,0.0067523439973592,-0.5771006648242474,2.359589320868254,0.1758513689041137,0.9990360856056212,-0.7472544431686401,2.872550373079057,-1.842975988984108,0.5772113800048828,-2.126455307006836,11.086062227838738,0.0747076794505119,0.6296700239181519,-0.4648482799530029
1.78,-0.0018764983396977,-0.5758546590805054,2.360720157623291,-0.0813928949252261,-0.0594309215064807,-0.0146764231013796,0.0413670167326927,0.6385776400566101,-0.4690539836883545,0.0104946349561214,-0.5575199431180954,2.3450442320108413,0.1533250108361244,1.0390360862016677,-0.7872544437646866,1.7382702318994103,-1.6670331358909607,0.4453808069229126,-0.2102851867675781,11.28323994315815,0.0413670167326927,0.6385776400566101,-0.4690539836883545
1.8,-0.0015756486682221,-0.5686681866645813,2.3552277088165283,-0.0808116872642202,-0.0729531596594301,-0.0059636092686875,0.0292284246534109,0.6453368067741394,-0.4828834533691406,0.0001918524969369,-0.5439257770776749,2.3372674584388733,0.0692211966961622,0.7385776415467262,-0.5690539851784706,0.9801606807487506,-0.6069296039640903,0.3379583358764648,-0.6914734840393066,11.28323994315815,0.0292284246534109,0.6453368067741394,-0.4828834533691406
1.82,-0.0015138894086703,-0.5540798306465149,2.343833923339844,-0.1030966394757732,-0.013697905173062,-0.0160233308524354,0.0027791666798293,0.6564760208129883,-0.5127203464508057,0.0001918524969369,-0.5439257770776749,2.3372674584388733,0.0692211966961622,0.7385776415467262,-0.5690539851784706,2.069955027001231,-1.3224628986790776,0.5569607019424438,-1.491844654083252,12.67115211401324,0.0027791666798293,0.6564760208129883,-0.5127203464508057
1.84,-0.0020322420168668,-0.5388569831848145,2.332190990447998,-0.1001745724977798,-0.0218076962457236,-0.0066271293008689,-0.0233258679509162,0.6850281357765198,-0.5239319801330566,0.0001918524969369,-0.5439257770776749,2.3372674584388733,0.0692211966961622,0.7385776415467262,-0.5690539851784706,2.0139493736115446,-1.3052517315372825,1.4276057481765747,-0.5605816841125488,12.67115211401324,-0.0233258679509162,0.6850281357765198,-0.5239319801330566
1.86,-0.0029584690928459,-0.5234219431877136,2.320251703262329,-0.0958361756252674,0.0296371014225725,-0.0165166461542495,-0.0416802167892456,0.6945767998695374,-0.5372679233551025,0.0008840644638985,-0.5365400006622076,2.3315769185870887,0.0747920326888561,0.7585776418447494,-0.5890539854764938,1.2307583930873636,-0.9177174419164658,0.4774332046508789,-0.6667971611022949,12.645712716520393,-0.0416802167892456,0.6945767998695374,-0.5372679233551025
1.88,-0.0040640379302203,-0.5074241161346436,2.3082103729248047,-0.0821249337849053,0.0568952958384668,-0.0168947802686202,-0.0497505962848663,0.7199022173881531,-0.5418598651885986,0.0022684883978217,-0.5217684478312731,2.320195838883519,0.0859337046742439,0.7985776424407959,-0.6290539860725403,1.3486972672710462,-0.4035189747810364,1.266270875930786,-0.2295970916748047,12.668502990129127,-0.0497505962848663,0.7199022173881531,-0.5418598651885986
1.9,-0.0048106121830642,-0.4994317889213562,2.3022618293762207,-0.071226178085033,0.0493607938640104,-0.0058636652792823,-0.0638579353690147,0.7260364294052124,-0.5390167236328125,0.003652912331745,-0.5069968950003385,2.30881475917995,0.0970753766596317,0.8385776430368423,-0.6690539866685867,0.7821908766592944,-0.7053669542074203,0.3067106008529663,0.1421570777893066,12.668502990129127,-0.0638579353690147,0.7260364294052124,-0.5390167236328125
1.92,-0.0062503810040652,-0.4829268753528595,2.2901415824890137,-0.0484420841753198,0.0808278659690337,-0.0057729270377464,-0.064789593219757,0.7427210807800293,-0.5454111099243164,0.0055944198649376,-0.4902253421396016,2.295433679446578,0.1082170486450195,0.8785776436328888,-0.7090539872646332,0.8946140982219682,-0.046582892537117,0.8342325687408447,-0.3197193145751953,12.471470683055486,-0.064789593219757,0.7427210807800293,-0.5454111099243164
1.94,-0.0076104388572275,-0.4664109349250793,2.2783071994781494,-0.021576548395757,0.1382793140561783,-0.0165842172612438,-0.0612026043236255,0.7432173490524292,-0.5325472354888916,0.0075359273981303,-0.4734537892788648,2.2820525997132064,0.1193587206304073,0.9185776442289352,-0.7490539878606797,0.6681916585635019,0.1793494448065757,0.0248134136199951,0.6431937217712402,12.15888173561416,-0.0612026043236255,0.7432173490524292,-0.5325472354888916
1.96,-0.0088162794709205,-0.4497036337852478,2.2665369510650635,-0.0016038062986795,0.1636787680079916,-0.0163693717397851,-0.0542628280818462,0.7518285512924194,-0.5296611785888672,0.0097559767309576,-0.4556822364032268,2.2676715199649333,0.1305003926157951,0.9585776448249816,-0.789053988456726,0.5714950190818731,0.3469888120889663,0.4305601119995117,0.1443028450012207,11.802339215080792,-0.0542628280818462,0.7518285512924194,-0.5296611785888672
1.98,-0.0095538198947906,-0.4331689774990082,2.2552499771118164,0.0190554881497842,0.1910088954169375,-0.0157017400888444,-0.0331893190741539,0.7440595626831055,-0.5079138278961182,0.0122545678634196,-0.4369106835126876,2.2522904402017594,0.1416420646011829,0.998577645421028,-0.8290539890527725,1.5631676398121472,1.0536754503846169,-0.3884494304656982,1.0873675346374512,11.676714707289648,-0.0331893190741539,0.7440595626831055,-0.5079138278961182
2.0,-0.0099161956459283,-0.4247879683971405,2.2492477893829346,0.0285263144874068,0.1749958970188786,-0.000160160990529,-0.0288459435105323,0.7480989694595337,-0.519254207611084,-0.0112132858484983,-0.3959659993648529,2.2298542857170105,0.013441514223814,0.8440595641732216,-0.6079138293862343,0.6398943867384036,0.217168778181076,0.2019703388214111,-0.567018985748291,11.676714707289648,-0.0288459435105323,0.7480989694595337,-0.519254207611084
2.02,-0.010124122723937,-0.4084981679916382,2.237766027450561,0.0404920879654882,0.2222260106986512,-0.0146239690593117,-0.0093567185103893,0.7330410480499268,-0.5166792869567871,-0.0112132858484983,-0.3959659993648529,2.2298542857170105,0.013441514223814,0.8440595641732216,-0.6079138293862343,1.238144887180035,0.9744612500071526,-0.7528960704803467,0.1287460327148437,11.950135836679692,-0.0093567185103893,0.7330410480499268,-0.5166792869567871
2.04,-0.0096913687884807,-0.3921922743320465,2.226097822189331,0.0553676306908536,0.2119225457800311,0.001993966315086,0.0194739270955324,0.7337652444839478,-0.5250692367553711,-0.0112132858484983,-0.3959659993648529,2.2298542857170105,0.013441514223814,0.8440595641732216,-0.6079138293862343,1.5017671625056122,1.4415322802960873,0.0362098217010498,-0.4194974899291992,11.700026667640032,0.0194739270955324,0.7337652444839478,-0.5250692367553711
2.06,-0.0087693324312567,-0.376360148191452,2.21418833732605,0.0514753081094856,0.2447516117346075,-0.014743556791352,0.0414916351437568,0.7124456763267517,-0.5359268188476562,-0.0110788707062602,-0.3875254037231206,2.223775147423148,0.0227676808834075,0.8640595644712448,-0.6279138296842575,1.6257233336248256,1.1008854024112225,-1.0659784078598022,-0.5428791046142578,11.752520087314224,0.0414916351437568,0.7124456763267517,-0.5359268188476562
2.08,-0.006995415315032,-0.3608172833919525,2.202364444732666,0.0478880171600814,0.2463869102962909,-0.0155408816232799,0.0798262730240821,0.699428915977478,-0.5320751667022705,-0.0108100404217839,-0.3706442124396562,2.211616870835424,0.0414200142025947,0.9040595650672912,-0.6679138302803039,2.0333566679601187,1.9167318940162656,-0.6508380174636841,0.1925826072692871,11.813916809647708,0.0798262730240821,0.699428915977478,-0.5320751667022705
2.1,-0.0059173326008021,-0.3531915545463562,2.196455240249634,0.0560680545113436,0.2277756303155954,0.0008130668807639,0.0930077955126762,0.6910201907157898,-0.535283088684082,-0.0105412101373076,-0.3537630211561918,2.199458594247699,0.0600723475217819,0.9440595656633376,-0.7079138308763504,0.7980444208896742,0.6590761244297028,-0.4204362630844116,-0.1603960990905761,11.813916809647708,0.0930077955126762,0.6910201907157898,-0.535283088684082
2.12,-0.0031757177785038,-0.3380011618137359,2.1843008995056152,0.0279024266781947,0.2363324747855652,-0.018125274911809,0.1233726665377616,0.6835676431655884,-0.546945333480835,-0.009339763186872,-0.334881829842925,2.185300317630172,0.078724680840969,0.9840595662593842,-0.7479138314723969,1.6685126693087151,1.5182435512542725,-0.3726273775100708,-0.5831122398376465,11.465335379997668,0.1233726665377616,0.6835676431655884,-0.546945333480835
2.14,0.0003019206924363,-0.3232347369194031,2.1722757816314697,0.0136103411918196,0.2241581931350149,-0.0196614006535785,0.1564937382936477,0.6644891500473022,-0.5411303043365479,-0.0081383162364363,-0.3160006385296582,2.171142041012645,0.0973770141601562,1.0240595668554306,-0.7879138320684433,1.9331379011027343,1.656053587794304,-0.9539246559143066,0.2907514572143554,11.697746997512697,0.1564937382936477,0.6644891500473022,-0.5411303043365479
2.16,0.0042378953658044,-0.3084495365619659,2.159727096557617,0.0137726186201529,0.1987876498669014,-0.0049841414500838,0.1771188527345657,0.6653339862823486,-0.5646908283233643,-0.006470560953021,-0.2961194472014903,2.155983764380217,0.1160293474793434,1.064059567451477,-0.8279138326644897,1.5662114995254963,1.0312557220458984,0.0422418117523193,-1.1780261993408203,11.765560846735752,0.1771188527345657,0.6653339862823486,-0.5646908283233643
2.18,0.0064814840443432,-0.3012029528617859,2.1536481380462646,-0.0178124931357229,0.1889388627959352,-0.0213734339012626,0.1976425498723983,0.6533190608024597,-0.553436279296875,-0.004336497336626,-0.2752382558584213,2.1398254877328875,0.1346816807985305,1.1040595680475234,-0.8679138332605362,1.3155278905086103,1.026184856891632,-0.6007462739944458,0.5627274513244629,11.78267216137192,0.1976425498723983,0.6533190608024597,-0.553436279296875
2.2,0.011305222287774,-0.2867442965507507,2.1410160064697266,-0.0144016062250799,0.1685771856422305,-0.007591828277102,0.2170682251453399,0.650639533996582,-0.5684459209442139,0.0163636115379631,-0.2685369998216629,2.125976324081421,0.1635717228055,0.7533190622925758,-0.6050790324807167,1.234732831521379,0.9712837636470796,-0.1339763402938842,-0.7504820823669434,11.78267216137192,0.2170682251453399,0.650639533996582,-0.5684459209442139
2.22,0.0165750700980424,-0.2720498144626617,2.1282999515533447,-0.0452810621689934,0.1460369792460883,-0.0210188539370643,0.2371431589126587,0.6612516641616821,-0.5722224712371826,0.0163636115379631,-0.2685369998216629,2.125976324081421,0.1635717228055,0.7533190622925758,-0.6050790324807167,1.1509589529155495,1.0037466883659365,0.5306065082550049,-0.1888275146484375,13.245107399568042,0.2371431589126587,0.6612516641616821,-0.5722224712371826
2.24,0.0222652219235897,-0.2573906183242798,2.115706443786621,-0.0528917628920792,0.1245068807207204,-0.0197982488665194,0.2560568451881408,0.6596637964248657,-0.5667078495025635,0.0163636115379631,-0.2685369998216629,2.125976324081421,0.1635717228055,0.7533190622925758,-0.6050790324807167,0.9882559199834312,0.9456843137741088,-0.0793933868408203,0.275731086730957,13.350134817642356,0.2560568451881408,0.6596637964248657,-0.5667078495025635
2.26,0.0279967635869979,-0.2426318526268005,2.1030964851379395,-0.0482431765235491,0.0954536112673798,-0.0064174617006926,0.2579193711280823,0.6641444563865662,-0.5674481391906738,0.0179993287660181,-0.2610038091987371,2.119925533756614,0.1567575573921203,0.773319062590599,-0.615407583117485,0.2454248632049253,0.0931262969970703,0.2240329980850219,-0.0370144844055175,13.306852384900594,0.2579193711280823,0.6641444563865662,-0.5674481391906738
2.28,0.0339925661683082,-0.2276387363672256,2.090709686279297,-0.0503856339135259,0.0741671151222724,-0.015542601809652,0.2698111236095428,0.6746902465820312,-0.557405948638916,0.0212707632221281,-0.2459374279528856,2.1078239531069998,0.143129226565361,0.8133190631866455,-0.6360646843910217,0.9400439604147578,0.5945876240730286,0.5272895097732544,0.5021095275878906,13.422584122659828,0.2698111236095428,0.6746902465820312,-0.557405948638916
2.3000000000000003,0.0370119363069534,-0.2201992571353912,2.0847225189208984,-0.0441667879777227,0.0511289338829521,-0.0031924667336658,0.271747350692749,0.6741336584091187,-0.5445420742034912,0.0245421976782381,-0.2308710467070341,2.095722372457385,0.1295008957386016,0.853319063782692,-0.6567217856645584,0.6510338531949454,0.0968113541603088,-0.0278294086456298,0.6431937217712402,13.422584122659828,0.271747350692749,0.6741336584091187,-0.5445420742034912
2.32,0.0425086878240108,-0.2050160020589828,2.0728254318237305,-0.0309016127811643,0.0156694208581702,-0.010826755960792,0.2473538219928741,0.6832464933395386,-0.5353689193725586,0.0271322155930101,-0.2138046654313802,2.082587936744094,0.1158725649118423,0.8933190643787384,-0.6773788869380951,1.3804299805250566,-1.219676434993744,0.4556417465209961,0.4586577415466308,13.31726671972092,0.2473538219928741,0.6832464933395386,-0.5353689193725586
2.34,0.0479188300669193,-0.1897123754024505,2.061342477798462,-0.0182724361275811,-0.0143474209267513,-0.0088673119282363,0.2434563934803009,0.6886631846427917,-0.516732931137085,0.0297222335077822,-0.1967382841557264,2.069453501030803,0.102244234085083,0.9333190649747848,-0.6980359882116318,0.989735509110981,-0.1948714256286621,0.2708345651626587,0.9317994117736816,13.233394385341398,0.2434563934803009,0.6886631846427917,-0.516732931137085
2.36,0.0528581514954566,-0.1745389252901077,2.0504558086395264,-0.0085633964723483,-0.0478149469887962,0.0029287781657503,0.2222694605588913,0.6828052401542664,-0.4899001121520996,0.0319715431518852,-0.1786719028651714,2.055802637785673,0.0886159032583236,0.9733190655708313,-0.7186930894851684,1.734359979162303,-1.0593466460704803,-0.2928972244262695,1.3416409492492676,13.233394385341398,0.2222694605588913,0.6828052401542664,-0.4899001121520996
2.38,0.0571957565844059,-0.1593470126390457,2.039837121963501,0.0032641277597386,-0.0697237812387217,-0.0065356303721142,0.1951922327280044,0.6836360692977905,-0.4778409004211426,0.0338801445253193,-0.1596055215597153,2.041635347008705,0.0749875724315643,1.0133190661668776,-0.7393501907587051,1.4826421783791377,-1.353861391544342,0.0415414571762084,0.6029605865478516,12.827053468591204,0.1951922327280044,0.6836360692977905,-0.4778409004211426
2.4,0.0590964630246162,-0.1517775207757949,2.034786462783813,0.0075174600012794,-0.0928841974704802,0.004180360448856,0.1809659600257873,0.6860111951828003,-0.4615330696105957,0.0669553682208061,-0.1251652091741562,2.015945076942444,0.1221329793334007,0.7836360707879066,-0.5279501974582672,1.0885465122273288,-0.7113136351108551,0.1187562942504882,0.8153915405273438,12.827053468591204,0.1809659600257873,0.6860111951828003,-0.4615330696105957
2.42,0.0621762461960315,-0.1365456283092498,2.024780511856079,0.0161900462239141,-0.1090995099520002,-0.0056452128088581,0.1385902464389801,0.6854351758956909,-0.4502677917480469,0.0669553682208061,-0.1251652091741562,2.015945076942444,0.1221329793334007,0.7836360707879066,-0.5279501974582672,2.192566638400459,-2.1187856793403625,-0.0288009643554687,0.5632638931274414,13.227812165303476,0.1385902464389801,0.6854351758956909,-0.4502677917480469
2.44,0.0643389448523521,-0.1216280460357666,2.015305519104004,0.0173294378519949,-0.1206626055640585,-0.0052848709131216,0.0973214358091354,0.6712912321090698,-0.4263746738433838,0.0669553682208061,-0.1251652091741562,2.015945076942444,0.1221329793334007,0.7836360707879066,-0.5279501974582672,2.486989625957057,-2.0634405314922333,-0.7071971893310547,1.1946558952331543,12.377137490988387,0.0973214358091354,0.6712912321090698,-0.4263746738433838
2.46,0.0654599592089653,-0.1067995280027389,2.00583815574646,0.0152166224864222,-0.1246645709262197,-0.005142340393762,0.0504456460475921,0.667283296585083,-0.4260313510894775,0.0681766980141401,-0.1173288484662771,2.010665574967861,0.1075211286544799,0.8036360710859298,-0.5379720568656922,2.3524036024065844,-2.343789488077164,-0.2003967761993408,0.0171661376953125,12.687447492402043,0.0504456460475921,0.667283296585083,-0.4260313510894775
2.48,0.0655754283070564,-0.0921897590160369,1.99664306640625,0.0117504464844179,-0.123570676408245,-0.0049011097776411,0.0051961094141006,0.6574395895004272,-0.4137790203094482,0.0706193576008081,-0.1016561270505189,2.000106571018696,0.0782974272966385,0.8436360716819763,-0.558015775680542,2.3950671933462777,-2.262476831674576,-0.4921853542327881,0.6126165390014648,12.453717709723604,0.0051961094141006,0.6574395895004272,-0.4137790203094482
2.5,0.0652434527873992,-0.0848238766193389,1.99201774597168,0.0080550120984652,-0.1390741235688445,0.0051916401714397,-0.0162065774202346,0.6575549244880676,-0.4122769832611084,0.0730620171874761,-0.0859834056347608,1.9895475670695304,0.049073725938797,0.8836360722780228,-0.5780594944953918,1.0727819223665525,-1.0701343417167664,0.005766749382019,0.0751018524169921,12.453717709723604,-0.0162065774202346,0.6575549244880676,-0.4122769832611084
2.52,0.0638914480805397,-0.070289097726345,1.9827916622161863,-0.0079970426228501,-0.1003010161269351,-0.0038222618833038,-0.0608402118086814,0.6540650725364685,-0.4151737689971924,0.0740434917062521,-0.0683106841892004,1.977986377179623,0.0198500245809555,0.9236360728740692,-0.5981032133102417,2.243173952776736,-2.2316817194223404,-0.174492597579956,-0.1448392868041992,12.063997300804658,-0.0608402118086814,0.6540650725364685,-0.4151737689971924
2.54,0.0615522973239421,-0.0559433214366436,1.9737540483474727,-0.0138622466418784,-0.1112196611401794,0.0058221717650183,-0.1052617877721786,0.6455599069595337,-0.406692624092102,0.075024966225028,-0.0506379627436399,1.9664251872897147,-0.009373676776886,0.9636360734701156,-0.6181469321250915,2.300839016246554,-2.221078798174858,-0.4252582788467407,0.4240572452545166,12.063997300804658,-0.1052617877721786,0.6455599069595337,-0.406692624092102
2.56,0.0582899823784828,-0.041345402598381,1.964366436004639,-0.0297048957285825,-0.0571130214330993,-0.0034851178366509,-0.1468041688203811,0.6569063663482666,-0.4224425554275512,0.0752758482098579,-0.0319652412831783,1.954362904429436,-0.0385973781347274,1.003636074066162,-0.6381906509399414,2.2926905051083466,-2.0771190524101257,0.5673229694366455,-0.7874965667724609,11.86186103577711,-0.1468041688203811,0.6569063663482666,-0.4224425554275512
2.58,0.0545430704951286,-0.0269709974527359,1.9550471305847168,-0.0393903768782307,-0.0298846096246606,-0.0035674058536109,-0.1686110347509384,0.646848201751709,-0.4193687438964844,0.0747961376607418,-0.0122925198078155,1.9417995285987848,-0.0678210794925689,1.0436360746622084,-0.6582343697547912,1.210531282219984,-1.0903432965278623,-0.5029082298278809,0.1536905765533447,12.183050796259522,-0.1686110347509384,0.646848201751709,-0.4193687438964844
2.6,0.0523863732814788,-0.0196852888911962,1.950339198112488,-0.0387767241179148,-0.0418725848432182,0.006366126631588,-0.1873184442520141,0.6550955772399902,-0.4248619079589844,0.0461125187575817,0.0053714126348495,1.9340786933898928,-0.1217796541750431,0.7468482032418251,-0.4534253925085068,1.058490935368819,-0.9353704750537872,0.4123687744140625,-0.274658203125,12.183050796259522,-0.1873184442520141,0.6550955772399902,-0.4248619079589844
2.62,0.0477154031395912,-0.0049984767101705,1.94098162651062,-0.0513089399950551,0.0251521907904061,-0.0040830785247423,-0.2101936638355255,0.6609065532684326,-0.4210907220840454,0.0461125187575817,0.0053714126348495,1.9340786933898928,-0.1217796541750431,0.7468482032418251,-0.4534253925085068,1.1950574842871915,-1.1437609791755676,0.2905488014221191,0.1885592937469482,12.980700021440498,-0.2101936638355255,0.6609065532684326,-0.4210907220840454
2.64,0.0427585802972316,0.0096984161064028,1.9316357374191284,-0.0498842173923402,0.0295538061335324,0.0065035131161086,-0.2230570316314697,0.6613601446151733,-0.4205650091171264,0.0461125187575817,0.0053714126348495,1.9340786933898928,-0.1217796541750431,0.7468482032418251,-0.4534253925085068,0.6441047086599342,-0.6431683897972107,0.0226795673370361,0.0262856483459472,12.9763342612232,-0.2230570316314697,0.6613601446151733,-0.4205650091171264
2.66,0.0375138446688652,0.0245911758393049,1.9218928813934328,-0.0532602379102402,0.0982376908478567,-0.0057127416695041,-0.2360130995512008,0.6701741814613342,-0.438428521156311,0.0448947222158312,0.0128398946672677,1.929544439464808,-0.112413378059864,0.7668482035398483,-0.4602367222309113,1.1881203683131818,-0.647803395986557,0.4407018423080444,-0.8931756019592285,12.91472099843122,-0.2360130995512008,0.6701741814613342,-0.438428521156311
