t,x,y,z,roll,pitch,yaw,v_x,v_y,v_z,ref_x,ref_y,ref_z,ref_v_x,ref_v_y,ref_v_z,a_com,a_x,a_y,a_z,thrust,wind_x,wind_y,wind_z
0.0,-1.2432938814163208,0.1347454935312271,2.482168674468994,0.0155763976478965,0.0883844591858193,0.0013730616908587,0.0023978948593139,0.0192562490701675,-0.0086367130279541,-1.22,0.13,2.47,0.0,0.0,0.0,1.062009698561982,0.1198947429656982,0.9628124535083772,-0.4318356513977051,12.490348459647066,-1.0561266493097432,0.1401452148976644,-2.5
0.02,-1.243127465248108,0.1351866424083709,2.481912136077881,0.0202161343357088,0.0874370924322411,0.0018026168915331,0.0039133429527282,0.0191516429185867,-0.0103050470352172,-1.220122,0.130032,2.47004,-0.0122,0.0032,0.004,0.1128147123669208,0.0757724046707153,-0.0052303075790405,-0.0834167003631591,12.491540124354742,-1.062648322195174,0.1439699834452858,-2.5
0.04,-1.242964267730713,0.1355299800634384,2.481733560562134,0.0258742658855065,0.0876827625035347,-0.0018898508937682,0.0074163079261779,0.0176509469747543,-0.0097900629043579,-1.2203914305373824,0.1300389096630456,2.470519999662788,-0.0147430537382398,-0.0025090336954331,0.0439999662787883,0.1922762373259336,0.1751482486724853,-0.0750347971916198,0.0257492065429687,10.562763027229266,-1.062648322195174,0.1439699834452858,-2.5
0.06,-1.242824673652649,0.1357397884130478,2.4815375804901123,0.0322102072125984,0.0910345130051914,-0.0024940190217576,0.0072795152664184,0.0176891684532165,-0.0130248069763183,-1.220611021412499,0.1298457194687615,2.4717999989253334,-0.0072160337734146,-0.0168099857329786,0.0839999599757572,0.1618930381784775,-0.006839632987976,0.0019110739231109,-0.1617372035980224,10.25819611276438,-1.042131957571544,0.1564080119193172,-2.5
0.08,-1.242563247680664,0.1359495669603347,2.481351137161255,0.0331597575384575,0.091704661632767,0.0014496729507122,0.0094440579414367,0.0122858583927154,-0.0103479623794555,-1.2205747040140875,0.1292834959004166,2.4738799980911472,0.0108477736145385,-0.0394123711015092,0.1239999566056476,0.3203377186565818,0.1082271337509155,-0.2701655030250549,0.1338422298431396,9.24095382151745,-1.0570016052609628,0.1880841065117327,-2.5
0.1,-1.2422412633895874,0.1360087990760803,2.480611562728882,0.0457572799632187,0.1020861748411212,0.002318528824621,0.0131267309188842,0.0060527399182319,-0.0208353996276855,-1.2200664625433095,0.1281887590853987,2.476759997200781,0.0399763734632522,-0.0700613104002882,0.1639999543577892,0.6371816581857389,0.1841336488723755,-0.3116559237241745,-0.524371862411499,9.29739884985429,-1.054653180823921,0.1940408997899605,-2.5
0.12,-1.24187970161438,0.1360799372196197,2.478818416595459,0.066542799897759,0.1206298426324394,0.0060223203512459,0.015379786491394,0.0029333308339118,-0.0569862127304077,-1.2188669350766264,0.1264387684518128,2.48043999622004,0.0799763732050742,-0.1049377529583008,0.203999947568061,1.8177515372267636,0.1126527786254882,-0.1559704542160034,-1.8075406551361084,8.897799304660111,-1.06442101642471,0.202816602754679,-2.5
0.14,-1.241346001625061,0.1357873082160949,2.476614475250244,0.0950915615322303,0.1539467250344347,0.0071909642236979,0.0201433897018432,-0.0049835443496704,-0.0899344682693481,-1.2168674076132002,0.124138074078106,2.484609828769145,0.1199763731375326,-0.1251316844123728,0.2129833073424888,1.7109619891148533,0.2381801605224609,-0.3958437591791153,-1.6474127769470217,8.94777651617369,-1.0789512616789247,0.2451837377188082,-2.5
0.16,-1.2409220933914185,0.1356478929519653,2.474953413009644,0.0986588294335694,0.1562057173748909,0.0126842735724319,0.0263607501983642,-0.0081106647849082,-0.112733244895935,-1.214067880151184,0.1215446787288239,2.488709143780246,0.1599763730640916,-0.1342078505158426,0.1969481937675661,1.1918668858446273,0.3108680248260498,-0.1563560217618942,-1.1399388313293457,9.112993987868322,-1.1141413503618725,0.284404332143184,-2.5
0.18,-1.2399169206619265,0.1349599212408065,2.4708642959594727,0.1298946243985435,0.203518658553976,0.01751620288011,0.0378727912902832,-0.0238686427474021,-0.1564317941665649,-1.2104683526907434,0.1188425730598232,2.492289911739197,0.19997637297996,-0.1360027163842204,0.1611286021274805,2.3929083600955874,0.5756020545959473,-0.7878988981246948,-2.184927463531494,9.531935122597588,-1.1158475180101222,0.3377285195131534,-2.4064506797831564
0.2,-1.2384331226348877,0.1339510828256607,2.4659056663513184,0.1367771581619135,0.2065496049931817,0.0276932275186564,0.0560018420219421,-0.038178227841854,-0.2035742998123169,-1.2060688252321374,0.1161054519463506,2.495116430995693,0.239976372880643,-0.1377093949630405,0.1215233235222118,2.624805966431699,0.9064525365829468,-0.7154792547225952,-2.3571252822875977,10.04579984625616,-1.1480676686136488,0.3450259197721649,-2.2523023256292083
0.22,-1.2367278337478638,0.1324392855167389,2.459725141525269,0.147606530502684,0.2349960469771762,0.03483186189767,0.0717544555664062,-0.0567143037915229,-0.2506309747695923,-1.2008692977755386,0.1133572530398148,2.49714689798448,0.2799763727792345,-0.1371104956905447,0.0815233753564648,2.648613601078777,0.7876306772232056,-0.9268037974834442,-2.352833747863769,11.31804766319874,-1.1238872046503612,0.3584758913084728,-2.1520650532750656
0.24,-1.234242558479309,0.130592942237854,2.452207565307617,0.1521550924784675,0.2718724488236853,0.035089412979742,0.0942876935005188,-0.0755581632256507,-0.3082072734832763,-1.1948697703211253,0.1106252276469299,2.4983773659738984,0.3199763726621054,-0.1360920435979479,0.0415234235853786,3.2318214770218496,1.1266618967056274,-0.9421929717063904,-2.878814935684204,11.1054451232244,-1.1539526352498972,0.3550655761231713,-2.0232588994159637
0.26,-1.232799053192139,0.1294650137424469,2.448155164718628,0.1520303604833918,0.2863162498527014,0.0396208934087515,0.107315182685852,-0.0857850909233093,-0.3287047147750854,-1.1880702428692471,0.1079138630121204,2.498807834968402,0.35997637252573,-0.1350444198829984,0.0015234758650054,1.3176215542771283,0.6513744592666626,-0.5113463848829269,-1.024872064590454,11.958593358728647,-1.1813807719253309,0.3539100974449325,-1.886121249737669
0.28,-1.2293407917022705,0.1267434507608413,2.439208745956421,0.1545035849339376,0.2902355823957943,0.0531867688714072,0.1396411657333374,-0.1066040620207786,-0.3785240650177002,-1.1804707154203036,0.10522374225155,2.4984383050563754,0.3999763723686202,-0.1339676561740396,-0.0384764670676879,3.146572101565405,1.6162991523742676,-1.0409485548734665,-2.4909675121307373,11.958593358728647,-1.2203783293311616,0.356388120652487,-1.8126464600931105
0.3,-1.2249091863632202,0.1237143203616142,2.4294521808624268,0.1509707732958922,0.3070461466779448,0.0604363645335342,0.1775220036506652,-0.1293905973434448,-0.4208171367645263,-1.1720711879747263,0.1025554481415725,2.497268776343146,0.4399763721891086,-0.1328617548237096,-0.0784764042552784,3.0589573350703034,1.894041895866394,-1.1393267661333084,-2.1146535873413086,13.707884522978476,-1.302262383501947,0.3989218710949687,-1.696422102899583
0.32,-1.2197232246398926,0.1199595406651496,2.419119119644165,0.1454043740850437,0.3196795817571124,0.0670329537065703,0.2163952589035034,-0.1526379734277725,-0.4520165920257568,-1.162871660532982,0.0999095634293069,2.49529924895638,0.479976371985318,-0.1317267164028516,-0.1184763344213103,2.7499893078683053,1.9436627626419067,-1.1623688042163849,-1.5599727630615234,14.2096591585032,-1.340785841789479,0.3934837614545108,-1.8456436012596216
0.34,-1.2134238481521606,0.1158607378602027,2.408169746398926,0.1317065914672021,0.3359683286295664,0.0627240563598305,0.2584201097488403,-0.1767055988311767,-0.478854775428772,-1.1528721330955776,0.097286670851697,2.4925297230540595,0.5199763717551251,-0.1305625413581394,-0.1584762558107642,2.7684051227671143,2.1012425422668457,-1.2033812701702118,-1.3419091701507568,14.781518755235991,-1.375685005422292,0.3715976321659334,-1.9027874042447368
0.36,-1.2097634077072144,0.1135433390736579,2.4026355743408203,0.1362816406430627,0.3308453584989702,0.0740092662109963,0.2863150835037231,-0.189829483628273,-0.4873734712600708,-1.1420726056630652,0.0946873531366654,2.488960198836785,0.5599763714961155,-0.12936923014502,-0.1984761659166544,1.599167042259222,1.3947486877441406,-0.6561942398548126,-0.4259347915649414,15.615618533171071,-1.445485640798333,0.3389657908451551,-1.9691710528917843
0.38,-1.201564908027649,0.1086881756782531,2.391469717025757,0.1266855086993461,0.3323546855890255,0.0769374927998703,0.3391009569168091,-0.2073536962270736,-0.499652624130249,-1.1304730782360488,0.0921121930027744,2.4845906765678296,0.5999763712055272,-0.1281467832440783,-0.2384760609788656,2.8479045166576,2.639293670654297,-0.876210629940033,-0.6139576435089111,15.548555881758148,-1.626060144441508,0.3956075044567113,-2.072455418206613
0.4,-1.192321538925171,0.1034185588359832,2.38028883934021,0.1206004511609454,0.3328130228319367,0.0814296593582279,0.3924420475959778,-0.2278075516223907,-0.5028015375137329,-1.1180735508151918,0.0895617731585966,2.479421156608221,0.6399763708801817,-0.1268952011737013,-0.2784759349820082,2.860746323458497,2.667054533958435,-1.022692769765854,-0.1574456691741943,15.919823036569142,-1.6609965731521583,0.4091147690466189,-2.2598033481742097
0.42,-1.1816648244857788,0.0975705385208129,2.3692445755004883,0.1147125426487145,0.3287198491834396,0.0836922472002794,0.4477518796920776,-0.2501468360424042,-0.5000656843185425,-1.104874023401226,0.0870366763016934,2.473451639484389,0.6799763705163947,-0.1256144845166237,-0.3184757774011747,2.98567666015706,2.7654916048049927,-1.1169642210006714,0.1367926597595214,16.03513790901161,-1.7138116137020558,0.3956868766981246,-2.403868694667121
0.44,-1.1698089838027954,0.0913537964224815,2.3585190773010254,0.1018525193696785,0.3283142872671772,0.0768450728206205,0.5065324902534485,-0.27145716547966,-0.4898196458816528,-1.0908744959949634,0.0845374851164091,2.4666821260384477,0.7199763701098639,-0.1243046340118084,-0.3584755671930194,3.167913991233875,2.9390305280685425,-1.065516471862793,0.5123019218444824,15.889833124661893,-1.7646433825067989,0.366933776099108,-2.5
0.46,-1.1632739305496216,0.0880750268697738,2.35342025756836,0.09781273989959,0.3238328721147466,0.0787706770406069,0.5383649468421936,-0.2800232768058777,-0.4779750108718872,-1.0760749685973094,0.0820647822631864,2.459112617848724,0.7599763696555216,-0.1229656513104581,-0.3984752517793145,1.751412954047433,1.591622829437256,-0.4283055663108825,0.5922317504882812,15.707630309541855,-1.8213731436132292,0.3388209790659878,-2.5
0.48,-1.1494742631912231,0.081408642232418,2.3431620597839355,0.1019994355433526,0.3181057235644141,0.0896828563015692,0.5941146612167358,-0.2965034544467926,-0.4650038480758667,-1.060475441209281,0.0796191502327128,2.4507431191194424,0.799976369147342,-0.121597551736902,-0.4384746211488507,2.9782033057701165,2.787485718727112,-0.8240088820457458,0.6485581398010254,15.427267409302658,-1.982663681699362,0.3635299460225089,-2.5
0.5,-1.1343528032302856,0.0742853134870529,2.3335323333740234,0.0962490208417358,0.3121542509183868,0.0907696265250304,0.6507253646850586,-0.3102685511112213,-0.4474782943725586,-1.044075913832026,0.0772011439711587,2.441574125157592,0.8399763685781304,-0.1202030744185055,-0.4784247750362079,3.0419544153253564,2.8305351734161377,-0.6882548332214355,0.8762776851654053,15.839519341103369,-1.982663681699362,0.3635299460225089,-2.5
0.52,-1.1180436611175537,0.0669300034642219,2.324230432510376,0.0886119043580993,0.3092347184984517,0.0920365089470414,0.7071885466575623,-0.3257693648338318,-0.4259616136550903,-1.0268763864668051,0.0748110993110179,2.4316292389631644,0.8799763679439716,-0.1188013915955777,-0.5160638444064974,3.119027770644485,2.823159098625183,-0.7750406861305237,1.075834035873413,15.062573989798691,-2.006596392619868,0.3659836949290974,-2.5
0.54,-1.1004700660705566,0.0593277662992477,2.315488815307617,0.0734601786010074,0.3077954871690331,0.0840187423822015,0.7623615860939026,-0.3365448117256164,-0.4059791564941406,-1.0088768591150084,0.072449133340182,2.420956177583655,0.9199763672356952,-0.1173952054880069,-0.551242293544508,2.9830660110659752,2.7586519718170166,-0.5387723445892334,0.9991228580474854,14.684121746492565,-2.0182595660749314,0.3440955306943908,-2.5
0.56,-1.091336011886597,0.0555012188851833,2.311242818832397,0.0649360938936011,0.3047332668997588,0.0839619072919611,0.7874134182929993,-0.3413862884044647,-0.3933405876159668,-0.9900773317782318,0.0701153309709621,2.4096052683751417,0.9599763664419672,-0.1159850314339835,-0.5838486273067561,1.4236990695472418,1.252591609954834,-0.2420738339424133,0.6319284439086914,14.495181039229465,-2.01096679854691,0.3246796299966883,-2.5
0.58,-1.0720871686935425,0.0474897623062133,2.303332090377808,0.0675531458071914,0.2988045881228612,0.0927250294986039,0.8398237824440002,-0.3524980843067169,-0.3689700365066528,-0.9704778044583257,0.0678097682605093,2.397629134662264,0.9999763655486428,-0.1145712396112937,-0.6137647439809872,2.9428906027856017,2.620518207550049,-0.5555897951126099,1.2185275554656982,14.645282995128582,-2.0299880541090163,0.2993784493803435,-2.5
0.6,-1.051789164543152,0.0396105460822582,2.295597076416016,0.0557729590068586,0.2982025552607413,0.0910085523719569,0.8898040652275085,-0.3575401306152344,-0.3520292043685913,-0.9500782771574616,0.0655325138144324,2.385082853047032,1.0399763645377569,-0.113154204996404,-0.6408634175422528,2.6506804275632083,2.499014139175415,-0.2521023154258728,0.8470416069030762,13.742927179579963,-2.139627892704424,0.2925431934630354,-2.5
0.62,-1.0304651260375977,0.031465820968151,2.288182020187378,0.0446757951619846,0.298028869403936,0.089539341081295,0.9364959597587584,-0.3605386912822723,-0.3408765792846679,-0.928878749878224,0.063283628440301,2.372024149222473,1.07997636338601,-0.1117343324167308,-0.6650069649136001,2.4049456476466555,2.3345947265625,-0.1499280333518982,0.557631254196167,13.53005208070681,-2.1103880755872853,0.2778548077583774,-2.5
0.64,-1.0081820487976074,0.0233986061066389,2.281172513961792,0.033555945314673,0.2974732972142822,0.0863486307217517,0.9811601042747498,-0.3647686541080475,-0.3245526552200317,-0.9068792226237395,0.0610631644502162,2.3585136204258608,1.11997636206243,-0.1103120665917503,-0.6860459147476392,2.387073986976942,2.2332072257995605,-0.2114981412887573,0.8161962032318115,13.800722088048133,-2.092174564135299,0.2546502160563688,-2.5
0.66,-0.9964806437492372,0.0193173661828041,2.27783751487732,0.0262980575060618,0.294794504723059,0.0834380665984568,1.0073156356811523,-0.3630025386810303,-0.3185874223709106,-0.8840796953978695,0.0588711647883216,2.344614986172848,1.1599763605245847,-0.1088878995977053,-0.7038175105536463,1.3442609398821102,1.3077765703201294,0.0883057713508606,0.2982616424560547,12.98406355921361,-2.0788449001371445,0.2099034656183012,-2.5
0.68,-0.9726528525352478,0.0113786300644278,2.270925283432007,0.0141825176652804,0.2956635065627971,0.0797079363577128,1.0515426397323608,-0.3604830205440521,-0.3096610307693481,-0.8604801682055022,0.0567076620088671,2.330395371273178,1.1999763587121373,-0.1074623783477469,-0.7181439794133482,2.259455867024525,2.211350202560425,0.1259759068489074,0.446319580078125,13.009220362688666,-2.182965941134684,0.1962658212690081,-2.5
0.7000000000000001,-0.948001742362976,0.0036397338844835,2.264005422592163,0.0034723100889406,0.2949981473654863,0.0734332699942158,1.0907752513885498,-0.3527467250823974,-0.3112220764160156,-0.8360806410530295,0.0545726770958468,2.315925626411917,1.239976356535128,-0.1060361129542871,-0.728830506712798,2.0009278774773045,1.961630582809448,0.3868147730827331,-0.078052282333374,12.350845925299836,-2.125360015473914,0.1674839084592611,-2.5
0.72,-0.9222478866577148,-0.0038976732175797,2.2571280002593994,-0.0075912067666151,0.2957292091267133,0.0686547358427036,1.134111762046814,-0.3437168300151825,-0.310438871383667,-0.8108811139491704,0.0524662181016637,2.3012806928576497,1.2799763538507916,-0.1046097864640166,-0.7356628487138563,2.2137104435096364,2.166825532913208,0.4514947533607483,0.0391602516174316,12.434630519245276,-2.095869626201831,0.1642960153256271,-2.5
0.74,-0.895656406879425,-0.0113159697502851,2.2502963542938232,-0.0249560110314826,0.2983727805046535,0.0504199653092614,1.1777700185775757,-0.3365033268928528,-0.3084540367126465,-0.7848815869065406,0.0503882785730136,2.286540019385024,1.3199763504121895,-0.1031841664009923,-0.7384044985487221,2.214733369546402,2.182912826538086,0.3606751561164856,0.0992417335510253,11.656973130286133,-2.057417400698108,0.1478567890897346,-2.5
0.76,-0.882128119468689,-0.0149194039404392,2.2465240955352783,-0.0211016305584897,0.2979326917638493,0.0573407346582024,1.1942495107650757,-0.3321235179901123,-0.3171604871749878,-0.7580820599450756,0.0483388357199036,2.271788041441071,1.3599763457343,-0.1017601189100075,-0.7367932958465823,0.957286096780374,0.823974609375,0.2189904451370239,-0.4353225231170654,11.495990783540035,-1.9907969649367128,0.1099380473914627,-2.5
0.78,-0.8543464541435242,-0.0218546651303768,2.2391977310180664,-0.0309441651400229,0.2997176366815706,0.0482227754144599,1.2335103750228882,-0.3200192153453827,-0.3278839588165283,-0.7304825331013022,0.0463180771379896,2.2571179041399705,1.3999763386430428,-0.100315739281401,-0.7302204342634716,2.1230417146352254,1.963043212890625,0.6052151322364807,-0.5361735820770264,11.46723131075032,-2.1124800132287693,0.0607070379310235,-2.5
0.8,-0.8257039189338684,-0.0285288393497467,2.231315851211548,-0.0395446337784304,0.3007356484895319,0.0388840176497704,1.26954448223114,-0.306212306022644,-0.3421854972839355,-0.7020830065755514,0.0443691058464618,2.2429134938320074,1.4399763139320323,-0.0945813898713776,-0.6902205965327854,2.0576817233702904,1.8017053604125977,0.6903454661369324,-0.7150769233703613,11.204769638225116,-2.0531196929131488,0.056649831229178,-2.5
0.8200000000000001,-0.7963587045669556,-0.0347389280796051,2.2230324745178223,-0.0497451898142731,0.3037383262852609,0.0292696092230752,1.3047243356704712,-0.2898959219455719,-0.3637182712554931,-0.6731277655232993,0.0425324960594927,2.2287090901617663,1.4555477912931738,-0.0890795888255303,-0.7302197704913251,2.217829362391038,1.7589926719665527,0.8158192038536072,-1.0766386985778809,11.269289367436158,-2.025513737081201,0.0550602125585936,-2.5
0.84,-0.7661183476448059,-0.0405632853507995,2.2141034603118896,-0.0664889099025955,0.3036542679317281,0.0102589167011993,1.3406753540039062,-0.2707750201225281,-0.3872787952423095,-0.6439303316098901,0.0407946856804961,2.213704695497894,1.4641956000477607,-0.0847014490741329,-0.7702196958959532,2.352223892548717,1.797550916671753,0.9560450911521912,-1.1780261993408203,11.120931641462448,-1.9809683724968703,0.0645674707463657,-2.5
0.86,-0.7506245970726013,-0.0432429872453212,2.209306240081787,-0.0787868486127278,0.3035208522723165,-0.0017764864588987,1.3615000247955322,-0.2617585361003876,-0.4004967212677002,-0.6146283850544494,0.0391333358125338,2.197900302045612,1.4659990554963056,-0.0814335377220937,-0.810219649332227,1.3130855513958466,1.0412335395812988,0.4508242011070251,-0.6608963012695312,11.2138950678509,-1.93439417945895,0.0750017113093678,-2.5
0.88,-0.7193285226821899,-0.0484205335378646,2.199358463287353,-0.0753027564545701,0.306948480185956,0.0050527953347773,1.3940165042877195,-0.2432036846876144,-0.4311919212341308,-0.5853582749143795,0.0375263471645984,2.1812959094525173,1.4610119585106849,-0.0792653270714402,-0.8502196099772277,2.42064002409234,1.625823974609375,0.9277425706386566,-1.5347599983215332,11.182789956101717,-1.8623319836520689,0.0646012382195826,-2.5
0.9,-0.6872318387031555,-0.0532834790647029,2.188764333724976,-0.0891412272506315,0.3068432260080173,-0.0074049965143064,1.4263370037078855,-0.2259110659360885,-0.4621928930282593,-0.5562555204616646,0.0359518025720363,2.163891517649668,1.449263486760812,-0.0781891321847798,-0.8902195703076633,2.4003695539619114,1.6160249710083008,0.864630937576294,-1.550048589706421,11.228189019327148,-1.91616014701655,0.0264999348760627,-2.5
0.92,-0.6543169617652893,-0.0575857311487197,2.1772921085357666,-0.1008412035338408,0.3048827219274829,-0.0167995004780918,1.462760090827942,-0.2062169462442398,-0.4964929819107055,-0.5274552994485995,0.0343879107541206,2.14568712672231,1.4307586145456956,-0.0782000496067883,-0.9302195224281584,2.688399023180795,1.821154356002808,0.9847059845924376,-1.7150044441223145,11.726992492076532,-1.8991296895139045,0.0112476996708848,-2.5
0.94,-0.6376979947090149,-0.0594157055020332,2.1715872287750244,-0.1197096585161685,0.2983829630749015,-0.0349131091954715,1.4762758016586304,-0.1889063119888305,-0.5070823431015015,-0.4990929312333541,0.0328129517265925,2.1266827370757,1.4054782069788234,-0.079295853146021,-0.9702194422328444,1.2190847673690208,0.6757855415344238,0.865531712770462,-0.5294680595397949,12.063133748726614,-1.857459587955364,-0.0008877869902356,-2.5
0.96,-0.6036165356636047,-0.0629641413688659,2.1591663360595703,-0.1298847565680973,0.2926758143541372,-0.0429722696499923,1.5122106075286863,-0.1671794950962066,-0.5392473936080933,-0.4713115551449467,0.0312019260402774,2.10692968724535,1.3726594018619305,-0.0818067154854871,-1.0050855408021155,2.644785113811626,1.7967402935028076,1.086340844631195,-1.6082525253295898,12.098915595648576,-1.866104356258972,0.0656481938890168,-2.5
0.98,-0.5688899755477905,-0.065915010869503,2.1461434364318848,-0.130782773757382,0.2929575399685132,-0.0401673806032001,1.5481804609298706,-0.1462343633174896,-0.5724853277206421,-0.4442583670083134,0.0295745740834488,2.086567907055923,1.332659411801404,-0.0809284801973703,-1.0310924781406312,2.663310516537939,1.798492670059204,1.047256588935852,-1.6618967056274414,12.817083726795316,-1.81682918217648,0.0309008768659284,-2.5
1.0,-0.5333647727966309,-0.068324901163578,2.1326122283935547,-0.1413262050142915,0.2794088931698563,-0.048254663798672,1.5806646347045898,-0.1206170916557312,-0.5974674224853516,-0.4180051787196049,0.0279776636688615,2.065548091671274,1.2926594170694332,-0.0787625612613561,-1.0708890603243038,2.4163873923956256,1.624208688735962,1.2808635830879211,-1.2491047382354736,13.939897529288828,-1.854729244903909,-0.0500021936644456,-2.454626349419569
1.02,-0.4971591234207153,-0.0698427259922027,2.1189520359039307,-0.1516788785677643,0.2555527900195908,-0.0539337826523914,1.613944172859192,-0.0883735865354538,-0.6118065118789673,-0.3925519903429514,0.0264238530268653,2.0438104289646937,1.2526594205959218,-0.0766185029382682,-1.1028772103337268,2.425273575734845,1.6639769077301023,1.6121752560138702,-0.7169544696807861,14.627780592756608,-1.8384379681037453,-0.0710928813166196,-2.4539053856347697
1.04,-0.4604698717594147,-0.0708084627985954,2.104795217514038,-0.1637722436743263,0.2118003348444617,-0.0624918897810484,1.6401352882385254,-0.0558801367878913,-0.6258827447891235,-0.3678988019050426,0.0249126496278074,2.021524311961281,1.2126594231949606,-0.0745018369675267,-1.125734490007496,2.202237007142901,1.3095557689666748,1.6246724873781204,-0.7038116455078125,14.929794730360754,-1.7927142505275342,-0.0695120764852864,-2.4352185562363817
1.06,-0.4419050514698028,-0.0709203481674194,2.097888946533203,-0.1692620893541011,0.1733810052332241,-0.0631424140455885,1.6538547277450562,-0.0410966388881206,-0.6296056509017944,-0.3440456134209166,0.0234434339006195,1.9988894467593317,1.172659425217638,-0.0724197357512584,-1.1377520301874895,1.02546923460634,0.6859719753265381,0.7391748949885368,-0.1861453056335449,14.937481953092629,-1.7306104295368956,-0.0840145567096901,-2.448049506346765
1.08,-0.4045429527759552,-0.0705565810203552,2.0837793350219727,-0.1721034771141261,0.159779537410948,-0.0606520163261588,1.672052264213562,-0.0048521161079406,-0.6347018480300903,-0.3209924249002705,0.0220154156607032,1.976145850281355,1.1326594268469712,-0.0703820882403753,-1.1366076176101578,2.04376306739311,0.909876823425293,1.8122261390089989,-0.2548098564147949,13.417026299722238,-1.6300898008949951,-0.142937978096028,-2.5
1.1,-0.3668372929096222,-0.0694267302751541,2.0702054500579834,-0.1714312262385022,0.0679789857818806,-0.0573225053998521,1.689024567604065,0.0336064025759696,-0.6228786706924438,-0.2987392363498978,0.0206275634191061,1.95358972667522,1.0926594281902966,-0.0684031359193268,-1.11900474300331,2.1834057479642883,0.8486151695251465,1.9229259341955185,0.5911588668823242,13.47761979560164,-1.6251371850327208,-0.2509309781215069,-2.5
1.12,-0.3293521106243133,-0.0673663839697837,2.056685209274292,-0.1741093050988589,0.0501047924734206,-0.0568004935004111,1.6917939186096191,0.0717794299125671,-0.6096178293228149,-0.2772860477748369,0.0192784867012573,1.9315997037670172,1.0526594293158018,-0.0665045358655531,-1.079997547816971,2.025277286486372,0.1384675502777099,1.908651366829872,0.6630420684814453,13.711332699866944,-1.453702113009107,-0.2888875423827416,-2.5
1.14,-0.2922198474407196,-0.0646095350384712,2.043768882751465,-0.1650672616473031,-0.0176972192124273,-0.0490114936773113,1.6788924932479858,0.1083868891000747,-0.5948227643966675,-0.256632859178736,0.0179677503972881,1.9103997462390656,1.01265943029429,-0.0645690945313696,-1.039998204978196,2.076924884712824,-0.645071268081665,1.8303729593753812,0.739753246307373,13.301616460098558,-1.3577723909046406,-0.3342499466298561,-2.5
1.16,-0.2737802267074585,-0.0627045109868049,2.037528276443481,-0.153888539210464,-0.0927527182112089,-0.0404344546881102,1.6722975969314575,0.1309233158826828,-0.5833536386489868,-0.2367796696116094,0.0166961463051384,1.8899997779414264,0.972659429152438,-0.0625913084244674,-0.9999985247858784,1.3066407644889653,-0.329744815826416,1.1268213391304016,0.5734562873840332,13.741612793912282,-1.2463290799542683,-0.3740224762218126,-2.5
1.18,-0.2377841472625732,-0.058537445962429,2.025129556655884,-0.157165187881571,-0.1151699968480398,-0.0428071474036951,1.6422173976898191,0.1697866767644882,-0.5636447668075562,-0.2177264810209893,0.0154645214547878,1.8703998053158997,0.9326594299095698,-0.0605711766105942,-0.9599987377668292,2.647460497678876,-1.5040099620819092,1.943168044090271,0.9854435920715332,10.610698332684931,-1.0216226962895338,-0.314237934542258,-2.5
1.2,-0.20288947224617,-0.0535269379615783,2.0126967430114746,-0.1437427282059268,-0.1794593646754932,-0.0357888850675529,1.5950419902801514,0.206495389342308,-0.5587095022201538,-0.1994732924160866,0.0142737227006512,1.851599828969503,0.8926594305807011,-0.0585086988030715,-0.9199988968728228,2.9989187551252576,-2.3587703704833984,1.8354356288909912,0.2467632293701172,11.738940064009968,-0.8075091214107254,-0.3922357615040093,-2.5
1.22,-0.1694815307855606,-0.0478068776428699,2.000351428985596,-0.1226436973106956,-0.2379084743458788,-0.0306672188633493,1.5368088483810425,0.2414377927780151,-0.5575078725814819,-0.1820201037985023,0.0131245969626806,1.8335998497625337,0.852659431177731,-0.0564038749939807,-0.8799990238241223,3.396142770517017,-2.9116570949554443,1.7471201717853546,0.0600814819335937,11.910506643842382,-0.7103497187861217,-0.3708134177810263,-2.5
1.24,-0.1374924480915069,-0.0414165258407592,1.9876747131347656,-0.0799273709389921,-0.3153982816806991,-0.0174304473601575,1.4714330434799194,0.2724842727184295,-0.5629956722259521,-0.1653669159622818,0.0120179912135855,1.816399869050197,0.8126594337102484,-0.0542567053411997,-0.8399991314094459,3.629047990898614,-3.2687902450561523,1.5523239970207214,-0.2743899822235107,11.645574954703989,-0.5976673560037116,-0.3208042960205031,-2.5
1.26,-0.1222059726715087,-0.038194615393877,1.981174349784851,-0.0855817955829175,-0.3303909479355605,-0.0228298110167359,1.4325356483459473,0.2832510769367218,-0.5720213055610657,-0.1495137272833184,0.0109547522631953,1.7999998855184252,0.7726594341860951,-0.0520671896978262,-0.79999922176775,2.0678451818156685,-1.9448697566986084,0.5383402109146118,-0.4512816667556762,10.364849986581705,-0.3937952980181497,-0.2363346151393042,-2.5
1.28,-0.0933483615517616,-0.0313926376402378,1.9674232006073,-0.0541005037688193,-0.384209828406462,-0.0201878013745957,1.3473073244094849,0.29987633228302,-0.5999699234962463,-0.1344605385953398,0.0099357270837195,1.7843999002935025,0.7326594346117643,-0.0498353282497477,-0.7599993007245338,4.561083084321884,-4.26141619682312,0.8312627673149109,-1.3974308967590332,10.394104362626422,-0.1571054163577794,-0.2612326811438976,-2.5
1.3,-0.0662722736597061,-0.0242279395461082,1.952747464179993,-0.0184732449825088,-0.4372100083615369,-0.0176692857898434,1.2585082054138184,0.3142502009868622,-0.639604926109314,-0.1202073498992952,0.0089617625904383,1.7695999135780114,0.6926594349926938,-0.0475611210783788,-0.719999370824555,4.914983486253975,-4.439955949783325,0.7186934351921082,-1.9817501306533811,10.0412254429134,-0.1247966919892366,-0.2161803045815803,-2.5
1.32,-0.0415172018110752,-0.0170044209808111,1.9366886615753172,0.0182380571877048,-0.4867036806379902,-0.0186430230779277,1.166201114654541,0.3237348794937134,-0.6915271282196045,-0.1067541611960334,0.0080337056970027,1.7555999255313044,0.6526594353334828,-0.0452445682651776,-0.6799994338461386,5.316595057647716,-4.615354537963867,0.4742339253425598,-2.5961101055145264,10.64060591728503,-0.0348208618100937,-0.1342556104888863,-2.5
1.34,-0.0190225709229707,-0.0097082294523715,1.9195919036865237,0.0820153049677436,-0.5445325212176421,-0.013718883081639,1.0631183385849,0.3266934752464294,-0.7460001111030579,-0.094100972486318,0.0071524033154499,1.7423999362820344,0.6126594356380561,-0.0428856698901025,-0.6399994910808775,5.831405892937132,-5.154138803482056,0.1479297876358032,-2.7236491441726685,13.451962564180576,0.0339054874898871,-0.048263100145854,-2.5
1.36,-0.0087654227390885,-0.0063300472684204,1.9106236696243288,0.0699713447508983,-0.55877421314339,-0.0216546694693003,1.009427189826965,0.3205479085445404,-0.7721167802810669,-0.0822477837708395,0.0063187023562417,1.7299999459362612,0.5726594359097894,-0.0404844260307161,-0.5999995434964073,3.0010780787858526,-2.6845574378967285,-0.3072783350944519,-1.3058334589004517,13.679280886896777,0.0032345397386708,0.0751001761339707,-2.5
1.38,0.0099697643890976,0.0005729110562242,1.8911713361740112,0.1076055651037231,-0.5972158256230339,-0.0272489281601347,0.8989338278770447,0.3162035048007965,-0.838855504989624,-0.0711945950502255,0.0055334497283182,1.7183999545829332,0.5326594361516084,-0.0380408367616355,-0.5599995918363886,6.457885539131482,-5.524668097496033,-0.2172201871871948,-3.3369362354278564,13.894820721289308,0.3393462433197207,0.1030295410251896,-2.359926441716604
1.4,0.02587834559381,0.0070130266249179,1.8706254959106443,0.1393139436662201,-0.6249152508233947,-0.0334433391021143,0.7794848084449768,0.3002191483974457,-0.8999589085578918,-0.0609414063250488,0.00479749233916,1.7075999622977227,0.4926594363660634,-0.0355549021541808,-0.5199996366846776,6.755959188105431,-5.9724509716033936,-0.7992178201675415,-3.055170178413391,15.007207080110677,0.2227162998010468,0.2335560773859316,-2.294117224224191
1.42,0.0388022400438785,0.0129603929817676,1.8487398624420168,0.1619634461212418,-0.6407709488777312,-0.0398022757062355,0.6487306952476501,0.2787183225154876,-0.9547081589698792,-0.0514882171631749,0.0041116770631155,1.697599968685796,0.4526594345553931,-0.0330266221476107,-0.4799996765080563,7.168752341289954,-6.537705659866333,-1.0750412940979004,-2.737462520599365,16.930722751830217,0.2227162998010468,0.2335560773859316,-2.294117224224191
1.44,0.0487379357218742,0.0185068566352128,1.825628876686096,0.1792121518681324,-0.638058557907931,-0.0435558556476813,0.5143407583236694,0.2586111724376678,-1.0124239921569824,-0.0428350284704052,0.0034768508710297,1.6883999747638594,0.4126594347215698,-0.030455997060971,-0.4399997156855618,7.381746072435202,-6.719496846199036,-1.0053575038909912,-2.885791659355164,16.991213797422006,0.3679467245869046,0.3098746580544362,-2.4780785038040958
1.46,0.0525450967252254,0.0208687651902437,1.8139517307281492,0.1861226203966076,-0.6319290652430851,-0.0455095945651131,0.4465608894824981,0.2436270713806152,-1.0317760705947876,-0.0349818397745261,0.0028938606321385,1.6799999800817118,0.3726594348663455,-0.0278430268281473,-0.3999997525291963,3.6031711187776345,-3.3889934420585632,-0.7492050528526306,-0.9676039218902588,16.565317645126925,0.4666850566560631,0.4352697648933111,-2.5
1.48,0.0574308373034,0.0250701531767845,1.789973258972168,0.1988148002720291,-0.6105707904816238,-0.0440464706208623,0.2999761700630188,0.2089305073022842,-1.0695602893829346,-0.0279286513886093,0.0023635532726403,1.6723999850234312,0.3326594369912786,-0.0251877116404411,-0.3599997892988431,7.765078672421771,-7.329235970973968,-1.7348282039165497,-1.8892109394073489,16.124049370812827,1.0557529695438332,0.5927326413328834,-2.5
1.5,0.0592520460486412,0.0285546313971281,1.764922857284546,0.2166292752906891,-0.5775512925864887,-0.0396470057186322,0.150906354188919,0.1729319840669632,-1.103149652481079,-0.0216754626477189,0.0018867756434091,1.6655999889083102,0.2926594370977637,-0.0224900512826833,-0.3199998222132712,7.849514155857186,-7.453490793704987,-1.7999261617660522,-1.6794681549072266,16.958718060262072,1.084324653165761,0.6651619326409655,-2.5
1.52,0.0574577637016773,0.0307338461279869,1.7398673295974731,0.232032307728692,-0.5475709909773498,-0.035725914429138,0.0006058439612388,0.1274330914020538,-1.1273834705352783,-0.0162222739048707,0.0014643746712209,1.6595999921515936,0.2526594371870536,-0.0197500459361369,-0.2799998534583655,7.944757791449337,-7.51502551138401,-2.274944633245468,-1.211690902709961,15.704254789365224,1.196942812713183,0.813874570382698,-2.5
1.54,0.0524956695735454,0.0319232679903507,1.714784860610962,0.267601143673176,-0.4960098662740968,-0.023150994038986,-0.1520184725522995,0.0757943242788314,-1.1281049251556396,-0.0115690851603974,0.0010971972554067,1.654399994785076,0.2126594372602774,-0.0169676956452854,-0.2399998831934075,8.05624986547717,-7.631215825676918,-2.5819383561611176,-0.0360727310180664,15.646992617743308,1.2125553381057568,0.9150789352912948,-2.5
1.56,0.0486404486000537,0.0317204184830188,1.702525973320007,0.2754800849011848,-0.4559959296731911,-0.0153056059280139,-0.229388803243637,0.0424757972359657,-1.1262381076812744,-0.00771589641461,0.0007860902944481,1.6499999968375827,0.1726594373184567,-0.0141430004505738,-0.1999999115559199,4.213008818847792,-3.8685165345668793,-1.6659263521432877,0.0933408737182617,15.298285683065842,1.0511474622672106,1.06952842278142,-2.5
1.58,0.0390233024954795,0.0305913761258125,1.6778236627578735,0.2596564241859609,-0.4443821830214164,-0.0133055736070553,-0.3705863058567047,-0.0203308090567588,-1.1098954677581787,-0.0046627076678003,0.0005319006860584,1.646399998335369,0.1326594373625186,-0.0112759603883909,-0.159999938665457,7.769891636604805,-7.059875130653381,-3.1403303146362305,0.8171319961547852,17.624177650371166,0.7731630246795,1.0659986895637157,-2.5
1.6,0.0263137035071849,0.0276914741843938,1.6543487310409546,0.2544987889103221,-0.3852684941682746,0.000726933733974,-0.5023517608642578,-0.0906512439250946,-1.0839879512786863,-0.002409518920242,0.0003354753272613,1.6435999993024484,0.0926594373933071,-0.0083665754913237,-0.1199999646266042,7.579297148079514,-6.588272750377655,-3.516021743416786,1.2953758239746094,16.24507722285216,0.7298535705798208,1.1598048894854482,-2.5
1.62,0.011354336515069,0.02322200499475,1.6313828229904177,0.2476030846521486,-0.3122954800549924,0.0171696191415431,-0.6225517392158508,-0.1658108532428741,-1.0449188947677612,-0.000956330172193,0.0001976605898878,1.6415999997608706,0.0526594374115931,-0.0054148982460263,-0.0799999895311767,7.352447355333215,-6.009998917579651,-3.757980465888977,1.9534528255462649,16.24507722285216,0.7298535705798208,1.1598048894854482,-2.5
1.64,-0.0055851866491138,0.0171811338514089,1.6098545789718628,0.2504749122342194,-0.2152988309855673,0.03917510377991,-0.7177250385284424,-0.2364826500415802,-1.0011184215545654,-0.0002148678990385,7.175580371377414e-05,1.6403999999327794,0.0214867899038563,-0.0071755803713774,-0.0399999932779481,6.318809464310034,-4.758664965629578,-3.5335898399353027,2.19002366065979,16.466789346873156,0.380364955117535,1.013539241209993,-2.5
1.66,-0.0144420899450778,0.0137659879401326,1.5990418195724487,0.2262481821043016,-0.1841790083544955,0.048684185685916,-0.7560652494430542,-0.2684505879878998,-0.9886461496353148,-0.0002148678990385,7.175580371377414e-05,1.6403999999327794,0.0214867899038563,-0.0071755803713774,-0.0399999932779481,2.5726826448011337,-1.9170105457305908,-1.598396897315979,0.6236135959625244,16.230414917680264,0.0734562361301388,0.9201275934999374,-2.5
1.68,-0.0332277864217758,0.0053609474562108,1.5794241428375244,0.1966426279147747,-0.0915021661539473,0.0667927991964902,-0.8166714310646057,-0.3361794054508209,-0.9259521961212158,-0.0002148678990385,7.175580371377414e-05,1.6403999999327794,0.0214867899038563,-0.0071755803713774,-0.0399999932779481,5.5206054407325205,-3.030309081077576,-3.386440873146057,3.134697675704956,16.451601571016454,0.201465870343211,1.1485574045216806,-2.5
1.7,-0.0523630939424037,-0.0042776050977408,1.5616538524627686,0.1570709143497577,0.0001118552518677,0.0835360181287497,-0.8532226085662842,-0.4059808254241943,-0.841229259967804,-0.0002148678990385,7.175580371377414e-05,1.6403999999327794,0.0214867899038563,-0.0071755803713774,-0.0399999932779481,5.7849379247995305,-1.8275588750839236,-3.4900709986686707,4.236146807670593,16.451601571016454,0.201465870343211,1.1485574045216806,-2.5
1.72,-0.0713832825422287,-0.015149506740272,1.5457096099853516,0.1072870515787878,0.0854268397193673,0.0951591514616194,-0.8584986925125122,-0.461485207080841,-0.7585769891738892,-0.0002148678990385,7.175580371377414e-05,1.6403999999327794,0.0214867899038563,-0.0071755803713774,-0.0399999932779481,4.984970238698764,-0.2638041973114013,-2.7752190828323364,4.13261353969574,16.451601571016454,0.201465870343211,1.1485574045216806,-2.5
1.74,-0.0899277329444885,-0.0261746682226657,1.532748103141785,0.038034344845297,0.1442215765158831,0.100032717486829,-0.8452043533325195,-0.4926839172840118,-0.6503793597221375,-0.0002148678990385,7.175580371377414e-05,1.6403999999327794,0.0214867899038563,-0.0071755803713774,-0.0399999932779481,5.669397232412077,0.6647169589996338,-1.5599355101585388,5.4098814725875854,14.438623170053688,-0.5567358646473509,0.4711903373726572,-2.5
1.76,-0.0980898141860961,-0.031877014786005,1.52948796749115,-0.0923367636459923,0.0691669825301858,0.1175032535382766,-0.8157612085342407,-0.5037749409675598,-0.5371633172035217,-0.0002148678990385,7.175580371377414e-05,1.6403999999327794,0.0214867899038563,-0.0071755803713774,-0.0399999932779481,5.875325919797649,1.4721572399139404,-0.5545511841773987,5.660802125930786,14.438623170053688,-0.7430073095920491,0.2138322613021971,-2.5
1.78,-0.1147695779800415,-0.0422717444598674,1.526743769645691,-0.1034406042491537,0.0274198585336119,0.1264970489082824,-0.7676057815551758,-0.4865962862968445,-0.2630791068077087,-0.0002148678990385,7.175580371377414e-05,1.6403999999327794,0.0214867899038563,-0.0071755803713774,-0.0399999932779481,13.9406066683025,2.407771348953247,0.8589327335357666,13.70421051979065,11.398063554680904,-0.37428026072825,-0.1964571846799678,-2.156862412858208
1.8,-0.131001815199852,-0.0519935600459575,1.528356909751892,-0.1070969266091094,-0.0742562885154208,0.1508738560212099,-0.7405200004577637,-0.4526222646236419,-0.0254487991333007,-0.0002148678990385,7.175580371377414e-05,1.6403999999327794,0.0214867899038563,-0.0071755803713774,-0.0399999932779481,12.078497093155043,1.3542890548706057,1.6987010836601255,11.881515383720398,15.349692580734882,-0.1052853430969185,-0.3085468428324762,-1.5269930591400769
1.82,-0.1476613879203796,-0.0605932995676994,1.5320992469787598,-0.1088682486012786,-0.1287084913060038,0.1662524700924593,-0.7400656938552856,-0.4122349917888641,0.120498239994049,-0.0002148678990385,7.175580371377414e-05,1.6403999999327794,0.0214867899038563,-0.0071755803713774,-0.0399999932779481,7.571637278614189,0.0227153301239013,2.019363641738892,7.297351956367493,14.243651593720188,0.2808497382644615,-0.262663230492431,-0.5899314230028254
1.84,-0.1649742871522903,-0.0687710717320442,1.539159893989563,-0.119022874734315,-0.1489364835778036,0.1833354762379039,-0.7643806338310242,-0.3774940073490143,0.2430671453475952,-0.0002148678990385,7.175580371377414e-05,1.6403999999327794,0.0214867899038563,-0.0071755803713774,-0.0399999932779481,6.484845577467556,-1.2157469987869265,1.737049221992493,6.128445267677307,11.377894998603551,0.5301196111345043,-0.1681979087474804,-0.0533194227024695
1.86,-0.174034833908081,-0.0723457857966423,1.5434447526931765,-0.1359377984750945,-0.1291112019023272,0.1892936102292881,-0.7866382598876953,-0.3566378951072693,0.3110906481742859,-0.0002148678990385,7.175580371377414e-05,1.6403999999327794,0.0214867899038563,-0.0071755803713774,-0.0399999932779481,3.7274576698909896,-1.1128813028335571,1.0428056120872498,3.4011751413345337,9.628776006370115,0.689109059153612,-0.0911077068160236,0.1997474422786685
1.88,-0.192616730928421,-0.0791154354810714,1.552157282829285,-0.155074181452704,-0.1190007100289945,0.1881012408971581,-0.8189374208450317,-0.3162292540073395,0.3624898195266723,-0.0002148678990385,7.175580371377414e-05,1.6403999999327794,0.0214867899038563,-0.0071755803713774,-0.0399999932779481,3.6462202654950953,-1.6149580478668213,2.0204320549964905,2.569958567619324,8.748686724070012,0.5622345259506462,0.022836036370828,0.8808743694768432
1.9,-0.21140718460083,-0.0848855301737785,1.5612590312957764,-0.1822272282357819,-0.0670367184561683,0.1857204001097305,-0.840877890586853,-0.2821442484855652,0.4008212685585022,-0.0002148678990385,7.175580371377414e-05,1.6403999999327794,0.0214867899038563,-0.0071755803713774,-0.0399999932779481,2.7894765632600893,-1.0970234870910645,1.7042502760887146,1.916572451591492,8.179944478406469,0.6614956685236016,-0.0630586121453934,0.3240414257778022
1.92,-0.2307585328817367,-0.0894143879413604,1.5698652267456057,-0.2099379995260007,0.0053781352968077,0.1757997557237305,-0.8581905364990234,-0.2317264378070831,0.398428738117218,-0.0002148678990385,7.175580371377414e-05,1.6403999999327794,0.0214867899038563,-0.0071755803713774,-0.0399999932779481,2.6680552580502908,-0.8656322956085205,2.520890533924103,-0.1196265220642089,7.407195361355207,0.5962177065557255,-0.1466555802258001,0.0206976912119734
1.94,-0.2501391768455505,-0.0927192941308021,1.577686071395874,-0.2418478416610772,0.106838838696803,0.1596563156784727,-0.8714698553085327,-0.176259696483612,0.3696084022521972,-0.0002148678990385,7.175580371377414e-05,1.6403999999327794,0.0214867899038563,-0.0071755803713774,-0.0399999932779481,3.195117940100976,-0.6639659404754639,2.773337066173553,-1.4410167932510376,7.412520879767271,0.4948176222402367,-0.1005206352965288,-0.1721037245200756
1.96,-0.2594683170318603,-0.0939359441399574,1.5813469886779783,-0.2545332104606463,0.1226174875975153,0.159235312495429,-0.8602940440177917,-0.1510752588510513,0.3593301773071289,-0.0002148678990385,7.175580371377414e-05,1.6403999999327794,0.0214867899038563,-0.0071755803713774,-0.0399999932779481,1.4703711817905198,0.5587905645370483,1.2592218816280365,-0.513911247253418,7.512731638124023,0.24799382258898,-0.0448944275637286,-0.273349674443048
1.98,-0.2782428860664367,-0.095272772014141,1.587032675743103,-0.2819519967504184,0.202187181608467,0.1417621178587888,-0.8496718406677246,-0.0881816446781158,0.296180248260498,-0.0002148678990385,7.175580371377414e-05,1.6403999999327794,0.0214867899038563,-0.0071755803713774,-0.0399999932779481,4.487859023615481,0.5311101675033569,3.1446807086467743,-3.157496452331543,7.891482366153923,0.2297075455487204,-0.1755077751057826,-0.1202138168399882
2.0,-0.2963756918907165,-0.0951974764466285,1.591530442237854,-0.3102231757359169,0.2744619455868372,0.1240007827749036,-0.8304159641265869,-0.0283844769001007,0.2291277050971985,-0.0002148678990385,7.175580371377414e-05,1.6403999999327794,0.0214867899038563,-0.0071755803713774,-0.0399999932779481,4.594163035936409,0.9627938270568848,2.989858388900757,-3.352627158164978,8.15989394651342,0.0823820107898175,-0.0691686318922053,-0.2419856705242462
2.02,-0.3139375746250152,-0.0940038934350013,1.5933852195739746,-0.3270367569929481,0.3406122596882065,0.1055110364500925,-0.8031305074691772,0.0285497680306434,0.1429322361946106,-0.0002148678990385,7.175580371377414e-05,1.6403999999327794,0.0214867899038563,-0.0071755803713774,-0.0399999932779481,5.342205361593268,1.3642728328704834,2.846712246537209,-4.3097734451293945,9.277678796035616,-0.0188563982866907,0.0037483343039339,-0.2600193687425728
2.04,-0.330888569355011,-0.091679073870182,1.5929304361343384,-0.3478322457366767,0.4081673766467851,0.0669722213678479,-0.7765397429466248,0.079164057970047,0.0314998626708984,-0.0002148678990385,7.175580371377414e-05,1.6403999999327794,0.0214867899038563,-0.0071755803713774,-0.0399999932779481,6.26219789153376,1.3295382261276243,2.5307144969701767,-5.571618676185608,9.990625431161789,-0.2629278933248899,0.0364128127724179,-0.6820917518141066
2.06,-0.3388736248016357,-0.0898225978016853,1.5920350551605225,-0.3448045737576123,0.4221775435089825,0.0721770117162199,-0.7561824321746826,0.1093692481517791,-0.0166243314743042,-0.0002148678990385,7.175580371377414e-05,1.6403999999327794,0.0214867899038563,-0.0071755803713774,-0.0399999932779481,3.0177440571995158,1.017865538597107,1.5102595090866089,-2.406209707260132,11.47849048795706,-0.2629278933248899,0.0364128127724179,-0.6820917518141066
2.08,-0.3541223406791687,-0.0854589492082595,1.5886337757110596,-0.3439139621559777,0.4553810040929638,0.0534749675822703,-0.7152459025382996,0.1673961579799652,-0.1092597842216491,-0.0002148678990385,7.175580371377414e-05,1.6403999999327794,0.0214867899038563,-0.0071755803713774,-0.0399999932779481,5.8361478795059,2.046826481819153,2.9013454914093018,-4.6317726373672485,13.019971850353611,-0.4424430568845423,-0.1466975294779035,-0.4859124107697546
2.1,-0.3682148456573486,-0.0797734782099723,1.5834625959396362,-0.3312367779690897,0.4768596351669183,0.0370274217631371,-0.66017746925354,0.2261051833629608,-0.1928803324699401,-0.0002148678990385,7.175580371377414e-05,1.6403999999327794,0.0214867899038563,-0.0071755803713774,-0.0399999932779481,5.803377916180368,2.753421664237976,2.9354512691497803,-4.181027412414551,13.46143610555555,-0.5381325081679297,-0.1232327543680787,-0.6610322931335126
2.12,-0.3805356621742248,-0.0724872350692749,1.5763992071151731,-0.2957329589886303,0.4876827392925657,0.0269468089170366,-0.5942997336387634,0.2918635606765747,-0.2752777934074402,-0.0002148678990385,7.175580371377414e-05,1.6403999999327794,0.0214867899038563,-0.0071755803713774,-0.0399999932779481,6.215581590968952,3.2938867807388306,3.2879188656806946,-4.119873046875,13.646868761130465,-0.6878367421757543,-0.0898293062593518,-1.0687175638103332
2.14,-0.3914891481399536,-0.0640514642000198,1.567867398262024,-0.2520067945812462,0.4909467930246991,-0.0007249315528219,-0.5236718058586121,0.3537453114986419,-0.3508919477462768,-0.0002148678990385,7.175580371377414e-05,1.6403999999327794,0.0214867899038563,-0.0071755803713774,-0.0399999932779481,6.02809165567763,3.5313963890075684,3.094087541103363,-3.7807077169418335,15.22904091689179,-0.6878367421757543,-0.0898293062593518,-1.0687175638103332
2.16,-0.396308034658432,-0.0593986958265304,1.5630924701690674,-0.1844909442923668,0.4957946913935117,-0.0096181104235234,-0.4925850033760071,0.3783307671546936,-0.3820967674255371,-0.0002148678990385,7.175580371377414e-05,1.6403999999327794,0.0214867899038563,-0.0071755803713774,-0.0399999932779481,2.522188875571834,1.554340124130249,1.2292727828025818,-1.5602409839630127,16.36507367062177,-0.8130427471858219,-0.050887275277115,-1.3946896300894858
2.18,-0.4048013389110565,-0.0493728481233119,1.5524791479110718,-0.1552785122128616,0.5009143699038495,0.0062702491706506,-0.4163244366645813,0.4289593994617462,-0.4451769590377807,-0.0002148678990385,7.175580371377414e-05,1.6403999999327794,0.0214867899038563,-0.0071755803713774,-0.0399999932779481,5.558336760728862,3.813028335571289,2.5314316153526306,-3.1540095806121826,16.210614663072192,-1.073609689214006,-0.0211797923406629,-1.7951047193919658
2.2,-0.4109118580818176,-0.038329716771841,1.5413014888763428,-0.0980976698494614,0.4972922282948606,0.0016241153345737,-0.3285860419273376,0.4740520417690277,-0.4902970790863037,-0.0002148678990385,7.175580371377414e-05,1.6403999999327794,0.0214867899038563,-0.0071755803713774,-0.0399999932779481,5.423835712508708,4.386919736862183,2.2546321153640747,-2.2560060024261475,15.873143954971964,-1.4009779424303217,-0.0504983404895112,-2.117581523851032
2.22,-0.414786696434021,-0.0267885979264974,1.5302270650863647,-0.0509792327723793,0.4906154886590003,-0.0051506711002082,-0.2246705442667007,0.5081456303596497,-0.5006718635559082,-0.0002148678990385,7.175580371377414e-05,1.6403999999327794,0.0214867899038563,-0.0071755803713774,-0.0399999932779481,5.492822496184263,5.195774883031845,1.7046794295310974,-0.5187392234802246,16.500170089862877,-1.4731486944776848,0.0874427454062087,-2.448370897386068
2.24,-0.4165520668029785,-0.0150772994384169,1.5187891721725464,-0.0022715325199888,0.4796748511575007,-0.0331054757028153,-0.12690469622612,0.5231793522834778,-0.5065271258354187,-0.0002148678990385,7.175580371377414e-05,1.6403999999327794,0.0214867899038563,-0.0071755803713774,-0.0399999932779481,4.954406607843864,4.8882924020290375,0.7516860961914062,-0.2927631139755249,16.12581873101044,-1.524729302885904,0.2010299786737422,-2.5
2.26,-0.4164657592773437,-0.00933479052037,1.5129926204681396,0.0267461716631945,0.4716713513939396,-0.0386635664872356,-0.0714755058288574,0.5216431617736816,-0.5140399932861328,-0.0002148678990385,7.175580371377414e-05,1.6403999999327794,0.0214867899038563,-0.0071755803713774,-0.0399999932779481,2.7978555210689366,2.7714595198631287,-0.0768095254898071,-0.3756433725357055,16.18569610907298,-1.666710499084349,0.3202484233731602,-2.5
2.28,-0.4145936071872711,0.0020960874389857,1.5021615028381348,0.0598506377565769,0.4654864704447812,-0.0225118056281935,0.0332419574260711,0.5161969661712646,-0.500202476978302,-0.0002148678990385,7.175580371377414e-05,1.6403999999327794,0.0214867899038563,-0.0071755803713774,-0.0399999932779481,5.288403590559392,5.235873162746429,-0.2723097801208496,0.6918758153915405,15.799603054342697,-1.6874404294604717,0.3458535433970154,-2.5
2.3000000000000003,-0.4102955162525177,0.0127259446308016,1.4913750886917114,0.0990730401157894,0.4526076410047326,-0.0291827223496159,0.1388304680585861,0.4963665306568146,-0.486394464969635,-0.0002148678990385,7.175580371377414e-05,1.6403999999327794,0.0214867899038563,-0.0071755803713774,-0.0399999932779481,5.415911960583595,5.279425531625748,-0.9915217757225036,0.6904006004333496,16.283104315961282,-1.9298358473269064,0.4514848912903189,-2.5
2.32,-0.4038216471672058,0.0224532261490821,1.4812042713165283,0.1340150747883865,0.4375543888639487,-0.0340047163218418,0.2423691004514694,0.4580356478691101,-0.471537709236145,-0.0002148678990385,7.175580371377414e-05,1.6403999999327794,0.0214867899038563,-0.0071755803713774,-0.0399999932779481,5.570060180105317,5.176931619644165,-1.9165441393852236,0.7428377866744995,15.973059596301027,-1.9177697938235936,0.5111192860454098,-2.5
2.34,-0.3949726521968841,0.0314541906118392,1.4711942672729492,0.1552672140071091,0.4223358449871275,-0.055778521117943,0.3447644412517547,0.4213855266571045,-0.4540684819221496,-0.0002148678990385,7.175580371377414e-05,1.6403999999327794,0.0214867899038563,-0.0071755803713774,-0.0399999932779481,5.507542806326912,5.119767040014267,-1.8325060606002808,0.8734613656997681,15.443879754816408,-1.8519595015873431,0.5192649386067174,-2.5
2.36,-0.3899445533752441,0.0353511348366737,1.4665077924728394,0.1701801210644703,0.4039443601070642,-0.0574042566232237,0.3930361568927765,0.3972369134426117,-0.4428783059120178,-0.0002148678990385,7.175580371377414e-05,1.6403999999327794,0.0214867899038563,-0.0071755803713774,-0.0399999932779481,2.756144993577337,2.4135857820510864,-1.20743066072464,0.5595088005065918,15.574963536971154,-1.7717430853654452,0.6161920268342879,-2.5
2.38,-0.3782071471214294,0.0427994020283222,1.4567983150482178,0.1848377243535549,0.3930427715994466,-0.0404683451327835,0.4826420545578003,0.3520520329475403,-0.4353466629981994,-0.0002148678990385,7.175580371377414e-05,1.6403999999327794,0.0214867899038563,-0.0071755803713774,-0.0399999932779481,5.031802849548527,4.48029488325119,-2.2592440247535706,0.3765821456909179,16.241594605294267,-1.6370853643692835,0.6160483834940665,-2.5
2.4,-0.3646247386932373,0.0488034188747406,1.447736382484436,0.1949589423023622,0.3595713728741045,-0.0443728913087951,0.5696958303451538,0.3026763796806335,-0.4223567247390747,-0.0002148678990385,7.175580371377414e-05,1.6403999999327794,0.0214867899038563,-0.0071755803713774,-0.0399999932779481,5.04605130531401,4.352688789367676,-2.468782663345337,0.6494969129562378,16.280489460346416,-1.8243832090524608,0.7577039531795233,-2.5
2.42,-0.349501222372055,0.0537791065871715,1.4391348361968994,0.2051835139063014,0.3167351450278775,-0.0475191010389746,0.645883321762085,0.2470433562994003,-0.3974282741546631,-0.0002148678990385,7.175580371377414e-05,1.6403999999327794,0.0214867899038563,-0.0071755803713774,-0.0399999932779481,4.878779249843461,3.8093745708465576,-2.7816511690616608,1.246422529220581,16.022636575480647,-1.6827873793223718,0.7448194187242968,-2.5
2.44,-0.3392689526081085,0.0550572425127029,1.4309895038604736,0.2129337645960848,0.2607280367934676,-0.0133201490939468,0.5705052018165588,0.1407110393047332,-0.376804769039154,-0.0002148678990385,7.175580371377414e-05,1.6403999999327794,0.0214867899038563,-0.0071755803713774,-0.0399999932779481,6.598058723447736,-3.768905997276306,-5.316615849733353,1.0311752557754517,17.119560459131662,-1.520993891490673,0.765023783367164,-2.5
2.46,-0.3374865651130676,0.0543283931910991,1.4285683631896973,0.2217158929415069,0.2439117964762578,0.024606682409168,0.4460936188697815,0.0644572526216507,-0.3348737955093384,-0.0002148678990385,7.175580371377414e-05,1.6403999999327794,0.0214867899038563,-0.0071755803713774,-0.0399999932779481,7.591292461760056,-6.220579147338867,-3.812689334154129,2.096548676490784,14.438623170053688,-2.362631721856792,0.3991981827572596,-2.5
2.48,-0.3381552994251251,0.0509500429034233,1.4226576089859009,0.2202370136153137,0.206113587043851,0.0371586664948331,0.0950313359498977,-0.0997673645615577,-0.2729764580726623,-0.0002148678990385,7.175580371377414e-05,1.6403999999327794,0.0214867899038563,-0.0071755803713774,-0.0399999932779481,19.624330036949136,-17.553114145994186,-8.211230859160423,3.0948668718338013,14.438623170053688,-2.5,0.3007807534394897,-2.5
2.5,-0.3398764133453369,0.0463228709995746,1.4191148281097412,0.2144090689003275,0.167101326872914,0.025450868194106,-0.0537715852260589,-0.1801242530345916,-0.2127045392990112,-0.0002148678990385,7.175580371377414e-05,1.6403999999327794,0.0214867899038563,-0.0071755803713774,-0.0399999932779481,8.976670188358153,-7.440146058797836,-4.017844423651695,3.013595938682556,16.162970574321662,-2.5,-0.3590470417839393,-2.5
2.52,-0.3402235209941864,0.0403828248381614,1.4171892404556274,0.2038727865311893,0.1260519263002694,0.0176085861670909,-0.0465349853038787,-0.2377624064683914,-0.1230382919311523,-0.0002148678990385,7.175580371377414e-05,1.6403999999327794,0.0214867899038563,-0.0071755803713774,-0.0399999932779481,5.341947450772517,0.3618299961090088,-2.881907671689987,4.483312368392944,16.809628449100273,-2.5,-0.4038216306177259,-2.5
2.54,-0.3399809002876282,0.033431027084589,1.4159015417099,0.2088609853212451,0.0922833870076669,0.0025039309777033,-0.0023509562015533,-0.2900664806365967,-0.0722989439964294,-0.0002148678990385,7.175580371377414e-05,1.6403999999327794,0.0214867899038563,-0.0071755803713774,-0.0399999932779481,4.260993437905393,2.209201455116272,-2.615203708410263,2.536967396736145,15.120993483827531,-2.5,-0.3397914852627813,-2.5
2.56,-0.339750200510025,0.0294798500835895,1.4155426025390625,0.2070284667614819,0.0857151714526304,-0.0077249661909524,0.0112545490264892,-0.3174133598804474,-0.0567930936813354,-0.0002148678990385,7.175580371377414e-05,1.6403999999327794,0.0214867899038563,-0.0071755803713774,-0.0399999932779481,1.7127412026355209,0.6802752614021301,-1.3673439621925354,0.7752925157546997,16.67947695698922,-2.5,-0.2269100823864884,-2.5
2.58,-0.3417116701602936,0.0218592826277017,1.4158319234848022,0.2041974211249684,0.0894557230680474,-0.0073208163055085,-0.0302191078662872,-0.3448032140731811,-0.0057131052017211,-0.0002148678990385,7.175580371377414e-05,1.6403999999327794,0.0214867899038563,-0.0071755803713774,-0.0399999932779481,3.5635072442175866,-2.0736828446388245,-1.3694927096366882,2.553999423980713,16.254050608809393,-2.5,-0.2077630096447432,-2.5
2.6,-0.3433972597122192,0.0131174363195896,1.4174416065216064,0.1873516914712359,0.1104209996725213,-0.0207372445257337,-0.0820588320493698,-0.3681543171405792,0.0427275896072387,-0.0002148678990385,7.175580371377414e-05,1.6403999999327794,0.0214867899038563,-0.0071755803713774,-0.0399999932779481,3.734679347486584,-2.591986209154129,-1.1675551533699036,2.422034740447998,15.556655753667656,-2.5,0.1187378885586252,-2.5
2.62,-0.3447045087814331,0.0033562234602868,1.4200239181518557,0.1607936171641041,0.1314677210841557,-0.021430955293979,-0.0673388689756393,-0.4163188338279724,0.0943198800086975,-0.0002148678990385,7.175580371377414e-05,1.6403999999327794,0.0214867899038563,-0.0071755803713774,-0.0399999932779481,3.6049488240093694,0.7359981536865234,-2.4082258343696594,2.579614520072937,14.930823232143666,-2.5,0.3598574859572575,-2.5
2.64,-0.3473858833312988,-0.0062597729265689,1.4234285354614258,0.1174275273041541,0.1883256969767399,-0.0160594745281306,-0.0897440314292907,-0.4359872043132782,0.134705901145935,-0.0002148678990385,7.175580371377414e-05,1.6403999999327794,0.0214867899038563,-0.0071755803713774,-0.0399999932779481,2.50991374623669,-1.1202581226825714,-0.9834185242652892,2.019301056861877,14.808219083176937,-2.5,0.3229234953251841,-2.5
2.66,-0.3485955595970154,-0.0113716470077633,1.4254337549209597,0.1135737064972414,0.1883540927284382,-0.0073048825779007,-0.1010140031576156,-0.4458274841308594,0.1603880524635315,-0.0002148678990385,7.175580371377414e-05,1.6403999999327794,0.0214867899038563,-0.0071755803713774,-0.0399999932779481,1.4861159661559542,-0.5634985864162445,-0.4920139908790588,1.2841075658798218,13.32146142220654,-2.5,0.4037998571239425,-2.5
2.68,-0.3505944609642029,-0.0215231962502002,1.4295885562896729,0.0664384147269309,0.2247994051423776,-0.0030600922753544,-0.1083438098430633,-0.4500659704208374,0.172683298587799,-0.0002148678990385,7.175580371377414e-05,1.6403999999327794,0.0214867899038563,-0.0071755803713774,-0.0399999932779481,0.7464313587542433,-0.3664903342723846,-0.2119243144989013,0.6147623062133789,12.90871172776042,-2.5,0.5165758694491733,-2.5
2.7,-0.3512913286685943,-0.0317552797496318,1.4341164827346802,0.0095426786147045,0.2500605823761114,-0.0012378035182882,-0.060654804110527,-0.4586317539215088,0.1953613758087158,-0.0002148678990385,7.175580371377414e-05,1.6403999999327794,0.0214867899038563,-0.0071755803713774,-0.0399999932779481,2.6748406967407043,2.384450286626816,-0.4282891750335693,1.1339038610458374,14.02064289072996,-2.5,0.5476296228487805,-2.5
