t,x,y,z,roll,pitch,yaw,v_x,v_y,v_z,ref_x,ref_y,ref_z,ref_v_x,ref_v_y,ref_v_z,a_com,a_x,a_y,a_z,thrust,wind_x,wind_y,wind_z
0.0,-1.0881317853927612,0.0523304715752601,2.431419849395752,0.0232104974029581,0.0589348224688627,0.0035851628907688,-0.007215142250061,0.0071350112557411,-0.0068771839141845,-1.0878400206565857,0.0524855582043528,2.4313361048698425,0.0453876443207263,-0.0937271527945995,-0.1047314181923866,0.6129076641258602,-0.3607571125030517,0.3567505627870559,-0.3438591957092285,10.87778664907637,-0.007215142250061,0.0071350112557411,-0.0068771839141845
0.02,-1.0883747339248655,0.0524729341268539,2.431267261505127,0.0234046108445977,0.0628690646121386,0.0047893462282402,-0.0109326839447021,0.0064108148217201,-0.006866455078125,-1.0878400206565857,0.0524855582043528,2.4313361048698425,0.0453876443207263,-0.0937271527945995,-0.1047314181923866,0.1893719345254665,-0.1858770847320556,-0.0362098217010498,0.0005364418029785,9.631017333628732,-0.0109326839447021,0.0064108148217201,-0.006866455078125
0.04,-1.088670253753662,0.0525482408702373,2.4312491416931152,0.0221274187228377,0.0652158047723928,0.0049458223717343,-0.0132983922958374,0.0033888034522533,-0.0008153915405273,-1.0878400206565857,0.0524855582043528,2.4313361048698425,0.0453876443207263,-0.0937271527945995,-0.1047314181923866,0.3582753782213531,-0.1182854175567627,-0.151100568473339,0.3025531768798828,9.631017333628732,-0.0132983922958374,0.0033888034522533,-0.0008153915405273
0.06,-1.0887813568115234,0.0526016689836978,2.43135929107666,0.021516071555815,0.0680617181207129,0.0064683878000573,-0.0158947706222534,0.0071754120290279,-0.0069200992584228,-1.0873861442133783,0.0515482866764068,2.4302887906879187,0.0539394602179527,-0.1137271530926227,-0.1247314184904098,0.3819261749622522,-0.1298189163208007,0.1893304288387298,-0.3052353858947754,9.28687725220243,-0.0158947706222534,0.0071754120290279,-0.0069200992584228
0.08,-1.0890339612960815,0.0525697506964206,2.431332588195801,0.0285104763840785,0.0780277629451528,0.0067195201616429,-0.0113672018051147,-0.0014363229274749,-0.0012016296386718,-1.086478391326964,0.0496737436205148,2.428194162324071,0.0710430920124054,-0.1537271536886692,-0.1647314190864563,0.5642733228387543,0.2263784408569336,-0.4305867478251457,0.2859234809875488,9.057469598271837,-0.0113672018051147,-0.0014363229274749,-0.0012016296386718
0.1,-1.08934223651886,0.0524792186915874,2.4307143688201904,0.0566972251440547,0.1297007861354858,0.0031216157526039,-0.0138723850250244,-0.0040739402174949,-0.0278198719024658,-1.0855706384405497,0.0477992005646228,2.426099533960224,0.088146723806858,-0.1937271542847156,-0.2047314196825027,1.3432830948351464,-0.1252591609954834,-0.1318808645009994,-1.3309121131896973,8.839439921340272,-0.0138723850250244,-0.0040739402174949,-0.0278198719024658
0.12,-1.0894964933395386,0.0522289536893367,2.4295589923858643,0.0878536801522252,0.124669964890125,0.0101960424723187,-0.0069415569305419,-0.0112619251012802,-0.0519919395446777,-1.0838077039644125,0.0439246574789285,2.422004905566573,0.1052503556013107,-0.2337271548807621,-0.2447314202785492,1.3076623788888135,0.3465414047241211,-0.3593992441892624,-1.2086033821105957,9.109960808298638,-0.0069415569305419,-0.0112619251012802,-0.0519919395446777
0.14,-1.0894572734832764,0.0518010258674621,2.4279565811157227,0.1302444638615486,0.1510163060815955,0.0125402544297057,0.0017648935317993,-0.0192567519843578,-0.072108507156372,-1.082044769488275,0.0400501143932342,2.4179102771729237,0.1223539873957634,-0.2737271554768086,-0.2847314208745957,1.1666145775484864,0.4353225231170654,-0.3997413441538811,-1.0058283805847168,8.916654584079424,0.0017648935317993,-0.0192567519843578,-0.072108507156372
0.16,-1.0895191431045532,0.0514359027147293,2.426656484603882,0.1545801901726692,0.1664044463329743,0.0166075166371832,0.0048118829727172,-0.0301726721227169,-0.0869464874267578,-1.0798542442172767,0.0351755712926387,2.412815648764372,0.139457619190216,-0.313727156072855,-0.3247314214706421,0.9335511710994412,0.1523494720458984,-0.5457960069179535,-0.7418990135192871,8.916654584079424,0.0048118829727172,-0.0301726721227169,-0.0869464874267578
0.18,-1.088901400566101,0.0499488823115825,2.424398422241211,0.1904032535911102,0.1850303672758306,0.0186694241516716,0.0277984142303466,-0.0669159144163131,-0.1016128063201904,-1.077236128151417,0.0293010281771421,2.40672102034092,0.1565612509846687,-0.3537271566689014,-0.3647314220666885,2.287764948256132,1.1493265628814695,-1.8371621146798132,-0.7333159446716309,9.06894080648908,0.0277984142303466,-0.0669159144163131,-0.1016128063201904
0.2,-1.0881377458572388,0.0480705164372921,2.421205997467041,0.2135944286925599,0.22932948127318,0.0096509054680166,0.0343644618988037,-0.0845264643430709,-0.1436591148376464,-1.074618012085557,0.0234264850616455,2.4006263919174677,0.1736648827791214,-0.3937271572649479,-0.404731422662735,2.302789889814297,0.3283023834228515,-0.8805274963378906,-2.1023154258728027,9.669083257624608,0.0343644618988037,-0.0845264643430709,-0.1436591148376464
0.22,-1.0867230892181396,0.0454018525779247,2.4175446033477783,0.24376456658612,0.2198810297829151,0.0231401336010377,0.0636595487594604,-0.1200898736715316,-0.1647627353668213,-1.0864195227622986,0.0438441932201385,2.4140230417251587,0.1016249880194664,-0.1845264658331871,-0.2436591163277626,2.5339302460192528,1.464754343032837,-1.778170466423035,-1.0551810264587402,9.669083257624608,0.0636595487594604,-0.1200898736715316,-0.1647627353668213
0.24,-1.0847426652908323,0.0416978523135185,2.413559913635254,0.2516710478131987,0.2260318377909704,0.0226221617593209,0.0891190767288208,-0.1666800081729889,-0.1793110370635986,-1.0864195227622986,0.0438441932201385,2.4140230417251587,0.1016249880194664,-0.1845264658331871,-0.2436591163277626,2.75249036308348,1.2729763984680176,-2.3295067250728607,-0.7274150848388672,9.955282585235636,0.0891190767288208,-0.1666800081729889,-0.1793110370635986
0.26,-1.0833641290664673,0.0394806414842605,2.4113917350769043,0.249354399101897,0.2257280586627123,0.0200175601369321,0.10636568069458,-0.1818941682577133,-0.1975071430206298,-1.0864195227622986,0.0438441932201385,2.4140230417251587,0.1016249880194664,-0.1845264658331871,-0.2436591163277626,1.466300009748068,0.8623301982879639,-0.7607080042362213,-0.9098052978515624,10.45326485951864,0.10636568069458,-0.1818941682577133,-0.1975071430206298
0.28,-1.0804039239883425,0.0342535935342311,2.4067728519439697,0.2420340669398719,0.2197087320906605,0.0176638777244195,0.133209228515625,-0.2352171540260315,-0.2078497409820556,-1.085403272882104,0.0419989285618066,2.411586450561881,0.1150770932435989,-0.2045264661312103,-0.2636591166257858,3.0293919371140623,1.342177391052246,-2.666149288415909,-0.5171298980712891,10.850938084330664,0.133209228515625,-0.2352171540260315,-0.2078497409820556
0.3,-1.0768355131149292,0.027989899739623,2.4017505645751958,0.2242267033284345,0.2100754439417553,0.0125025157956824,0.1605784893035888,-0.2818662226200104,-0.2260029315948486,-1.0833707731217146,0.0383083992451429,2.406713268235326,0.141981303691864,-0.2445264667272567,-0.3036591172218322,2.85252097546614,1.3684630393981934,-2.332453429698944,-0.9076595306396484,10.540096191210068,0.1605784893035888,-0.2818662226200104,-0.2260029315948486
0.32,-1.0726823806762695,0.0209943335503339,2.39660120010376,0.1631792962946149,0.2013941321573337,-0.0082908073107391,0.186890959739685,-0.3148004710674286,-0.2317214012145996,-1.0813382733613253,0.0346178699284791,2.4018400859087707,0.1688855141401291,-0.2845264673233032,-0.3436591178178787,2.127035328831376,1.3156235218048096,-1.6467124223709106,-0.2859234809875488,10.30727291403764,0.186890959739685,-0.3148004710674286,-0.2317214012145996
0.34,-1.0680179595947266,0.0132008967921137,2.391366004943848,0.1749137671382924,0.1855284699257688,0.0001649912892606,0.2098989486694336,-0.3507046401500702,-0.2355837821960449,-1.0779605630785227,0.0289273405820131,2.394966903552413,0.1957897245883941,-0.3245264679193496,-0.3836591184139251,2.1409080427193614,1.1503994464874268,-1.79520845413208,-0.1931190490722656,10.163572196619498,0.2098989486694336,-0.3507046401500702,-0.2355837821960449
0.36,-1.0653752088546753,0.0088880518451333,2.3887383937835693,0.1578308626379386,0.1757248516969782,-0.0030027384028235,0.2256113290786743,-0.3722351789474487,-0.2386844158172607,-1.0745828527957202,0.023236811235547,2.388093721196056,0.2226939350366592,-0.3645264685153961,-0.4236591190099716,1.341693824875042,0.7856190204620361,-1.076526939868927,-0.155031681060791,10.163572196619498,0.2256113290786743,-0.3722351789474487,-0.2386844158172607
0.38,-1.0600179433822632,-1.6370040611946024e-05,2.383452177047729,0.1270975754351993,0.1607573013845811,-0.0062582107375013,0.2410769462585449,-0.4006989896297455,-0.2378797531127929,-1.070532537251711,0.0165462818741798,2.380220538824797,0.2495981454849243,-0.4045264691114426,-0.4636591196060181,1.6202016196911273,0.7732808589935303,-1.4231905341148376,0.0402331352233886,10.095614477025263,0.2410769462585449,-0.4006989896297455,-0.2378797531127929
0.4,-1.054287672042847,-0.0092656714841723,2.378095388412476,0.0529105915800807,0.141904663073463,-0.0163005375167393,0.2578622102737427,-0.4162185788154602,-0.2410554885864257,-1.065809616446495,0.0088557524979114,2.371347356438637,0.2765023559331894,-0.444526469707489,-0.5036591202020645,1.1540017681439398,0.8392632007598877,-0.7759794592857361,-0.1587867736816406,9.74801492247343,0.2578622102737427,-0.4162185788154602,-0.2410554885864257
0.42,-1.0482407808303833,-0.0189416762441396,2.372682571411133,0.066671329527012,0.1267779011379775,-0.01087581675978,0.272110104560852,-0.4354202151298523,-0.2435767650604248,-1.0413945615291595,-0.0300766004249453,2.3660426139831543,0.3265347480773926,-0.5162185803055763,-0.3410554900765419,1.2021461681355203,0.7123947143554688,-0.9600818157196044,-0.1260638236999511,9.448297542036926,0.272110104560852,-0.4354202151298523,-0.2435767650604248
0.44,-1.042054295539856,-0.0288407262414693,2.367127656936645,0.0370997663783943,0.1091545962271747,-0.0128964788077612,0.2783918380737304,-0.445457249879837,-0.2499711513519287,-1.0413945615291595,-0.0300766004249453,2.3660426139831543,0.3265347480773926,-0.5162185803055763,-0.3410554900765419,0.6728492003119907,0.3140866756439209,-0.5018517374992371,-0.3197193145751953,9.448297542036926,0.2783918380737304,-0.445457249879837,-0.2499711513519287
0.46,-1.038998007774353,-0.0336692482233047,2.3641490936279297,0.0243013408175679,0.1045865951095416,-0.0138587556395759,0.2818036079406738,-0.4405083358287811,-0.2526533603668213,-1.0413945615291595,-0.0300766004249453,2.3660426139831543,0.3265347480773926,-0.5162185803055763,-0.3410554900765419,0.3291130850835785,0.1705884933471679,0.2474457025527954,-0.1341104507446289,10.315652540594328,0.2818036079406738,-0.4405083358287811,-0.2526533603668213
0.48,-1.0326415300369265,-0.0435164235532283,2.358405828475952,0.0018155064384205,0.0893656167527917,-0.015593190935901,0.2860414981842041,-0.4431228935718536,-0.2584469318389892,-1.0381292140483855,-0.0352387862280011,2.362632059082389,0.3402692556381225,-0.5362185806035995,-0.3610554903745651,0.3819721727796019,0.2118945121765136,-0.1307278871536255,-0.2896785736083984,9.87262533597459,0.2860414981842041,-0.4431228935718536,-0.2584469318389892
0.5,-1.0261662006378174,-0.0532528832554817,2.3527379035949707,-0.0098793211532034,0.0806959674656958,-0.0126802622838396,0.2913898229598999,-0.4381406903266907,-0.255056619644165,-1.0315985190868378,-0.0455631578341126,2.3558109492808583,0.3677382707595825,-0.576218581199646,-0.4010554909706115,0.4028682907005952,0.26741623878479,0.2491101622581482,0.1695156097412109,9.87262533597459,0.2913898229598999,-0.4381406903266907,-0.255056619644165
0.52,-1.0198681354522705,-0.0628240555524826,2.3466267585754395,-0.0109808754466017,0.0967448990516729,-0.0099385680432793,0.2834129333496094,-0.4307027459144592,-0.2750015258789062,-1.02506782412529,-0.0558875294402241,2.3489898394793274,0.3952072858810425,-0.6162185817956924,-0.441055491566658,1.1366101680510614,-0.3988444805145263,0.3718972206115722,-0.9972453117370604,9.753964628421729,0.2834129333496094,-0.4307027459144592,-0.2750015258789062
0.54,-1.0134620666503906,-0.0723468363285064,2.3404316902160645,0.0153838135909281,0.0896813600680226,-0.0044334993794739,0.2882730960845947,-0.4285251498222351,-0.278778076171875,-1.0171636784076692,-0.068211901076138,2.3401687296479943,0.4226763010025024,-0.6562185823917389,-0.4810554921627044,0.3264408011674261,0.2430081367492675,0.108879804611206,-0.1888275146484375,9.753964628421729,0.2882730960845947,-0.4285251498222351,-0.278778076171875
0.56,-1.01022207736969,-0.0770966187119484,2.336833238601685,0.0326197611596163,0.0971993462761399,-0.0040963819255109,0.28714120388031,-0.4315358996391296,-0.2987229824066162,-1.0092595326900484,-0.0805362727120518,2.331347619816661,0.4501453161239624,-0.6962185829877854,-0.521055492758751,1.010130040062503,-0.0565946102142334,-0.1505374908447265,-0.9972453117370604,9.643040644450592,0.28714120388031,-0.4315358996391296,-0.2987229824066162
0.58,-1.0038142204284668,-0.0864369645714759,2.33027720451355,0.0645064059620635,0.1116940307483634,0.0014370368027397,0.2883535623550415,-0.4203155636787414,-0.2950215339660644,-1.000668661594391,-0.0938606443628668,2.3215265099704268,0.4776143312454223,-0.7362185835838317,-0.5610554933547973,0.5938570381272256,0.0606179237365722,0.5610167980194092,0.1850724220275879,9.625234858765907,0.2883535623550415,-0.4203155636787414,-0.2950215339660644
0.6,-0.99720960855484,-0.0960413962602615,2.3235557079315186,0.0944769956564176,0.1512978218926721,0.0009701549633639,0.2972075343132019,-0.4321994185447693,-0.3024673461914062,-0.9913910651206972,-0.108185016028583,2.310705400109291,0.5050833463668823,-0.7762185841798782,-0.6010554939508438,0.8292450566746742,0.44269859790802,-0.5941927433013916,-0.3722906112670898,10.67462889367016,0.2972075343132019,-0.4321994185447693,-0.3024673461914062
0.62,-0.9905347228050232,-0.1059890389442443,2.3165619373321533,0.1189838549165504,0.1396512646108823,0.0076834178252662,0.3003698587417602,-0.4476439356803894,-0.3147196769714355,-0.98234923183918,-0.1176513671875,2.308432340621948,0.3568652756512165,-0.5321994200348854,-0.4024673476815223,0.9983148487415852,0.1581162214279174,-0.7722258567810059,-0.6126165390014648,10.67462889367016,0.3003698587417602,-0.4476439356803894,-0.3147196769714355
0.64,-0.9835212230682372,-0.1161128059029579,2.3094282150268555,0.1375952467072639,0.1484637142519603,0.0106677329328206,0.315607488155365,-0.4555695056915283,-0.3210175037384033,-0.98234923183918,-0.1176513671875,2.308432340621948,0.3568652756512165,-0.5321994200348854,-0.4024673476815223,0.9146893354228972,0.7618814706802368,-0.3962785005569458,-0.3148913383483886,10.566543422941322,0.315607488155365,-0.4555695056915283,-0.3210175037384033
0.66,-0.9801346063613892,-0.1213718429207801,2.305662155151367,0.1449040065564738,0.1537470017375728,0.0111221795085227,0.31698077917099,-0.4699619114398956,-0.3232276439666748,-0.98234923183918,-0.1176513671875,2.308432340621948,0.3568652756512165,-0.5321994200348854,-0.4024673476815223,0.731286522622728,0.06866455078125,-0.7196202874183655,-0.1105070114135742,10.566543422941322,0.31698077917099,-0.4699619114398956,-0.3232276439666748
0.68,-0.9728330969810486,-0.1324947625398636,2.2986111640930176,0.1503884294596085,0.1551355914696823,0.0120573723311099,0.3285679221153259,-0.5005313754081726,-0.3172945976257324,-0.9787805790826678,-0.1229733613878488,2.304407667145133,0.3687968239188194,-0.5521994203329086,-0.4224673479795456,1.6612909496864392,0.5793571472167969,-1.5284731984138489,0.2966523170471191,10.606038385075408,0.3285679221153259,-0.5005313754081726,-0.3172945976257324
0.7000000000000001,-0.9652340412139891,-0.1439131647348404,2.2914745807647705,0.1129422262441186,0.1557239727810075,-0.0001603220165078,0.3419575095176697,-0.5138280987739563,-0.3211462497711181,-0.9716432735696436,-0.1336173497885465,2.2963583201915028,0.3926599204540252,-0.5921994209289551,-0.462467348575592,0.9629630409837064,0.6694793701171875,-0.6648361682891846,-0.1925826072692871,10.49571094480143,0.3419575095176697,-0.5138280987739563,-0.3211462497711181
0.72,-0.9573929905891418,-0.1560528576374054,2.2846953868865967,0.1319565651061086,0.1442583946478542,0.0070657100499569,0.3528472781181335,-0.5462861657142639,-0.3050637245178222,-0.9645059680566191,-0.1442613381892442,2.2883089732378723,0.4165230169892311,-0.6321994215250015,-0.5024673491716385,1.8912699359134588,0.5444884300231934,-1.6229033470153809,0.8041262626647949,10.49571094480143,0.3528472781181335,-0.5462861657142639,-0.3050637245178222
0.74,-0.9492666125297546,-0.1684941202402115,2.277792930603028,0.0851357395699077,0.1415912891416117,-0.0043501918718635,0.3656870126724243,-0.5598568320274353,-0.3106105327606201,-0.9561755077168343,-0.1569053266197443,2.27825962625444,0.4403861135244369,-0.672199422121048,-0.542467349767685,0.9744086017816952,0.6419867277145386,-0.6785333156585693,-0.2773404121398926,10.254413618585204,0.3656870126724243,-0.5598568320274353,-0.3106105327606201
0.76,-0.9450215101242064,-0.174975499510765,2.274608373641968,0.1029698682112189,0.1297162069689933,0.0018154995687597,0.3683370351791382,-0.5718717575073242,-0.2964484691619873,-0.94784504737705,-0.1695493150502443,2.2682102792710066,0.4642492100596428,-0.7121994227170945,-0.5824673503637314,0.9380099932104862,0.1325011253356933,-0.6007462739944458,0.7081031799316406,10.254413618585204,0.3683370351791382,-0.5718717575073242,-0.2964484691619873
0.78,-0.9366060495376588,-0.1881323158740997,2.267916202545166,0.0833112027733722,0.1194084124449519,0.000777627010856,0.3786957263946533,-0.5920567512512207,-0.3011476993560791,-0.938918009623885,-0.1831933034956455,2.2571609322726727,0.4881123065948486,-0.7521994233131408,-0.6224673509597778,1.1584679759887568,0.5179345607757568,-1.0092496871948242,-0.2349615097045898,10.298083983564991,0.3786957263946533,-0.5920567512512207,-0.3011476993560791
0.8,-0.9280925393104552,-0.2013693898916244,2.260935068130493,0.0675923802910897,0.1109254567688274,0.0003117748701457,0.3831079602241516,-0.5956683158874512,-0.3141510486602783,-0.9293943944573402,-0.1978372919559478,2.245111585259438,0.5119754031300544,-0.7921994239091873,-0.6624673515558243,0.7099265800328545,0.2206116914749145,-0.1805782318115234,-0.6501674652099609,9.868273760646844,0.3831079602241516,-0.5956683158874512,-0.3141510486602783
0.8200000000000001,-0.9194573760032654,-0.2149302363395691,2.254201650619507,0.0536527537679531,0.1023404033828502,-0.0011441938254033,0.3885823488235473,-0.6102380752563477,-0.3030037879943847,-0.9089371412992476,-0.231152805685997,2.2452275156974792,0.4372691698372364,-0.668792225420475,-0.4141510501503944,0.9572202449777673,0.2737194299697876,-0.7284879684448242,0.5573630332946777,9.88623204052874,0.3885823488235473,-0.6102380752563477,-0.3030037879943847
0.84,-0.9108259677886964,-0.2283487468957901,2.2473130226135254,0.0407962195886009,0.0955706668993648,-0.0017096914400427,0.3884133696556091,-0.6038329601287842,-0.309988260269165,-0.9089371412992476,-0.231152805685997,2.2452275156974792,0.4372691698372364,-0.668792225420475,-0.4141510501503944,0.4739116655921067,-0.0084489583969116,0.3202557563781738,-0.3492236137390136,9.43675584191351,0.3884133696556091,-0.6038329601287842,-0.309988260269165
0.86,-0.906428039073944,-0.2352685034275055,2.243857383728028,0.0020715100315519,0.0944812354042021,-0.0064161490261313,0.3883945941925049,-0.6099987030029297,-0.3145909309387207,-0.9089371412992476,-0.231152805685997,2.2452275156974792,0.4372691698372364,-0.668792225420475,-0.4141510501503944,0.3847119539359249,-0.0009387731552124,-0.3082871437072754,-0.2301335334777832,9.896368063631144,0.3883945941925049,-0.6099987030029297,-0.3145909309387207
0.88,-0.8977411985397339,-0.2487975060939788,2.2367074489593506,0.0235363607070453,0.0864034670065158,-0.0034066931720735,0.3909078240394592,-0.6088051199913025,-0.3217470645904541,-0.9045644496008752,-0.2378407279402017,2.241086005195976,0.4481014117598533,-0.6834170073270798,-0.4341510504484177,0.3838984680574357,0.1256614923477172,0.0596791505813598,-0.3578066825866699,9.896368063631144,0.3909078240394592,-0.6088051199913025,-0.3217470645904541
0.9,-0.8889940977096558,-0.2623659074306488,2.229267120361328,-0.0108131718167765,0.0893791135784922,-0.0046895296976856,0.3936195373535156,-0.6105780601501465,-0.3348147869110107,-0.8958190662041307,-0.2512165724486112,2.2328029841929675,0.4697658956050873,-0.7126665711402893,-0.4741510510444641,0.6731680186841297,0.1355856657028198,-0.0886470079421997,-0.653386116027832,10.614008065188044,0.3936195373535156,-0.6105780601501465,-0.3348147869110107
0.92,-0.880323052406311,-0.275747537612915,2.221744537353516,-0.0132942017302246,0.0920818650076978,-0.0034456613931716,0.3901970386505127,-0.6021733283996582,-0.3385162353515625,-0.887073682807386,-0.2645924169570207,2.22451996318996,0.4914303794503212,-0.7419161349534988,-0.5141510516405106,0.490035033767448,-0.1711249351501464,0.420236587524414,-0.1850724220275879,9.537279871291505,0.3901970386505127,-0.6021733283996582,-0.3385162353515625
0.94,-0.8716866374015808,-0.2891296148300171,2.214198112487793,0.0075798729744145,0.0867671950694642,-0.0001714701866489,0.3886386752128601,-0.6021934747695923,-0.3395891189575195,-0.8772450752183796,-0.2794307396560907,2.2142369421571493,0.5130948632955551,-0.7711656987667084,-0.554151052236557,0.0946041980036466,-0.0779181718826294,-0.0010073184967041,-0.0536441802978515,9.537279871291505,0.3886386752128601,-0.6021934747695923,-0.3395891189575195
0.96,-0.8673060536384583,-0.2957768738269806,2.21061110496521,0.0045090302961292,0.0848885318804573,0.0003711712091149,0.3869730234146118,-0.5982948541641235,-0.3368425369262695,-0.8674164676293731,-0.2942690623551607,2.2039539211243397,0.5347593471407891,-0.8004152625799179,-0.5941510528326035,0.2525735110456887,-0.0832825899124145,0.1949310302734375,0.1373291015625,9.462267496374352,0.3869730234146118,-0.5982948541641235,-0.3368425369262695
0.98,-0.8587425947189331,-0.3087455034255981,2.203032255172729,0.0057735182837493,0.0929810869465021,0.002029211073198,0.3853556513786316,-0.5835883617401123,-0.3410482406616211,-0.8570462479442358,-0.3098386241495608,2.192670900076628,0.556423830986023,-0.8296648263931274,-0.6341510534286499,0.7690655947801537,-0.0808686017990112,0.7353246212005615,-0.2102851867675781,9.4342487753147,0.3853556513786316,-0.5835883617401123,-0.3410482406616211
1.0,-0.8500766158103943,-0.3218664526939392,2.1952602863311768,-0.0072859859417453,0.1113863880526321,0.0012591689553822,0.3899690508842468,-0.5904427170753479,-0.349738597869873,-0.8461344161629677,-0.3261394250392913,2.1803878790140154,0.5780883148312569,-0.858914390206337,-0.6741510540246963,0.5995580673860962,0.2306699752807617,-0.3427177667617798,-0.4345178604125976,9.492168234488418,0.3899690508842468,-0.5904427170753479,-0.349738597869873
1.02,-0.8414910435676575,-0.3346423804759979,2.1871612071990967,0.0108717459536323,0.1033286710370939,0.0051087853218345,0.3863507509231567,-0.5749167203903198,-0.3644585609436035,-0.830578163266182,-0.3513885885477066,2.177773356437683,0.4648724645376205,-0.636687558144331,-0.4497385993599891,1.0849262423823058,-0.1809149980545044,0.7762998342514038,-0.7359981536865234,9.492168234488418,0.3863507509231567,-0.5749167203903198,-0.3644585609436035
1.04,-0.8328182697296143,-0.3473916351795196,2.1789886951446533,0.0179736815095105,0.1081845268847488,0.00767105759492,0.3902748227119446,-0.5737164616584778,-0.3677630424499511,-0.830578163266182,-0.3513885885477066,2.177773356437683,0.4648724645376205,-0.636687558144331,-0.4497385993599891,0.2634319573092706,0.1962035894393921,0.060012936592102,-0.1652240753173828,9.16826387784704,0.3902748227119446,-0.5737164616584778,-0.3677630424499511
1.06,-0.8285842537879944,-0.3537097573280334,2.1749181747436523,0.0022623896406501,0.1169158357635341,0.0044682149342747,0.3895211219787597,-0.5716592073440552,-0.3703272342681885,-0.830578163266182,-0.3513885885477066,2.177773356437683,0.4648724645376205,-0.636687558144331,-0.4497385993599891,0.1686374794502166,-0.0376850366592407,0.1028627157211303,-0.1282095909118652,10.209696293467005,0.3895211219787597,-0.5716592073440552,-0.3703272342681885
1.08,-0.8197203278541565,-0.3663141429424286,2.1667051315307617,0.0232512087897805,0.106554364459934,0.0101513526816839,0.3988766670227051,-0.567197322845459,-0.3695869445800781,-0.8259294386208057,-0.3577554641291499,2.173275970444083,0.4798531472682952,-0.6459365263581276,-0.4697385996580124,0.5195735394783524,0.4677772521972656,0.2230942249298095,0.0370144844055175,10.209696293467005,0.3988766670227051,-0.567197322845459,-0.3695869445800781
1.1,-0.8108767867088318,-0.3789820671081543,2.1585617065429688,0.0188374283004742,0.1052723371905434,0.008345203148994,0.3979593515396118,-0.5700565576553345,-0.3664541244506836,-0.8166319893300533,-0.3704892152920365,2.164281198456884,0.5098145127296447,-0.6644344627857208,-0.5097386002540588,0.2169749602872755,-0.045865774154663,-0.1429617404937744,0.1566410064697265,9.910089717471235,0.3979593515396118,-0.5700565576553345,-0.3664541244506836
1.12,-0.8021531105041504,-0.3914796411991119,2.150796890258789,0.0124054329672838,0.1101268044707156,0.0084566150030354,0.3925654292106628,-0.5623908042907715,-0.3494167327880859,-0.8073345400393009,-0.3832229664549231,2.155286426469684,0.5397758781909943,-0.6829323992133141,-0.5497386008501053,0.9722793932324638,-0.2696961164474487,0.3832876682281494,0.8518695831298828,9.86478603582782,0.3925654292106628,-0.5623908042907715,-0.3494167327880859
1.14,-0.7932250499725342,-0.4036653935909271,2.142840623855591,-0.0257150972787611,0.1262460130533143,0.0028350881153913,0.4017627239227295,-0.5483588576316833,-0.3580319881439209,-0.796539022475481,-0.3968816144391894,2.1442916544526818,0.5697372436523438,-0.7014303356409073,-0.5897386014461518,0.943011640848546,0.4598647356033325,0.7015973329544067,-0.430762767791748,9.487097220495343,0.4017627239227295,-0.5483588576316833,-0.3580319881439209
1.16,-0.7885605692863464,-0.4098177552223205,2.139173746109009,-0.0063543402401447,0.1139468028194393,0.0074604605356787,0.4063841700553894,-0.551813542842865,-0.3423571586608886,-0.7857435049116612,-0.4105402624234557,2.13329688243568,0.5996986091136932,-0.7199282720685005,-0.6297386020421982,0.8351540181121844,0.2310723066329956,-0.172734260559082,0.7837414741516113,9.487097220495343,0.4063841700553894,-0.551813542842865,-0.3423571586608886
1.18,-0.7793504595756531,-0.4218928813934326,2.1314022541046143,-0.0163129116534632,0.1212243692124597,0.0057587847795151,0.4144549369812011,-0.5433806777000427,-0.3497171401977539,-0.7741989532113076,-0.4246613588184118,2.1213021104037764,0.6296599745750427,-0.7384262084960938,-0.6697386026382446,0.6899634437975701,0.4035383462905884,0.4216432571411133,-0.3679990768432617,9.287218533278065,0.4144549369812011,-0.5433806777000427,-0.3497171401977539
1.2,-0.7700439095497131,-0.4336949288845062,2.1234493255615234,-0.0244564360174285,0.1290151261159031,0.0057392450900508,0.4187947511672973,-0.5310921669006348,-0.3578817844390869,-0.758627712726593,-0.4490619152784347,2.1139163970947266,0.495100699365139,-0.564179789274931,-0.44971714168787,0.7689325399938216,0.2169907093048095,0.614425539970398,-0.4082322120666504,9.127813159981995,0.4187947511672973,-0.5310921669006348,-0.3578817844390869
1.22,-0.7606627345085144,-0.4452035129070282,2.1154019832611084,-0.0463088886988397,0.1508249680482673,0.0025591254188682,0.4221528768539428,-0.5178862810134888,-0.3621304035186767,-0.758627712726593,-0.4490619152784347,2.1139163970947266,0.495100699365139,-0.564179789274931,-0.44971714168787,0.7136581714572549,0.1679062843322754,0.6602942943572998,-0.2124309539794922,9.98274367146223,0.4221528768539428,-0.5178862810134888,-0.3621304035186767
1.24,-0.7510554194450378,-0.4565103352069855,2.106844902038574,-0.0233826194756587,0.145850835116665,0.0065046488111863,0.4323291778564453,-0.5088070034980774,-0.3850686550140381,-0.758627712726593,-0.4490619152784347,2.1139163970947266,0.495100699365139,-0.564179789274931,-0.44971714168787,1.3343104623361022,0.5088150501251221,0.4539638757705688,-1.1469125747680664,9.98274367146223,0.4323291778564453,-0.5088070034980774,-0.3850686550140381
1.26,-0.7460241913795471,-0.4621298015117645,2.102758884429932,-0.0426488884897513,0.1598411983700532,0.0029834787639386,0.4396060109138489,-0.5051699280738831,-0.3815603256225586,-0.7536767057329417,-0.4547037131711841,2.109419225677848,0.5112298518419266,-0.5683396115899086,-0.4697171419858932,0.4429700670071246,0.3638416528701782,0.1818537712097168,0.1754164695739746,10.278003964840993,0.4396060109138489,-0.5051699280738831,-0.3815603256225586
1.28,-0.7360202670097351,-0.4730510115623474,2.094015121459961,-0.0241762307291439,0.1475672524649979,0.0087747240416568,0.4501765966415405,-0.4914544522762298,-0.3934693336486816,-0.7437746917456388,-0.4659873089566826,2.1004248828440906,0.5434881567955017,-0.5766592562198639,-0.5097171425819397,1.0508044907935443,0.5285292863845825,0.6857737898826599,-0.5954504013061523,10.278003964840993,0.4501765966415405,-0.4914544522762298,-0.3934693336486816
1.3,-0.7259315848350525,-0.48367840051651,2.084991455078125,-0.0226885101777856,0.1515771878257576,0.007982586534647,0.4539906978607178,-0.4782325029373169,-0.4060649871826172,-0.7338726777583361,-0.4772709047421813,2.091430540010333,0.5757464617490768,-0.5849789008498192,-0.5497171431779861,0.9327617600141171,0.1907050609588623,0.6610974669456482,-0.6297826766967773,9.865043020095072,0.4539906978607178,-0.4782325029373169,-0.4060649871826172
1.32,-0.7153101563453674,-0.494035542011261,2.076214075088501,-0.0263443674621174,0.1517090922363362,0.008576514481057,0.4779642820358276,-0.4660713672637939,-0.394982099533081,-0.7223577485233545,-0.4889704827591777,2.0804361971467733,0.608004766702652,-0.5932985454797745,-0.5897171437740326,1.4538366119711932,1.1986792087554932,0.6080567836761475,0.5541443824768066,10.088198840909628,0.4779642820358276,-0.4660713672637939,-0.394982099533081
1.34,-0.7044675350189209,-0.5040856003761292,2.0672452449798584,-0.0298275057420099,0.1518393396520968,0.0091433008571313,0.487917959690094,-0.4522526264190674,-0.403597354888916,-0.710842819288373,-0.500670060776174,2.069441854283214,0.6402630716562272,-0.6016181901097297,-0.6297171443700791,0.9542744917278762,0.4976838827133178,0.6909370422363281,-0.430762767791748,10.088198840909628,0.487917959690094,-0.4522526264190674,-0.403597354888916
1.36,-0.6991820931434631,-0.5091424584388733,2.0626120567321777,-0.0297162268947524,0.1549388689913355,0.0081732911677688,0.4933923482894897,-0.453309416770935,-0.4017198085784912,-0.6985214324295521,-0.5125776299089193,2.057447511404753,0.6725213766098023,-0.6099378347396851,-0.6697171449661254,0.2941552163942728,0.2737194299697876,-0.0528395175933837,0.0938773155212402,10.044715779109993,0.4933923482894897,-0.453309416770935,-0.4017198085784912
1.38,-0.6881170868873596,-0.5186316967010498,2.053609132766724,-0.0308879020919464,0.1519880273140988,0.007840177116308,0.4979252815246582,-0.4270157217979431,-0.4051315784454345,-0.6853935879468919,-0.5246931901574134,2.044453168511391,0.7047796815633773,-0.6182574793696404,-0.7097171455621719,1.3449405680849054,0.2266466617584228,1.3146847486495972,-0.1705884933471679,9.956031185019128,0.4979252815246582,-0.4270157217979431,-0.4051315784454345
1.4,-0.6767309904098511,-0.5279756784439087,2.0444564819335938,-0.0303129452256012,0.1473081255846081,0.0083415012637987,0.5123743414878845,-0.4204791784286499,-0.4118692874908447,-0.6632208228111267,-0.539982482790947,2.033352553844452,0.549351878464222,-0.4376762872561812,-0.4696659967303276,0.8615370801946987,0.7224529981613159,0.3268271684646606,-0.3368854522705078,9.660274900529204,0.5123743414878845,-0.4204791784286499,-0.4118692874908447
1.42,-0.6651033163070679,-0.537173330783844,2.0353598594665527,-0.0287886238841017,0.1387954326413402,0.0082317584623268,0.5232453346252441,-0.4138943552970886,-0.4093480110168457,-0.6632208228111267,-0.539982482790947,2.033352553844452,0.549351878464222,-0.4376762872561812,-0.4696659967303276,0.6478719443779098,0.543549656867981,0.3292411565780639,0.1260638236999511,9.687300260679422,0.5232453346252441,-0.4138943552970886,-0.4093480110168457
1.44,-0.6534426808357239,-0.5458275079727173,2.0259251594543457,-0.0227807065448309,0.132643249042346,0.0094588530180186,0.5247285962104797,-0.3894379734992981,-0.4245615005493164,-0.6632208228111267,-0.539982482790947,2.033352553844452,0.549351878464222,-0.4376762872561812,-0.4696659967303276,1.4420167642265216,0.0741630792617797,1.2228190898895264,-0.7606744766235352,10.957107110122251,0.5247285962104797,-0.3894379734992981,-0.4245615005493164
1.46,-0.6474530100822449,-0.5500702857971191,2.0213098526000977,-0.0376763190067282,0.1205906467235315,0.005846827203467,0.5279740691184998,-0.3892368078231811,-0.4228770732879638,-0.6577273040264845,-0.5443592456635088,2.028655893877149,0.5596371978521347,-0.4398084003478288,-0.4825728803873062,0.1831041863579798,0.1622736454010009,0.0100582838058471,0.0842213630676269,11.132376022638256,0.5279740691184998,-0.3892368078231811,-0.4228770732879638
1.48,-0.6355838775634766,-0.5584508180618286,2.012094259262085,-0.0198303407746157,0.1141554072585348,0.010954486276029,0.534110963344574,-0.3771239519119262,-0.4147017002105713,-0.6467402664572001,-0.5531127714086324,2.0192625739425423,0.5802078366279602,-0.4440726265311241,-0.5083866477012634,0.792495227151875,0.3068447113037109,0.6056427955627441,0.4087686538696289,11.132376022638256,0.534110963344574,-0.3771239519119262,-0.4147017002105713
1.5,-0.6235551238059998,-0.5666138529777527,2.002974510192871,-0.0190327164740525,0.1007560757268541,0.0120920862556772,0.5412939190864563,-0.3673365712165832,-0.410388708114624,-0.6357532288879156,-0.561866297153756,2.009869254007936,0.6007784754037857,-0.4483368527144193,-0.5342004150152206,0.6441847073726545,0.3591477870941162,0.4893690347671509,0.2156496047973632,10.57140619279062,0.5412939190864563,-0.3673365712165832,-0.410388708114624
1.52,-0.6115925908088684,-0.5742977261543274,1.994133830070496,-0.0365874163784094,0.0766378301618267,0.006617204872595,0.5383139848709106,-0.3457742929458618,-0.397830605506897,-0.6237376593798399,-0.5708330342080444,1.9991852457076316,0.6213491141796113,-0.4526010788977146,-0.5600141823291779,1.2565008886379732,-0.1489967107772827,1.0781139135360718,0.6279051303863525,10.631488268129033,0.5383139848709106,-0.3457742929458618,-0.397830605506897
1.54,-0.5997323393821716,-0.5819094777107239,1.9859273433685305,-0.0409594843421114,0.0622355746382459,0.005546332467122,0.533711314201355,-0.3425288200378418,-0.3692919015884399,-0.6117220898717642,-0.5797997712623328,1.9885012374073268,0.6419197529554367,-0.4568653050810098,-0.5858279496431351,1.4544546168877484,-0.2301335334777832,0.1622736454010009,1.4269351959228516,10.080135839686136,0.533711314201355,-0.3425288200378418,-0.3692919015884399
1.56,-0.593729555606842,-0.5854982733726501,1.9820172786712649,-0.0418080165406008,0.0522719764344951,0.0067720454168189,0.5308493971824646,-0.3341683745384216,-0.3596895933151245,-0.5991922543942929,-0.5888731139712036,1.9771718849241733,0.6624903917312622,-0.4611295312643051,-0.6116417169570922,0.6524797739155813,-0.143095850944519,0.4180222749710083,0.4801154136657715,9.67267892264681,0.5308493971824646,-0.3341683745384216,-0.3596895933151245
1.58,-0.5821695923805237,-0.5925953984260559,1.973857045173645,-0.0245889388604757,0.0425937971006056,0.0091899735062951,0.5201983451843262,-0.3193706274032593,-0.3672105073928833,-0.5861481529474258,-0.5980530623346567,1.9651971882581711,0.6830610305070877,-0.4653937574476003,-0.6374554842710495,0.9861318085178632,-0.5325525999069214,0.7398873567581177,-0.3760457038879394,9.67267892264681,0.5201983451843262,-0.3193706274032593,-0.3672105073928833
1.6,-0.5708615779876709,-0.599358081817627,1.9656027555465696,-0.0448638556067267,0.0298938287348211,0.0060358405274232,0.5088606476783752,-0.304320752620697,-0.3714430332183838,-0.5561596751213074,-0.6085639297962189,1.9554965198040009,0.5454606544226408,-0.3122947490774095,-0.4174764826893806,0.9656039438749948,-0.5668848752975464,0.7524937391281128,-0.2116262912750244,9.846895949152897,0.5088606476783752,-0.304320752620697,-0.3714430332183838
1.62,-0.5599793791770935,-0.6059141755104065,1.9576616287231443,-0.0260142732534736,0.0203344091906116,0.0070044676424646,0.4896989464759826,-0.2950242161750793,-0.3573507070541382,-0.5561596751213074,-0.6085639297962189,1.9554965198040009,0.5454606544226408,-0.3122947490774095,-0.4174764826893806,1.2769005830270737,-0.9580850601196288,0.4648268222808838,0.7046163082122803,9.846895949152897,0.4896989464759826,-0.2950242161750793,-0.3573507070541382
1.64,-0.5493784546852112,-0.6120859384536743,1.949604630470276,-0.0247390064437812,0.0128215843382348,0.0081534869564116,0.4770416021347046,-0.277729332447052,-0.3625649213790893,-0.5561596751213074,-0.6085639297962189,1.9554965198040009,0.5454606544226408,-0.3122947490774095,-0.4174764826893806,1.102847904253115,-0.6328672170639038,0.8647441864013672,-0.2607107162475586,10.392781875857963,0.4770416021347046,-0.277729332447052,-0.3625649213790893
1.66,-0.5440934300422668,-0.6150740385055542,1.9460060596466064,-0.0286887560115128,0.0043419638757649,0.0067869760407555,0.4698532819747925,-0.2721878886222839,-0.3526407480239868,-0.550705068577081,-0.611686877286993,1.9513217549771071,0.5505131162703037,-0.3108795734122395,-0.4275296777486801,0.6724372892073025,-0.3594160079956054,0.2770721912384033,0.4962086677551269,10.333114382567146,0.4698532819747925,-0.2721878886222839,-0.3526407480239868
1.68,-0.534083902835846,-0.6208102703094482,1.938110947608948,-0.0294584536031609,0.002245380296371,0.0063265620574194,0.4504287242889404,-0.2581304311752319,-0.3552800416946411,-0.5397958554886282,-0.6179327722685412,1.9429722253233197,0.5606180399656295,-0.3080492220818996,-0.447636067867279,1.2061212856162389,-0.9712278842926024,0.7028728723526001,-0.1319646835327148,10.333114382567146,0.4504287242889404,-0.2581304311752319,-0.3552800416946411
1.7,-0.5244723558425903,-0.6262907981872559,1.9307854175567627,-0.034594651186269,0.0052061822061872,0.0082305670637248,0.4325196146965027,-0.2466237545013427,-0.3296488523483276,-0.5288866424001754,-0.6241786672500893,1.934622695669532,0.5707229636609554,-0.3052188707515597,-0.467742457985878,1.6659064212748746,-0.8954554796218872,0.575333833694458,1.2815594673156738,9.828260358444822,0.4325196146965027,-0.2466237545013427,-0.3296488523483276
1.72,-0.5151203870773315,-0.6311842799186707,1.923853874206543,-0.042427697636272,0.007637517733837,0.0088374106394636,0.4208385944366455,-0.2202066779136657,-0.3119194507598877,-0.5174721831269563,-0.6302830446651205,1.9252678465098143,0.5808278873562813,-0.3023885194212198,-0.4878488481044769,1.6945794835552588,-0.5840510129928589,1.32085382938385,0.8864700794219971,9.828260358444822,0.4208385944366455,-0.2202066779136657,-0.3119194507598877
1.74,-0.5062779784202576,-0.635816752910614,1.9170985221862795,-0.0486963438972581,0.0178195755759545,0.0076406934685506,0.3979083895683288,-0.2084612846374511,-0.3039908409118652,-0.5060577238537372,-0.6363874220801518,1.9159129973500968,0.5909328110516071,-0.2995581680908799,-0.5079552382230759,1.3477865304250507,-1.1465102434158323,0.58726966381073,0.396430492401123,9.61558091764391,0.3979083895683288,-0.2084612846374511,-0.3039908409118652
1.76,-0.5018611550331116,-0.6380132436752319,1.9136788845062256,-0.049035340242893,0.0236673803553998,0.0056951705716737,0.3929758071899414,-0.20050048828125,-0.3003054857254028,-0.4943906414881349,-0.6424210407119244,1.906055488437414,0.601037734746933,-0.29672781676054,-0.5280616283416748,0.5032059478853305,-0.2466291189193725,0.3980398178100586,0.1842677593231201,9.437208701893724,0.3929758071899414,-0.20050048828125,-0.3003054857254028
1.78,-0.4935348331928253,-0.6420624852180481,1.9069616794586184,-0.0470421111896286,0.0356677883759048,0.0058356664897679,0.3746844828128814,-0.1822158694267273,-0.302274227142334,-0.4824709360301495,-0.6483839005604386,1.8956953197717668,0.6111426584422588,-0.2938974654302001,-0.5481680184602737,1.2968960799623983,-0.9145662188529968,0.9142309427261353,-0.0984370708465576,9.437208701893724,0.3746844828128814,-0.1822158694267273,-0.302274227142334
1.8,-0.4853208661079407,-0.6456981897354126,1.900032877922058,-0.0491928801975025,0.0641659814123753,0.0069843891089183,0.3696285188198089,-0.1636067032814026,-0.3117960691452026,-0.4748006090521812,-0.6511732786893845,1.8918479681015012,0.4103156737983227,-0.1824550673336489,-0.3526392355561256,1.0753247319427963,-0.2527981996536255,0.9304583072662354,-0.4760921001434326,9.499176844586144,0.3696285188198089,-0.1636067032814026,-0.3117960691452026
1.82,-0.4773877263069153,-0.6489678025245667,1.8930072784423828,-0.0282823454148134,0.0594389880978824,0.0076737498279027,0.3569912910461426,-0.1471325755119323,-0.3161519765853882,-0.4748006090521812,-0.6511732786893845,1.8918479681015012,0.4103156737983227,-0.1824550673336489,-0.3526392355561256,1.0607430664348203,-0.6318613886833191,0.8237063884735107,-0.2177953720092773,9.499176844586144,0.3569912910461426,-0.1471325755119323,-0.3161519765853882
1.84,-0.4694619178771972,-0.6521047353744507,1.885550618171692,-0.0235144649508057,0.0875953430635618,0.0055358271345623,0.3566613793373108,-0.1411619782447815,-0.3355497121810913,-0.4748006090521812,-0.6511732786893845,1.8918479681015012,0.4103156737983227,-0.1824550673336489,-0.3526392355561256,1.0149248983335442,-0.0164955854415893,0.2985298633575439,-0.9698867797851562,10.201878331907665,0.3566613793373108,-0.1411619782447815,-0.3355497121810913
1.86,-0.4655993282794952,-0.6537180542945862,1.88201117515564,-0.0063947013248418,0.0781020418637844,0.0095204378667966,0.3473420441150665,-0.1409956812858581,-0.338977575302124,-0.470697452314198,-0.652997829362721,1.88832157574594,0.4174419119954109,-0.1825029069150332,-0.3627122372388839,0.4965579252203256,-0.4659667611122131,0.0083148479461669,-0.1713931560516357,10.201878331907665,0.3473420441150665,-0.1409956812858581,-0.338977575302124
1.88,-0.4577182829380035,-0.6565518379211426,1.8745527267456052,0.0102176507216025,0.0884834383692733,0.0103910550208683,0.3546470403671264,-0.1275202631950378,-0.3356301784515381,-0.4624911388382315,-0.656646930709394,1.8812687910348176,0.4316943883895874,-0.1825985860778018,-0.3828582406044006,0.7844662654319969,0.3652498126029968,0.6737709045410156,0.1673698425292968,10.23603622178416,0.3546470403671264,-0.1275202631950378,-0.3356301784515381
1.9,-0.4499984979629516,-0.6593822836875916,1.8671166896820068,0.0246008482544331,0.0962236859239623,0.0110853130475369,0.3473903238773346,-0.1273700594902038,-0.3346216678619385,-0.4542848253622651,-0.6602960320560669,1.8742160063236952,0.4459468647837639,-0.1826942652405705,-0.4030042439699173,0.3664000169742683,-0.3628358244895935,0.0075101852416992,0.0504255294799804,10.23603622178416,0.3473903238773346,-0.1273700594902038,-0.3346216678619385
1.92,-0.4422757029533386,-0.6622442603111267,1.8596463203430176,0.0250720302887301,0.1151031047728941,0.0044897692143261,0.3475257754325866,-0.128788948059082,-0.3361666202545166,-0.4453658880665898,-0.6639499173608783,1.8661559214442969,0.4601993411779403,-0.1827899444033391,-0.4231502473354339,0.1051007824667142,0.0067725777626037,-0.0709444284439086,-0.0772476196289062,11.726711201517446,0.3475257754325866,-0.128788948059082,-0.3361666202545166
1.94,-0.4343132078647613,-0.6651378273963928,1.8520867824554443,0.0452954640961251,0.1043317917243886,0.0093446383111172,0.3583122789859772,-0.1302105188369751,-0.3401792049407959,-0.4364469507709145,-0.6676038026656897,1.8580958365648983,0.4744518175721168,-0.1828856235661078,-0.4432962507009506,0.5798067743835625,0.5393251776695251,-0.0710785388946533,-0.2006292343139648,11.726711201517446,0.3583122789859772,-0.1302105188369751,-0.3401792049407959
1.96,-0.4304424226284027,-0.6666132807731628,1.8482487201690676,0.0280100419388722,0.113270583537979,0.0023844870745527,0.3567780554294586,-0.135955810546875,-0.3318053483963012,-0.4271717015653848,-0.6712600799495704,1.8495321016013624,0.4887042939662933,-0.1829813027288764,-0.4634422540664673,0.5135262704599359,-0.0767111778259277,-0.2872645854949951,0.4186928272247314,10.378386132138983,0.3567780554294586,-0.135955810546875,-0.3318053483963012
1.98,-0.4223840832710266,-0.6697407960891724,1.841273546218872,0.0478847544279664,0.1046318006924575,0.0064093218314662,0.3626252710819244,-0.1407381892204284,-0.313882827758789,-0.4175401404500007,-0.6749187492125202,1.840464716553688,0.5029567703604698,-0.1830769818916451,-0.4835882574319839,0.9724682805440896,0.292360782623291,-0.2391189336776733,0.8961260318756104,10.378386132138983,0.3626252710819244,-0.1407381892204284,-0.313882827758789
2.0,-0.4142672419548034,-0.672896683216095,1.8340381383895876,0.025936093224701,0.1041651723316425,-0.0004115704154189,0.3652578592300415,-0.1420149207115173,-0.32559335231781,-0.4042528197169304,-0.6767777055501938,1.8255794048309328,0.3878361228853464,-0.1478109802119434,-0.323072818107903,0.6035249562059931,0.1316294074058532,-0.0638365745544433,-0.5855262279510498,10.272179335490364,0.3652578592300415,-0.1420149207115173,-0.32559335231781
2.02,-0.4062559306621551,-0.6762916445732117,1.827451586723328,0.0169443427089665,0.0959204978814605,-0.0029050928659543,0.3605090081691742,-0.1527732610702514,-0.2963948249816894,-0.4042528197169304,-0.6767777055501938,1.8255794048309328,0.3878361228853464,-0.1478109802119434,-0.323072818107903,1.573886489133548,-0.2374425530433654,-0.5379170179367065,1.4599263668060305,10.908503627862046,0.3605090081691742,-0.1527732610702514,-0.2963948249816894
2.04,-0.3980713188648224,-0.6796640157699585,1.8206571340560915,0.0313458214195038,0.0829922779209876,0.0012349532869322,0.3683075308799743,-0.1517567038536071,-0.3057503700256347,-0.4042528197169304,-0.6767777055501938,1.8255794048309328,0.3878361228853464,-0.1478109802119434,-0.323072818107903,0.6110985356611226,0.3899261355400085,0.0508278608322143,-0.4677772521972656,10.908503627862046,0.3683075308799743,-0.1517567038536071,-0.3057503700256347
2.06,-0.3939630389213562,-0.6814143061637878,1.817104458808899,0.0307651320370223,0.0803727584852983,-0.0008163867950843,0.3742781281471252,-0.1552838087081909,-0.2949196100234985,-0.4003744584880769,-0.6782558153523133,1.8223486766498536,0.3928782932460308,-0.1492255384102463,-0.3249108161777257,0.6430277260849872,0.2985298633575439,-0.176355242729187,0.5415380001068115,10.713357024707877,0.3742781281471252,-0.1552838087081909,-0.2949196100234985
2.08,-0.3858519196510315,-0.685065507888794,1.8106255531311035,0.0228538698441627,0.0702996938805304,-0.0017556795205945,0.3650003671646118,-0.1643040776252746,-0.2915507555007934,-0.39261773603037,-0.6812120349565521,1.815887220287696,0.4029626339673996,-0.1520546548068523,-0.3285868123173713,0.6685642844564501,-0.4638880491256714,-0.451013445854187,0.1684427261352539,10.815614236045803,0.3650003671646118,-0.1643040776252746,-0.2915507555007934
2.1,-0.3777882754802704,-0.6887025833129883,1.8042372465133667,-0.0047220946430415,0.0636459419493998,-0.0059329552622505,0.3628639876842499,-0.1636683940887451,-0.2874737977981567,-0.384861013572663,-0.684168254560791,1.8094257639255376,0.4130469746887684,-0.1548837712034583,-0.3322628084570169,0.232324099868132,-0.1068189740180969,0.031784176826477,0.2038478851318359,10.854687623653716,0.3628639876842499,-0.1636683940887451,-0.2874737977981567
2.12,-0.3697811365127563,-0.6923712491989136,1.798164963722229,0.0129428392294339,0.0526771688132373,-0.0022804078060574,0.3603212535381317,-0.1650899648666381,-0.2732527256011963,-0.3766000740788877,-0.6872659299848601,1.8027805077563968,0.4231313154101371,-0.1577128876000642,-0.3359388045966625,0.7258189423774297,-0.1271367073059082,-0.0710785388946533,0.7110536098480225,10.576323225250237,0.3603212535381317,-0.1650899648666381,-0.2732527256011963
2.14,-0.3619789183139801,-0.6960669159889221,1.792354702949524,-0.0088426955534223,0.0496952648125084,-0.0060680794958222,0.351099818944931,-0.1663050055503845,-0.2614617347717285,-0.3683391345851123,-0.6903636054089293,1.7961352515872568,0.433215656131506,-0.1605420039966702,-0.3396148007363081,0.7508972042836991,-0.4610717296600342,-0.0607520341873168,0.5895495414733887,10.585713611835672,0.351099818944931,-0.1663050055503845,-0.2614617347717285
2.16,-0.3581598401069641,-0.6978427767753601,1.7895642518997192,-0.0140454623937994,0.0431808790047541,-0.0060155929152689,0.3421841561794281,-0.1627993583679199,-0.2575671672821045,-0.3598260865733027,-0.6935320087429137,1.7893980955146254,0.4432999968528747,-0.1633711203932762,-0.3432907968759536,0.5170741258449646,-0.4457831382751465,0.1752823591232299,0.1947283744812011,10.472208090929598,0.3421841561794281,-0.1627993583679199,-0.2575671672821045
2.18,-0.3506087362766266,-0.70152747631073,1.784145712852478,0.0046820135946903,0.0335669400988568,-0.0033665265245564,0.3397996723651886,-0.1658114790916443,-0.2438342571258545,-0.3510609300434589,-0.6967711399868131,1.7825690395385028,0.4533843375742435,-0.1662002367898822,-0.3469667930155992,0.7130067595652484,-0.1192241907119751,-0.1506060361862182,0.6866455078125,10.472208090929598,0.3397996723651886,-0.1658114790916443,-0.2438342571258545
2.2,-0.3433675765991211,-0.7050482630729675,1.778783917427063,0.0002141822576077,0.0304348650405105,-0.0033624930399843,0.3258521854877472,-0.1584354043006897,-0.2412807941436767,-0.3336187526583671,-0.7098180502653122,1.7719539999961853,0.3518112264573574,-0.1399183087050914,-0.2582091121003032,0.7991543072515909,-0.6973743438720703,0.3688037395477295,0.1276731491088867,10.700210330035134,0.3258521854877472,-0.1584354043006897,-0.2412807941436767
2.22,-0.3363800346851349,-0.7085269093513489,1.7734862565994265,-0.0010596182803305,0.0313719063478911,-0.0026053966261364,0.3144393861293793,-0.1565390825271606,-0.2383947372436523,-0.3336187526583671,-0.7098180502653122,1.7719539999961853,0.3518112264573574,-0.1399183087050914,-0.2582091121003032,0.596190720099915,-0.570639967918396,0.0948160886764526,0.1443028450012207,10.700210330035134,0.3144393861293793,-0.1565390825271606,-0.2383947372436523
2.24,-0.329615980386734,-0.7120442986488342,1.7683489322662354,-0.0027310138721008,0.0344820451574863,-0.0035698926635929,0.3043824434280395,-0.1582825183868408,-0.2311795949935913,-0.3336187526583671,-0.7098180502653122,1.7719539999961853,0.3518112264573574,-0.1399183087050914,-0.2582091121003032,0.624979885243247,-0.5028471350669861,-0.0871717929840087,0.3607571125030517,10.370896892532071,0.3043824434280395,-0.1582825183868408,-0.2311795949935913
2.26,-0.3262888789176941,-0.7136223912239075,1.765675067901611,-0.0242914018686262,0.0496832973050771,-0.0058126637790607,0.3011557459831238,-0.1557746529579162,-0.2273011207580566,-0.3301006403937936,-0.7112172333523631,1.7693719088751825,0.3542135372757912,-0.1347396746277809,-0.2610840830951929,0.2817069745601232,-0.1613348722457885,0.125393271446228,0.1939237117767334,10.381345839891765,0.3011557459831238,-0.1557746529579162,-0.2273011207580566
2.28,-0.3199194073677063,-0.7168752551078796,1.7606160640716553,-0.0069390781092668,0.0428657788634109,-0.0045634776985833,0.2866262197494507,-0.1463788747787475,-0.2276551723480224,-0.3230644158646464,-0.714015599526465,1.7642077266331762,0.3590181589126587,-0.1243824064731597,-0.2668340250849724,0.8653223860150255,-0.7264763116836548,0.469788908958435,-0.017702579498291,10.381345839891765,0.2866262197494507,-0.1463788747787475,-0.2276551723480224
2.3000000000000003,-0.3136029243469238,-0.7200342416763306,1.755679726600647,-0.0159472716529162,0.045410967337007,-0.0051056168163347,0.2842417359352112,-0.1421543955802917,-0.2221351861953735,-0.3160281913354993,-0.7168139657005668,1.75904354439117,0.3638227805495262,-0.1140251383185386,-0.2725839670747518,0.3674310638881527,-0.1192241907119751,0.2112239599227905,0.2759993076324463,10.475690586126802,0.2842417359352112,-0.1421543955802917,-0.2221351861953735
2.32,-0.3078274130821228,-0.7230122685432434,1.7509337663650513,-0.0273070971209435,0.0500659582803645,-0.0050618840518127,0.2598980069160461,-0.1340112090110778,-0.2135682106018066,-0.3087517357245087,-0.7190944684669376,1.7535918650496751,0.3686274021863937,-0.1036678701639175,-0.2783339090645313,1.3530721533609489,-1.217186450958252,0.4071593284606933,0.4283487796783447,10.844828540861272,0.2598980069160461,-0.1340112090110778,-0.2135682106018066
2.34,-0.3019384741783142,-0.7256910800933838,1.7460596561431885,-0.0392782059466897,0.054406769351453,-0.0037978436883306,0.2650022506713867,-0.1205465197563171,-0.2193349599838256,-0.3014752801135182,-0.7213749712333083,1.74814018570818,0.3734320238232612,-0.0933106020092964,-0.2840838510543108,0.7755748827099477,0.2552121877670288,0.6732344627380371,-0.2883374691009521,10.844828540861272,0.2650022506713867,-0.1205465197563171,-0.2193349599838256
2.36,-0.2991434037685394,-0.7269754409790039,1.743560791015625,-0.0448532048077778,0.059028986421892,-0.0044861883940686,0.2604545652866363,-0.1140636205673217,-0.2128064632415771,-0.294078708961606,-0.7233965422958135,1.7425447578169404,0.3782366454601288,-0.0829533338546752,-0.2898337930440903,0.513153714706662,-0.2273842692375183,0.324144959449768,0.3264248371124267,10.932446831098789,0.2604545652866363,-0.1140636205673217,-0.2128064632415771
2.38,-0.2935607135295868,-0.7293450832366943,1.7386399507522583,-0.0559960518443708,0.0624608658682278,-0.0047906279291454,0.2512210607528686,-0.1066339015960693,-0.2214378118515014,-0.2865620222687721,-0.7251591816544533,1.7368055813759564,0.3830412670969963,-0.0725960657000541,-0.2955837350338697,0.7330731695965614,-0.461675226688385,0.371485948562622,-0.4315674304962158,10.440190940247705,0.2512210607528686,-0.1066339015960693,-0.2214378118515014
2.4,-0.2881073653697967,-0.7311149835586548,1.7341108322143557,-0.0641236989966932,0.0625466792690468,-0.0032978964023442,0.2454006671905517,-0.0796455144882202,-0.2038103342056274,-0.2809996604919433,-0.7346767783164978,1.7275680601596832,0.2782442159950733,-0.0937124276533722,-0.2361317817121744,1.6378171357474292,-0.2910196781158447,1.349419355392456,0.8813738822937012,10.447950475205287,0.2454006671905517,-0.0796455144882202,-0.2038103342056274
2.42,-0.2828452587127685,-0.7326897382736206,1.7291817665100098,-0.0837347753016651,0.0746111429876249,-0.0029849589563275,0.2367947995662689,-0.0708639621734619,-0.2218079566955566,-0.2809996604919433,-0.7346767783164978,1.7275680601596832,0.2782442159950733,-0.0937124276533722,-0.2361317817121744,1.0898291539428573,-0.4302933812141418,0.439077615737915,-0.89988112449646,10.841308804067012,0.2367947995662689,-0.0708639621734619,-0.2218079566955566
2.44,-0.2777047753334045,-0.7338775992393494,1.7245419025421145,-0.0651899640765166,0.0673750757915085,-0.0018417182321739,0.2313217520713806,-0.0534537434577941,-0.2087938785552978,-0.2809996604919433,-0.7346767783164978,1.7275680601596832,0.2782442159950733,-0.0937124276533722,-0.2361317817121744,1.1207544272157166,-0.2736523747444153,0.8705109357833862,0.6507039070129395,10.841308804067012,0.2313217520713806,-0.0534537434577941,-0.2087938785552978
2.46,-0.2750563025474548,-0.73418128490448,1.7223209142684937,-0.0680617876947259,0.0748543916074297,-0.0005725966475986,0.2338457107543945,-0.0401714444160461,-0.200398564338684,-0.2782172183319926,-0.7356139025930315,1.7252067423425614,0.2836488470435142,-0.0911281328648328,-0.239070575684309,0.7957247263715946,0.1261979341506958,0.6641149520874023,0.4197657108306885,10.466395871022542,0.2338457107543945,-0.0401714444160461,-0.200398564338684
2.48,-0.2701281011104584,-0.7347617745399475,1.717498540878296,-0.046840582007565,0.0667815464729666,0.0008380748428195,0.2217690646648407,-0.0261220335960388,-0.2170068025588989,-0.2726523340120911,-0.737488151146099,1.720484106708318,0.2944581091403961,-0.085959543287754,-0.2449481636285781,1.244050744484605,-0.6038323044776917,0.7024705410003662,-0.8304119110107422,10.466395871022542,0.2217690646648407,-0.0261220335960388,-0.2170068025588989
2.5,-0.265315294265747,-0.7349755167961121,1.7128232717514038,-0.0274801578827186,0.079325421116036,0.0018850820067614,0.2165763080120086,-0.0096184015274047,-0.210387110710144,-0.2670874496921896,-0.7393623996991664,1.7157614710740745,0.305267371237278,-0.0807909537106752,-0.2508257515728473,0.9262220485456616,-0.2596378326416015,0.8251816034317017,0.3309845924377441,10.6030371058323,0.2165763080120086,-0.0096184015274047,-0.210387110710144
2.52,-0.2604656815528869,-0.7350809574127197,1.7081729173660278,-0.0024742287176978,0.0723142491997618,0.0034440048776025,0.2182325720787048,-0.0047448277473449,-0.2092659473419189,-0.2609821022674441,-0.7409782187733799,1.7107449560426176,0.3160766333341598,-0.0756223641335964,-0.2567033395171165,0.2634005473920151,0.0828132033348083,0.2436786890029907,0.0560581684112548,10.6030371058323,0.2182325720787048,-0.0047448277473449,-0.2092659473419189
2.54,-0.2557647228240967,-0.7350867390632629,1.7035348415374756,0.0207442457922016,0.0742528514936885,0.0040099286690781,0.2115431427955627,-0.0002601742744445,-0.208713412284851,-0.2548767548426985,-0.7425940378475934,1.7057284410111606,0.3268858954310417,-0.0704537745565175,-0.2625809274613857,0.4036269189965079,-0.3344714641571045,0.2242326736450195,0.0276267528533935,11.104075734286653,0.2115431427955627,-0.0002601742744445,-0.208713412284851
2.56,-0.2534739971160888,-0.7350553274154663,1.701465129852295,0.0290814633083443,0.0743253419716128,0.0056102914246994,0.2102838456630706,0.0008556246757507,-0.2066802978515625,-0.2485011758655309,-0.7440806421823799,1.700564986281097,0.3376951575279235,-0.0652851849794387,-0.2684585154056549,0.1319506618400038,-0.0629648566246032,0.0557899475097656,0.1016557216644287,11.104075734286653,0.2102838456630706,0.0008556246757507,-0.2066802978515625
2.58,-0.2487915903329849,-0.7350536584854126,1.6969835758209229,0.0465424103671797,0.0759711246567065,0.0052535821885214,0.2107083052396774,7.510185241699219e-05,-0.2016699314117431,-0.2418553653359413,-0.7454380317777395,1.6952545918524264,0.3485044196248054,-0.0601165954023599,-0.2743361033499241,0.2544265791499875,0.0212229788303375,-0.039026141166687,0.2505183219909668,10.912816435110472,0.2107083052396774,7.510185241699219e-05,-0.2016699314117431
2.6,-0.2443111538887024,-0.7351337671279907,1.6924563646316528,0.0427506540568634,0.0950002784508702,-0.0002942108376973,0.2016196399927139,-0.0036048889160156,-0.2037245035171508,-0.238256175071001,-0.7350499033927917,1.6869000792503357,0.2406093459576368,0.0005095104279462,-0.1804963741451501,0.5009177441542446,-0.454433262348175,-0.1839995384216308,-0.1027286052703857,10.598494826184831,0.2016196399927139,-0.0036048889160156,-0.2037245035171508
2.62,-0.2398728281259536,-0.7354801297187805,1.6881037950515747,0.0428322314178389,0.0975493397782585,0.0002683669460778,0.1997246593236923,-0.0155863165855407,-0.1958656311035156,-0.238256175071001,-0.7350499033927917,1.6869000792503357,0.2406093459576368,0.0005095104279462,-0.1804963741451501,0.7226815279738122,-0.0947490334510803,-0.5990713834762573,0.3929436206817627,11.267325214612356,0.1997246593236923,-0.0155863165855407,-0.1958656311035156
