t,x,y,z,roll,pitch,yaw,v_x,v_y,v_z,ref_x,ref_y,ref_z,ref_v_x,ref_v_y,ref_v_z,a_com,a_x,a_y,a_z,thrust,wind_x,wind_y,wind_z
0.0,-0.3187059760093689,0.5406932234764099,2.7183260917663574,0.0262009129853894,0.0895592613560612,-0.0036136271748896,-0.0235122442245483,-0.0133842229843139,0.0069308280944824,-0.319698728621006,0.5404843837022781,2.718294382095337,-0.0800373144447803,-0.1101253405213356,-0.097553826868534,1.396423495437462,-1.175612211227417,-0.6692111492156982,0.3465414047241211,9.927212725492607,-0.0235122442245483,-0.0133842229843139,0.0069308280944824
0.02,-0.3190538883209228,0.5403847694396973,2.7185635566711426,0.0221390183983068,0.0962569117980887,-0.0043166572912559,-0.0156560540199279,-0.013880431652069,0.010685920715332,-0.3198815882205963,0.5400240123271942,2.718672633171081,-0.0584720447659492,-0.11338422447443,-0.0930691733956337,0.4360810365181207,0.392809510231018,-0.0248104333877563,0.1877546310424804,9.92073353700016,-0.0156560540199279,-0.013880431652069,0.010685920715332
0.04,-0.3195607960224151,0.540234386920929,2.7189016342163086,-0.0027178951464586,0.1186256104495313,-0.0056069991225095,-0.0228108465671539,-0.0067672133445739,0.0152134895324707,-0.3198815882205963,0.5400240123271942,2.718672633171081,-0.0584720447659492,-0.11338422447443,-0.0930691733956337,0.5529190955235906,-0.3577396273612976,0.3556609153747558,0.2263784408569336,9.150255829166326,-0.0228108465671539,-0.0067672133445739,0.0152134895324707
0.06,-0.3197033703327179,0.539922833442688,2.719175338745117,-0.0024867292683277,0.1200465592784054,-0.0048768077983671,-0.006415843963623,-0.0140199065208435,0.0123167037963867,-0.3198815882205963,0.5400240123271942,2.718672633171081,-0.0584720447659492,-0.11338422447443,-0.0930691733956337,0.908004730548898,0.8197501301765442,-0.3626346588134765,-0.1448392868041992,8.651092358655205,-0.006415843963623,-0.0140199065208435,0.0123167037963867
0.08,-0.3198610544204712,0.5396142601966858,2.719020366668701,0.0134145482151498,0.104587178261819,-0.0046139120607466,-0.0128974020481109,-0.0187486410140991,-0.0094950199127197,-0.3204663086682558,0.5388901700824499,2.7177419414371253,-0.0654640048742294,-0.1333842247724533,-0.1130691736936569,1.1620271256221737,-0.3240779042243957,-0.2364367246627807,-1.0905861854553225,8.651092358655205,-0.0128974020481109,-0.0187486410140991,-0.0094950199127197
0.1,-0.3201191127300262,0.5386268496513367,2.7182986736297607,0.0244913694266524,0.1024314813571227,-0.0016869521659044,-0.0116126239299774,-0.0444334745407104,-0.0324761867523193,-0.3216357495635747,0.5366224855929613,2.7158805579692125,-0.0794479250907898,-0.1733842253684997,-0.1530691742897033,1.7244530708402046,0.0642389059066772,-1.2842416763305664,-1.1490583419799805,8.754134770310884,-0.0116126239299774,-0.0444334745407104,-0.0324761867523193
0.12,-0.3199709951877594,0.5380175709724426,2.7172718048095703,0.0466639379534606,0.0902034960158937,-0.0009952337717979,0.006665289402008,-0.0274175405502319,-0.0462090969085693,-0.3228051904588938,0.5343548011034727,2.7140191745013,-0.0934318453073501,-0.2133842259645462,-0.1930691748857498,1.4249710055818054,0.9138956665992736,0.8507966995239258,-0.6866455078125,8.56295684955785,0.006665289402008,-0.0274175405502319,-0.0462090969085693
0.14,-0.3199872374534607,0.5370839834213257,2.715510606765747,0.0841691058198551,0.0772504576780743,0.0029326893636332,-0.0007309019565582,-0.0420114398002624,-0.0792539119720459,-0.3246738273650408,0.5300871165841817,2.710157791003585,-0.1074157655239105,-0.2533842265605926,-0.2330691754817962,1.8436684521029936,-0.3698095679283142,-0.7296949625015259,-1.652240753173828,8.610082334984781,-0.0007309019565582,-0.0420114398002624,-0.0792539119720459
0.16,-0.3199525475502014,0.53565913438797,2.7132089138031006,0.1323645907676696,0.0543665619429402,0.0038009630752505,0.0015610456466674,-0.064118206501007,-0.1035761833190918,-0.3265424642711877,0.5258194320648908,2.70629640750587,-0.1213996857404709,-0.2933842271566391,-0.2730691760778427,1.6473729399079715,0.1145973801612854,-1.1053383350372314,-1.216113567352295,8.610082334984781,0.0015610456466674,-0.064118206501007,-0.1035761833190918
0.18,-0.3200703561306,0.5347298383712769,2.7118847370147705,0.1819778969701794,0.0388906524697133,0.0059942573028028,-0.0091584026813507,-0.0730794668197631,-0.1194870471954345,-0.3287606991827488,0.5205517475306988,2.7014350239932536,-0.1353836059570312,-0.3333842277526855,-0.3130691766738891,1.0587331441976704,-0.5359724164009094,-0.4480630159378052,-0.7955431938171387,9.808468149451071,-0.0091584026813507,-0.0730794668197631,-0.1194870471954345
0.2,-0.3202022016048431,0.5325778126716614,2.708808422088623,0.1971103935230605,0.0234034649503072,0.0058494274639037,-0.0059330463409423,-0.0968411564826965,-0.1384341716766357,-0.3313285320997238,0.5142840629816054,2.6955736404657364,-0.1493675261735916,-0.373384228348732,-0.3530691772699356,1.528082413734857,0.1612678170204162,-1.1880844831466677,-0.9473562240600586,9.808468149451071,-0.0059330463409423,-0.0968411564826965,-0.1384341716766357
0.22,-0.3208983242511749,0.5297415256500244,2.7054691314697266,0.2279271732129429,0.0073039175787636,0.000761428275901,-0.0313255190849304,-0.1276329159736633,-0.1502680778503418,-0.3204988539218902,0.5277357548475266,2.7018867135047917,-0.0394596122205257,-0.1968411579728126,-0.2384341731667518,2.0814366792745567,-1.269623637199402,-1.5395879745483398,-0.5916953086853027,9.965469106824456,-0.0313255190849304,-0.1276329159736633,-0.1502680778503418
0.24,-0.3216560184955597,0.525529682636261,2.7022104263305664,0.2328942641831404,-0.0100712599650713,-0.0025111543918856,-0.0340962409973144,-0.1895329356193542,-0.146641731262207,-0.3204988539218902,0.5277357548475266,2.7018867135047917,-0.0394596122205257,-0.1968411579728126,-0.2384341731667518,3.1034012476756705,-0.1385360956192016,-3.095000982284546,0.1813173294067382,9.80730327294532,-0.0340962409973144,-0.1895329356193542,-0.146641731262207
0.26,-0.3229447603225708,0.5204832553863525,2.6989004611968994,0.2243956938965987,-0.0203965810042669,-0.0071606383948677,-0.0579933822154998,-0.2270892262458801,-0.1489484310150146,-0.3204988539218902,0.5277357548475266,2.7018867135047917,-0.0394596122205257,-0.1968411579728126,-0.2384341731667518,2.2287155425129823,-1.1948570609092712,-1.877814531326294,-0.1153349876403808,10.839329474085387,-0.0579933822154998,-0.2270892262458801,-0.1489484310150146
0.28,-0.3238392472267151,0.5174543857574463,2.69732666015625,0.2409799787806978,-0.0332303862610408,-0.0076269836909445,-0.0730861723423004,-0.2541661262512207,-0.1486372947692871,-0.3208934500440955,0.5257673432677984,2.699502371773124,-0.0461649253964424,-0.2168411582708358,-0.2584341734647751,1.5500384136161478,-0.7546395063400269,-1.3538450002670288,0.0155568122863769,10.839329474085387,-0.0730861723423004,-0.2541661262512207,-0.1486372947692871
0.3,-0.3256935477256775,0.5108051896095276,2.6941843032836914,0.2168940376936673,-0.0371463470660544,-0.0118940099728374,-0.0834435224533081,-0.2992138266563415,-0.1414060592651367,-0.321682642288506,0.5218305201083422,2.694733688309789,-0.0595755517482757,-0.2568411588668823,-0.2984341740608215,2.3392631211708537,-0.5178675055503845,-2.2523850202560425,0.3615617752075195,10.282880847439174,-0.0834435224533081,-0.2992138266563415,-0.1414060592651367
0.32,-0.3282307088375091,0.5031899809837341,2.691239595413208,0.1222765809893792,-0.0069568894850014,-0.0161642468230676,-0.1141722500324249,-0.3426843881607055,-0.1325118541717529,-0.3224718345329165,0.5178936969488859,2.689965004846454,-0.0729861781001091,-0.2968411594629287,-0.338434174656868,2.6986345160003804,-1.536436378955841,-2.1735280752182007,0.4447102546691894,9.457702602472182,-0.1141722500324249,-0.3426843881607055,-0.1325118541717529
0.34,-0.33113494515419,0.4944809675216675,2.689002275466919,0.1265863765401441,-0.0160902559225756,-0.01574955929632,-0.1306906342506408,-0.3919056057929992,-0.1006793975830078,-0.3239315580949187,0.5119568737596273,2.6831963213533165,-0.0863968044519424,-0.3368411600589752,-0.3784341752529144,3.045033076528303,-0.8259192109107971,-2.461060881614685,1.591622829437256,9.457702602472182,-0.1306906342506408,-0.3919056057929992,-0.1006793975830078
0.36,-0.3344772160053253,0.4857154488563537,2.686509132385254,0.0740758297732862,0.0049481394513215,-0.0182037509007344,-0.1504021883010864,-0.3944483399391174,-0.1121914386749267,-0.3253912816569209,0.5060200505703687,2.6764276378601792,-0.0998074308037758,-0.3768411606550217,-0.4184341758489609,1.1484097157847262,-0.9855777025222778,-0.1271367073059082,-0.5756020545959473,8.22908059786505,-0.1504021883010864,-0.3944483399391174,-0.1121914386749267
0.38,-0.3363435566425323,0.4813349545001983,2.6851396560668945,0.0509609746291409,0.0211909048674732,-0.0160405450856805,-0.1608024537563324,-0.4018297791481018,-0.1110327243804931,-0.3271862708777189,0.499083227366209,2.6686589543521406,-0.1132180571556091,-0.4168411612510681,-0.4584341764450073,0.6403002911752409,-0.5200132727622986,-0.3690719604492187,0.0579357147216796,8.22908059786505,-0.1608024537563324,-0.4018297791481018,-0.1110327243804931
0.4,-0.3401256501674652,0.4724948704242706,2.682567358016968,0.005225417568454,0.0463900610151788,-0.0176578467372493,-0.1701942086219787,-0.397803783416748,-0.1157534122467041,-0.3293165257573128,0.4911464041471481,2.6598902708292007,-0.1266286835074424,-0.4568411618471145,-0.4984341770410537,0.5628023521083179,-0.4695877432823181,0.201299786567688,-0.2360343933105468,8.004259906766947,-0.1701942086219787,-0.397803783416748,-0.1157534122467041
0.42,-0.3440208435058594,0.4636761844158172,2.679553508758545,-0.0316898701665672,0.0708679439291774,-0.0190852615153463,-0.1752837002277374,-0.3968408703804016,-0.1356232166290283,-0.3314467806369066,0.4832095809280872,2.651121587306261,-0.1400393098592758,-0.496841162443161,-0.5384341776371002,1.026692812520479,-0.2544745802879333,0.0481456518173217,-0.9934902191162108,7.885443333333114,-0.1752837002277374,-0.3968408703804016,-0.1356232166290283
0.44,-0.3479814529418945,0.4551818072795868,2.675950288772583,-0.0645774515724185,0.0955802534681571,-0.0191761877983037,-0.178227424621582,-0.3822469711303711,-0.1621448993682861,-0.3486353605985641,0.4526046812534332,2.676779687404633,-0.1728136967867612,-0.4978037849068641,-0.2157534137368202,1.5207293184100867,-0.1471862196922302,0.7296949625015259,-1.3260841369628906,7.639213850076885,-0.178227424621582,-0.3822469711303711,-0.1621448993682861
0.46,-0.3517895638942718,0.4468783140182495,2.671581268310547,-0.0861755644429357,0.1190866328092088,-0.0206602901499581,-0.1713649928569793,-0.3736571967601776,-0.1966059207916259,-0.3486353605985641,0.4526046812534332,2.676779687404633,-0.1728136967867612,-0.4978037849068641,-0.2157534137368202,1.8086176979910291,0.343121588230133,0.4294887185096741,-1.7230510711669922,7.492020763902929,-0.1713649928569793,-0.3736571967601776,-0.1966059207916259
0.48,-0.3536243140697479,0.4429558217525482,2.669184684753418,-0.0937711179114544,0.1277103686761789,-0.0183548144735489,-0.1662929356098175,-0.3624442219734192,-0.2186644077301025,-0.3486353605985641,0.4526046812534332,2.676779687404633,-0.1728136967867612,-0.4978037849068641,-0.2157534137368202,1.2629661657205118,0.2536028623580932,0.5606487393379211,-1.102924346923828,9.319081847479085,-0.1662929356098175,-0.3624442219734192,-0.2186644077301025
0.5,-0.357194185256958,0.4352350234985351,2.663428544998169,-0.0905424491970721,0.1476392073907802,-0.0185869017848509,-0.1606442034244537,-0.3474359214305877,-0.259026288986206,-0.3503634975664317,0.4476266434043646,2.6746221532672645,-0.1733375944197178,-0.5178037852048873,-0.2357534140348434,2.171542492686776,0.2824366092681885,0.750415027141571,-2.018094062805176,8.917580316547173,-0.1606442034244537,-0.3474359214305877,-0.259026288986206
0.52,-0.3604479730129242,0.427957147359848,2.656649589538574,-0.0641743932463364,0.1750598337594866,-0.0154616393940014,-0.1464204490184784,-0.327504426240921,-0.3050529956817627,-0.353819771502167,0.4376705677062273,2.670307084992528,-0.1743853896856308,-0.5578037858009338,-0.2757534146308898,2.6067400230632947,0.7111877202987671,0.9965747594833374,-2.301335334777832,9.222772105625609,-0.1464204490184784,-0.327504426240921,-0.3050529956817627
0.54,-0.3634976148605346,0.4211181998252868,2.648998975753784,-0.0271325572039644,0.1669891829980338,-0.0116522394457442,-0.1372338831424713,-0.3077526390552521,-0.3442776203155517,-0.3572760454379022,0.42771449200809,2.665992016717792,-0.1754331849515438,-0.5978037863969803,-0.3157534152269363,2.243377624968557,0.459328293800354,0.9875893592834472,-1.961231231689453,8.887681262352089,-0.1372338831424713,-0.3077526390552521,-0.3442776203155517
0.56,-0.3662260174751282,0.4143119752407074,2.640953779220581,0.0262674781583159,0.165474907960744,-0.0064153472225721,-0.1227781176567077,-0.306280106306076,-0.3620338439941406,-0.360784709136933,0.4157584162801504,2.659676948413253,-0.1764809802174568,-0.6378037869930268,-0.3557534158229827,1.147193300844357,0.7227882742881775,0.0736266374588012,-0.8878111839294434,9.264242175695928,-0.1227781176567077,-0.306280106306076,-0.3620338439941406
0.58,-0.3676391541957855,0.4110122919082641,2.6367881298065186,0.0892718403975965,0.1687748500674672,-0.0040620360526935,-0.1213873922824859,-0.2984185516834259,-0.3748440742492676,-0.3642933728359639,0.4038023405522108,2.653361880108714,-0.1775287754833698,-0.6778037875890732,-0.3957534164190293,0.7547187511596393,0.06953626871109,0.3930777311325073,-0.6405115127563477,9.765720979770322,-0.1213873922824859,-0.2984185516834259,-0.3748440742492676
0.6,-0.3697614669799804,0.4041453897953033,2.6282618045806885,0.1055826768671205,0.156773786179976,0.0013746549001167,-0.0955040752887725,-0.3090105950832367,-0.3836846351623535,-0.3678282314166426,0.39084626480937,2.646046811789274,-0.1785765707492828,-0.7178037881851196,-0.4357534170150757,1.4665375883680156,1.294165849685669,-0.5296021699905396,-0.4420280456542969,9.765720979770322,-0.0955040752887725,-0.3090105950832367,-0.3836846351623535
0.62,-0.3715068697929382,0.3970996439456939,2.619797468185425,0.1481810631838372,0.1457889732814321,0.0006819330898343,-0.0785431265830993,-0.3170585632324219,-0.3808951377868652,-0.3745366707444191,0.3886948600411415,2.609077572822571,-0.0894263023510575,-0.4090105965733528,-0.4836846366524696,0.9489795413161356,0.8480474352836609,-0.402398407459259,0.139474868774414,10.210928015243551,-0.0785431265830993,-0.3170585632324219,-0.3808951377868652
0.64,-0.3730633556842804,0.3893513083457947,2.611089944839477,0.1792524045811906,0.1379245142637695,7.825796045495054e-05,-0.0700418651103973,-0.3486751019954681,-0.3918385505676269,-0.3745366707444191,0.3886948600411415,2.609077572822571,-0.0894263023510575,-0.4090105965733528,-0.4836846366524696,1.726003514823039,0.4250630736351013,-1.5808269381523132,-0.5471706390380859,10.210928015243551,-0.0700418651103973,-0.3486751019954681,-0.3918385505676269
0.66,-0.3743148148059845,0.3810318410396576,2.6029038429260254,0.196165255842251,0.1274157781452825,-0.0010170577374272,-0.0563156604766845,-0.3743760287761688,-0.3683745861053467,-0.3745366707444191,0.3886948600411415,2.609077572822571,-0.0894263023510575,-0.4090105965733528,-0.4836846366524696,1.870497232904026,0.6863102316856384,-1.2850463390350342,1.1731982231140137,9.815336938894689,-0.0563156604766845,-0.3743760287761688,-0.3683745861053467
0.68,-0.3747285902500152,0.3764305412769317,2.598714590072632,0.2000696754134099,0.1210065493111131,-0.0042523637901648,-0.0461836159229278,-0.3957760334014892,-0.3774619102478027,-0.3754309337679297,0.384604754075408,2.6042407264560463,-0.0882107477635145,-0.429010596871376,-0.5036846369504928,1.2680674123179647,0.5066022276878357,-1.0700002312660215,-0.4543662071228027,10.229973219664773,-0.0461836159229278,-0.3957760334014892,-0.3774619102478027
0.7000000000000001,-0.3756523728370666,0.366728663444519,2.5905754566192627,0.1994005791888967,0.1108021773344965,-0.0058471938505703,-0.0415702164173126,-0.4365845024585724,-0.3662610054016113,-0.3772194598149508,0.3764245421439409,2.594567033722997,-0.0857796385884284,-0.4690105974674224,-0.5436846375465393,2.128423636846502,0.2306699752807617,-2.0404234528541565,0.5600452423095703,9.77797823409037,-0.0415702164173126,-0.4365845024585724,-0.3662610054016113
0.72,-0.3763463199138641,0.3562450706958771,2.582906007766724,0.1848629077482839,0.1031946812087821,-0.0104721467060399,-0.0312276184558868,-0.4717616736888885,-0.3451251983642578,-0.379007985861972,0.3682443302124739,2.5848933409899475,-0.0833485294133424,-0.5090105980634689,-0.5836846381425858,2.1160842655001444,0.5171298980712891,-1.758858561515808,1.0567903518676758,9.734992575412434,-0.0312276184558868,-0.4717616736888885,-0.3451251983642578
0.74,-0.3768641948699951,0.3447972536087036,2.575299024581909,0.1622976447829484,0.0963345940577524,-0.0152552402973987,-0.0233043730258941,-0.5151517391204834,-0.3423142433166504,-0.3806749564502388,0.3580641182512045,2.573219648227096,-0.0809174202382564,-0.5490105986595154,-0.6236846387386322,2.2098512758677065,0.3961622714996338,-2.1695032715797424,0.1405477523803711,10.1025982399251,-0.0233043730258941,-0.5151517391204834,-0.3423142433166504
0.76,-0.3772097527980804,0.3328377902507782,2.56778621673584,0.1311336822641163,0.0927675938952637,-0.0172328268002698,-0.0155501067638397,-0.5381758213043213,-0.3380763530731201,-0.3823419270385057,0.3478839062899351,2.561545955464244,-0.0784863110631704,-0.5890105992555619,-0.6636846393346787,1.2330822350792,0.3877133131027221,-1.1512041091918943,0.2118945121765136,9.394872237436177,-0.0155501067638397,-0.5381758213043213,-0.3380763530731201
0.78,-0.3775803446769714,0.326848417520523,2.5638656616210938,0.0935392765280938,0.1045053562226884,-0.0209259267213458,-0.0161254405975341,-0.549989640712738,-0.3336560726165771,-0.3839481198973954,0.3367036943137646,2.548872262686491,-0.0760552018880844,-0.6290105998516082,-0.703684639930725,0.6313402754247774,-0.0287666916847229,-0.5906909704208374,0.2210140228271484,9.21689155749982,-0.0161254405975341,-0.549989640712738,-0.3336560726165771
0.8,-0.3778156638145447,0.3142305612564087,2.5564420223236084,0.0757224166578418,0.0891460996236007,-0.0181898298034266,-0.0105893611907958,-0.5678035020828247,-0.3340637683868408,-0.3854935350269079,0.3245234823226929,2.5351985698938373,-0.0736240927129983,-0.6690106004476547,-0.7436846405267715,0.9329362892923996,0.276803970336914,-0.8906930685043335,-0.0203847885131835,9.269043470467295,-0.0105893611907958,-0.5678035020828247,-0.3340637683868408
0.8200000000000001,-0.378156840801239,0.3016057908535003,2.548607349395752,0.0397111803683711,0.0885857892077578,-0.0186682285407524,-0.0153529644012451,-0.5681146383285522,-0.35256028175354,-0.3783451318740845,0.2858403861522675,2.5397388339042664,-0.000202378258109,-0.6678035035729408,-0.4340637698769569,0.9551305251567588,-0.2381801605224609,-0.0155568122863769,-0.9248256683349608,8.627376971122885,-0.0153529644012451,-0.5681146383285522,-0.35256028175354
0.84,-0.3784457445144653,0.2888593375682831,2.540545701980591,0.0061141807560376,0.0865060877924159,-0.0190049376704807,-0.0130006670951843,-0.5735903978347778,-0.362774133682251,-0.3783451318740845,0.2858403861522675,2.5397388339042664,-0.000202378258109,-0.6678035035729408,-0.4340637698769569,0.5912698538056732,0.1176148653030395,-0.2737879753112793,-0.5106925964355469,8.73575525393926,-0.0130006670951843,-0.5735903978347778,-0.362774133682251
0.86,-0.3786212205886841,0.2760162055492401,2.531991958618164,-0.0423727233391986,0.0967534706747941,-0.0183369962416602,-0.0078964233398437,-0.5779409408569336,-0.3849184513092041,-0.3783451318740845,0.2858403861522675,2.5397388339042664,-0.000202378258109,-0.6678035035729408,-0.4340637698769569,1.156883023543163,0.2552121877670288,-0.217527151107788,-1.1072158813476562,9.403104366413118,-0.0078964233398437,-0.5779409408569336,-0.3849184513092041
0.88,-0.3787029385566711,0.2698939442634582,2.5276365280151367,-0.0273111639356798,0.0866195184179036,-0.0176854244896938,-0.009511113166809,-0.5634087324142456,-0.3951001167297363,-0.3783471556566655,0.2791623511165381,2.535398196205497,0.0018750183284282,-0.687803503870964,-0.4540637701749802,0.8908684192891494,-0.0807344913482666,0.7266104221343994,-0.5090832710266113,9.403104366413118,-0.009511113166809,-0.5634087324142456,-0.3951001167297363
0.9,-0.3789207935333252,0.2575712203979492,2.518254041671753,-0.0304580608306197,0.0919092678855546,-0.0138541806051,-0.0098034739494323,-0.5545225739479065,-0.4222118854522705,-0.3783512032218277,0.2658062810450792,2.526716920807958,0.0060298115015029,-0.7278035044670105,-0.4940637707710266,1.4266195098731556,-0.0146180391311645,0.4443079233169555,-1.355588436126709,9.018265006838192,-0.0098034739494323,-0.5545225739479065,-0.4222118854522705
0.92,-0.379152238368988,0.2453492134809494,2.508364200592041,-0.0093845610332054,0.1134349007294262,-0.009232409326058,-0.0104150176048278,-0.5499902963638306,-0.4450428485870361,-0.3783552507869899,0.2524502109736204,2.5180356454104187,0.0101846046745777,-0.767803505063057,-0.5340637713670731,1.164225497275548,-0.0305771827697753,0.2266138792037964,-1.1415481567382812,9.03510647456278,-0.0104150176048278,-0.5499902963638306,-0.4450428485870361
0.94,-0.3791016936302185,0.2334796041250229,2.4982211589813232,0.0099776336901492,0.1043394804915516,-0.0063882540347878,0.0022745132446289,-0.5341324210166931,-0.4564368724822998,-0.3781515586934983,0.2370941408723592,2.5073543699830774,0.0143393978476524,-0.8078035056591034,-0.5740637719631195,1.1643884491767609,0.6344765424728394,0.7928937673568726,-0.5697011947631836,9.180749905118772,0.0022745132446289,-0.5341324210166931,-0.4564368724822998
0.96,-0.3790881037712097,0.2216018736362457,2.487661123275757,0.0409395089914093,0.1108585088822704,-0.0015351300138044,0.0006115436553955,-0.534497857093811,-0.4752016067504883,-0.3779478666000068,0.2217380707710981,2.496673094555736,0.0184941910207271,-0.8478035062551499,-0.614063772559166,0.9420911096291342,-0.0831484794616699,-0.0182718038558959,-0.9382367134094238,9.699597698384425,0.0006115436553955,-0.534497857093811,-0.4752016067504883
0.98,-0.3789230585098266,0.2156527936458587,2.4822661876678467,0.0562555190649405,0.1138948417180554,-0.0019590233792934,0.0049392879009246,-0.5327088236808777,-0.4894816875457763,-0.3776403046771884,0.2053820006549358,2.484991819113493,0.0226489841938018,-0.8878035068511962,-0.6540637731552124,0.7514165261811495,0.2163872122764587,0.0894516706466674,-0.7140040397644043,9.687861498629443,0.0049392879009246,-0.5327088236808777,-0.4894816875457763
1.0,-0.3788211047649383,0.2036977112293243,2.47129225730896,0.0834937779964993,0.121457889558699,0.0017413839398546,0.0045879185199737,-0.5379787087440491,-0.4938268661499023,-0.3772288729250431,0.1880259305238723,2.472310543656349,0.0268037773668766,-0.9278035074472428,-0.6940637737512588,0.3419639093627458,-0.0175684690475463,-0.2634942531585693,-0.2172589302062988,9.687861498629443,0.0045879185199737,-0.5379787087440491,-0.4938268661499023
1.02,-0.3783934712409973,0.1915903687477111,2.460542678833008,0.101464221791505,0.1215775881021598,0.003706937033213,0.0192435085773468,-0.5448304414749146,-0.4837310314178467,-0.3785917088389396,0.1767987757921219,2.446600914001465,0.0296173393726348,-0.6379787102341652,-0.5938268676400185,0.9534915315328796,0.7327795028686523,-0.3425866365432739,0.5047917366027832,9.984597729468533,0.0192435085773468,-0.5448304414749146,-0.4837310314178467
1.04,-0.37769216299057,0.1791931539773941,2.4497318267822266,0.1100020846272858,0.1194013728196579,0.0024490502381223,0.031558871269226,-0.5578746795654297,-0.4864883422851562,-0.3785917088389396,0.1767987757921219,2.446600914001465,0.0296173393726348,-0.6379787102341652,-0.5938268676400185,0.9075007834894157,0.6157681345939636,-0.6522119045257568,-0.1378655433654785,9.974610180169291,0.031558871269226,-0.5578746795654297,-0.4864883422851562
1.06,-0.376938909292221,0.1662871390581131,2.438932180404663,0.1134332109055059,0.1207781489239135,0.0004388111652384,0.0338964164257049,-0.5807706713676453,-0.4859840869903564,-0.3785917088389396,0.1767987757921219,2.446600914001465,0.0296173393726348,-0.6379787102341652,-0.5938268676400185,1.1510265324570437,0.116877257823944,-1.1447995901107788,0.0252127647399902,9.974610180169291,0.0338964164257049,-0.5807706713676453,-0.4859840869903564
1.08,-0.3765400648117065,0.1599220633506775,2.4333949089050293,0.1149588112567129,0.1220380691324881,0.0017577821031826,0.0391334295272827,-0.5795368552207947,-0.4867780208587646,-0.3782955354452133,0.1704189886897802,2.4406626453250646,0.0346232235431671,-0.6579787105321884,-0.6138268679380416,0.2719326180220567,0.2618506550788879,0.0616908073425293,-0.0396966934204101,9.965087212487106,0.0391334295272827,-0.5795368552207947,-0.4867780208587646
1.1,-0.3754419982433319,0.1464822888374328,2.422863483428955,0.1097527520583437,0.1216921122203893,0.0009338281600662,0.0494129955768585,-0.6047898530960083,-0.4739141464233398,-0.3777031886577606,0.1576594144850969,2.428786107972265,0.0446349918842315,-0.6979787111282348,-0.6538268685340881,1.507367444705762,0.5139783024787903,-1.2626498937606812,0.6431937217712402,9.895743348469296,0.0494129955768585,-0.6047898530960083,-0.4739141464233398
1.12,-0.3740944564342499,0.1327704042196273,2.4125683307647705,0.0996830880093272,0.1202853046351869,0.0005218070921836,0.0606393814086914,-0.6170347929000854,-0.4632818698883056,-0.3771108418703079,0.1448998402804136,2.416909570619464,0.054646760225296,-0.7379787117242813,-0.6938268691301346,0.986173912106898,0.5613192915916443,-0.6122469902038574,0.531613826751709,9.636710180675436,0.0606393814086914,-0.6170347929000854,-0.4632818698883056
1.14,-0.3725387454032898,0.1187800914049148,2.4021224975585938,0.0892104179796276,0.1254485629477753,0.000752545760871,0.0700069963932037,-0.6295640468597412,-0.4700624942779541,-0.376017906665802,0.130140266045928,2.403033033236861,0.0646585285663604,-0.7779787123203278,-0.733826869726181,0.8525128773178514,0.4683807492256164,-0.6264626979827881,-0.3390312194824219,9.636710180675436,0.0700069963932037,-0.6295640468597412,-0.4700624942779541
1.16,-0.3708884418010711,0.1044312343001365,2.391650438308716,0.0771125222775763,0.1298298479258939,6.821629139331333e-05,0.0742636620998382,-0.6456985473632812,-0.4712426662445068,-0.374924971461296,0.1153806918114423,2.389156495854259,0.0746702969074249,-0.8179787129163743,-0.7738268703222275,0.8364121521525872,0.212833285331726,-0.806725025177002,-0.0590085983276367,9.476491604502826,0.0742636620998382,-0.6456985473632812,-0.4712426662445068
1.18,-0.369837075471878,0.0971603915095329,2.3865625858306885,0.0422937300500865,0.1429145439764459,-0.0054313832693823,0.0840657949447631,-0.6493165493011475,-0.4690110683441162,-0.3735817420482635,0.0996211175620555,2.374279958456755,0.0846820652484893,-0.8579787135124206,-0.8138268709182739,0.5342091713949404,0.4901066422462463,-0.1809000968933105,0.1115798950195312,9.37270564039045,0.0840657949447631,-0.6493165493011475,-0.4690110683441162
1.2,-0.367743968963623,0.0825350284576416,2.3761186599731445,0.058969816182678,0.1307414573592086,-0.0012108662954489,0.0941897928714752,-0.6581413149833679,-0.4699766635894775,-0.3719882184267044,0.0828615432977676,2.3584034210443496,0.0946938335895538,-0.8979787141084671,-0.8538268715143204,0.6732462356820681,0.5061998963356018,-0.4412382841110229,-0.0482797622680664,9.37270564039045,0.0941897928714752,-0.6581413149833679,-0.4699766635894775
1.22,-0.3655220568180084,0.0678613930940628,2.365485906600952,0.0485527285799459,0.1315043381075695,-0.0019423209496729,0.099986046552658,-0.660313606262207,-0.4784739017486572,-0.3630344793200493,0.0496279627084732,2.3526198267936707,0.1287727616727352,-0.758141316473484,-0.5699766650795937,0.5256388077153497,0.289812684059143,-0.1086145639419555,-0.4248619079589844,9.1622772899741,0.099986046552658,-0.660313606262207,-0.4784739017486572
1.24,-0.3629998564720154,0.0532692000269889,2.354525089263916,0.0165973831312617,0.1408679946236531,-0.0059711500486871,0.1134990155696868,-0.6566486954689026,-0.493236780166626,-0.3630344793200493,0.0496279627084732,2.3526198267936707,0.1287727616727352,-0.758141316473484,-0.5699766650795937,1.017318143406707,0.6756484508514404,0.1832455396652221,-0.7381439208984375,10.261798201371676,0.1134990155696868,-0.6566486954689026,-0.493236780166626
1.26,-0.3602839708328247,0.0384946949779987,2.343410015106201,0.0285415634496038,0.1298869911465774,-0.002198670276338,0.1222148537635803,-0.6648527383804321,-0.500178337097168,-0.3630344793200493,0.0496279627084732,2.3526198267936707,0.1287727616727352,-0.758141316473484,-0.5699766650795937,0.6918406032756121,0.4357919096946716,-0.410202145576477,-0.3470778465270996,10.261798201371676,0.1222148537635803,-0.6648527383804321,-0.500178337097168
1.28,-0.3588500916957855,0.0311996452510356,2.337616205215454,0.0259346402915409,0.129414391837157,-0.0013852563721038,0.1319740712642669,-0.6606128215789795,-0.5118405818939209,-0.3617467517033219,0.0420465495437383,2.3469200601428746,0.1356893554329872,-0.7781413167715072,-0.5899766653776168,0.7893465246777546,0.4879608750343323,0.2119958400726318,-0.5831122398376465,10.034389104981528,0.1319740712642669,-0.6606128215789795,-0.5118405818939209
1.3,-0.3557839393615722,0.0165667254477739,2.32608962059021,0.0237164670978677,0.1262928354728519,-0.0021970373107987,0.1379768550395965,-0.6584814190864563,-0.5186963081359863,-0.3591712964698672,0.0268837232142686,2.335520526841283,0.1495225429534912,-0.8181413173675537,-0.6299766659736633,0.4679136457313433,0.3001391887664795,0.1065701246261596,-0.3427863121032715,9.857479064361542,0.1379768550395965,-0.6584814190864563,-0.5186963081359863
1.32,-0.3523797392845154,0.0019294831436127,2.314558267593384,0.0276160234946713,0.1238436900536843,-0.0008246628401386,0.1531890034675598,-0.6586759090423584,-0.5189108848571777,-0.3565958412364125,0.011720896884799,2.324120993539691,0.1633557304739952,-0.8581413179636002,-0.6699766665697098,0.760745242026871,0.7606074213981628,-0.0097244977951049,-0.0107288360595703,9.78712891005216,0.1531890034675598,-0.6586759090423584,-0.5189108848571777
1.34,-0.348966121673584,-0.012681521475315,2.3029751777648926,0.0347862531461301,0.1205812064994886,-0.0002150329672716,0.1536127924919128,-0.6574952006340027,-0.5212390422821045,-0.3533287266269326,-0.005441929474473,2.310721460208297,0.1771889179944992,-0.8981413185596466,-0.7099766671657562,0.132230730902139,0.0211894512176513,0.0590354204177856,-0.1164078712463378,9.78712891005216,0.1536127924919128,-0.6574952006340027,-0.5212390422821045
1.36,-0.3452810049057007,-0.0272883959114551,2.2911667823791504,0.0455740142923457,0.1209637865030232,0.0017155046886198,0.1658302545547485,-0.657309353351593,-0.5313777923583984,-0.3500616120174527,-0.022604755833745,2.2973219268769025,0.1910221055150032,-0.9381413191556932,-0.7499766677618027,0.7938752603192124,0.6108731031417847,0.0092923641204833,-0.5069375038146973,9.77201182675526,0.1658302545547485,-0.657309353351593,-0.5313777923583984
1.38,-0.3434658646583557,-0.0345160774886608,2.2851595878601074,0.0518859408600733,0.12035361104828,0.00377713838489,0.1688718795776367,-0.6533087491989136,-0.5367743968963623,-0.3464486677199602,-0.0407675822079181,2.2829223935306078,0.2048552930355072,-0.9781413197517396,-0.7899766683578491,0.3687128181439715,0.1520812511444091,0.2000302076339721,-0.2698302268981933,9.77201182675526,0.1688718795776367,-0.6533087491989136,-0.5367743968963623
1.4,-0.3395455181598663,-0.0491837635636329,2.2733523845672607,0.0617161357459423,0.1182994604178386,0.0043248718585597,0.1764155924320221,-0.660045862197876,-0.5313241481781006,-0.3424898937344551,-0.0599304085969924,2.267522860169411,0.2186884805560112,-1.0181413203477858,-0.8299766689538955,0.5744595422680365,0.3771856427192688,-0.3368556499481201,0.2725124359130859,10.35056433820455,0.1764155924320221,-0.660045862197876,-0.5313241481781006
1.42,-0.3354197144508362,-0.0639646351337432,2.2616631984710693,0.0648362482982432,0.1142422578205441,0.003277268797441,0.1856611669063568,-0.6651391983032227,-0.5260133743286133,-0.3307247385382652,-0.0821860566735267,2.246786177158356,0.1968149431049823,-0.7505766004323959,-0.6313241496682167,0.590819428681251,0.4622787237167358,-0.254666805267334,0.2655386924743652,10.021301834834048,0.1856611669063568,-0.6651391983032227,-0.5260133743286133
1.44,-0.331197440624237,-0.0788487270474433,2.2500782012939453,0.0658327382079645,0.1083101417281264,0.0029315355403254,0.1900023221969604,-0.6697841286659241,-0.521324872970581,-0.3307247385382652,-0.0821860566735267,2.246786177158356,0.1968149431049823,-0.7505766004323959,-0.6313241496682167,0.3949780130455095,0.2170577645301818,-0.2322465181350708,0.2344250679016113,10.227909421774712,0.1900023221969604,-0.6697841286659241,-0.521324872970581
1.46,-0.326889157295227,-0.093934915959835,2.2385382652282715,0.0638075182694704,0.1027497810363494,0.0021547804149894,0.1938727498054504,-0.6788784861564636,-0.5192971229553223,-0.3307247385382652,-0.0821860566735267,2.246786177158356,0.1968149431049823,-0.7505766004323959,-0.6313241496682167,0.5044782407663297,0.1935213804244995,-0.4547178745269775,0.1013875007629394,10.227909421774712,0.1938727498054504,-0.6788784861564636,-0.5192971229553223
1.48,-0.3247708082199096,-0.1014404892921447,2.2328615188598637,0.0412599725540849,0.0969924541688025,-0.0050899130031855,0.1905816793441772,-0.6746935844421387,-0.5072486400604248,-0.3287565891072154,-0.0896918226778507,2.240472935661673,0.2008948132395744,-0.7686827480792999,-0.6513241499662399,0.6586168977642874,-0.1645535230636596,0.2092450857162475,0.602424144744873,10.518379944440769,0.1905816793441772,-0.6746935844421387,-0.5072486400604248
1.5,-0.3202700018882751,-0.116689383983612,2.2218174934387207,0.0567374820262236,0.0881754167254038,-0.0012630762167126,0.2025362849235534,-0.6862002611160278,-0.496981143951416,-0.3248202902451158,-0.1047033546864986,2.227846452668309,0.2090545535087585,-0.8048950433731079,-0.6913241505622864,0.97562502912798,0.597730278968811,-0.575333833694458,0.5133748054504395,10.518379944440769,0.2025362849235534,-0.6862002611160278,-0.496981143951416
1.52,-0.315775454044342,-0.1320801675319671,2.2109878063201904,0.0493745919902726,0.077117585282216,-0.0010927740492711,0.2022546529769897,-0.6925852298736572,-0.4873359203338623,-0.3208839913830161,-0.1197148866951465,2.215219969674945,0.2172142937779426,-0.8411073386669159,-0.7313241511583328,0.5785271843695952,-0.014081597328186,-0.3192484378814697,0.4822611808776855,9.562474451718115,0.2022546529769897,-0.6925852298736572,-0.4873359203338623
1.54,-0.3114317059516907,-0.1473166197538375,2.200315475463867,0.0227030871590784,0.0746848424328654,-0.0058795074241139,0.1954686641693115,-0.6856403350830078,-0.4802548885345459,-0.3165397055074572,-0.1365370334684849,2.2005934866517785,0.2253740340471267,-0.8773196339607239,-0.7713241517543793,0.6008789792754727,-0.3392994403839111,0.3472447395324707,0.3540515899658203,9.89994978759114,0.1954686641693115,-0.6856403350830078,-0.4802548885345459
1.56,-0.3070833683013916,-0.1627407819032669,2.1895813941955566,0.0348868553127418,0.0649452975099249,-0.0029966199597042,0.1956751942634582,-0.6940872669219971,-0.4830336570739746,-0.3121954196318984,-0.1533591802418232,2.185967003628612,0.2335337743163109,-0.913531929254532,-0.8113241523504258,0.4447326915351441,0.0103265047073364,-0.4223465919494629,-0.1389384269714355,9.89994978759114,0.1956751942634582,-0.6940872669219971,-0.4830336570739746
1.58,-0.3050003051757812,-0.1704527288675308,2.1841909885406494,0.0103508173601958,0.0708632591772397,-0.0055840933514683,0.1952607929706573,-0.6940269470214844,-0.4767251014709472,-0.3076471402496099,-0.1710866343975067,2.170340520590544,0.2416935145854949,-0.9497442245483398,-0.8513241529464721,0.3161219729723031,-0.0207200646400451,0.0030159950256347,0.3154277801513672,9.289097759549804,0.1952607929706573,-0.6940269470214844,-0.4767251014709472
1.6,-0.3007442951202392,-0.1857657432556152,2.1735026836395264,0.0227824887350167,0.0629491667974514,-0.0008052997985727,0.1915204524993896,-0.6890856623649597,-0.4809737205505371,-0.3028948673605918,-0.1897193959355354,2.1537140375375747,0.2498532548546791,-0.9859565198421478,-0.8913241535425186,0.375690048381854,-0.187017023563385,0.2470642328262329,-0.2124309539794922,9.289097759549804,0.1915204524993896,-0.6890856623649597,-0.4809737205505371
1.62,-0.296549916267395,-0.2009690850973129,2.162921905517578,-0.0020463936273696,0.0706366032161513,-0.0042186054190841,0.1887470483779907,-0.6841503977775574,-0.4761350154876709,-0.2911682724952698,-0.2202200263738632,2.1494539976119995,0.2098334264010191,-0.7285757549107075,-0.5809737220406532,0.3723629736348234,-0.1386702060699463,0.2467632293701172,0.2419352531433105,9.064527038736289,0.1887470483779907,-0.6841503977775574,-0.4761350154876709
1.64,-0.2926154732704162,-0.2161398380994796,2.1519322395324707,-0.0049167630709018,0.0707693943678518,-0.0037347511227442,0.1770499348640442,-0.6826838850975037,-0.494534969329834,-0.2911682724952698,-0.2202200263738632,2.1494539976119995,0.2098334264010191,-0.7285757549107075,-0.5809737220406532,1.0926246214879118,-0.5848556756973267,0.0733256340026855,-0.9199976921081544,9.62994359256163,0.1770499348640442,-0.6826838850975037,-0.494534969329834
1.66,-0.2886465191841125,-0.2310723960399627,2.1405513286590576,0.0061544860667811,0.0635175464248051,-0.0007193616867687,0.178602933883667,-0.6719651222229004,-0.5121409893035889,-0.2911682724952698,-0.2202200263738632,2.1494539976119995,0.2098334264010191,-0.7285757549107075,-0.5809737220406532,1.0335323202894753,0.0776499509811401,0.5359381437301636,-0.8803009986877441,9.735445061912287,0.178602933883667,-0.6719651222229004,-0.5121409893035889
1.68,-0.286830723285675,-0.238497793674469,2.1349329948425293,-0.0167319997263039,0.0755511144280212,-0.0033244561393743,0.1751777529716491,-0.6752997636795044,-0.5035150051116943,-0.2890699382312596,-0.2275057839229703,2.143644260391593,0.2134960211813449,-0.736473773419857,-0.6009737223386764,0.4931006520046583,-0.1712590456008911,-0.1667320728302002,0.4312992095947265,9.95329700431239,0.1751777529716491,-0.6752997636795044,-0.5035150051116943
1.7,-0.2830101251602173,-0.2532528936862945,2.123584747314453,-0.0041435906252785,0.0644904546149422,0.0004195211063458,0.1719269156455993,-0.6639795303344727,-0.5106711387634277,-0.2848732697032392,-0.2420772990211844,2.13202478595078,0.2208212107419967,-0.7522698104381561,-0.6409737229347229,0.6890679849403074,-0.1625418663024902,0.5660116672515869,-0.3578066825866699,9.777948301991728,0.1719269156455993,-0.6639795303344727,-0.5106711387634277
1.72,-0.2791642844676971,-0.2677281498908996,2.11222505569458,-0.0135760992883319,0.0714766676638043,-0.0008642645798776,0.1730628311634063,-0.6513864994049072,-0.5111861228942871,-0.2806766011752188,-0.2566488141193986,2.120405311509967,0.2281464003026485,-0.7680658474564552,-0.6809737235307693,0.6327320536997144,0.0567957758903503,0.6296515464782715,-0.0257492065429687,9.777948301991728,0.1730628311634063,-0.6513864994049072,-0.5111861228942871
1.74,-0.2755891382694244,-0.2818870842456817,2.1009488105773926,-0.0279193347016145,0.0763434134009674,-0.0005320604812978,0.1608815789222717,-0.6371520757675171,-0.5074310302734375,-0.2761136731691658,-0.2720101310685277,2.1067858370393515,0.2354715898633003,-0.7838618844747544,-0.7209737241268158,0.9553827021696568,-0.6090626120567322,0.7117211818695068,0.1877546310424804,9.448693801422904,0.1608815789222717,-0.6371520757675171,-0.5074310302734375
1.76,-0.2719158232212066,-0.2959260940551758,2.0898382663726807,-0.0444421072627433,0.0796923761774525,-0.0002320642651565,0.1652991771697998,-0.6317554712295532,-0.4999744892120361,-0.2715507451631128,-0.2873714480176568,2.093166362568736,0.2427967794239521,-0.7996579214930535,-0.7609737247228623,0.5104863353119747,0.2208799123764038,0.2698302268981933,0.3728270530700683,9.448693801422904,0.1652991771697998,-0.6317554712295532,-0.4999744892120361
1.78,-0.2700934410095215,-0.302628755569458,2.0845954418182373,-0.080532450202242,0.0934433229581905,-0.0035894372023217,0.1627323031425476,-0.6143532991409302,-0.4941916465759277,-0.2668046874180436,-0.3031276658922434,2.07854688808322,0.2501219689846038,-0.8154539585113525,-0.8009737253189086,0.9258316594119932,-0.1283437013626098,0.8701086044311523,0.2891421318054199,9.13798978048544,0.1627323031425476,-0.6143532991409302,-0.4941916465759277
1.8,-0.2664218544960022,-0.3159104883670807,2.0736238956451416,-0.0672380488054472,0.0864401443456203,0.0001911126432927,0.1652213931083679,-0.5976779460906982,-0.4937195777893066,-0.261875499933958,-0.3192787846922874,2.062927413582802,0.2574471585452557,-0.8312499955296516,-0.8409737259149551,0.843335367969245,0.1244544982910156,0.8337676525115967,0.0236034393310546,9.13798978048544,0.1652213931083679,-0.5976779460906982,-0.4937195777893066
1.82,-0.2628394067287445,-0.3287264406681061,2.0626699924468994,-0.0747351938337165,0.0941455098268085,-0.0006215147783944,0.161210149526596,-0.5767178535461426,-0.4929256439208984,-0.2581607848405838,-0.3457943856716156,2.0489379167556763,0.1860036347061395,-0.6175071280449629,-0.5482022278010845,1.0677615435293235,-0.2005621790885925,1.0480046272277832,0.0396966934204101,8.74170213547768,0.161210149526596,-0.5767178535461426,-0.4929256439208984
1.84,-0.259225457906723,-0.3410486876964569,2.0517585277557373,-0.0798290328235996,0.0991240548729168,0.0003956993817497,0.1626276969909668,-0.5545011162757874,-0.4910159111022949,-0.2581607848405838,-0.3457943856716156,2.0489379167556763,0.1860036347061395,-0.6175071280449629,-0.5482022278010845,1.1171838872721291,0.0708773732185363,1.1108368635177612,0.0954866409301757,10.01252910405492,0.1626276969909668,-0.5545011162757874,-0.4910159111022949
1.86,-0.2555426359176636,-0.3528322875499725,2.0406455993652344,-0.0780625918860886,0.0996640539593545,0.0010261087516176,0.1657269895076751,-0.5302619934082031,-0.5000817775726318,-0.2581607848405838,-0.3457943856716156,2.0489379167556763,0.1860036347061395,-0.6175071280449629,-0.5482022278010845,1.3031985903460266,0.1549646258354187,1.2119561433792114,-0.4532933235168457,10.01252910405492,0.1657269895076751,-0.5302619934082031,-0.5000817775726318
1.88,-0.2537128925323486,-0.3585186898708343,2.03475284576416,-0.0872274962516837,0.1047188164276484,-0.0025671182554745,0.1654855906963348,-0.5180391669273376,-0.508493185043335,-0.2563007484935224,-0.3519694569520652,2.043455894477665,0.1901600830256939,-0.6214729644358158,-0.5590987578034401,0.741969568455579,-0.0120699405670166,0.6111413240432739,-0.4205703735351562,10.59565717969599,0.1654855906963348,-0.5180391669273376,-0.508493185043335
1.9,-0.2498902529478073,-0.3694601655006408,2.0235626697540283,-0.0684961956939675,0.0999959399033649,-0.0004086075095264,0.1720187813043594,-0.4923664033412933,-0.5035579204559326,-0.2525806757993996,-0.3643195995129644,2.032491849921644,0.1984729796648025,-0.6294046372175217,-0.5808918178081512,1.3473401632599795,0.3266595304012298,1.2836381793022156,0.2467632293701172,10.59565717969599,0.1720187813043594,-0.4923664033412933,-0.5035579204559326
1.92,-0.2459619492292404,-0.3799518048763275,2.0122265815734863,-0.0592888085508843,0.0980992885691865,0.0009940567262538,0.1767736673355102,-0.472123771905899,-0.5101239681243896,-0.2488606031052768,-0.3766697420738637,2.021527805365622,0.2067858763039112,-0.6373363099992275,-0.6026848778128624,1.090282131586701,0.2377443015575409,1.0121315717697144,-0.3283023834228515,9.91932203880924,0.1767736673355102,-0.472123771905899,-0.5101239681243896
1.94,-0.2419009804725647,-0.3901247084140777,2.001165866851806,-0.0504081517160957,0.0957529244475902,0.002306946687817,0.1827435940504074,-0.457780659198761,-0.4977321624755859,-0.2447248855791986,-0.3894164682738483,2.009474107809365,0.2150987729430198,-0.6452679827809333,-0.6244779378175735,0.993631916693289,0.2984963357448578,0.7171556353569031,0.6195902824401855,10.196731361743788,0.1827435940504074,-0.457780659198761,-0.4977321624755859
1.96,-0.2380683571100235,-0.3997741639614105,1.990387201309204,-0.0419120147766812,0.096410862125026,0.0019625309996341,0.1724680513143539,-0.4342254996299743,-0.4850399494171142,-0.2405891680531204,-0.4021631944738328,1.9974204102531077,0.2234116695821285,-0.6531996555626393,-0.6462709978222847,1.4331125157791171,-0.5137771368026733,1.177757978439331,0.634610652923584,10.196731361743788,0.1724680513143539,-0.4342254996299743,-0.4850399494171142
1.98,-0.2360719591379165,-0.4044637084007263,1.9851291179656985,-0.048704105807161,0.0996534454073369,-0.0014092516052077,0.1757846027612686,-0.4280564188957214,-0.4777872562408447,-0.2362456281110644,-0.41510821249336,1.9848218861967328,0.2317245662212372,-0.6611313283443451,-0.6680640578269958,0.5041295193570525,0.1658275723457336,0.3084540367126465,0.3626346588134765,9.872509249426455,0.1757846027612686,-0.4280564188957214,-0.4777872562408447
2.0,-0.2319053560495376,-0.4135141670703888,1.9747964143753047,-0.0301914589400116,0.0932870733857796,0.0047603056054083,0.1874971389770507,-0.4072706401348114,-0.464971661567688,-0.2316942657530308,-0.4282515223324298,1.97167853564024,0.2400374628603458,-0.669063001126051,-0.689857117831707,1.3541340130597772,0.5856268107891083,1.0392889380455017,0.6407797336578369,9.872509249426455,0.1874971389770507,-0.4072706401348114,-0.464971661567688
2.02,-0.2278809249401092,-0.4223205745220184,1.9645812511444087,-0.0355062851087842,0.0946887969241696,-0.0008051033558378,0.1810993999242782,-0.3962883353233337,-0.4596823453903198,-0.2225304991006851,-0.4338776990771293,1.9515478312969208,0.1967162927612662,-0.4266370292752981,-0.4763875901699066,0.6883294080303133,-0.3198869526386261,0.5491152405738831,0.2644658088684082,9.777248391107603,0.1810993999242782,-0.3962883353233337,-0.4596823453903198
2.04,-0.2236718982458114,-0.4309113323688507,1.954507112503052,-0.014273569721013,0.0872852210836134,0.0048323163235972,0.1894062012434005,-0.3865841031074524,-0.453336238861084,-0.2225304991006851,-0.4338776990771293,1.9515478312969208,0.1967162927612662,-0.4266370292752981,-0.4763875901699066,0.7131762389752119,0.4153400659561157,0.4852116107940674,0.317305326461792,9.777248391107603,0.1894062012434005,-0.3865841031074524,-0.453336238861084
2.06,-0.2194931805133819,-0.4391770660877228,1.9447184801101685,-0.0203807083614023,0.0896064764080651,-0.0005371645956313,0.1880422979593277,-0.3719580173492431,-0.4404884576797485,-0.2225304991006851,-0.4338776990771293,1.9515478312969208,0.1967162927612662,-0.4266370292752981,-0.4763875901699066,0.9757664910959396,-0.0681951642036438,0.7313042879104614,0.6423890590667725,10.573222041979534,0.1880422979593277,-0.3719580173492431,-0.4404884576797485
2.08,-0.2174209654331207,-0.443354994058609,1.9397995471954343,-0.0042283720511114,0.0835278776717305,0.00358301262501,0.1855813711881637,-0.3705686330795288,-0.4478806257247925,-0.2205633361730724,-0.4381440693698823,1.9467839553952215,0.1985601235181093,-0.4305103071033954,-0.4786707758903503,0.3956977938658803,-0.123046338558197,0.0694692134857177,-0.3696084022521972,10.573222041979534,0.1855813711881637,-0.3705686330795288,-0.4478806257247925
2.1,-0.2132538259029388,-0.4512605965137481,1.9304547309875488,0.0022882628298031,0.080349126419315,0.003829696311307,0.1875212788581848,-0.3557521104812622,-0.4205167293548584,-0.2166290103178471,-0.4466768099553883,1.9372562035918235,0.2022477850317955,-0.4382568627595901,-0.4832371473312378,1.558906193631967,0.0969953835010528,0.7408261299133301,1.368194818496704,10.593065000642127,0.1875212788581848,-0.3557521104812622,-0.4205167293548584
2.12,-0.2090989798307418,-0.4593129158020019,1.921121597290039,0.0057174976401752,0.0771547406211721,0.0021878904039811,0.1869680732488632,-0.3623543679714203,-0.4199910163879394,-0.2126946844626218,-0.4552095505408943,1.9277284517884252,0.2059354465454816,-0.4460034184157848,-0.4878035187721252,0.3323109031318416,-0.0276602804660797,-0.330112874507904,0.0262856483459472,10.65461179731983,0.1869680732488632,-0.3623543679714203,-0.4199910163879394
2.14,-0.2049520909786224,-0.4669401049613952,1.9124244451522827,0.0031750344671316,0.073259631080509,0.0034742443652263,0.186609998345375,-0.343223512172699,-0.3913718461990356,-0.2085759755317121,-0.46412961890921,1.917972381412983,0.2096231080591678,-0.4537499740719795,-0.4923698902130127,1.7213183635874985,-0.0179037451744079,0.9565427899360656,1.4309585094451904,10.643067997950313,0.186609998345375,-0.343223512172699,-0.3913718461990356
2.16,-0.2008793950080871,-0.4746966063976288,1.9040274620056152,0.0003204151494539,0.0693179841172831,0.0026868826997901,0.1832713186740875,-0.3490425646305084,-0.3778642416000366,-0.2044572666008025,-0.4730496872775256,1.9082163110375403,0.213310769572854,-0.4614965297281742,-0.4969362616539001,0.7540947146365409,-0.1669339835643768,-0.2909526228904724,0.6753802299499512,10.643067997950313,0.1832713186740875,-0.3490425646305084,-0.3778642416000366
2.18,-0.1988672465085983,-0.4784059822559356,1.8997536897659304,-0.0004967731427914,0.0667720691321598,0.0019222727258184,0.1889046281576156,-0.3456911444664001,-0.3653222322463989,-0.2002463661320507,-0.4821634195372462,1.898346081376076,0.2169984310865402,-0.4692430853843689,-0.5015026330947876,0.7075807223920375,0.2816654741764068,0.1675710082054138,0.6271004676818848,10.260727413697168,0.1889046281576156,-0.3456911444664001,-0.3653222322463989
2.2,-0.1947962641716003,-0.4858525693416595,1.8920111656188965,-0.0034934132823127,0.0627869359735739,0.0010317502291693,0.1831942051649093,-0.3350964188575744,-0.3484135866165161,-0.1959432741254568,-0.4914708156883717,1.8883616924285889,0.2206860926002264,-0.4769896410405636,-0.506069004535675,1.0377372481978406,-0.2855211496353149,0.5297362804412842,0.8454322814941406,10.260727413697168,0.1831942051649093,-0.3350964188575744,-0.3484135866165161
2.22,-0.1909891366958618,-0.493150532245636,1.8843986988067627,-0.0049170799444216,0.0558767786416776,0.0017032626743086,0.1713207364082336,-0.3284083306789398,-0.3425610065460205,-0.1856365539133548,-0.5026073902845383,1.874590486288071,0.1869023002218455,-0.3606173973530531,-0.3602068098261952,0.7415566014851956,-0.593673437833786,0.3344044089317322,0.2926290035247803,10.315970224782632,0.1713207364082336,-0.3284083306789398,-0.3425610065460205
2.24,-0.1872197836637497,-0.5002779364585876,1.8770183324813845,-0.0068033625057381,0.048386107420718,0.0012904603471228,0.1696208864450454,-0.3207331895828247,-0.3321164846420288,-0.1856365539133548,-0.5026073902845383,1.874590486288071,0.1869023002218455,-0.3606173973530531,-0.3602068098261952,0.6536155570088359,-0.0849924981594085,0.3837570548057556,0.522226095199585,10.207356117421114,0.1696208864450454,-0.3207331895828247,-0.3321164846420288
2.26,-0.1836546063423156,-0.507269024848938,1.870074152946472,-0.0077354362627393,0.0436023547046882,0.0009247537863104,0.1604329794645309,-0.3145989775657654,-0.3124880790710449,-0.1856365539133548,-0.5026073902845383,1.874590486288071,0.1869023002218455,-0.3606173973530531,-0.3602068098261952,1.1261888130014588,-0.4593953490257263,0.3067106008529663,0.9814202785491944,10.869668495641235,0.1604329794645309,-0.3145989775657654,-0.3124880790710449
2.28,-0.1819864809513092,-0.5106251239776611,1.8662612438201904,-0.0052155686998352,0.0442474225859746,-0.0001249656509366,0.1568488776683807,-0.3143468499183655,-0.3103530406951904,-0.1837675309111364,-0.5062135642580688,1.8709884181898089,0.1876439192332327,-0.3657215930521488,-0.362565454468131,0.2089721446875273,-0.1792050898075103,0.0126063823699951,0.1067519187927246,10.357078452528183,0.1568488776683807,-0.3143468499183655,-0.3103530406951904
2.3000000000000003,-0.1786158382892608,-0.5173012018203735,1.859439849853516,-0.0052104293602736,0.0404730428099373,-0.0009442204340362,0.1516789197921753,-0.3004235029220581,-0.3069627285003662,-0.1800294849066995,-0.5134259122051299,1.8637842819932848,0.1891271572560072,-0.3759299844503402,-0.3672827437520027,0.7617123354647968,-0.2584978938102722,0.6961673498153687,0.1695156097412109,10.104714312312352,0.1516789197921753,-0.3004235029220581,-0.3069627285003662
2.32,-0.1754403114318847,-0.5238054990768433,1.852877378463745,-0.0147924029475979,0.0476276237784797,-0.0041791976515507,0.1428987085819244,-0.2926933765411377,-0.2953112125396728,-0.1762914389022626,-0.520638260152191,1.856580145796761,0.1906103952787816,-0.3861383758485317,-0.3720000330358743,0.8255373809584708,-0.4390105605125427,0.3865063190460205,0.582575798034668,10.168559986090258,0.1428987085819244,-0.2926933765411377,-0.2953112125396728
2.34,-0.1724825650453567,-0.5302176475524902,1.846428155899048,0.002966498533187,0.0420426083531418,-0.0010914534172259,0.1330985873937606,-0.2885466814041137,-0.2902150154113769,-0.1724792309966869,-0.5283610276691616,1.8491401451360436,0.1920936333015561,-0.3963467672467232,-0.376717322319746,0.5899336425238128,-0.4900060594081878,0.2073347568511963,0.2548098564147949,10.168559986090258,0.1330985873937606,-0.2885466814041137,-0.2902150154113769
2.36,-0.1698188185691833,-0.5364752411842346,1.8401578664779663,0.008684395314489,0.0493720857433238,-0.0017757878935908,0.119868591427803,-0.2815917134284973,-0.2821630239486694,-0.1686670230911113,-0.5360837951861323,1.841700144475326,0.1935768713243305,-0.4065551586449146,-0.3814346116036177,0.8488800553031929,-0.6614997982978821,0.3477483987808227,0.402599573135376,10.247841101294398,0.119868591427803,-0.2815917134284973,-0.2821630239486694
2.38,-0.168372094631195,-0.5397447347640991,1.8371723890304563,0.0082242454451016,0.049065302663217,-0.0001429308510554,0.1238315552473068,-0.2865511178970337,-0.2837830781936645,-0.1648177342349663,-0.5440617724880576,1.834142211582512,0.195060109347105,-0.416763550043106,-0.3861519008874893,0.3275872047026612,0.1981481909751892,-0.2479702234268188,-0.0810027122497558,10.120937470138417,0.1238315552473068,-0.2865511178970337,-0.2837830781936645
2.4,-0.165748193860054,-0.5458317995071411,1.830986499786377,0.0153914380953485,0.0588416762761089,0.0011166986315243,0.1180755347013473,-0.2739179134368896,-0.2783650159835815,-0.1609313644282519,-0.5522949595749379,1.8264663464576008,0.1965433473698795,-0.4269719414412975,-0.3908691901713609,0.7451258711949956,-0.2878010272979736,0.6316602230072021,0.2709031105041504,10.505653351633557,0.1180755347013473,-0.2739179134368896,-0.2783650159835815
2.42,-0.1633578985929489,-0.5518653988838196,1.8247512578964236,0.0072874150336011,0.0812858115964769,-0.0039538269595778,0.1075632870197296,-0.271511971950531,-0.2805858850479126,-0.1598444171249866,-0.5595276951789856,1.8170682489871977,0.1401557568460703,-0.2824901277199387,-0.2912619737908244,0.5505183129478115,-0.5256123840808868,0.1202970743179321,-0.1110434532165527,10.190814674122976,0.1075632870197296,-0.271511971950531,-0.2805858850479126
2.44,-0.1608990132808685,-0.5580132603645325,1.818703055381775,0.0263586133407943,0.0776213361168923,0.0031021622396272,0.1106498390436172,-0.2766537666320801,-0.2721691131591797,-0.1598444171249866,-0.5595276951789856,1.8170682489871977,0.1401557568460703,-0.2824901277199387,-0.2912619737908244,0.5167371308758829,0.1543276011943817,-0.2570897340774536,0.4208385944366455,10.190814674122976,0.1106498390436172,-0.2766537666320801,-0.2721691131591797
2.46,-0.1585903465747833,-0.564209520816803,1.812578082084656,0.0135843376636204,0.0987358860483366,-0.0030360182023995,0.1038900017738342,-0.2788317203521728,-0.2756237983703613,-0.1598444171249866,-0.5595276951789856,1.8170682489871977,0.1401557568460703,-0.2824901277199387,-0.2912619737908244,0.3948852118944524,-0.337991863489151,-0.1088976860046386,-0.172734260559082,10.902635375423417,0.1038900017738342,-0.2788317203521728,-0.2756237983703613
2.48,-0.1572339683771133,-0.5671706199645996,1.80965793132782,0.010882739577062,0.1059428265824664,-0.0029698620649761,0.1124268025159835,-0.2762621641159057,-0.2633929252624511,-0.1584428595565259,-0.562352596456185,1.8141556292492893,0.1445718012750148,-0.2842045705765486,-0.293841365352273,0.7567592799964542,0.4268400371074676,0.1284778118133545,0.6115436553955078,10.82516614808219,0.1124268025159835,-0.2762621641159057,-0.2633929252624511
2.5,-0.1548932194709777,-0.5732898116111755,1.8039387464523315,0.0287851849835048,0.0984131753460729,0.0040768701227488,0.1053337007761001,-0.2753636240959167,-0.2573633193969726,-0.1556397444196045,-0.5680023990105838,1.808330389773473,0.153403890132904,-0.2876334562897682,-0.2990001484751701,0.467641992748919,-0.3546550869941711,0.0449270009994506,0.3014802932739258,10.82516614808219,0.1053337007761001,-0.2753636240959167,-0.2573633193969726
2.52,-0.1523690521717071,-0.5793403387069702,1.7982021570205688,0.0241681707263796,0.1043984702971745,0.0047169104768827,0.1135875284671783,-0.2722737193107605,-0.2581465244293213,-0.1528366292826831,-0.5736522015649825,1.8025051502976568,0.1622359789907932,-0.2910623420029878,-0.3041589315980673,0.4423985568976146,0.4126913845539093,0.1544952392578125,-0.0391602516174316,10.388960650606805,0.1135875284671783,-0.2722737193107605,-0.2581465244293213
2.54,-0.1499105989933014,-0.5854125022888184,1.7925142049789429,0.0160516033906572,0.1115732864615177,0.0033882142771014,0.1106303930282592,-0.2732473611831665,-0.2559578418731689,-0.1495919097028672,-0.5794734484050423,1.7964219716656953,0.1710680678486824,-0.2944912277162075,-0.3093177147209644,0.1902824205714948,-0.1478567719459533,-0.0486820936203002,0.1094341278076171,10.388960650606805,0.1106303930282592,-0.2732473611831665,-0.2559578418731689
2.56,-0.1471251249313354,-0.5914222002029419,1.786856770515442,0.0059939808422983,0.1170044020802622,0.0028384663495657,0.1253463327884674,-0.2704364061355591,-0.2545845508575439,-0.1463471901230514,-0.585294695245102,1.790338793033734,0.1799001567065715,-0.2979201134294271,-0.3144764978438615,0.7522404527797951,0.7357969880104065,0.1405477523803711,0.06866455078125,10.3350121815256,0.1253463327884674,-0.2704364061355591,-0.2545845508575439
2.58,-0.1458373069763183,-0.5944420695304871,1.7842849493026731,0.0002864645378098,0.1186975010203996,0.0034686484369972,0.1176785677671432,-0.2708736062049866,-0.2442741394042968,-0.1428816683217883,-0.5912016642279923,1.7841266448237,0.1887322455644607,-0.3013489991426468,-0.3196352809667587,0.642826470865579,-0.3833882510662079,-0.0218600034713745,0.5155205726623535,10.533339481879011,0.1176785677671432,-0.2708736062049866,-0.2442741394042968
2.6,-0.1428828537464141,-0.6002326607704163,1.7788963317871094,-0.0103390443295786,0.1214275383102448,0.0020670347786009,0.1329503953456878,-0.2605766057968139,-0.2424877882003784,-0.1391953442990779,-0.597194355353713,1.777785527035594,0.1975643344223499,-0.3047778848558664,-0.3247940640896559,0.9252675094512448,0.7635913789272308,0.5148500204086304,0.0893175601959228,10.70286140536291,0.1329503953456878,-0.2605766057968139,-0.2424877882003784
2.62,-0.1396583914756775,-0.6058188676834106,1.773415207862854,-0.0181254526086026,0.1265491860538038,0.0007726646628582,0.1451008021831512,-0.2513793110847473,-0.2466505765914917,-0.1362353339791298,-0.613261491060257,1.7667719423770905,0.1494306772947311,-0.2382580265402794,-0.2501632808707654,0.7898598349164133,0.607520341873169,0.4598647356033325,-0.208139419555664,10.371973639015325,0.1451008021831512,-0.2513793110847473,-0.2466505765914917
