t,x,y,z,roll,pitch,yaw,v_x,v_y,v_z,ref_x,ref_y,ref_z,ref_v_x,ref_v_y,ref_v_z,a_com,a_x,a_y,a_z,thrust,wind_x,wind_y,wind_z
0.0,-1.456349492073059,-0.0809973180294036,2.69973087310791,0.0169610025282685,0.0515515274286887,0.0047811597327908,0.0450235605239868,-0.0085656344890594,-0.0511336326599121,-1.4550282955169678,-0.0814269464462995,2.698625922203064,0.1464344039559364,0.0876004844903945,-0.1448250785470008,3.4333436637832,2.251178026199341,-0.4282817244529724,-2.556681632995605,13.109088770804192,0.0450235605239868,-0.0085656344890594,-0.0511336326599121
0.02,-1.4558902978897097,-0.0811692029237747,2.69930100440979,0.0146329894074725,0.0698811421297993,0.0017338653798246,0.0449967384338378,-0.0073868036270141,-0.0472497940063476,-1.4550282955169678,-0.0814269464462995,2.698625922203064,0.1464344039559364,0.0876004844903945,-0.1448250785470008,0.202944353904905,-0.0013411045074462,0.0589415431022644,0.1941919326782226,12.660048217430813,0.0449967384338378,-0.0073868036270141,-0.0472497940063476
0.04,-1.4549599885940552,-0.0815007463097572,2.6987104415893555,0.0196167556393606,0.0511901527184753,0.0037772762550915,0.0418639183044433,-0.0149194523692131,-0.0265753269195556,-1.4550282955169678,-0.0814269464462995,2.698625922203064,0.1464344039559364,0.0876004844903945,-0.1448250785470008,1.111293107554591,-0.1566410064697265,-0.3766324371099472,1.0337233543395996,12.660048217430813,0.0418639183044433,-0.0149194523692131,-0.0265753269195556
0.06,-1.453901290893555,-0.0818829908967018,2.698304891586304,0.0062413928299478,0.077292076903965,0.0036334107834002,0.0476413965225219,-0.0172010064125061,-0.0182497501373291,-1.4550282955169678,-0.0814269464462995,2.698625922203064,0.1464344039559364,0.0876004844903945,-0.1448250785470008,0.5193745569663321,0.2888739109039306,-0.1140777021646499,0.4162788391113281,11.767542424990552,0.0476413965225219,-0.0172010064125061,-0.0182497501373291
0.08,-1.4529658555984497,-0.0821449533104896,2.697975873947144,0.0053041778985735,0.0645262272664753,0.0067000329112197,0.0420945882797241,-0.0117883086204528,-0.014805793762207,-1.4535639514774084,-0.0805509416013956,2.697177671417594,0.1664344042539596,0.1076004847884178,-0.1648250788450241,0.4240436728221869,-0.2773404121398926,0.2706348896026611,0.1721978187561035,11.120830121697054,0.0420945882797241,-0.0117883086204528,-0.014805793762207
0.1,-1.4519065618515017,-0.082504816353321,2.69801926612854,-0.0218919418273592,0.0848288025539439,0.0073728771226859,0.0476682186126709,-0.0161938369274139,0.0019526481628417,-1.4506352633982895,-0.0787989319115877,2.6942811698466542,0.2064344048500061,0.1476004853844642,-0.2048250794410705,0.9101090738299088,0.2786815166473388,-0.2202764153480529,0.8379220962524414,10.697654336360756,0.0476682186126709,-0.0161938369274139,0.0019526481628417
0.12,-1.451274037361145,-0.0823784321546554,2.698276996612549,-0.0825989559368369,0.1435584875310064,0.0026777695220781,0.0529950857162475,-0.0020740181207656,0.0152671337127685,-1.447706575319171,-0.0770469222217798,2.691384668275714,0.2464344054460525,0.1876004859805107,-0.244825080037117,1.0062558344314747,0.266343355178833,0.7059909403324127,0.6657242774963379,10.62204379918512,0.0529950857162475,-0.0020740181207656,0.0152671337127685
0.14,-1.4499558210372925,-0.0823122933506965,2.698047161102295,-0.0830971725701777,0.1297074464150964,0.004525261905322,0.0593197345733642,0.0029762461781501,-0.0103425979614257,-1.44277788721025,-0.0732949125021696,2.686488166674972,0.2864344060420989,0.2276004865765571,-0.2848250806331634,1.342911677176653,0.3162324428558349,0.2525132149457931,-1.2804865837097168,10.62204379918512,0.0593197345733642,0.0029762461781501,-0.0103425979614257
0.16,-1.448106050491333,-0.0817066803574562,2.69758677482605,-0.1631318976931738,0.2091968285051001,-0.0032639125456972,0.0832396745681762,0.027252584695816,-0.0207173824310302,-1.4378491991013287,-0.0695429027825593,2.681591665074229,0.3264344066381455,0.2676004871726036,-0.3248250812292099,1.781249767698554,1.1959969997406006,1.2138169258832932,-0.5187392234802246,10.353290366205329,0.0832396745681762,0.027252584695816,-0.0207173824310302
0.18,-1.4459277391433716,-0.0807147696614265,2.696237802505493,-0.1688052918454516,0.206244203950794,-0.0033735635086283,0.0980240106582641,0.0446359813213348,-0.0607037544250488,-1.4319205109775066,-0.064790893048048,2.675695163458586,0.3664344072341919,0.30760048776865,-0.3648250818252563,2.3019931674034164,0.7392168045043945,0.8691698312759399,-1.999318599700928,10.801394967935266,0.0980240106582641,0.0446359813213348,-0.0607037544250488
0.2,-1.4428718090057373,-0.0787085890769958,2.694417715072632,-0.214913948104075,0.2682208189184741,-0.0099082907223063,0.1375168561935424,0.0902781262993812,-0.0819039344787597,-1.4249918228387832,-0.0590388832986354,2.668798661828041,0.4064344078302383,0.3476004883646965,-0.4048250824213028,3.1985691648689274,1.974642276763916,2.282107248902321,-1.0600090026855469,10.87607605224366,0.1375168561935424,0.0902781262993812,-0.0819039344787597
0.22,-1.441324234008789,-0.0776895731687545,2.6929664611816406,-0.2070959569432312,0.255490987641851,-0.008429607884948,0.1365244388580322,0.1011568307876586,-0.1112043857574462,-1.4359959661960602,-0.0741946827620267,2.690322518348694,0.2375168576836586,0.1902781277894973,-0.1819039359688758,1.5635277009424646,-0.0496208667755126,0.5439352244138718,-1.4650225639343262,11.24536367321116,0.1365244388580322,0.1011568307876586,-0.1112043857574462
0.24,-1.4374573230743408,-0.0745790153741836,2.6898181438446045,-0.2152909489828082,0.3022781492646308,-0.0113611833465346,0.1740109920501709,0.1399751007556915,-0.1416742801666259,-1.4359959661960602,-0.0741946827620267,2.690322518348694,0.2375168576836586,0.1902781277894973,-0.1819039359688758,3.098594124294388,1.8743276596069336,1.9409134984016416,-1.5234947204589844,12.536835732985764,0.1740109920501709,0.1399751007556915,-0.1416742801666259
0.26,-1.432525634765625,-0.0704507902264595,2.685919523239136,-0.2013669416884319,0.2875959498875258,-0.0075673675548413,0.2219259738922119,0.1857701241970062,-0.1754379272460937,-1.4359959661960602,-0.0741946827620267,2.690322518348694,0.2375168576836586,0.1902781277894973,-0.1819039359688758,3.7192114490240185,2.395749092102051,2.289751172065735,-1.688182353973389,12.893515022579775,0.2219259738922119,0.1857701241970062,-0.1754379272460937
0.28,-1.4270296096801758,-0.0656506344676017,2.681201934814453,-0.1812153092987169,0.2897635238200725,-0.0055577899137998,0.2473211288452148,0.2160070091485977,-0.2122914791107177,-1.4336207976192237,-0.0722919014841318,2.688503478989005,0.2575168579816818,0.2102781280875205,-0.2019039362668991,2.7006329775171887,1.2697577476501465,1.5118442475795746,-1.8426775932312007,12.893515022579775,0.2473211288452148,0.2160070091485977,-0.2122914791107177
0.3,-1.420506238937378,-0.0599970109760761,2.67608904838562,-0.1501836869023972,0.2772625477806977,-0.0009597140311639,0.2935516834259033,0.2544130682945251,-0.2300798892974853,-1.4288704604655504,-0.0684863389283418,2.6848654002696275,0.2975168585777282,0.250278128683567,-0.2419039368629455,3.1339739520819205,2.311527729034424,1.9203029572963717,-0.8894205093383789,12.815811370569463,0.2935516834259033,0.2544130682945251,-0.2300798892974853
0.32,-1.4170515537261963,-0.0569324158132076,2.67334532737732,-0.1090754313251138,0.2557949625156431,0.0038542835566408,0.3036582469940185,0.2742255330085754,-0.2444672584533691,-1.4241201233118772,-0.0646807763725519,2.6812273215502502,0.3375168591737747,0.2902781292796135,-0.281903937458992,1.3244553375156882,0.5053281784057617,0.9906232357025146,-0.7193684577941895,13.211125928879484,0.3036582469940185,0.2742255330085754,-0.2444672584533691
0.34,-1.4092530012130735,-0.0501955263316631,2.668044090270996,-0.0962554669299542,0.2337181541019104,0.0085771582104168,0.3509348630905151,0.303160011768341,-0.2385556697845459,-1.4173697861284016,-0.0588752137869596,2.6755892428010704,0.3775168597698211,0.3302781298756599,-0.3219039380550384,2.787126374612482,2.363830804824829,1.4467239379882812,0.2955794334411621,13.211125928879484,0.3509348630905151,0.303160011768341,-0.2385556697845459
0.36,-1.4005345106124878,-0.0430603250861167,2.6626827716827397,-0.0460189531699203,0.1885081475234672,0.0115858257425355,0.3923320770263672,0.321084052324295,-0.2412593364715576,-1.4106194489449262,-0.0530696512013673,2.6699511640518905,0.4175168603658676,0.3702781304717064,-0.3619039386510849,2.2595964048125072,2.0698606967926025,0.896202027797699,-0.1351833343505859,12.756660471018222,0.3923320770263672,0.321084052324295,-0.2412593364715576
0.38,-1.3912845849990845,-0.0354780554771423,2.6575605869293213,-0.0232339723172022,0.1534720987579015,0.0131502837034953,0.4162466526031494,0.3412021398544311,-0.2304983139038086,-1.4028691117465495,-0.0462640886008739,2.6633130852878093,0.4575168609619141,0.4102781310677528,-0.4019039392471313,1.6526070143801963,1.195728778839111,1.0059043765068054,0.5380511283874512,12.423087915221458,0.4162466526031494,0.3412021398544311,-0.2304983139038086
0.4,-1.3815863132476809,-0.0278780199587345,2.652687788009644,-0.0069206318681551,0.1206288353183415,0.0134329713229144,0.4364222288131714,0.3420015871524811,-0.219275951385498,-1.3941187745332717,-0.0384585259854793,2.6556750065088277,0.4975168615579605,0.4502781316637992,-0.4419039398431778,1.1550264194826296,1.0087788105010986,0.0399723649024963,0.5611181259155273,12.180773260552089,0.4364222288131714,0.3420015871524811,-0.219275951385498
0.42,-1.3766049146652222,-0.0239656306803226,2.6503689289093018,0.0020052958202888,0.0923775961918702,0.0127178438691768,0.4446512460708618,0.3438768088817596,-0.2151346206665039,-1.359765201807022,-0.0107779406011104,2.6417239904403687,0.5364222303032875,0.4420015886425972,-0.3192759528756141,0.4700632980924216,0.4114508628845215,0.0937610864639282,0.207066535949707,11.604787532636236,0.4446512460708618,0.3438768088817596,-0.2151346206665039
0.44,-1.3664662837982178,-0.0161662455648183,2.646177053451538,0.0073536167813118,0.071751187798156,0.0156041074783785,0.4562383890151977,0.3509723246097564,-0.1886343955993652,-1.359765201807022,-0.0107779406011104,2.6417239904403687,0.5364222303032875,0.4420015886425972,-0.3192759528756141,1.4890182618656238,0.5793571472167969,0.3547757863998413,1.3250112533569336,11.604787532636236,0.4562383890151977,0.3509723246097564,-0.1886343955993652
0.46,-1.3564047813415527,-0.0084161991253495,2.642120838165283,0.001290150442103,0.0500124522645585,0.0102514003165355,0.4527676105499267,0.3487520813941955,-0.1825296878814697,-1.359765201807022,-0.0107779406011104,2.6417239904403687,0.5364222303032875,0.4420015886425972,-0.3192759528756141,0.3682500489211309,-0.1735389232635498,-0.1110121607780456,0.3052353858947754,11.93363702084298,0.4527676105499267,0.3487520813941955,-0.1825296878814697
0.48,-1.3463753461837769,-0.0005988733610138,2.638209342956543,0.003049257320913,0.0282906658572462,0.0119914347759776,0.4513245820999145,0.3517796695232391,-0.1760172843933105,-1.3544009795039893,-0.0063579247146844,2.6385312309116125,0.5564222306013107,0.4620015889406204,-0.3392759531736374,0.3662650003046226,-0.0721514225006103,0.1513794064521789,0.325620174407959,11.231070387336333,0.4513245820999145,0.3517796695232391,-0.1760172843933105
0.5,-1.3364982604980469,0.0071816523559391,2.6344661712646484,-0.0254621389884176,0.0405393140029737,0.0080330577510858,0.4444688558578491,0.3501236736774444,-0.1684427261352539,-1.3436725348979237,0.0024821070581674,2.6321457118541005,0.5964222311973572,0.5020015895366668,-0.3792759537696838,0.5174872881340368,-0.3427863121032715,-0.0827997922897338,0.378727912902832,11.16940205508763,0.4444688558578491,0.3501236736774444,-0.1684427261352539
0.52,-1.3316391706466677,0.0112163322046399,2.6326706409454346,-0.0206721898546979,0.0244812422912613,0.010003685785931,0.4398447275161743,0.3568953573703766,-0.1638400554656982,-1.3329440902918577,0.0113221388310194,2.625760192796588,0.6364222317934036,0.5420015901327133,-0.4192759543657303,0.4701670986197117,-0.2312064170837402,0.3385841846466064,0.2301335334777832,11.018902952725512,0.4398447275161743,0.3568953573703766,-0.1638400554656982
0.54,-1.3221536874771118,0.0192617774009704,2.629082202911377,-0.0444268855408028,0.031136808603021,0.0074168486215244,0.4268467426300049,0.362045019865036,-0.1614797115325927,-1.3202156456559897,0.0221621706336736,2.6173746737092736,0.6764222323894501,0.5820015907287598,-0.4592759549617767,0.708939098922712,-0.6498992443084717,0.2574831247329712,0.1180171966552734,11.018902952725512,0.4268467426300049,0.362045019865036,-0.1614797115325927
0.56,-1.3128604888916016,0.0272678844630718,2.625081777572632,-0.0691184304200121,0.0509803875382696,0.0048320000668625,0.4181939363479614,0.3602748215198517,-0.1800191402435302,-1.3074872010201215,0.0330022024363279,2.608989154621959,0.7164222329854966,0.6220015913248063,-0.4992759555578232,1.02678512316818,-0.4326403141021728,-0.0885099172592163,-0.926971435546875,10.338295994622968,0.4181939363479614,0.3602748215198517,-0.1800191402435302
0.58,-1.3034712076187134,0.0358003005385398,2.621159076690674,-0.0905076516378393,0.0718652652752894,0.003201440935498,0.4225176572799682,0.3839587271213531,-0.1765215396881103,-1.2937587563693522,0.0448422342538833,2.599603635519743,0.7564222335815429,0.6620015919208526,-0.5392759561538696,1.2164036715704003,0.2161860466003418,1.1841952800750732,0.1748800277709961,10.507899184045527,0.4225176572799682,0.3839587271213531,-0.1765215396881103
0.6,-1.294017314910889,0.0448387563228607,2.6164586544036865,-0.1030627704452007,0.0977026244382017,0.0017388546488824,0.4254251718521118,0.4067305028438568,-0.2115190029144287,-1.279030311703682,0.0576822660863399,2.589218116402626,0.7964222341775894,0.7020015925168991,-0.579275956749916,2.092743320871399,0.1453757286071777,1.138588786125183,-1.749873161315918,10.507899184045527,0.4254251718521118,0.4067305028438568,-0.2115190029144287
0.62,-1.2893537282943726,0.0494192913174629,2.614080905914306,-0.1174164276385718,0.1547812688913218,-0.0012430683053466,0.4244381189346313,0.4102899730205536,-0.2120876312255859,-1.272746056318283,0.0651752814650535,2.605882704257965,0.5254251733422279,0.5067305043339729,-0.3115190044045448,0.1868651890866114,-0.0493526458740234,0.1779735088348388,-0.0284314155578613,10.792832174312936,0.4244381189346313,0.4102899730205536,-0.2120876312255859
0.64,-1.2798576354980469,0.0589878857135772,2.608422040939331,-0.1110951292339033,0.1395994879748663,-0.0009056546270473,0.4273241758346557,0.4305867552757263,-0.2546489238739013,-1.272746056318283,0.0651752814650535,2.605882704257965,0.5254251733422279,0.5067305043339729,-0.3115190044045448,2.362071297738291,0.1443028450012207,1.0148391127586365,-2.1280646324157715,10.792832174312936,0.4273241758346557,0.4305867552757263,-0.2546489238739013
0.66,-1.2701084613800049,0.0690317675471305,2.6024281978607178,-0.1091427267752759,0.1934086141551925,-0.0038716272826648,0.4387128353118896,0.4519746899604797,-0.2697229385375976,-1.272746056318283,0.0651752814650535,2.605882704257965,0.5254251733422279,0.5067305043339729,-0.3115190044045448,1.4268595173045229,0.5694329738616943,1.069396734237671,-0.7537007331848145,12.333843154921851,0.4387128353118896,0.4519746899604797,-0.2697229385375976
0.68,-1.260059833526611,0.0794223919510841,2.596027135848999,-0.092791427511537,0.2074205274230401,-0.0045083087670382,0.4521882534027099,0.467578113079071,-0.2880477905273437,-1.2674918045848609,0.0702425865083932,2.6027675142139195,0.5454251736402511,0.5267305046319961,-0.331519004702568,1.3791790186432455,0.6737709045410156,0.7801711559295654,-0.9162425994873048,12.778357837877593,0.4521882534027099,0.467578113079071,-0.2880477905273437
0.7000000000000001,-1.2495867013931274,0.0902998223900795,2.589250087738037,-0.0759847016801378,0.2096512060064089,-0.0042844287764994,0.4712909460067749,0.4894843697547912,-0.3049671649932861,-1.2569833011180165,0.0803771965950727,2.5965371341258288,0.5854251742362976,0.5667305052280426,-0.3715190052986145,1.6815633935319811,0.9551346302032472,1.0953128337860107,-0.8459687232971191,12.693591562104302,0.4712909460067749,0.4894843697547912,-0.3049671649932861
0.72,-1.244342565536499,0.0959303751587867,2.5858073234558105,-0.0679742670448669,0.1937050097929867,-0.0019916059765338,0.475308895111084,0.5016072988510132,-0.3059542179107666,-1.2464747976511716,0.0905118066817522,2.590306754037738,0.625425174832344,0.606730505824089,-0.4115190058946609,0.6404756012892859,0.2008974552154541,0.6061464548110962,-0.0493526458740234,12.693591562104302,0.475308895111084,0.5016072988510132,-0.3059542179107666
0.74,-1.233121633529663,0.1072396710515022,2.578946590423584,-0.0467978463358125,0.1859107005598644,-0.001335195287393,0.5049419403076172,0.508918285369873,-0.3087329864501953,-1.2339662941545246,0.1026464167982339,2.5820763739198447,0.6654251754283905,0.6467305064201355,-0.4515190064907073,1.5323914693171985,1.4816522598266602,0.3655493259429931,-0.1389384269714355,12.956904089784077,0.5049419403076172,0.508918285369873,-0.3087329864501953
0.76,-1.221412181854248,0.1187291517853736,2.572396993637085,-0.0195172091909972,0.1715764651390874,-0.0018525597778291,0.5269253253936768,0.5170266628265381,-0.294731855392456,-1.221457790657878,0.1147810269147157,2.573845993801952,0.705425176024437,0.686730507016182,-0.4915190070867539,1.3647771573756382,1.0991692543029783,0.4054188728332519,0.7000565528869629,12.403781381556657,0.5269253253936768,0.5170266628265381,-0.294731855392456
0.78,-1.2095757722854614,0.1304683089256286,2.5656778812408447,-0.0095888062225553,0.1498500898472383,0.0004522901147337,0.532638430595398,0.5282620787620544,-0.3023600578308105,-1.2079492871463298,0.1279156370460987,2.564615613669157,0.7454251766204834,0.7267305076122283,-0.5315190076828002,0.7366539464540085,0.2856552600860595,0.5617707967758179,-0.3814101219177246,12.403781381556657,0.532638430595398,0.5282620787620544,-0.3023600578308105
0.8,-1.1971279382705688,0.1425738781690597,2.5595219135284424,0.0041936025104628,0.1270521651460014,0.0020472137727137,0.560152530670166,0.5447506308555603,-0.2770185470581054,-1.1934407836198806,0.1420502471923828,2.5543852335214616,0.7854251772165298,0.7667305082082748,-0.5715190082788467,2.043948520210169,1.375705003738403,0.824427604675293,1.267075538635254,11.919822812732493,0.560152530670166,0.5447506308555603,-0.2770185470581054
0.8200000000000001,-1.190743923187256,0.1483324319124221,2.556556701660156,0.0025493845799996,0.1184978094716674,-0.0025240647677843,0.5686068534851074,0.5401767492294312,-0.2688753604888916,-1.1691203117370603,0.1698114097118377,2.545670986175537,0.6516589224338531,0.6447506323456764,-0.3770185485482216,0.6298957352016795,0.4227161407470703,-0.2286940813064575,0.4071593284606933,11.384824071382807,0.5686068534851074,0.5401767492294312,-0.2688753604888916
0.84,-1.1781835556030271,0.1600546538829803,2.550671339035034,0.0076541848442221,0.0950583399191826,-1.5795563001680385e-05,0.5652165412902832,0.5274999737739563,-0.2648413181304931,-1.1691203117370603,0.1698114097118377,2.545670986175537,0.6516589224338531,0.6447506323456764,-0.3770185485482216,0.686418878084396,-0.1695156097412109,-0.6338387727737427,0.2017021179199218,11.384824071382807,0.5652165412902832,0.5274999737739563,-0.2648413181304931
0.86,-1.1653318405151367,0.1717453747987747,2.545030117034912,-0.0042220507657891,0.089091395581531,-0.004265748466422,0.5783271789550781,0.526082456111908,-0.2538549900054931,-1.1691203117370603,0.1698114097118377,2.545670986175537,0.6516589224338531,0.6447506323456764,-0.3770185485482216,0.8581922598840022,0.6555318832397461,-0.0708758831024169,0.54931640625,11.710196834895214,0.5783271789550781,0.526082456111908,-0.2538549900054931
0.88,-1.1526707410812378,0.1833021789789199,2.5393335819244385,-0.0044631613095339,0.0650721896475546,-0.002549244431575,0.5697494745254517,0.5200561881065369,-0.2563440799713135,-1.162603722512722,0.1762589160352945,2.5419008006900548,0.6699602007865906,0.6647506326436996,-0.3970185488462448,0.538721839664358,-0.4288852214813232,-0.3013134002685547,-0.1244544982910156,11.710196834895214,0.5697494745254517,0.5200561881065369,-0.2563440799713135
0.9,-1.1399005651474,0.1950215548276901,2.533656358718872,-0.0221329054346539,0.072680377606926,-0.0051680275174473,0.5746579170227051,0.527371883392334,-0.2554750442504883,-1.149570544064045,0.189153928682208,2.5343604297190905,0.7065627574920654,0.7047506332397461,-0.4370185494422912,0.442626898040403,0.2454221248626709,0.3657847642898559,0.0434517860412597,11.355040832676876,0.5746579170227051,0.527371883392334,-0.2554750442504883
0.92,-1.133718967437744,0.2008223682641983,2.5307600498199463,-0.0341427510638231,0.0691852042735006,-0.0054108853293087,0.563773512840271,0.525122880935669,-0.2575457096099853,-1.136537365615368,0.2020489413291216,2.526820058748126,0.7431653141975403,0.7447506338357925,-0.4770185500383377,0.5652785187137732,-0.5442202091217041,-0.1124501228332519,-0.1035332679748535,11.139373269750196,0.563773512840271,0.525122880935669,-0.2575457096099853
0.94,-1.1210776567459106,0.2127387821674347,2.525214195251465,-0.0342418486380894,0.0500521466708308,-0.0037785795903174,0.5688589811325073,0.5362386107444763,-0.249563455581665,-1.1216740593314172,0.2169439540058374,2.5172796877473598,0.7797678709030151,0.784750634431839,-0.5170185506343842,0.729962013234911,0.2542734146118164,0.5557864904403687,0.3991127014160156,11.139373269750196,0.5688589811325073,0.5362386107444763,-0.249563455581665
0.96,-1.1087958812713623,0.2246758937835693,2.5191946029663086,-0.0559432398619291,0.0719790325627671,-0.0053324692101223,0.5526798963546753,0.5371700525283813,-0.2708816528320312,-1.1068107530474662,0.2318389666825533,2.5077393167465925,0.81637042760849,0.8247506350278855,-0.5570185512304306,1.3389323190985063,-0.8089542388916016,0.0465720891952514,-1.0659098625183103,10.716827370829831,0.5526798963546753,0.5371700525283813,-0.2708816528320312
0.98,-1.0964752435684204,0.2367307096719741,2.513349294662476,-0.0580172005887945,0.0556633328819729,-0.0038573326616716,0.5544286966323853,0.5424667000770569,-0.2630388736724853,-1.0910323828458786,0.2477339793741703,2.4971989457309247,0.8529729843139648,0.8647506356239318,-0.597018551826477,0.481201523822443,0.087440013885498,0.2648323774337768,0.3921389579772949,10.716827370829831,0.5544286966323853,0.5424667000770569,-0.2630388736724853
1.0,-1.0843260288238523,0.2492094933986663,2.506856918334961,-0.0727472809997776,0.0847944094903322,-0.0048906447174641,0.5467146635055542,0.5615452527999878,-0.2921569347381592,-1.074338948726654,0.2646289920806884,2.485658574700356,0.8895755410194397,0.9047506362199784,-0.6370185524225235,1.7828060475748695,-0.3857016563415527,0.9539276361465454,-1.4559030532836914,10.679014113188714,0.5467146635055542,0.5615452527999878,-0.2921569347381592
1.02,-1.078243613243103,0.255573034286499,2.5036697387695312,-0.0697457872883502,0.0686189095615244,-0.0032567869828518,0.5492144823074341,0.5726328492164612,-0.2944850921630859,-1.0569902956485748,0.2772867560386657,2.492249071598053,0.6126943379640579,0.6475802212953568,-0.3921569362282753,0.5800952622890212,0.1249909400939941,0.5543798208236694,-0.1164078712463378,11.109555261903552,0.5492144823074341,0.5726328492164612,-0.2944850921630859
1.04,-1.066154956817627,0.2683056890964508,2.4971985816955566,-0.0770251758565584,0.0777923953923758,-0.0032849834548992,0.5439895391464233,0.5729694366455078,-0.2912020683288574,-1.0569902956485748,0.2772867560386657,2.492249071598053,0.6126943379640579,0.6475802212953568,-0.3921569362282753,0.3089966327862556,-0.2612471580505371,0.0168293714523315,0.1641511917114257,11.109555261903552,0.5439895391464233,0.5729694366455078,-0.2912020683288574
1.06,-1.0542885065078735,0.2813559770584106,2.490027904510498,-0.0776906680977194,0.1147055972129276,-0.0038394104634501,0.5339902639389038,0.5872629880905151,-0.3226804733276367,-1.0569902956485748,0.2772867560386657,2.492249071598053,0.6126943379640579,0.6475802212953568,-0.3921569362282753,1.7994312287872791,-0.4999637603759765,0.7146775722503662,-1.5739202499389648,11.700569001682195,0.5339902639389038,0.5872629880905151,-0.3226804733276367
1.08,-1.042190432548523,0.2947528958320617,2.482893705368042,-0.0712339341024175,0.0981556055800425,-0.001221535215649,0.5444133281707764,0.6028613448143005,-0.3210389614105224,-1.0508633522689343,0.2837625582516193,2.4883275022357703,0.6258902728557587,0.6647872149944305,-0.4121569365262985,0.9415991209615566,0.5211532115936279,0.77991783618927,0.0820755958557128,11.700569001682195,0.5444133281707764,0.6028613448143005,-0.3210389614105224
1.1,-1.030139446258545,0.3084091246128082,2.475341320037842,-0.0596689435522854,0.1046758960009623,-0.0002969311071875,0.5422943830490112,0.6145303249359131,-0.3398573398590088,-1.0386094655096532,0.2967141626775264,2.480484363511205,0.6522821426391602,0.6992012023925781,-0.4521569371223449,1.1121897240782437,-0.1059472560882568,0.5834490060806274,-0.9409189224243164,11.82681606231472,0.5422943830490112,0.6145303249359131,-0.3398573398590088
1.12,-1.0240838527679443,0.3152591288089752,2.4715254306793213,-0.0407427623330678,0.1228390772886564,-0.0002678547803546,0.544745922088623,0.6157547235488892,-0.3335273265838623,-1.026355578750372,0.3096657671034336,2.4726412247866394,0.6786740124225616,0.7336151897907257,-0.4921569377183914,0.3448849941999843,0.1225769519805908,0.0612199306488037,0.3165006637573242,12.125916127768503,0.544745922088623,0.6157547235488892,-0.3335273265838623
1.14,-1.012044072151184,0.3292459845542907,2.4639267921447754,-0.0306784406651116,0.1034615538741296,0.00233969895157,0.5417901277542114,0.6294084787368774,-0.3419387340545654,-1.0127820985019207,0.3243380708992481,2.462798086032272,0.7050658822059631,0.7680291771888733,-0.5321569383144379,0.8153427600081101,-0.147789716720581,0.6826877593994141,-0.4205703735351562,12.125916127768503,0.5417901277542114,0.6294084787368774,-0.3419387340545654
1.16,-0.999728262424469,0.343209445476532,2.4564731121063232,-0.0113967526092335,0.0951695559052819,0.0047929476492132,0.554211437702179,0.6283557415008545,-0.3354156017303467,-0.9992086182534696,0.3390103746950626,2.452954947277904,0.7314577519893647,0.8024431645870209,-0.5721569389104844,0.703470773790308,0.6210654973983765,-0.0526368618011474,0.3261566162109375,11.749906133919469,0.554211437702179,0.6283557415008545,-0.3354156017303467
1.18,-0.9875723123550416,0.3571382164955139,2.4486234188079834,0.0142737378886925,0.1002585933942587,0.0023597022293359,0.5470177531242371,0.626794695854187,-0.3532361984252929,-0.9849753412604332,0.3545430281758308,2.442111808508635,0.7578496217727662,0.8368571519851684,-0.6121569395065307,0.9640534579081044,-0.3596842288970947,-0.078052282333374,-0.8910298347473145,11.335145366151664,0.5470177531242371,0.626794695854187,-0.3532361984252929
1.2,-0.9753893613815308,0.3711007237434387,2.44111704826355,0.02623297646611,0.07429245921193,0.0054302857407456,0.5482327938079834,0.6283128261566162,-0.3377866744995117,-0.970082267522812,0.3709360313415527,2.4302686697244646,0.7842414915561676,0.871271139383316,-0.6521569401025772,0.7785705379276816,0.0607520341873168,0.0759065151214599,0.7724761962890625,11.335145366151664,0.5482327938079834,0.6283128261566162,-0.3377866744995117
1.22,-0.969276487827301,0.3781890273094177,2.4372305870056152,0.0357596311590698,0.0808765708871881,0.0014432883102376,0.5546566843986511,0.6330925226211548,-0.3376471996307373,-0.9551891937851906,0.3873290345072746,2.4184255309402944,0.8106333613395691,0.9056851267814636,-0.6921569406986237,0.4004101704908715,0.3211945295333862,0.2389848232269287,0.0069737434387207,10.787215764687062,0.5546566843986511,0.6330925226211548,-0.3376471996307373
1.24,-0.9571166038513184,0.3919924795627594,2.42979097366333,0.042251970513841,0.0583400703795464,0.0050603412575233,0.54719477891922,0.6211553812026978,-0.334782600402832,-0.9479777216911316,0.4025163650512695,2.424227714538574,0.5823370106518269,0.6677218154072762,-0.4377866759896278,0.718298871231054,-0.3730952739715576,-0.5968570709228516,0.1432299613952636,10.787215764687062,0.54719477891922,0.6211553812026978,-0.334782600402832
1.26,-0.9452602863311768,0.4053328335285187,2.4223310947418213,0.0443030854740592,0.0490170416465381,0.0034169132012375,0.5335342884063721,0.6003159284591675,-0.3356945514678955,-0.9479777216911316,0.4025163650512695,2.424227714538574,0.5823370106518269,0.6677218154072762,-0.4377866759896278,1.2467191408317566,-0.683024525642395,-1.0419726371765137,-0.0455975532531738,11.275381720754012,0.5335342884063721,0.6003159284591675,-0.3356945514678955
1.28,-0.9335461258888244,0.4186196327209472,2.414748430252075,0.0415708173687129,0.0422486930419844,0.000680830982776,0.5271372199058533,0.5979059934616089,-0.3412199020385742,-0.9479777216911316,0.4025163650512695,2.424227714538574,0.5823370106518269,0.6677218154072762,-0.4377866759896278,0.4394876876025286,-0.3198534250259399,-0.1204967498779296,-0.2762675285339355,11.163533422227374,0.5271372199058533,0.5979059934616089,-0.3412199020385742
1.3,-0.9217678904533386,0.4318723678588867,2.407032966613769,0.036260545333123,0.0357926870241018,0.0009695939911662,0.5300205945968628,0.5963730812072754,-0.3471958637237549,-0.9421543515846134,0.4091935832053422,2.419849847778678,0.5891578540205955,0.6756036132574081,-0.4577866762876511,0.3404988533423694,0.144168734550476,-0.0766456127166748,-0.2987980842590332,11.163533422227374,0.5300205945968628,0.5963730812072754,-0.3471958637237549
1.32,-0.9161012172698976,0.4384059607982635,2.4029080867767334,0.0280745077369782,0.0508264282850029,-0.003173915697422,0.5198737978935242,0.5955321788787842,-0.3578603267669678,-0.9305076113715768,0.4225480195134878,2.4110941142588853,0.6027995407581329,0.6913672089576721,-0.4977866768836975,0.7372166778922582,-0.5073398351669312,-0.0420451164245605,-0.5332231521606445,10.995811078965744,0.5198737978935242,0.5955321788787842,-0.3578603267669678
1.34,-0.9047775268554688,0.4512215554714203,2.3949670791625977,0.0300258007008419,0.0286972715865245,-0.0008893101006572,0.509566068649292,0.5767017602920532,-0.3573453426361084,-0.9188608711585402,0.4359024558216333,2.402338380739093,0.6164412274956703,0.7071308046579361,-0.537786677479744,1.0736609741661225,-0.5153864622116089,-0.941520929336548,0.0257492065429687,10.995811078965744,0.509566068649292,0.5767017602920532,-0.3573453426361084
1.36,-0.893866777420044,0.4639883935451507,2.3864622116088867,0.032111946359905,0.0250030878422638,0.0003299020422323,0.4909837245941162,0.5745077133178711,-0.3827190399169922,-0.9065320466086269,0.450045071914792,2.391582647189498,0.6300829142332077,0.7228944003582001,-0.5777866780757904,1.576342179233124,-0.9291172027587892,-0.1097023487091064,-1.2686848640441897,10.80048883744712,0.4909837245941162,0.5745077133178711,-0.3827190399169922
1.38,-0.8831953406333923,0.4763367474079132,2.3778610229492188,0.0367992608693968,0.0378122577467512,-0.0031946054168076,0.4802146553993225,0.5556759238243103,-0.3870534896850586,-0.8942032220587134,0.4641876880079508,2.380826913639903,0.6437246009707451,0.738657996058464,-0.6177866786718369,1.1061155021560047,-0.5384534597396851,-0.9415894746780396,-0.2167224884033203,10.955069164772794,0.4802146553993225,0.5556759238243103,-0.3870534896850586
1.4,-0.8728032112121582,0.488702654838562,2.368967771530152,0.0434400215972224,0.0147100751420177,-0.0001819176282498,0.4676458239555359,0.5564658641815186,-0.4001963138580322,-0.8591846078634262,0.5041205435991287,2.358508348464966,0.5208310820162296,0.5649275640025735,-0.4870534911751747,0.9101282284271344,-0.628441572189331,0.0394970178604126,-0.6571412086486816,10.932534475064584,0.4676458239555359,0.5564658641815186,-0.4001963138580322
1.42,-0.86777663230896,0.4947198927402496,2.3644909858703613,0.0481434696461769,0.0121665854831871,-3.367775441937349e-05,0.458402931690216,0.5498569011688232,-0.4026210308074951,-0.8591846078634262,0.5041205435991287,2.358508348464966,0.5208310820162296,0.5649275640025735,-0.4870534911751747,0.5809231916021609,-0.4621446132659912,-0.3304481506347656,-0.1212358474731445,10.932534475064584,0.458402931690216,0.5498569011688232,-0.4026210308074951
1.44,-0.8578354716300964,0.5066300630569458,2.355409860610962,0.0595503386125883,0.0275075933390506,-0.0027789060461798,0.4473522305488586,0.5359576940536499,-0.4086506366729736,-0.8591846078634262,0.5041205435991287,2.358508348464966,0.5208310820162296,0.5649275640025735,-0.4870534911751747,0.9376327919808164,-0.5525350570678711,-0.694960355758667,-0.3014802932739258,11.522918894834676,0.4473522305488586,0.5359576940536499,-0.4086506366729736
1.46,-0.8482364416122437,0.5182978510856628,2.3458058834075928,0.0685502809322586,0.0278417646534814,-0.0027393713145525,0.4319563508033752,0.5250504612922668,-0.4321789741516113,-0.8539762970432639,0.5097698192391544,2.353637813553214,0.5289543673396111,0.5667778920382261,-0.5070534914731979,1.5079651058272543,-0.7697939872741699,-0.5453616380691528,-1.1764168739318848,11.238712738582764,0.4319563508033752,0.5250504612922668,-0.4321789741516113
1.48,-0.8391303420066833,0.5294947028160095,2.3363277912139893,0.0755715074959531,0.0080458869811063,0.0003250240286943,0.4097744822502136,0.5038583278656006,-0.4265141487121582,-0.8435596754029393,0.521068370519206,2.3438967437297107,0.5452009379863739,0.5704785481095314,-0.5470534920692444,1.5598333716641348,-1.109093427658081,-1.059606671333313,0.2832412719726562,11.245351342544382,0.4097744822502136,0.5038583278656006,-0.4265141487121582
1.5,-0.8301771283149719,0.5404778122901917,2.326526165008545,0.0877508876081901,0.0372933791972495,-0.0020572410551328,0.4028946161270141,0.4942399263381958,-0.4410731792449951,-0.8331430537626148,0.5323669217992574,2.3341556739062077,0.5614475086331367,0.5741792041808367,-0.5870534926652908,0.937832042361008,-0.3439933061599731,-0.4809200763702392,-0.7279515266418457,11.355733879870511,0.4028946161270141,0.4942399263381958,-0.4410731792449951
1.52,-0.825907289981842,0.5459568500518799,2.321483373641968,0.0965274184854091,0.0458063710559528,-0.0014581949908018,0.3885689377784729,0.4897445440292358,-0.4474461078643799,-0.821914103589952,0.5438505058828741,2.322414604052901,0.5776940792798996,0.577879860252142,-0.6270534932613373,0.8155484986151152,-0.716283917427063,-0.224769115447998,-0.3186464309692383,11.244133891571892,0.3885689377784729,0.4897445440292358,-0.4474461078643799
1.54,-0.8174461722373962,0.5563675761222839,2.3113853931427,0.1032034407909291,0.0263916203753757,0.0035033287025867,0.380750298500061,0.4684826731681824,-0.454409122467041,-0.8106851534172893,0.5553340899664908,2.310673534199596,0.5939406499266625,0.5815805163234472,-0.6670534938573838,1.1849913976849278,-0.3909319639205932,-1.0630935430526731,-0.3481507301330566,11.244133891571892,0.380750298500061,0.4684826731681824,-0.454409122467041
1.56,-0.8093414902687073,0.5662078857421875,2.3013219833374023,0.1057068788757342,0.0661579573022484,-0.0001873962880111,0.3647106885910034,0.4428139328956604,-0.4528534412384033,-0.7990500389784575,0.5669101904518902,2.2979324643313888,0.6101872205734253,0.5852811723947525,-0.7070534944534301,1.515398839660756,-0.8019804954528809,-1.2834370136260986,0.0777840614318847,10.917403777678828,0.3647106885910034,0.4428139328956604,-0.4528534412384033
1.58,-0.8012962937355042,0.5755301713943481,2.291013240814209,0.1070006677432875,0.0822203425773236,0.0006244192897925,0.3620338439941406,0.419502854347229,-0.4638934135437011,-0.7870087602734566,0.5785788073390722,2.284191394448281,0.6264337912201882,0.5889818284660577,-0.7470534950494766,1.296584810751533,-0.1338422298431396,-1.1655539274215698,-0.5519986152648926,10.939160298333263,0.3620338439941406,0.419502854347229,-0.4638934135437011
1.6,-0.793525218963623,0.5843231678009033,2.280358076095581,0.1114936557595455,0.0668461774194998,0.0061818676763399,0.3496983647346496,0.3956848382949829,-0.4794824123382568,-0.7831946015357971,0.5965053141117096,2.267818570137024,0.4197225980460644,0.4353733900934458,-0.5638934150338173,1.5511921388427694,-0.6167739629745483,-1.190900802612305,-0.7794499397277832,11.101039692193352,0.3496983647346496,0.3956848382949829,-0.4794824123382568
1.62,-0.7897226810455322,0.5886294841766357,2.275089740753174,0.1008909391031766,0.1062928077066408,0.0012842789991334,0.3498163819313049,0.3915354609489441,-0.4723048210144043,-0.7831946015357971,0.5965053141117096,2.267818570137024,0.4197225980460644,0.4353733900934458,-0.5638934150338173,0.414575317737229,0.0059008598327636,-0.2074688673019409,0.3588795661926269,11.540015369627326,0.3498163819313049,0.3915354609489441,-0.4723048210144043
1.64,-0.7819111943244934,0.596711277961731,2.2640857696533203,0.1051889973744198,0.0866329158174319,0.0066523985955241,0.3515169024467468,0.3636807203292846,-0.4951786994934082,-0.7831946015357971,0.5965053141117096,2.267818570137024,0.4197225980460644,0.4353733900934458,-0.5638934150338173,1.804156770962672,0.0850260257720947,-1.3927370309829712,-1.143693923950195,11.540015369627326,0.3515169024467468,0.3636807203292846,-0.4951786994934082
1.66,-0.7741919159889221,0.6044629812240601,2.2528951168060303,0.0989550279671919,0.0969138707108788,0.0065281285294605,0.347367525100708,0.3488266468048095,-0.5035793781280518,-0.7789973755553364,0.600859048012644,2.2621796359866857,0.4312603488564491,0.4385474972426891,-0.5838934153318405,0.8781119435369401,-0.2074688673019409,-0.7427036762237549,-0.4200339317321777,11.543021252847211,0.347367525100708,0.3488266468048095,-0.5035793781280518
1.68,-0.7663132548332214,0.611585259437561,2.241638422012329,0.0860446515366632,0.1073585254862667,0.0060036553663956,0.3545397520065307,0.3205025196075439,-0.5065512657165527,-0.7706029235944152,0.6095665158145129,2.2509017676860097,0.4543358504772186,0.4448957115411758,-0.6238934159278869,1.4684423176568566,0.3586113452911377,-1.4162063598632812,-0.1485943794250488,11.646296587410689,0.3545397520065307,0.3205025196075439,-0.5065512657165527
1.7,-0.7624136209487915,0.6150768399238586,2.2359180450439453,0.067303869166889,0.1385181142103252,0.000245339527277,0.3538048267364502,0.3134563565254211,-0.5096197128295898,-0.7622084716334939,0.6182739836163819,2.239623899385333,0.4774113520979881,0.4512439258396625,-0.6638934165239334,0.3860178008135735,-0.0367462635040283,-0.3523081541061401,-0.1534223556518554,11.568180059181032,0.3538048267364502,0.3134563565254211,-0.5096197128295898
1.72,-0.7544158101081848,0.6217837333679199,2.224414825439453,0.0695259951358656,0.1188431897572786,0.0055935551351362,0.359901487827301,0.3018102049827575,-0.5176448822021484,-0.7526602445915341,0.6272988621331751,2.226346031054854,0.5004868537187577,0.4575921401381492,-0.7038934171199799,0.7700738043681788,0.3048330545425415,-0.5823075771331787,-0.4012584686279297,11.683141557643468,0.359901487827301,0.3018102049827575,-0.5176448822021484
1.74,-0.7462071776390076,0.6281777620315552,2.212881565093994,0.0555386622532774,0.1242768358680183,0.0039756578519593,0.3693884611129761,0.2877312898635864,-0.5189967155456543,-0.7431120175495745,0.6363237406499683,2.213068162724376,0.5235623553395271,0.4639403544366359,-0.7438934177160264,0.8515367966866612,0.4743486642837524,-0.7039457559585571,-0.0675916671752929,11.683141557643468,0.3693884611129761,0.2877312898635864,-0.5189967155456543
1.76,-0.737842857837677,0.6342343688011169,2.2012083530426025,0.029753064234506,0.1493762230781321,-0.0020134499899996,0.3763943910598755,0.2725473046302795,-0.5252945423126221,-0.7329869029670955,0.6455073245242238,2.198790294378996,0.5466378569602967,0.4702885687351227,-0.7838934183120727,0.8934470940868285,0.3502964973449707,-0.7591992616653442,-0.3148913383483886,11.579254482834584,0.3763943910598755,0.2725473046302795,-0.5252945423126221
1.78,-0.7293434739112854,0.6402645111083984,2.189467668533325,0.0201256731502854,0.149480160851707,-0.002526402685376,0.382472276687622,0.2713564038276672,-0.5283308029174805,-0.7222849008440971,0.6548496137559413,2.183512426018715,0.5697133585810661,0.4766367830336094,-0.8238934189081192,0.3448833748031578,0.3038942813873291,-0.0595450401306152,-0.1518130302429199,11.687545625803068,0.382472276687622,0.2713564038276672,-0.5283308029174805
1.8,-0.7205535173416138,0.6459474563598633,2.177661180496216,0.0218368607510276,0.1286762920173337,0.0018360233104108,0.3955480456352234,0.2557325363159179,-0.5312919616699219,-0.7102198600769043,0.6538323312997818,2.163051128387451,0.4395114667713642,0.2849541800096631,-0.6283308044075966,1.029380190640112,0.6537884473800659,-0.7811933755874634,-0.1480579376220703,11.808578101535204,0.3955480456352234,0.2557325363159179,-0.5312919616699219
1.82,-0.7160653471946716,0.6488471031188965,2.1717844009399414,0.0166464442311795,0.1271724573260111,0.001757031756199,0.3962990641593933,0.2592542767524719,-0.5351650714874268,-0.7102198600769043,0.6538323312997818,2.163051128387451,0.4395114667713642,0.2849541800096631,-0.6283308044075966,0.2644223146056244,0.037550926208496,0.1760870218276977,-0.1936554908752441,12.192514030333768,0.3962990641593933,0.2592542767524719,-0.5351650714874268
1.84,-0.7070921063423157,0.6545368432998657,2.1601099967956543,0.00085854616717,0.1416806396223182,-0.0033822628524693,0.403795838356018,0.2560383081436157,-0.5253481864929199,-0.7102198600769043,0.6538323312997818,2.163051128387451,0.4395114667713642,0.2849541800096631,-0.6283308044075966,0.6381914063267006,0.3748387098312378,-0.16079843044281,0.4908442497253418,12.079124311458145,0.403795838356018,0.2560383081436157,-0.5253481864929199
1.86,-0.6977205872535706,0.6601244211196899,2.1483445167541504,-0.0001239221868284,0.1366246585064237,-0.0032348442594923,0.4217183589935303,0.2514410018920898,-0.5294466018676758,-0.7058247454091906,0.6566818730998785,2.1567678203433758,0.4509193047881126,0.2876737352460622,-0.6483308047056198,0.9475613164281312,0.8961260318756104,-0.2298653125762939,-0.2049207687377929,12.03991225620848,0.4217183589935303,0.2514410018920898,-0.5294466018676758
1.88,-0.6883875131607056,0.6656738519668579,2.136461973190308,0.0029605441522112,0.1309515789046948,-0.0029800202067366,0.4199883341789245,0.2497243881225586,-0.5347144603729248,-0.6970345160737633,0.6623809567000717,2.144201204255223,0.4737349808216095,0.2931128457188606,-0.6883308053016662,0.290215790077919,-0.0865012407302856,-0.0858306884765625,-0.2633929252624511,11.998005866648782,0.4199883341789245,0.2497243881225586,-0.5347144603729248
1.9,-0.6787120699882507,0.6713730096817017,2.12483024597168,0.0101478279826555,0.1093632552577707,0.0011506519726056,0.4353949427604675,0.2564620971679687,-0.5234277248382568,-0.688244286738336,0.6680800403002649,2.1316345881670715,0.4965506568551063,0.298551956191659,-0.7283308058977127,1.0126088956193946,0.7703304290771484,0.3368854522705078,0.5643367767333984,11.917814266388632,0.4353949427604675,0.2564620971679687,-0.5234277248382568
1.92,-0.6738992929458618,0.6740247011184692,2.119079828262329,0.0168023554661247,0.1190949218164836,-0.0019986339913714,0.4369533061981201,0.2517011761665344,-0.5241358280181885,-0.678313273601234,0.6740510794240981,2.117067972049117,0.5193663328886032,0.3039910666644573,-0.7683308064937592,0.2529638091661538,0.0779181718826294,-0.2380460500717163,-0.035405158996582,11.922446105901145,0.4369533061981201,0.2517011761665344,-0.5241358280181885
1.94,-0.6641770005226135,0.6795628666877747,2.107428789138794,0.0225813703759579,0.0984078497236092,0.0024691963303051,0.4375031590461731,0.2492174506187439,-0.524296760559082,-0.6683822604641318,0.6800221185479313,2.102501355931163,0.5421820089221001,0.3094301771372557,-0.8083308070898056,0.1274473424004771,0.0274926424026489,-0.1241862773895263,-0.0080466270446777,11.922446105901145,0.4375031590461731,0.2492174506187439,-0.524296760559082
1.96,-0.6543666124343872,0.685053288936615,2.09619140625,0.0297733493237746,0.1083226864507587,-0.0018370230320608,0.4414674639701843,0.2470690011978149,-0.5056822299957275,-0.6578808554261922,0.6861291354335844,2.086934739798308,0.5649976849555969,0.314869287610054,-0.848330807685852,0.9576433267909408,0.1982152462005615,-0.1074224710464477,0.9307265281677246,11.58388939717088,0.4414674639701843,0.2470690011978149,-0.5056822299957275
1.98,-0.6445159316062927,0.6902688145637512,2.0847976207733154,0.0380303796835691,0.0840430634096254,0.0021411555607688,0.4432806372642517,0.2346986532211303,-0.5127203464508057,-0.6468090584874153,0.6923721300810575,2.070368123650551,0.5878133609890938,0.3203083980828524,-0.8883308082818985,0.7173705278547214,0.0906586647033691,-0.6185173988342285,-0.3519058227539062,11.367364320982688,0.4432806372642517,0.2346986532211303,-0.5127203464508057
2.0,-0.6346529126167297,0.6953779458999634,2.0735907554626465,0.043664764632095,0.0760380077967196,0.0022735567634144,0.4438358545303345,0.2299109101295471,-0.5043089389801025,-0.6223518997430801,0.7020037472248077,2.059161603450775,0.4616874903440475,0.2376140123233199,-0.6127203479409218,0.4847229253959418,0.0277608633041381,-0.2393871545791626,0.4205703735351562,11.367364320982688,0.4438358545303345,0.2299109101295471,-0.5043089389801025
2.02,-0.6298379898071289,0.6978965401649475,2.067831039428711,0.0468824344468488,0.073801350756736,0.0019895589223122,0.4398152232170105,0.2273198962211609,-0.5057680606842041,-0.6223518997430801,0.7020037472248077,2.059161603450775,0.4616874903440475,0.2376140123233199,-0.6127203479409218,0.2500393237998395,-0.2010315656661987,-0.1295506954193115,-0.0729560852050781,11.957625614776587,0.4398152232170105,0.2273198962211609,-0.5057680606842041
2.04,-0.6199447512626648,0.702762246131897,2.056800603866577,0.049051231919778,0.0657463655489581,0.0014391115291975,0.445195734500885,0.2189567685127258,-0.4963696002960205,-0.6223518997430801,0.7020037472248077,2.059161603450775,0.4616874903440475,0.2376140123233199,-0.6127203479409218,0.684147031733222,0.2690255641937256,-0.4181563854217529,0.4699230194091797,11.957625614776587,0.445195734500885,0.2189567685127258,-0.4963696002960205
2.06,-0.6101796627044678,0.7074055075645447,2.0454347133636475,0.0495282430222446,0.0593305208187894,0.0007259029162775,0.4394289851188659,0.2089467644691467,-0.5114650726318359,-0.6177350248396397,0.7043798873480409,2.053034399971366,0.4653688609600067,0.2381970841437578,-0.632720348238945,0.95043261784944,-0.2883374691009521,-0.5005002021789551,-0.7547736167907715,11.56574515452121,0.4394289851188659,0.2089467644691467,-0.5114650726318359
2.08,-0.6007351279258728,0.7118030786514282,2.0341098308563232,0.0496005260902558,0.0527236799754436,-7.9394201882863e-05,0.4250040650367737,0.1978906989097595,-0.5096197128295898,-0.6085012750327587,0.7091321675945074,2.0407799930125474,0.472731602191925,0.2393632277846336,-0.6727203488349914,0.9134005936991214,-0.7212460041046143,-0.5528032779693604,0.0922679901123046,11.579349288243066,0.4250040650367737,0.1978906989097595,-0.5096197128295898
2.1,-0.591221272945404,0.7160835862159729,2.023000717163086,0.0412896632241799,0.0629715159503773,-0.0047768559722698,0.4281234741210937,0.1926228404045105,-0.4999101161956787,-0.5992675252258778,0.7138844478409737,2.028525586053729,0.4800943434238434,0.2405293714255094,-0.7127203494310379,0.5739279420361093,0.1559704542160034,-0.2633929252624511,0.4854798316955566,11.471210334885654,0.4281234741210937,0.1926228404045105,-0.4999101161956787
2.12,-0.58656245470047,0.7181248664855957,2.017422199249268,0.044500004206267,0.0415854316409882,-0.0006959540521051,0.4232364892959595,0.1857563853263855,-0.4988586902618408,-0.5896656383574009,0.7186950352694839,2.0142711790651084,0.4874570846557617,0.2416955150663852,-0.7527203500270844,0.4246655228392934,-0.2443492412567138,-0.34332275390625,0.0525712966918945,11.192614871612932,0.4232364892959595,0.1857563853263855,-0.4988586902618408
2.14,-0.5775256752967834,0.7221031785011292,2.0060417652130127,0.042485216755711,0.0353705721268848,-0.0027438527498801,0.4066550731658935,0.1790240406990051,-0.5121195316314697,-0.5800637514889241,0.723505622697994,2.000016772076488,0.49481982588768,0.2428616587072611,-0.7927203506231308,1.113685030530052,-0.8290708065032959,-0.3366172313690185,-0.6630420684814453,11.192614871612932,0.4066550731658935,0.1790240406990051,-0.5121195316314697
2.16,-0.5685811638832092,0.7259958386421204,1.994966983795166,0.0390873032455783,0.0280673810486003,-0.0017067066323585,0.4025030136108398,0.1751697063446045,-0.4983651638031006,-0.5702777960896492,0.7283453637175261,1.9847623650729656,0.5021825671195984,0.2440278023481369,-0.8327203512191772,0.7437710101608925,-0.2076029777526855,-0.1927167177200317,0.687718391418457,11.135924398072348,0.4025030136108398,0.1751697063446045,-0.4983651638031006
2.18,-0.5599237680435181,0.7295390367507935,1.983776569366455,0.0356796883852975,0.0199178520996645,-0.0031029935702392,0.3895828127861023,0.1594439148902893,-0.5035686492919922,-0.5603077721595765,0.7332142583280802,1.9685079580545424,0.5095453083515167,0.2451939459890127,-0.8727203518152237,1.0503670399546852,-0.6460100412368774,-0.7862895727157593,-0.2601742744445801,11.135924398072348,0.3895828127861023,0.1594439148902893,-0.5035686492919922
2.2,-0.5514624118804932,0.7330850958824158,1.9722820520401,0.0342378724033219,0.0150917939758334,-0.0029627989841194,0.3807610273361206,0.1595726609230041,-0.5172532796859741,-0.540444627404213,0.7375112324953079,1.9585981369018557,0.3934122459031641,0.1620678582694381,-0.5687832534313202,0.8141093032976938,-0.4410892724990845,0.0064373016357421,-0.6842315196990967,11.146976384522532,0.3807610273361206,0.1595726609230041,-0.5172532796859741
2.22,-0.5473734140396118,0.7348279356956482,1.966577649116516,0.0332483215212307,0.0121728810254255,-0.0024699919703749,0.3730309009552002,0.1569360494613647,-0.5172479152679443,-0.540444627404213,0.7375112324953079,1.9585981369018557,0.3934122459031641,0.1620678582694381,-0.5687832534313202,0.4083705506082397,-0.3865063190460205,-0.1318305730819702,0.0002682209014892,12.30425211389047,0.3730309009552002,0.1569360494613647,-0.5172479152679443
2.24,-0.5394769906997681,0.7381789684295654,1.955260992050171,0.0298709482467279,0.0099622174378388,-0.0035391136406716,0.3553390502929687,0.1507964730262756,-0.5092495679855347,-0.540444627404213,0.7375112324953079,1.9585981369018557,0.3934122459031641,0.1620678582694381,-0.5687832534313202,1.0181718149544197,-0.8845925331115723,-0.3069788217544555,0.3999173641204834,12.30425211389047,0.3553390502929687,0.1507964730262756,-0.5092495679855347
2.26,-0.5319855213165283,0.741474986076355,1.94340980052948,0.0304279396437304,0.0092665970010394,-0.0034747762407133,0.3371161222457886,0.1483207941055297,-0.5333036184310913,-0.5365105049451813,0.7391319110780024,1.9529103043675424,0.3941781325265765,0.1625926469452679,-0.5818261742591858,1.5139364547172338,-0.9111464023590088,-0.1237839460372924,-1.202702522277832,12.159864958610342,0.3371161222457886,0.1483207941055297,-0.5333036184310913
2.28,-0.5247974395751953,0.744624674320221,1.931992769241333,0.0271143614783563,0.0099546947429845,-0.0033020336650922,0.3234636783599853,0.1417359709739685,-0.5137664079666138,-0.528642260027118,0.7423732682433911,1.941534639298916,0.3957099057734012,0.1636422242969274,-0.607912015914917,1.236377483277499,-0.6826221942901611,-0.3292411565780639,0.976860523223877,12.159864958610342,0.3234636783599853,0.1417359709739685,-0.5137664079666138
2.3000000000000003,-0.517756462097168,0.7476605772972107,1.9207175970077517,0.0208377357222324,0.0327548412618559,-0.0047203038284422,0.3168439865112304,0.1366156339645385,-0.5073827505111694,-0.5207740151090547,0.7456146254087799,1.9301589742302891,0.397241679020226,0.164691801648587,-0.6339978575706482,0.5262823713821786,-0.3309845924377441,-0.2560168504714966,0.3191828727722168,11.988218791888356,0.3168439865112304,0.1366156339645385,-0.5073827505111694
2.32,-0.5143052935600281,0.7491773962974548,1.915083765983581,0.0179765641712906,0.0371261369816228,-0.0044450398371615,0.3105354309082031,0.1355078816413879,-0.5083483457565308,-0.5128291815286502,0.7489084614417516,1.9174790170788765,0.3987734522670507,0.1657413790002465,-0.6600836992263794,0.3238725180676716,-0.3154277801513672,-0.0553876161575317,-0.0482797622680664,11.94877265598734,0.3105354309082031,0.1355078816413879,-0.5083483457565308
2.34,-0.5079001784324646,0.7522531151771545,1.9038739204406736,0.0217903764690457,0.0157757632156704,-0.0019505641327167,0.2882301807403564,0.1384073495864868,-0.5044430494308472,-0.5048843479482457,0.7522022974747233,1.904799059927464,0.4003052255138755,0.166790956351906,-0.6861695408821106,1.1414710232921794,-1.115262508392334,0.1449733972549438,0.1952648162841797,11.94877265598734,0.2882301807403564,0.1384073495864868,-0.5044430494308472
2.36,-0.5018124580383301,0.7551683187484741,1.8927615880966189,0.0201082946142565,0.0205914756901074,-0.0019501785018603,0.2739474177360534,0.1311841607093811,-0.5000549554824829,-0.4969012200366706,0.7555223729414866,1.8914669567346567,0.4018369987607002,0.1678405337035656,-0.7122553825378418,0.829799893183743,-0.7141381502151489,-0.3611594438552856,0.2194046974182129,11.946830529437648,0.2739474177360534,0.1311841607093811,-0.5000549554824829
2.38,-0.4959486722946167,0.7579951286315918,1.881884813308716,0.0195552942112582,0.0255562158341756,-0.0010586764507513,0.263870358467102,0.1272064447402954,-0.4894548654556274,-0.4888797977939248,0.7588686878420413,1.8774827075004576,0.4033687720075249,0.1688901110552251,-0.738341224193573,0.7578444042448947,-0.5038529634475708,-0.1988857984542846,0.5300045013427734,11.829012732245246,0.263870358467102,0.1272064447402954,-0.4894548654556274
2.4,-0.4904206097126007,0.7609546780586243,1.870758056640625,0.0249412131787166,0.0326756992414085,-0.0007150612013776,0.2487628161907196,0.1331797242164611,-0.5007040500640869,-0.4827551543712616,0.7643554508686066,1.8574120700359344,0.2932221591472626,0.1270569413900375,-0.5254132002592087,0.9880056372413414,-0.7553771138191223,0.2986639738082886,-0.5624592304229736,11.79705443178318,0.2487628161907196,0.1331797242164611,-0.5007040500640869
2.42,-0.4877097606658935,0.7623231410980225,1.8652864694595337,0.0264182229542073,0.0356441178616381,0.0003458551428736,0.2453081309795379,0.1285529136657714,-0.4936873912811279,-0.4827551543712616,0.7643554508686066,1.8574120700359344,0.2932221591472626,0.1270569413900375,-0.5254132002592087,0.4543559349695074,-0.172734260559082,-0.2313405275344848,0.3508329391479492,11.79705443178318,0.2453081309795379,0.1285529136657714,-0.4936873912811279
2.44,-0.4824851453304291,0.7649738788604736,1.854586362838745,0.028636645043071,0.0398759570964605,-0.0003347290966968,0.2351076900959015,0.1192831993103027,-0.4815047979354858,-0.4827551543712616,0.7643554508686066,1.8574120700359344,0.2932221591472626,0.1270569413900375,-0.5254132002592087,0.9197719541791716,-0.5100220441818237,-0.4634857177734375,0.6091296672821045,12.814008634532913,0.2351076900959015,0.1192831993103027,-0.4815047979354858
2.46,-0.4772763550281524,0.7675149440765381,1.843940019607544,0.0327882777118301,0.0437509608554425,0.000869113279492,0.2343955636024475,0.1143479347229003,-0.4790854454040527,-0.479822932779789,0.7656260202825069,1.8521579380333424,0.2990925192832946,0.1270270407199859,-0.532604867219925,0.2771156228079647,-0.0356063246726989,-0.2467632293701172,0.1209676265716552,12.611488994180036,0.2343955636024475,0.1143479347229003,-0.4790854454040527
2.48,-0.4724384546279907,0.7700578570365906,1.8332598209381104,0.0378023641098961,0.0539624310829418,0.0011253083322752,0.2177055180072784,0.114431083202362,-0.4806089401245117,-0.4739584895968437,0.7681671591103078,1.841649674028158,0.3108332395553589,0.1269672393798828,-0.5469882011413574,0.8379820579847244,-0.8345022797584534,0.0041574239730834,-0.0761747360229492,12.611488994180036,0.2177055180072784,0.114431083202362,-0.4806089401245117
2.5,-0.4676384627819061,0.7724329829216003,1.823045015335083,0.0362851506933103,0.0914094522426486,-0.0013687151928621,0.2159996330738067,0.1068806648254394,-0.4596662521362304,-0.4680940464138984,0.7707082979381085,1.831141410022974,0.3225739598274231,0.1269074380397796,-0.5613715350627899,1.116372519868834,-0.0852942466735839,-0.3775209188461303,1.0471343994140625,12.558295689993429,0.2159996330738067,0.1068806648254394,-0.4596662521362304
2.52,-0.4652814567089081,0.7736009955406189,1.8180023431777956,0.0405451309912427,0.0714230944478193,0.0015186525528656,0.2157555520534515,0.1021438837051391,-0.4535239934921264,-0.46164256721735,0.7732464466989041,1.819913979321718,0.3343146800994873,0.1268476366996765,-0.5757548689842225,0.3880206572374765,-0.0122040510177612,-0.2368390560150146,0.3071129322052002,12.558295689993429,0.2157555520534515,0.1021438837051391,-0.4535239934921264
2.54,-0.4604084491729736,0.7755962014198303,1.808274269104004,0.0364877050101897,0.0833402161696747,0.0017265205030828,0.2192853391170501,0.0897842645645141,-0.4377633333206177,-0.4551910880208015,0.7757845954596997,1.8086865486204624,0.3460554003715515,0.1267878353595733,-0.5901382029056549,1.0168800212628768,0.1764893531799316,-0.61798095703125,0.7880330085754395,12.530836879424896,0.2192853391170501,0.0897842645645141,-0.4377633333206177
2.56,-0.455547571182251,0.7777454257011414,1.7986499071121216,0.036001254024441,0.0962960700584553,0.0026067712512918,0.2187395095825195,0.0967150926589965,-0.4330962896347046,-0.4484460908174514,0.7783212491869927,1.7970995345711709,0.3577961206436157,0.1267280340194702,-0.6045215368270874,0.4186753059420091,-0.0272914767265319,0.3465414047241211,0.2333521842956543,12.342661126863277,0.2187395095825195,0.0967150926589965,-0.4330962896347046
2.58,-0.4504953026771545,0.7796080112457275,1.7895874977111816,0.0226901504956815,0.1332308111698658,-0.0005594805330429,0.2273520827293396,0.0838163495063781,-0.4078084230422973,-0.4414075756072997,0.7808564078807831,1.7851529371738433,0.3695368409156799,0.126668232679367,-0.6189048707485199,1.4832651380669708,0.4306286573410034,-0.6449371576309204,1.264393329620361,12.345211140361243,0.2273520827293396,0.0838163495063781,-0.4078084230422973
2.6,-0.4452928900718689,0.781445324420929,1.7804555892944336,0.0231648985307671,0.1154951466061879,0.003043942567525,0.234108567237854,0.0826790928840637,-0.4109358787536621,-0.4391276985406875,0.7837988287210464,1.7691970765590668,0.2660488411784172,0.085743561736308,-0.4306039419025183,0.3765780621774892,0.3378242254257202,-0.0568628311157226,-0.1563727855682373,12.218363558042256,0.234108567237854,0.0826790928840637,-0.4109358787536621
2.62,-0.4426425397396087,0.7824873924255371,1.776078462600708,0.0230263810592713,0.1190174478414042,0.003619479938064,0.2394783496856689,0.0893148779869079,-0.4039621353149414,-0.4391276985406875,0.7837988287210464,1.7691970765590668,0.2660488411784172,0.085743561736308,-0.4306039419025183,0.5511381519571363,0.268489122390747,0.3317892551422119,0.3486871719360351,12.218363558042256,0.2394783496856689,0.0893148779869079,-0.4039621353149414
2.64,-0.4371222555637359,0.7841030955314636,1.7673959732055664,0.0181420005609987,0.1207007122781179,0.0029932853350141,0.2484127879142761,0.0727066397666931,-0.390712022781372,-0.4391276985406875,0.7837988287210464,1.7691970765590668,0.2660488411784172,0.085743561736308,-0.4306039419025183,1.1524140373499163,0.4467219114303589,-0.8304119110107422,0.6625056266784668,12.80048425133009,0.2484127879142761,0.0727066397666931,-0.390712022781372
