t,x,y,z,roll,pitch,yaw,v_x,v_y,v_z,ref_x,ref_y,ref_z,ref_v_x,ref_v_y,ref_v_z,a_com,a_x,a_y,a_z,thrust,wind_x,wind_y,wind_z
0.0,0.957806408405304,-1.0285356044769287,2.820749998092652,0.0337608999872829,0.1166434410673315,0.0040363710382723,-0.0211063027381896,0.0379210710525512,-0.0171071290969848,0.96,-1.01,2.82,-0.143655639204172,0.2633686718743153,0.0,2.3324544534618794,-1.0553151369094849,1.8960535526275637,-0.8553564548492432,11.974208835722491,-1.1150695211840094,0.1340592932736213,-2.224093877184809
0.02,0.957575500011444,-1.0278279781341553,2.8201904296875,0.0359603622649576,0.1163495414360875,0.0033325424382537,-0.0137758255004882,0.0343886017799377,-0.0222998857498168,0.9571268872159164,-1.0047326265625136,2.82,-0.143655639204172,0.2633686718743153,0.0,0.4826462404027111,0.3665238618850708,-0.1766234636306762,-0.2596378326416015,12.264641035189015,-1.1150695211840094,0.1340592932736213,-2.224093877184809
0.04,0.9574372172355652,-1.027491569519043,2.819746971130371,0.0376678248623997,0.1163543672305713,0.0033450531430584,-0.0132890045642852,0.0315079092979431,-0.0274175405502319,0.9542537744318332,-0.9994652531250272,2.82,-0.143655639204172,0.2633686718743153,0.0,0.2946428959603346,0.0243410468101501,-0.1440346240997314,-0.2558827400207519,12.121353722569893,-1.1250373552227182,0.1515144090800005,-2.215179300944654
0.06,0.9573530554771424,-1.027085304260254,2.819342374801636,0.0362188056930977,0.1153753163962783,0.0020630864369761,-0.0079661607742309,0.0240916013717651,-0.0237375497817993,0.9513806616477496,-0.994197879687541,2.82,-0.143655639204172,0.2633686718743153,0.0,0.4921296102780228,0.266142189502716,-0.3708153963088989,0.1839995384216308,12.552371889041751,-1.1710377207851956,0.1698630192479721,-2.2266828313334943
0.08,0.9573811292648317,-1.0266159772872925,2.8190290927886963,0.027845465228354,0.1090487128576175,0.0004024052998729,-0.0012619793415069,0.0197008252143859,-0.0161522626876831,0.9485075488636664,-0.9889305062500549,2.82,-0.143655639204172,0.2633686718743153,0.0,0.5517280676367127,0.3352090716361999,-0.2195388078689575,0.3792643547058105,12.34294095633186,-1.1790724743427177,0.1583666099132202,-2.2112843018636283
0.1,0.9574456810951232,-1.0261443853378296,2.818804979324341,0.0084335540077648,0.0994686705147881,-0.0038537037271365,-0.0021819770336151,0.01810222864151,-0.0155460834503173,0.9456344360795828,-0.9836631328125685,2.82,-0.143655639204172,0.2633686718743153,0.0,0.0970741987361785,-0.0459998846054077,-0.0799298286437988,0.0303089618682861,12.609858216117118,-1.138598386375237,0.1293444494284047,-2.148751461888356
0.12,0.9574456810951232,-1.0261443853378296,2.818804979324341,-0.0375098861537141,0.081392248931425,-0.0091590637535985,0.0020840764045715,0.0211706757545471,-0.0120913982391357,0.9427613232954994,-0.9783957593750822,2.82,-0.143655639204172,0.2633686718743153,0.0,0.314441685894726,0.2133026719093322,0.1534223556518554,0.172734260559082,12.609858216117118,-1.138598386375237,0.1293444494284047,-2.148751461888356
0.14,0.9574456810951232,-1.0261443853378296,2.818804979324341,-0.0708552225750048,0.0646525796491155,-0.0121767912193524,0.0020840764045715,0.0211706757545471,-0.0120913982391357,0.939888210511416,-0.973128385937596,2.82,-0.143655639204172,0.2633686718743153,0.0,0.0,0.0,0.0,0.0,12.609858216117118,-1.138598386375237,0.1293444494284047,-2.148751461888356
0.16,0.9574456810951232,-1.0261443853378296,2.818804979324341,-0.1045578603909311,0.0462668728439438,-0.013482515098754,0.0020840764045715,0.0211706757545471,-0.0120913982391357,0.9370150977273326,-0.9678610125001096,2.82,-0.143655639204172,0.2633686718743153,0.0,0.0,0.0,0.0,0.0,12.609858216117118,-1.138598386375237,0.1293444494284047,-2.148751461888356
0.18,0.9574456810951232,-1.0261443853378296,2.818804979324341,-0.1337500106191799,0.0282454338338147,-0.0138025315663583,0.0020840764045715,0.0211706757545471,-0.0120913982391357,0.9341419849432492,-0.9625936390626232,2.82,-0.143655639204172,0.2633686718743153,0.0,0.0,0.0,0.0,0.0,12.609858216117118,-1.138598386375237,0.1293444494284047,-2.148751461888356
0.2,0.9574456810951232,-1.0261443853378296,2.818804979324341,-0.157405968170338,0.0115837268921809,-0.0129984235825654,0.0020840764045715,0.0211706757545471,-0.0120913982391357,0.93126887201551,-0.9573262653617683,2.82,-0.143655639204172,0.2633686718743153,0.0,0.0,0.0,0.0,0.0,12.609858216117118,-1.138598386375237,0.1293444494284047,-2.148751461888356
0.22,0.957489550113678,-1.0259946584701538,2.819007396697998,-0.0085610240009156,0.0919563993107416,-0.0065054335964387,0.0020840764045715,0.0211706757545471,-0.0120913982391357,0.9283957592314268,-0.952058891924282,2.82,-0.143655639204172,0.2633686718743153,0.0,0.0,0.0,0.0,0.0,12.903913163374,-1.138598386375237,0.1293444494284047,-2.148751461888356
0.24,0.9558747410774232,-1.0166423320770264,2.8212573528289795,-0.1701745010973405,-0.0059215996308889,-0.0125836089669891,-0.0339433550834655,0.1222980022430419,0.0210767984390258,0.9255226464473432,-0.9467915184867958,2.82,-0.143655639204172,0.2633686718743153,0.0,5.618015942754402,-1.8013715744018557,5.056366324424744,1.658409833908081,12.71321550407356,-1.0657182298720231,0.0937347450750832,-2.1181365361549997
0.26,0.9546463489532472,-1.012692928314209,2.821807622909546,-0.1777458460831372,-0.0178830310871294,-0.0092894325622416,-0.0473745167255401,0.158253014087677,0.0236088037490844,0.92264953366326,-0.9415241450493096,2.82,-0.143655639204172,0.2633686718743153,0.0,1.923258972872312,-0.6715580821037292,1.7977505922317505,0.1266002655029297,12.33336251291894,-0.98997188423098,-0.0764309686435469,-2.175754157342547
0.28,0.9528267979621888,-1.007835030555725,2.822238683700561,-0.1782949827758446,-0.0276036104069243,-0.0066943972374414,-0.0685787200927734,0.1981642842292785,0.0220799446105957,0.919776421022832,-0.936256771875192,2.82,-0.143655639204172,0.2633686718743153,0.0,2.261009251982521,-1.0602101683616638,1.995563507080078,-0.0764429569244384,12.774810900084503,-0.8873489617250803,-0.1129283125778134,-2.175880640022656
0.3,0.9505610466003418,-1.0020451545715332,2.822831869125366,-0.1760414879941611,-0.0345841371829899,-0.0040654154759565,-0.0919193029403686,0.239574909210205,0.023045539855957,0.9169033082387488,-0.9309893984377056,2.82,-0.143655639204172,0.2633686718743153,0.0,2.377264732394278,-1.1670291423797607,2.0705312490463257,0.0482797622680664,12.990550970124332,-0.8480831564558097,-0.1321802339675901,-2.2445157151841224
0.32,0.9476929306983948,-0.995478332042694,2.823453426361084,-0.1657981738411968,-0.0373925553722037,-0.0031584709174873,-0.1155120134353637,0.2780257165431976,0.0273317098617553,0.9140301954546652,-0.9257220250002192,2.82,-0.143655639204172,0.2633686718743153,0.0,2.265751435163493,-1.179635524749756,1.922540366649628,0.214308500289917,13.20605437928134,-0.8362224125601908,-0.1376722289196143,-2.31866979440872
0.34,0.9460908770561218,-0.9918609261512756,2.8236658573150635,-0.1561048969909685,-0.0366210424727775,-0.0015150383260934,-0.1278166472911834,0.2958382666110992,0.0258511304855346,0.9111570826705818,-0.920454651562733,2.82,-0.143655639204172,0.2633686718743153,0.0,1.0849920155657555,-0.6152316927909851,0.8906275033950806,-0.0740289688110351,13.415534030716117,-0.8361180911460044,-0.1411330889865847,-2.3527917875719253
0.36,0.9423771500587464,-0.9841670989990234,2.82421612739563,-0.1325667494494242,-0.0295639008233287,0.0004483481369273,-0.1536342501640319,0.3303730487823486,0.0248855352401733,0.9082839698864984,-0.9151872781252468,2.82,-0.143655639204172,0.2633686718743153,0.0,2.156462480483735,-1.2908801436424255,1.7267391085624697,-0.0482797622680664,12.923814907576345,-0.7225917787188404,-0.2503804979973131,-2.341643917909666
0.38,0.9384260773658752,-0.975797176361084,2.8248865604400635,-0.1014116246769125,-0.0163897510957757,0.0023150380568478,-0.1724579930305481,0.3614343702793121,0.0274658203125,0.905410857102415,-0.9099199046877604,2.82,-0.143655639204172,0.2633686718743153,0.0,1.8205746755467864,-0.9411871433258056,1.553066074848175,0.129014253616333,12.70436958959317,-0.7799868671974399,-0.2113020722380148,-2.42795579529711
0.4,0.9336293339729308,-0.9669366478919984,2.825799465179444,-0.0705132276460879,-0.002977556696659,0.0037971706424754,-0.1968258619308471,0.3876851499080658,0.0356251001358032,0.9025377443183316,-0.904652531250274,2.82,-0.143655639204172,0.2633686718743153,0.0,1.836756865438724,-1.2183934450149536,1.312538981437683,0.4079639911651611,12.062370604842728,-0.7554513417605787,-0.1539967025664254,-2.487837094062297
0.42,0.9285695552825928,-0.9576525688171388,2.8270070552825928,-0.0391798935327846,0.0139276611950769,0.0049186350014639,-0.2217717468738556,0.4082536697387695,0.0477111339569091,0.8996646315342481,-0.8993851578127878,2.82,-0.143655639204172,0.2633686718743153,0.0,1.725857321116656,-1.2472942471504211,1.0284259915351868,0.6043016910552979,12.106341077153049,-0.8311597803164543,-0.084641072012837,-2.5
0.44,0.9258958101272584,-0.9530054330825806,2.8275113105773926,-0.0231077480317467,0.0239079157098163,0.0055495174992917,-0.23002490401268,0.4142631590366363,0.0480705499649047,0.8967915187501647,-0.8941177843753015,2.82,-0.143655639204172,0.2633686718743153,0.0,0.5107781912095224,-0.4126578569412231,0.300474464893341,0.0179708003997802,11.639224308852135,-0.9310503461740712,-0.0103729837980459,-2.5
0.46,0.92320454120636,-0.9483131766319276,2.828208923339844,0.0013675890600318,0.0478517905054149,0.0057031942645921,-0.2345578372478485,0.419028103351593,0.0542128086090087,0.8939184059660813,-0.8888504109378152,2.82,-0.143655639204172,0.2633686718743153,0.0,0.4499431055428091,-0.2266466617584228,0.2382472157478332,0.3071129322052002,11.701586672299529,-0.8703027918713803,-0.0083828827908788,-2.5
0.48,0.92320454120636,-0.9483131766319276,2.828208923339844,0.0205085596433639,0.0662638934249988,0.005548715463935,-0.2345578372478485,0.419028103351593,0.0542128086090087,0.8910452931819979,-0.883583037500329,2.82,-0.143655639204172,0.2633686718743153,0.0,0.0,0.0,0.0,0.0,11.230508781489789,-0.8902869438633959,0.0501373522449082,-2.5
0.5,0.92320454120636,-0.9483131766319276,2.828208923339844,0.0350916455886265,0.0834466080406535,0.0057633800586755,-0.2345578372478485,0.419028103351593,0.0542128086090087,0.8881721803979145,-0.8783156640628427,2.82,-0.143655639204172,0.2633686718743153,0.0,0.0,0.0,0.0,0.0,11.230508781489789,-0.8902869438633959,0.0501373522449082,-2.5
0.52,0.92320454120636,-0.9483131766319276,2.828208923339844,0.0455464693235379,0.0989884929448335,0.0061722922065577,-0.2345578372478485,0.419028103351593,0.0542128086090087,0.885299067613831,-0.8730482906253564,2.82,-0.143655639204172,0.2633686718743153,0.0,0.0,0.0,0.0,0.0,11.230508781489789,-0.8902869438633959,0.0501373522449082,-2.5
0.54,0.92320454120636,-0.9483131766319276,2.828208923339844,0.0514000910192305,0.1136570636557503,0.0058574109277157,-0.2345578372478485,0.419028103351593,0.0542128086090087,0.8824259548297476,-0.8677809171878701,2.82,-0.143655639204172,0.2633686718743153,0.0,0.0,0.0,0.0,0.0,11.230508781489789,-0.8902869438633959,0.0501373522449082,-2.5
0.56,0.92320454120636,-0.9483131766319276,2.828208923339844,0.0552522301515369,0.1252951915560819,0.0056589657164519,-0.2345578372478485,0.419028103351593,0.0542128086090087,0.8795528420456642,-0.8625135437503838,2.82,-0.143655639204172,0.2633686718743153,0.0,0.0,0.0,0.0,0.0,11.230508781489789,-0.8902869438633959,0.0501373522449082,-2.5
0.58,0.8887815475463867,-0.8944872617721558,2.8362996578216557,0.0685993089045663,0.1311758332166926,0.0086571150787985,-0.2534151077270508,0.3821530938148498,0.0533062219619751,0.8766797292615808,-0.8572461703128975,2.82,-0.143655639204172,0.2633686718743153,0.0,2.071343089404356,-0.9428635239601136,-1.8437504768371584,-0.0453293323516845,10.897916090882973,-0.8902869438633959,0.0501373522449082,-2.5
0.6,0.8834608793258667,-0.8865733742713928,2.8371362686157227,0.0662762040730775,0.1397473906949674,0.0078372910796902,-0.2434252202510833,0.366206020116806,0.0439023971557617,0.8738066164774974,-0.8519787968754112,2.82,-0.143655639204172,0.2633686718743153,0.0,1.0518304667332157,0.4994943737983703,-0.7973536849021912,-0.4701912403106689,11.064529745151049,-0.990146438489992,0.0979361623635395,-2.448179070292644
0.62,0.8784412741661072,-0.8788363933563232,2.837631940841675,0.0612556957365573,0.1444995375022682,0.0070776499694604,-0.2326561510562896,0.3521445393562317,0.0299763679504394,0.8709335036934139,-0.8467114234379249,2.82,-0.143655639204172,0.2633686718743153,0.0,1.1265349328025138,0.5384534597396851,-0.703074038028717,-0.6963014602661133,10.845787727159404,-0.974454540364414,0.0752919750989857,-2.348139076017969
0.64,0.8758943676948547,-0.8750637769699097,2.837692975997925,0.0595898441009023,0.1483935188131843,0.0066230868061503,-0.2287414669990539,0.3466513752937317,0.0242739915847778,0.8680603909093305,-0.8414440500004386,2.82,-0.143655639204172,0.2633686718743153,0.0,0.4416353102424364,0.1957342028617859,-0.274658203125,-0.285118818283081,11.028161950874164,-1.024105073313544,0.0603737615110947,-2.298102233471587
0.66,0.8713364005088806,-0.8677374720573425,2.837725877761841,0.0573519206469496,0.1492939936899686,0.0064625348965141,-0.2151748538017273,0.3359453380107879,0.0084114074707031,0.8651872781252471,-0.8361766765629524,2.82,-0.143655639204172,0.2633686718743153,0.0,1.172917092898891,0.678330659866333,-0.5353018641471863,-0.7931292057037354,10.969361838692748,-1.060089641931169,0.0945263305058555,-2.193617711105281
0.68,0.8669907450675964,-0.8606815934181213,2.8374218940734863,0.0533334647120007,0.1505665281327576,0.005954312598624,-0.2003315091133117,0.3235991299152374,-0.0060993432998657,0.8623141653411637,-0.8309093031254661,2.82,-0.143655639204172,0.2633686718743153,0.0,1.2075963976048822,0.7421672344207764,-0.6173104047775269,-0.7255375385284424,11.44158534931148,-1.0642188539017523,0.0748677866293397,-2.114989059079228
0.7000000000000001,0.8669907450675964,-0.8606815934181213,2.8374218940734863,0.0357649505322882,0.1503290239380763,0.0012703701980738,-0.2003315091133117,0.3235991299152374,-0.0060993432998657,0.8594410525570803,-0.8256419296879798,2.82,-0.143655639204172,0.2633686718743153,0.0,0.0,0.0,0.0,0.0,11.213673379208558,-1.0642188539017523,0.0748677866293397,-2.114989059079228
0.72,0.8669907450675964,-0.8606815934181213,2.8374218940734863,0.033281384467493,0.1485057805210868,0.0009681937089864,-0.2003315091133117,0.3235991299152374,-0.0060993432998657,0.8565679397729968,-0.8203745562504935,2.82,-0.143655639204172,0.2633686718743153,0.0,0.0,0.0,0.0,0.0,11.213673379208558,-1.0642188539017523,0.0748677866293397,-2.114989059079228
0.74,0.8669907450675964,-0.8606815934181213,2.8374218940734863,0.0302290174298932,0.1462319592656873,0.0003074464537914,-0.2003315091133117,0.3235991299152374,-0.0060993432998657,0.8536948269889134,-0.8151071828130072,2.82,-0.143655639204172,0.2633686718743153,0.0,0.0,0.0,0.0,0.0,11.51417952869997,-1.0642188539017523,0.0748677866293397,-2.114989059079228
0.76,0.8669907450675964,-0.8606815934181213,2.8374218940734863,0.0265382198494637,0.1434975153787945,0.0003521596915008,-0.2003315091133117,0.3235991299152374,-0.0060993432998657,0.85082171420483,-0.8098398093755209,2.82,-0.143655639204172,0.2633686718743153,0.0,0.0,0.0,0.0,0.0,11.51417952869997,-1.0642188539017523,0.0748677866293397,-2.114989059079228
0.78,0.8669907450675964,-0.8606815934181213,2.8374218940734863,0.0235198078325219,0.1395531931446143,1.8673317451936356e-05,-0.2003315091133117,0.3235991299152374,-0.0060993432998657,0.8479486014207466,-0.8045724359380346,2.82,-0.143655639204172,0.2633686718743153,0.0,0.0,0.0,0.0,0.0,11.33526811541833,-1.0898967564102555,0.0926495211319538,-2.0441530092343454
0.8,0.8573966026306152,-0.844010055065155,2.835202932357788,0.0455638634270486,0.1501754295498209,0.0042956967041061,-0.1672719419002533,0.2976246178150177,-0.0414991378784179,0.8450754886366632,-0.7993050625005483,2.82,-0.143655639204172,0.2633686718743153,0.0,2.748070104347271,1.6529783606529236,-1.2987256050109863,-1.7699897289276123,11.33526811541833,-1.0898967564102555,0.0926495211319538,-2.0441530092343454
0.8200000000000001,0.8458841443061829,-0.8198294639587402,2.8284146785736084,0.0326963956721939,0.1302886885046992,0.0015502922532216,-0.117565244436264,0.263933390378952,-0.0886255502700805,0.8422023758525797,-0.794037689063062,2.82,-0.143655639204172,0.2633686718743153,0.0,3.8166586577248136,2.485334873199463,-1.6845613718032837,-2.35632061958313,12.245437233361828,-1.0898967564102555,0.0926495211319538,-2.0441530092343454
0.84,0.8447768092155457,-0.8168778419494629,2.827205181121826,0.0338009936234546,0.1271373003972045,0.0022035694010144,-0.1109576225280761,0.2624139189720154,-0.0934106111526489,0.8393292630684963,-0.7887703156255758,2.82,-0.143655639204172,0.2633686718743153,0.0,0.4149285127824677,0.3303810954093933,-0.0759735703468322,-0.2392530441284179,12.22893020632273,-0.8262621364719689,-0.0959301566599249,-2.2733850853287523
0.86,0.8426423072814941,-0.8112985491752625,2.8248233795166016,0.0327239083914232,0.1191008108517658,0.0016938930557107,-0.1004594564437866,0.2539461851119995,-0.1022887229919433,0.8364561502844129,-0.7835029421880895,2.82,-0.143655639204172,0.2633686718743153,0.0,0.8073643503530588,0.5249083042144775,-0.4233866930007934,-0.4439055919647217,12.41593150904282,-0.8396040009388226,-0.0482546553041577,-2.204331763696969
0.88,0.8405314087867737,-0.8058187961578369,2.82243013381958,0.0300050775070677,0.1104577146129757,0.000823881471154,-0.0955215096473693,0.2488285303115844,-0.1074385643005371,0.8335830375003295,-0.7782355687506032,2.82,-0.143655639204172,0.2633686718743153,0.0,0.4390175814365437,0.2468973398208618,-0.2558827400207519,-0.2574920654296875,12.394929599319768,-0.8539655336129974,-0.0499214227529695,-2.174031083518
0.9,0.838480532169342,-0.8004041314125061,2.8199408054351807,0.0235548124213565,0.1035509629070462,0.0001060512707054,-0.0936399400234222,0.2451243996620178,-0.1098579168319702,0.830709924716246,-0.7729681953131169,2.82,-0.143655639204172,0.2633686718743153,0.0,0.2403859125976989,0.0940784811973571,-0.1852065324783325,-0.1209676265716552,12.925337023577413,-0.8437246894438694,-0.0349374784218149,-2.0988458453179666
0.92,0.8375396132469177,-0.7976152300834656,2.8186135292053223,0.000926461671675,0.089178481493514,-0.0020217787152332,-0.0898580253124237,0.2454113960266113,-0.111209750175476,0.8278368119321626,-0.7677008218756306,2.82,-0.143655639204172,0.2633686718743153,0.0,0.2013249809584695,0.1890957355499267,0.0143498182296752,-0.0675916671752929,12.925337023577413,-0.9007896397671016,-0.0207099451736105,-2.152814887508929
0.94,0.8375396132469177,-0.7976152300834656,2.8186135292053223,-0.0063672638390441,0.0802351881954184,-0.0025219629244636,-0.0898580253124237,0.2454113960266113,-0.111209750175476,0.8249636991480792,-0.7624334484381443,2.82,-0.143655639204172,0.2633686718743153,0.0,0.0,0.0,0.0,0.0,12.925337023577413,-0.9007896397671016,-0.0207099451736105,-2.152814887508929
0.96,0.8375396132469177,-0.7976152300834656,2.8186135292053223,-0.0142994947310313,0.0726115723914329,-0.0026641957256785,-0.0898580253124237,0.2454113960266113,-0.111209750175476,0.8220905863639958,-0.757166075000658,2.82,-0.143655639204172,0.2633686718743153,0.0,0.0,0.0,0.0,0.0,12.925337023577413,-0.9007896397671016,-0.0207099451736105,-2.152814887508929
0.98,0.8375396132469177,-0.7976152300834656,2.8186135292053223,-0.0210126511689087,0.0644697784014975,-0.0025522735333693,-0.0898580253124237,0.2454113960266113,-0.111209750175476,0.8192174735799124,-0.7518987015631717,2.82,-0.143655639204172,0.2633686718743153,0.0,0.0,0.0,0.0,0.0,12.925337023577413,-0.9007896397671016,-0.0207099451736105,-2.152814887508929
1.0,0.8375396132469177,-0.7976152300834656,2.8186135292053223,-0.0238210390687184,0.058589173409522,-0.0018234378792827,-0.0898580253124237,0.2454113960266113,-0.111209750175476,0.816344360795829,-0.7466313281256854,2.82,-0.143655639204172,0.2633686718743153,0.0,0.0,0.0,0.0,0.0,12.925337023577413,-0.9007896397671016,-0.0207099451736105,-2.152814887508929
1.02,0.8375396132469177,-0.7976152300834656,2.8186135292053223,-0.0258541581581225,0.0509494011664734,-0.0012775213675064,-0.0898580253124237,0.2454113960266113,-0.111209750175476,0.8134712480117455,-0.7413639546881992,2.82,-0.143655639204172,0.2633686718743153,0.0,0.0,0.0,0.0,0.0,12.89691884289914,-0.8574120675019556,-0.010306977173155,-2.184013900322335
1.04,0.8357278108596802,-0.792458176612854,2.8164772987365723,0.0102142297796824,0.0896125392779908,-0.0002376420866824,-0.0873367488384246,0.2427828311920166,-0.1105499267578125,0.8105981352276621,-0.7360965812507129,2.82,-0.143655639204172,0.2633686718743153,0.0,0.1850780584679488,0.1260638236999511,-0.1314282417297363,0.0329911708831787,12.89691884289914,-0.8574120675019556,-0.010306977173155,-2.184013900322335
1.06,0.8248493671417236,-0.763528048992157,2.808072805404663,-0.0189103884562021,0.0420731970025127,0.0002606012431649,-0.1011528074741363,0.2437148988246917,-0.0503665208816528,0.8077250224435787,-0.7308292078132266,2.82,-0.143655639204172,0.2633686718743153,0.0,3.087796370047689,-0.6908029317855835,0.0466033816337585,3.0091702938079834,13.188437883204642,-0.8998320352390099,0.0028993518723011,-2.275995622891526
1.08,0.8223199844360352,-0.7579578161239624,2.807193756103516,-0.0216975150560841,0.0386056155850908,0.0011734544036389,-0.108015239238739,0.2471266686916351,-0.0356572866439819,0.8048519096594953,-0.7255618343757403,2.82,-0.143655639204172,0.2633686718743153,0.0,0.8292989738439932,-0.343121588230133,0.1705884933471679,0.7354617118835449,12.829980464744494,-0.950831871038824,-0.0108499819071832,-2.039274825919658
1.1,0.8195748925209045,-0.7523437142372131,2.8068606853485107,-0.0254966799586098,0.0332563821654221,0.0015987902485014,-0.114518254995346,0.2483993768692016,-0.0308668613433837,0.8019787968754118,-0.720294460938254,2.82,-0.143655639204172,0.2633686718743153,0.0,0.4088311833646474,-0.3251507878303528,0.0636354088783264,0.2395212650299072,12.608669251347235,-0.9151986751747452,-0.0212039885183046,-2.1248637033351443
1.12,0.8165070414543152,-0.7465780377388,2.80688738822937,-0.0283911672732879,0.0296460545277735,0.002210817123183,-0.1244384050369262,0.2538938820362091,-0.0208085775375366,0.7991056840913284,-0.7150270875007677,2.82,-0.143655639204172,0.2633686718743153,0.0,0.7579050682583911,-0.49600750207901,0.2747252583503723,0.5029141902923584,12.69728400244776,-0.9556822029493626,-0.0410122959694131,-2.198791287402391
1.14,0.8149040937423706,-0.7437089681625366,2.807044267654419,-0.0303455194391016,0.0274381221153005,0.0014811981403106,-0.134333074092865,0.2584590017795563,0.0001072883605957,0.796232571307245,-0.7097597140632814,2.82,-0.143655639204172,0.2633686718743153,0.0,1.1792139757761355,-0.494733452796936,0.2282559871673584,1.0457932949066162,12.253752322551918,-0.95814640916148,-0.0451607365951085,-2.250135175328623
1.16,0.8114942908287048,-0.7376804351806641,2.8070976734161377,-0.0313488053851995,0.0272282634174012,0.0023118017133584,-0.1476100087165832,0.2652999758720398,0.0080519914627075,0.7933594585231616,-0.7044923406257951,2.82,-0.143655639204172,0.2633686718743153,0.0,0.8458637994931936,-0.6638467311859131,0.342048704624176,0.3972351551055908,12.253752322551918,-0.9066794169903472,-0.0636617331434098,-2.2921883678513866
1.18,0.8078559637069702,-0.7315514087677002,2.807569980621338,-0.0306819354279593,0.0268061191444279,0.0034295808174569,-0.1585829257965088,0.2735450863838196,0.0118285417556762,0.7904863457390782,-0.6992249671883088,2.82,-0.143655639204172,0.2633686718743153,0.0,0.7117743475106866,-0.5486458539962769,0.4122555255889892,0.1888275146484375,12.390636412765616,-0.9058946146474098,-0.0650980584627254,-2.3223201004553404
1.2,0.8038201928138733,-0.7252904176712036,2.8080356121063232,-0.0281336076142175,0.0306270460836728,0.0035899760336986,-0.167391300201416,0.2726921439170837,0.0207710266113281,0.7876132329549947,-0.6939575937508226,2.82,-0.143655639204172,0.2633686718743153,0.0,0.6290528711923763,-0.4404187202453613,-0.0426471233367919,0.4471242427825928,12.555915378296504,-0.9047313382058416,-0.0527013883321798,-2.356222137559686
1.22,0.7995649576187134,-0.7188257575035095,2.808772563934326,-0.0261338313538232,0.0343056713459965,0.0044751918812661,-0.1865476369857788,0.2863271534442901,0.0270581245422363,0.7847401201709113,-0.6886902203133363,2.82,-0.143655639204172,0.2633686718743153,0.0,1.2169699299857115,-0.9578168392181396,0.681750476360321,0.3143548965454101,12.166820128197289,-0.9908333545566316,-0.0999556613252085,-2.3292536988959536
1.24,0.7973530888557434,-0.7155748009681702,2.8090925216674805,-0.0226583118197501,0.0375698249363791,0.0060236887455665,-0.1865476369857788,0.2863271534442901,0.0270581245422363,0.7818670073868279,-0.68342284687585,2.82,-0.143655639204172,0.2633686718743153,0.0,0.0,0.0,0.0,0.0,11.7527036090014,-0.975181863864362,-0.0689814117842326,-2.304948790285167
1.26,0.7926619648933411,-0.7090305089950562,2.809966325759888,-0.0196679173686871,0.045300189488223,0.0056328693130673,-0.1988884806632995,0.292610228061676,0.0334686040878295,0.7789938946027445,-0.6781554734383637,2.82,-0.143655639204172,0.2633686718743153,0.0,0.7630001594447934,-0.6170421838760376,0.3141537308692932,0.3205239772796631,12.043997635631058,-0.975181863864362,-0.0689814117842326,-2.304948790285167
1.28,0.7902769446372986,-0.7056342363357544,2.81024432182312,-0.0256924348558447,0.0550880331719305,0.0057694572453284,-0.2089802920818328,0.2968092262744903,0.0331145524978637,0.7761207818186611,-0.6728881000008774,2.82,-0.143655639204172,0.2633686718743153,0.0,0.5468125735268321,-0.5045905709266663,0.2099499106407165,-0.017702579498291,11.743628985936084,-0.9746557420032697,-0.0647770121410654,-2.3089112103584117
1.3,0.7902769446372986,-0.7056342363357544,2.81024432182312,-0.0212123047340337,0.0642525560967834,0.0061312548998097,-0.2089802920818328,0.2968092262744903,0.0331145524978637,0.7732476690345776,-0.6676207265633911,2.82,-0.143655639204172,0.2633686718743153,0.0,0.0,0.0,0.0,0.0,11.743628985936084,-0.9746557420032697,-0.0647770121410654,-2.3089112103584117
1.32,0.7902769446372986,-0.7056342363357544,2.81024432182312,-0.0189653008004898,0.0743228403747814,0.005935792931772,-0.2089802920818328,0.2968092262744903,0.0331145524978637,0.7703745562504942,-0.6623533531259048,2.82,-0.143655639204172,0.2633686718743153,0.0,0.0,0.0,0.0,0.0,11.743628985936084,-0.9746557420032697,-0.0647770121410654,-2.3089112103584117
1.34,0.7902769446372986,-0.7056342363357544,2.81024432182312,-0.0161547822234059,0.0857865915623675,0.0061994944741311,-0.2089802920818328,0.2968092262744903,0.0331145524978637,0.7675014434664108,-0.6570859796884185,2.82,-0.143655639204172,0.2633686718743153,0.0,0.0,0.0,0.0,0.0,11.743628985936084,-1.0196532310329456,-0.0687149212347703,-2.3706860810080426
1.36,0.7902769446372986,-0.7056342363357544,2.81024432182312,-0.0138020100877793,0.0927287771878705,0.0062002354769086,-0.2089802920818328,0.2968092262744903,0.0331145524978637,0.7646283306823274,-0.6518186062509321,2.82,-0.143655639204172,0.2633686718743153,0.0,0.0,0.0,0.0,0.0,11.743628985936084,-1.0196532310329456,-0.0687149212347703,-2.3706860810080426
1.38,0.7902769446372986,-0.7056342363357544,2.81024432182312,-0.0115981798715405,0.1014738006666966,0.0059115649778017,-0.2089802920818328,0.2968092262744903,0.0331145524978637,0.761755217898244,-0.6465512328134458,2.82,-0.143655639204172,0.2633686718743153,0.0,0.0,0.0,0.0,0.0,11.743628985936084,-1.0196532310329456,-0.0687149212347703,-2.3706860810080426
1.4,0.7594307661056519,-0.6646856665611267,2.8146536350250244,0.0040950279177765,0.1095523312710574,0.0075362682113155,-0.2363012731075287,0.3107607364654541,0.0270259380340576,0.7588821051141605,-0.6412838593759596,2.82,-0.143655639204172,0.2633686718743153,0.0,1.5637709766010053,-1.36604905128479,0.6975755095481873,-0.3044307231903076,11.532333870359253,-1.0196532310329456,-0.0687149212347703,-2.3706860810080426
1.42,0.7543795704841614,-0.6577175855636597,2.815152645111084,0.0046107576651782,0.1156678626466392,0.0075282893553139,-0.2321706712245941,0.3139257431030273,0.0206959247589111,0.7560089923300771,-0.6360164859384734,2.82,-0.143655639204172,0.2633686718743153,0.0,0.4097200476993896,0.2065300941467285,0.1582503318786621,-0.3165006637573242,11.881449683196024,-1.0853099791362155,-0.0448565544969071,-2.371483097073224
1.44,0.7519131898880005,-0.654263973236084,2.815438270568848,0.0033397600695891,0.1173990406606803,0.0070890348716438,-0.2299176156520843,0.3120280802249908,0.0225037336349487,0.7531358795459937,-0.6307491125009871,2.82,-0.143655639204172,0.2633686718743153,0.0,0.1728117237326174,0.1126527786254882,-0.0948831439018249,0.0903904438018798,11.902813163752851,-1.0710250226584146,-0.0184342524318455,-2.327062092614507
1.46,0.7468867897987366,-0.6473290920257568,2.8154780864715576,0.0039601135558427,0.1237898034410291,0.0071636175449967,-0.2278308570384979,0.3117316961288452,0.0108897686004638,0.7502627667619103,-0.6254817390635008,2.82,-0.143655639204172,0.2633686718743153,0.0,0.5901834224757211,0.1043379306793212,-0.0148192048072814,-0.5806982517242432,11.60679850426004,-1.1291091710639565,-0.0215856062576595,-2.2583331826685917
1.48,0.7421662211418152,-0.6403374671936035,2.815723180770874,0.0032566114476025,0.1262466552536198,0.0069269344819426,-0.2193067967891693,0.3133463859558105,0.0064104795455932,0.7473896539778269,-0.6202143656260145,2.82,-0.143655639204172,0.2633686718743153,0.0,0.4881876094509494,0.4262030124664306,0.0807344913482666,-0.2239644527435302,12.01568046485636,-1.1225799780191374,-0.0184658698508008,-2.2687097367898
1.5,0.7375063896179199,-0.6334967613220215,2.815622329711914,0.0041937814998445,0.1320753760459834,0.0069995967778745,-0.2110590040683746,0.3112274408340454,0.00324547290802,0.7445165411937434,-0.6149469921885282,2.82,-0.143655639204172,0.2633686718743153,0.0,0.4542391446422485,0.4123896360397339,-0.1059472560882568,-0.1582503318786621,11.59894458139388,-1.1224092737217668,-0.0067821202931633,-2.220163467033009
1.52,0.7375063896179199,-0.6334967613220215,2.815622329711914,-0.0066697358051439,0.1346965417907584,0.0034941709633689,-0.2110590040683746,0.3112274408340454,0.00324547290802,0.74164342840966,-0.6096796187510419,2.82,-0.143655639204172,0.2633686718743153,0.0,0.0,0.0,0.0,0.0,11.745519612810313,-1.1157458013011796,-0.0103500256712388,-2.205198510956725
1.54,0.7308105826377869,-0.6230003237724304,2.81506896018982,0.0074668908957847,0.1376987882586409,0.0063297642658486,-0.2012501657009124,0.3141094744205475,-0.0140708684921264,0.7387703156255766,-0.6044122453135556,2.82,-0.143655639204172,0.2633686718743153,0.0,1.0054540108815904,0.4904419183731079,0.1441016793251037,-0.8658170700073242,11.749057772198285,-1.1157458013011796,-0.0103500256712388,-2.205198510956725
1.56,0.7265247702598572,-0.6160792112350464,2.8144233226776123,0.0111844001676668,0.1408307632851929,0.0057156720278369,-0.2001236379146576,0.3121206164360046,-0.0173860788345336,0.7358972028414932,-0.5991448718760694,2.82,-0.143655639204172,0.2633686718743153,0.0,0.201340759350212,0.0563263893127441,-0.0994428992271423,-0.1657605171203613,12.036168390937746,-1.157633151884443,0.005057793706412,-2.19715668724299
1.58,0.7225521802902222,-0.6090253591537476,2.813361406326294,0.0148409999643134,0.1437530049555775,0.0063758596892002,-0.1858140528202057,0.3144367039203644,-0.0384199619293212,0.7330240900574098,-0.5938774984385831,2.82,-0.143655639204172,0.2633686718743153,0.0,1.2772555782377302,0.7154792547225952,0.115804374217987,-1.05169415473938,11.96796649425778,-1.1718818281753338,-0.0074286956714714,-2.2018138881731306
1.6,0.7188694477081299,-0.6021907329559326,2.8125195503234863,0.0186832980979837,0.1428738895947989,0.0058557923062429,-0.1722447574138641,0.3124907612800598,-0.0428348779678344,0.7301509772733263,-0.5886101250010968,2.82,-0.143655639204172,0.2633686718743153,0.0,0.7200763053507566,0.6784647703170776,-0.0972971320152282,-0.2207458019256591,12.04965452257602,-1.1996061578747157,0.0205529549794796,-2.232219168123172
1.62,0.7153539657592773,-0.5954758524894714,2.811464786529541,0.0225847286387879,0.1422378917507322,0.0054127796165217,-0.169001966714859,0.3063565492630005,-0.0402116775512695,0.7272778644892429,-0.5833427515636105,2.82,-0.143655639204172,0.2633686718743153,0.0,0.3708956356350654,0.1621395349502563,-0.3067106008529663,0.131160020828247,12.697780544719537,-1.1609815654980062,0.0314037812396577,-2.200357770992988
1.64,0.7136920690536499,-0.5920089483261108,2.8108553886413574,0.0233481272047416,0.1410012509547162,0.005298440019998,-0.155906081199646,0.3055371344089508,-0.0471210479736328,0.7244047517051595,-0.5780753781261242,2.82,-0.143655639204172,0.2633686718743153,0.0,0.741473293119907,0.6547942757606506,-0.0409707427024841,-0.345468521118164,12.23325867663698,-1.2170952145863254,-0.0123394347017848,-2.1375579233304984
1.66,0.710526168346405,-0.5853430032730103,2.8098111152648926,0.021529490360324,0.1418994502517274,0.0054607779908853,-0.1504987478256225,0.307367742061615,-0.0509727001190185,0.7215316389210761,-0.5728080046886379,2.82,-0.143655639204172,0.2633686718743153,0.0,0.3443312462036917,0.2703666687011719,0.0915303826332092,-0.1925826072692871,12.583353287869611,-1.159317054235835,0.0196567583877818,-2.133500126241537
1.68,0.7091643810272217,-0.581944465637207,2.809152603149414,0.0049047785756293,0.1364561713602635,0.0019361757327248,-0.1392656564712524,0.3044562041759491,-0.0520241260528564,0.7186585261369927,-0.5675406312511517,2.82,-0.143655639204172,0.2633686718743153,0.0,0.5825909601290586,0.5616545677185059,-0.1455768942832946,-0.0525712966918945,12.583353287869611,-1.1610394289259185,0.0447801690447742,-2.1675602374513963
1.7,0.7091643810272217,-0.581944465637207,2.809152603149414,0.0022087334207981,0.1329494468883853,0.0017573214842181,-0.1392656564712524,0.3044562041759491,-0.0520241260528564,0.7157854133529092,-0.5622732578136653,2.82,-0.143655639204172,0.2633686718743153,0.0,0.0,0.0,0.0,0.0,12.583353287869611,-1.1610394289259185,0.0447801690447742,-2.1675602374513963
1.72,0.7091643810272217,-0.581944465637207,2.809152603149414,0.0013414448409786,0.1281792658306537,0.0013091747001465,-0.1392656564712524,0.3044562041759491,-0.0520241260528564,0.7129123005688258,-0.557005884376179,2.82,-0.143655639204172,0.2633686718743153,0.0,0.0,0.0,0.0,0.0,12.583353287869611,-1.1610394289259185,0.0447801690447742,-2.1675602374513963
1.74,0.7091643810272217,-0.581944465637207,2.809152603149414,0.000836376225129,0.1225781754714761,0.0010711706253429,-0.1392656564712524,0.3044562041759491,-0.0520241260528564,0.7100391877847424,-0.5517385109386927,2.82,-0.143655639204172,0.2633686718743153,0.0,0.0,0.0,0.0,0.0,12.583353287869611,-1.1610394289259185,0.0447801690447742,-2.1675602374513963
1.76,0.7091643810272217,-0.581944465637207,2.809152603149414,0.0028160452994314,0.1161425168018312,0.0011846324488291,-0.1392656564712524,0.3044562041759491,-0.0520241260528564,0.707166075000659,-0.5464711375012065,2.82,-0.143655639204172,0.2633686718743153,0.0,0.0,0.0,0.0,0.0,12.637904197613352,-1.1610394289259185,0.0447801690447742,-2.1675602374513963
1.78,0.7091643810272217,-0.581944465637207,2.809152603149414,0.0044812222848639,0.1094152852974332,0.0011777391811098,-0.1392656564712524,0.3044562041759491,-0.0520241260528564,0.7042929622165756,-0.5412037640637202,2.82,-0.143655639204172,0.2633686718743153,0.0,0.0,0.0,0.0,0.0,12.637904197613352,-1.1610394289259185,0.0447801690447742,-2.1675602374513963
1.8,0.6972373723983765,-0.5491788387298584,2.8023602962493896,0.0170148707794991,0.1124176877560289,0.003230046626648,-0.0896716117858886,0.2893432974815368,-0.0596362352371215,0.7014198494324921,-0.5359363906262339,2.82,-0.143655639204172,0.2633686718743153,0.0,2.620073197088701,2.4797022342681885,-0.7556453347206116,-0.3806054592132568,12.637904197613352,-1.1610394289259185,0.0447801690447742,-2.1675602374513963
1.82,0.6934232711791992,-0.5363501906394958,2.7996585369110107,0.0172742766151802,0.09892770074151,0.003120996910461,-0.085817277431488,0.2886445820331573,-0.0607895851135253,0.6985467366484087,-0.5306690171887475,2.82,-0.143655639204172,0.2633686718743153,0.0,0.2041709610272591,0.1927167177200317,-0.0349357724189758,-0.0576674938201904,12.478689800961549,-1.1427578293880938,0.0513331383754896,-2.252894159281707
1.84,0.6927186846733093,-0.5332559943199158,2.798948287963867,0.0056935087121238,0.0926741491643688,0.0005739549166522,-0.0777223706245422,0.284719169139862,-0.0636488199234008,0.6956736238643253,-0.5254016437512612,2.82,-0.143655639204172,0.2633686718743153,0.0,0.4719947200287045,0.40474534034729,-0.1962706446647644,-0.1429617404937744,12.549125548805932,-1.108018786625151,0.0699310268432599,-2.298819386952933
1.86,0.6909366250038147,-0.5268517136573792,2.7976772785186768,0.016593181113457,0.091839388550175,0.001517527716388,-0.0765556097030639,0.2861917018890381,-0.062071681022644,0.6928005110802419,-0.5201342703137749,2.82,-0.143655639204172,0.2633686718743153,0.0,0.1226483882646364,0.0583380460739135,0.0736266374588012,0.0788569450378418,12.925718403761492,-1.0353585525360844,0.0211762700300694,-2.388617999954283
1.88,0.6893066763877869,-0.5206171274185181,2.796463966369629,0.0136272379041704,0.0863369560843493,0.0019635309165575,-0.0735247135162353,0.283871591091156,-0.0570827722549438,0.6899273982961585,-0.5148668968762886,2.82,-0.143655639204172,0.2633686718743153,0.0,0.3140798326151216,0.1515448093414306,-0.116005539894104,0.2494454383850097,13.02616424309781,-1.0328707982461611,0.049640225615227,-2.38400141740306
1.9,0.6877010464668274,-0.5143014788627625,2.79521918296814,0.0115209885006949,0.0806793239165587,0.0016915721023406,-0.0728005170822143,0.2823802828788757,-0.0553071498870849,0.687054285512075,-0.5095995234388023,2.82,-0.143655639204172,0.2633686718743153,0.0,0.1214629105149398,0.0362098217010498,-0.0745654106140136,0.0887811183929443,13.169913169803294,-1.0240866855656623,0.0523510731957786,-2.402427087173188
1.92,0.6868517398834229,-0.5112651586532593,2.794621229171753,-0.000383956832606,0.0726152732240819,0.0010399976617353,-0.0743347406387329,0.2805416285991668,-0.0562566518783569,0.6841811727279916,-0.5043321500013161,2.82,-0.143655639204172,0.2633686718743153,0.0,0.1288026155896843,-0.0767111778259277,-0.0919327139854431,-0.0474750995635986,13.169913169803294,-0.9802653083004365,0.0621230713259573,-2.4091012357281403
1.94,0.6868517398834229,-0.5112651586532593,2.794621229171753,-0.0006507557764041,0.0666121189811243,0.0015698227597262,-0.0743347406387329,0.2805416285991668,-0.0562566518783569,0.6813080599439082,-0.4990647765638298,2.82,-0.143655639204172,0.2633686718743153,0.0,0.0,0.0,0.0,0.0,12.652481124156113,-1.0148640813319538,0.0279974290958958,-2.461574531776592
1.96,0.6868517398834229,-0.5112651586532593,2.794621229171753,-0.0005180378480861,0.0606913811289584,0.0016992613669638,-0.0743347406387329,0.2805416285991668,-0.0562566518783569,0.6784349471598248,-0.4937974031263435,2.82,-0.143655639204172,0.2633686718743153,0.0,0.0,0.0,0.0,0.0,12.652481124156113,-1.0148640813319538,0.0279974290958958,-2.461574531776592
1.98,0.6868517398834229,-0.5112651586532593,2.794621229171753,-0.0009428412389156,0.0550331671529503,0.0019643033358912,-0.0743347406387329,0.2805416285991668,-0.0562566518783569,0.6755618343757414,-0.4885300296888573,2.82,-0.143655639204172,0.2633686718743153,0.0,0.0,0.0,0.0,0.0,12.721020166884957,-1.0148640813319538,0.0279974290958958,-2.461574531776592
2.0,0.6868517398834229,-0.5112651586532593,2.794621229171753,-0.000190016150877,0.0500322850641488,0.0021985295048233,-0.0743347406387329,0.2805416285991668,-0.0562566518783569,0.6726887215916579,-0.483262656251371,2.82,-0.143655639204172,0.2633686718743153,0.0,0.0,0.0,0.0,0.0,12.721020166884957,-1.0148640813319538,0.0279974290958958,-2.461574531776592
2.02,0.6868517398834229,-0.5112651586532593,2.794621229171753,0.0004893221100113,0.0474076782680446,0.002067596305231,-0.0743347406387329,0.2805416285991668,-0.0562566518783569,0.6698156088075745,-0.4779952828138847,2.82,-0.143655639204172,0.2633686718743153,0.0,0.0,0.0,0.0,0.0,12.721020166884957,-1.0148640813319538,0.0279974290958958,-2.461574531776592
2.04,0.6765718460083008,-0.4773210287094116,2.7919929027557373,0.0124320243889435,0.0482631873334661,0.002792323876715,-0.094706118106842,0.2751611173152923,-0.0029289722442626,0.6669424960234911,-0.4727279093763984,2.82,-0.143655639204172,0.2633686718743153,0.0,2.866960209342237,-1.0185688734054563,-0.2690255641937256,2.666383981704712,13.212862135106208,-1.0131289175300375,0.0460851593009081,-2.49973713160582
2.06,0.6741876602172852,-0.471180260181427,2.7921037673950195,0.012934253274308,0.044855424988769,0.0031186477980094,-0.1017160713672638,0.2771258354187011,0.0010460615158081,0.6640693832394077,-0.4674605359389121,2.82,-0.143655639204172,0.2633686718743153,0.0,0.4147301994455627,-0.3504976630210876,0.0982359051704406,0.19875168800354,12.657134679189312,-1.0131289175300375,0.0460851593009081,-2.49973713160582
2.08,0.6715843677520752,-0.4651731252670288,2.792694330215454,0.0111705271843855,0.0423814180121159,0.0027717677275575,-0.1122182607650756,0.2733278274536133,0.0157821178436279,0.6611962704553243,-0.4621931625014258,2.82,-0.143655639204172,0.2633686718743153,0.0,0.9244893222031586,-0.5251094698905945,-0.1899003982543945,0.7368028163909912,12.473033020044568,-0.9663786352333882,0.0745582184739969,-2.5
2.1,0.6688200235366821,-0.4591646194458008,2.793409585952759,0.0089691563504469,0.041224724216738,0.0019944669864308,-0.1207718253135681,0.2703519165515899,0.0293809175491333,0.6583231576712408,-0.4569257890639395,2.82,-0.143655639204172,0.2633686718743153,0.0,0.816925433580784,-0.4276782274246216,-0.1487955451011657,0.6799399852752686,12.682338747802078,-1.010877034629486,0.061072312033404,-2.5
2.12,0.6657897233963013,-0.4530472159385681,2.794195413589477,0.0089621959402248,0.0386216751266108,0.0025357962151069,-0.1220257580280304,0.2720558047294616,0.0329536199569702,0.6554500448871574,-0.4516584156264532,2.82,-0.143655639204172,0.2633686718743153,0.0,0.2076040984063981,-0.062696635723114,0.0851944088935852,0.1786351203918457,12.243488877325037,-1.0313446069204264,0.0515121944693506,-2.5
2.14,0.6642083525657654,-0.4500522017478943,2.794662952423096,0.0075194144413609,0.040323531573834,0.0027344516102279,-0.1360885798931121,0.2717345952987671,0.0373578071594238,0.652576932103074,-0.4463910421889669,2.82,-0.143655639204172,0.2633686718743153,0.0,0.7369921967389576,-0.7031410932540894,-0.016060471534729,0.2202093601226806,12.28581415079043,-0.9462104554121726,0.0811062533506009,-2.5
2.16,0.6610153913497925,-0.4441143572330475,2.7957088947296143,0.00512880519201,0.0403262838668636,0.002797713470834,-0.1435035467147827,0.2708957195281982,0.0434839725494384,0.6497038193189906,-0.4411236687514807,2.82,-0.143655639204172,0.2633686718743153,0.0,0.4827404787013815,-0.3707483410835266,-0.0419437885284423,0.3063082695007324,12.42015859850062,-0.9430281245253286,0.073736720453039,-2.5
2.18,0.6576218605041504,-0.4380033016204834,2.7966649532318115,0.0048578304421016,0.0453646972952726,0.0029928515620065,-0.1471339166164398,0.2700669169425964,0.0412040948867797,0.6468307065349072,-0.4358562953139944,2.82,-0.143655639204172,0.2633686718743153,0.0,0.2183136591320393,-0.1815184950828552,-0.0414401292800903,-0.1139938831329345,11.859398319484171,-0.9430281245253286,0.073736720453039,-2.5
2.2,0.6540639996528625,-0.4320037066936493,2.7976810932159424,0.004782827319319,0.0513435827457146,0.0036897997349307,-0.1564063131809234,0.2724896371364593,0.0443744659423828,0.6439575937508237,-0.4305889218765081,2.82,-0.143655639204172,0.2633686718743153,0.0,0.5047231018514129,-0.4636198282241821,0.1211360096931457,0.1585185527801513,12.305957205032428,-0.9555822199369114,0.064043652340824,-2.5
2.22,0.650208055973053,-0.4259665310382843,2.798921823501587,0.0026031267992411,0.0587084742492153,0.0030761536287837,-0.1609030365943908,0.2724138498306274,0.0500178337097168,0.6410844809667403,-0.4253215484390218,2.82,-0.143655639204172,0.2633686718743153,0.0,0.3608111172425795,-0.2248361706733703,-0.0037893652915954,0.2821683883666992,11.953529599461945,-0.9559918118460984,0.0711452475722381,-2.5
2.24,0.6483352184295654,-0.4229121804237366,2.7994327545166016,0.002943061884536,0.0618058582005439,0.0036049576805451,-0.1671713590621948,0.2729375660419464,0.0510799884796142,0.6382113681826569,-0.4200541750015355,2.82,-0.143655639204172,0.2633686718743153,0.0,0.318960491227323,-0.3134161233901977,0.0261858105659484,0.053107738494873,12.086558751169378,-0.96607924419391,0.0679241035115011,-2.489956612077769
2.26,0.6443541646003723,-0.4168979227542877,2.80036997795105,0.0026790398787137,0.0705521209026578,0.0037831614873193,-0.1742631196975708,0.2708783149719238,0.0477057695388793,0.6353382553985734,-0.4147868015640491,2.82,-0.143655639204172,0.2633686718743153,0.0,0.4059523904932428,-0.3545880317687988,-0.1029625535011291,-0.1687109470367431,11.737978085601751,-0.9846422291315038,0.0635632906231211,-2.5
2.28,0.6404778957366943,-0.4107611775398254,2.8013083934783936,0.0014101922679001,0.078378451035228,0.0036710454056653,-0.1767897605895996,0.2733975648880005,0.0422018766403198,0.63246514261449,-0.4095194281265629,2.82,-0.143655639204172,0.2633686718743153,0.0,0.3279610166458007,-0.1263320446014404,0.125962495803833,-0.2751946449279785,11.994751317638476,-1.0173684306608972,0.0476594053037947,-2.4641028883890126
2.3000000000000003,0.63654625415802,-0.4047682285308838,2.8020405769348145,0.0031066178891515,0.0869202630753303,0.002991150885162,-0.1756779849529266,0.2729181051254272,0.0375884771347045,0.6295920298304065,-0.4042520546890765,2.82,-0.143655639204172,0.2633686718743153,0.0,0.238481559709746,0.0555887818336486,-0.0239729881286621,-0.2306699752807617,11.778470359183302,-0.9911469385762544,0.057303586309883,-2.481138849249374
2.32,0.6326283812522888,-0.398620069026947,2.8029229640960693,0.0018890853055586,0.0932038988095809,0.0040761107069997,-0.1766140758991241,0.2731749415397644,0.036327838897705,0.6267189170463232,-0.3989846812515903,2.82,-0.143655639204172,0.2633686718743153,0.0,0.0795524978845377,-0.0468045473098754,0.0128418207168579,-0.0630319118499755,12.49409950818881,-1.0041757191046787,0.0506726122320071,-2.4654123200650324
2.34,0.6306459307670593,-0.3955154716968536,2.8032314777374268,0.0022746312369455,0.0967481770440893,0.0034359959139865,-0.1766140758991241,0.2731749415397644,0.036327838897705,0.6238458042622398,-0.3937173078141041,2.82,-0.143655639204172,0.2633686718743153,0.0,0.0,0.0,0.0,0.0,11.763965719790576,-1.0620634300474394,0.0445114773194767,-2.452616332780441
2.36,0.6268265843391418,-0.3894571363925934,2.8040058612823486,0.0004624186619931,0.1017585339046717,0.0032831185467519,-0.1755492389202118,0.2744355797767639,0.0339245796203613,0.6209726914781564,-0.3884499343766178,2.82,-0.143655639204172,0.2633686718743153,0.0,0.1457630072273417,0.0532418489456176,0.0630319118499755,-0.1201629638671875,11.676510633807991,-1.0620634300474394,0.0445114773194767,-2.452616332780441
2.38,0.6230983138084412,-0.3834168612957001,2.804689407348633,-0.0010791939478489,0.1061339735225597,0.0032920310380592,-0.1698213815689087,0.2722187340259552,0.0328034162521362,0.618099578694073,-0.3831825609391315,2.82,-0.143655639204172,0.2633686718743153,0.0,0.3121688734403443,0.286392867565155,-0.1108422875404357,-0.0560581684112548,11.725192439705095,-1.0491586935137078,0.0472415530141974,-2.411119111402048
2.4,0.6194989681243896,-0.3772129118442535,2.805325508117676,-0.0002523002398405,0.1094221284609268,0.0037260743907879,-0.1669178903102874,0.2754923701286316,0.0295311212539672,0.6152264659099895,-0.3779151875016452,2.82,-0.143655639204172,0.2633686718743153,0.0,0.2731980480195529,0.1451745629310608,0.1636818051338195,-0.1636147499084472,11.77649039062544,-1.041600106926468,0.0247370702515266,-2.355066324485836
2.42,0.6159594058990479,-0.3709904849529266,2.805783987045288,0.0006856012102494,0.1105048612083106,0.0036297851882943,-0.1606254279613495,0.2795934677124023,0.0246280431747436,0.6123533531259061,-0.3726478140641589,2.82,-0.143655639204172,0.2633686718743153,0.0,0.4484814891814817,0.3146231174468994,0.2050548791885376,-0.2451539039611816,11.924184481072189,-1.028055708278927,0.0580978150847849,-2.415640454003438
2.44,0.6143014430999756,-0.3678956031799316,2.8059566020965576,0.0021469404066244,0.1099647575408927,0.0034064533654831,-0.1606254279613495,0.2795934677124023,0.0246280431747436,0.6094802403418227,-0.3673804406266726,2.82,-0.143655639204172,0.2633686718743153,0.0,0.0,0.0,0.0,0.0,12.03485628688486,-1.0410368281330658,0.0669413899565717,-2.3707548536133323
2.46,0.6111211776733398,-0.3617037832736969,2.8063204288482666,0.0055085519602168,0.1089866587462309,0.0039838809791675,-0.1546642184257507,0.2793339490890503,0.0156480073928833,0.6066071275577393,-0.3621130671891863,2.82,-0.143655639204172,0.2633686718743153,0.0,0.5390835085742104,0.2980604767799377,-0.0129759311676025,-0.4490017890930176,11.989870919239364,-1.0410368281330658,0.0669413899565717,-2.3707548536133323
2.48,0.6079071760177612,-0.3555744886398315,2.806589365005493,0.00836713449369,0.1068402521594138,0.0033603161300233,-0.143871009349823,0.2772250771522522,0.0142371654510498,0.6037340147736558,-0.3568456937517,2.82,-0.143655639204172,0.2633686718743153,0.0,0.5543716668159996,0.5396604537963867,-0.1054435968399047,-0.0705420970916748,11.842642318749313,-1.0423545733929298,0.0630381574463631,-2.33912597791914
2.5,0.6048211455345154,-0.3493840396404266,2.806769371032715,0.0127133139119417,0.1044161047334901,0.0039576338671674,-0.1417507231235504,0.2771942317485809,0.0101011991500854,0.6008609019895724,-0.3515783203142137,2.82,-0.143655639204172,0.2633686718743153,0.0,0.2323939670202394,0.1060143113136291,-0.0015422701835632,-0.2067983150482177,12.003195739855071,-1.0083551632185124,0.0616198443049856,-2.286896231262741
2.52,0.6019302606582642,-0.343421995639801,2.8070192337036133,0.0150265738767139,0.098287329028248,0.0030756012314886,-0.134480595588684,0.2734310925006866,0.0096720457077026,0.597987789205489,-0.3463109468767275,2.82,-0.143655639204172,0.2633686718743153,0.0,0.4098784699437536,0.3635063767433166,-0.1881569623947143,-0.0214576721191406,12.104991500892083,-1.0209001605898702,0.0680334125995992,-2.27803933377084
2.54,0.600421667098999,-0.3402802944183349,2.807086944580078,0.0048619404989547,0.0939469169536944,0.0018048161103344,-0.1337175071239471,0.2750135958194732,0.0082719326019287,0.5951146764214056,-0.3410435734392412,2.82,-0.143655639204172,0.2633686718743153,0.0,0.1123269498823096,0.0381544232368469,0.079125165939331,-0.0700056552886962,11.987147965799522,-1.020349426074625,0.0589863482085731,-2.2738344352022484
2.56,0.5975344777107239,-0.3342452049255371,2.807304620742798,0.0183369847496538,0.0902754601836035,0.0033226073272258,-0.1322449743747711,0.2720061540603637,0.0078213214874267,0.5922415636373222,-0.3357762000017549,2.82,-0.143655639204172,0.2633686718743153,0.0,0.1689386649670837,0.0736266374588012,-0.1503720879554748,-0.0225305557250976,12.059357556937355,-1.0111776394890213,0.0769921544675295,-2.2663308071883392
2.58,0.594763994216919,-0.3281862735748291,2.8075647354125977,0.0183953595407834,0.0835964251045864,0.003225758884676,-0.13127401471138,0.2730414867401123,0.0077086687088012,0.5893684508532387,-0.3305088265642686,2.82,-0.143655639204172,0.2633686718743153,0.0,0.0711928204635114,0.0485479831695556,0.0517666339874267,-0.0056326389312744,12.07854236492949,-1.0162277236300044,0.0755949501173744,-2.235865720145732
2.6,0.591769814491272,-0.3223580121994018,2.8077392578125,0.0173540713855499,0.0782321525153453,0.0024306617148602,-0.1278863847255706,0.2685756087303161,0.0111687183380126,0.5864953380691553,-0.3252414531267823,2.82,-0.143655639204172,0.2633686718743153,0.0,0.3293631990513716,0.1693814992904663,-0.2232939004898071,0.1730024814605713,11.971833680394411,-0.9811372858699088,0.0997391140853998,-2.215544562448384
2.62,0.5890006422996521,-0.3164871633052826,2.8080408573150635,0.0149082480031936,0.0717401297519282,0.0022567107562156,-0.129675418138504,0.2632299661636352,0.0107127428054809,0.5836222252850719,-0.319974079689296,2.82,-0.143655639204172,0.2633686718743153,0.0,0.2827739763909083,-0.0894516706466674,-0.2672821283340454,-0.0227987766265869,12.371617383973444,-0.9635618501897468,0.0858714234548532,-2.200463108708872
2.64,0.5875633955001831,-0.3135502338409424,2.80818247795105,0.0149119634877053,0.0681458497355191,0.0019929557871866,-0.129675418138504,0.2632299661636352,0.0107127428054809,0.5807491125009885,-0.3147067062518097,2.82,-0.143655639204172,0.2633686718743153,0.0,0.0,0.0,0.0,0.0,12.212320446451486,-0.997344261787089,0.0742544412519101,-2.206944507286
2.66,0.584663987159729,-0.3078518211841583,2.808516502380371,0.0129549789356239,0.0621001072384686,0.0010746406332148,-0.1277670264244079,0.2609574794769287,0.0145751237869262,0.5778759997169051,-0.3094393328143234,2.82,-0.143655639204172,0.2633686718743153,0.0,0.2435371712979328,0.0954195857048034,-0.1136243343353271,0.1931190490722656,11.828068586102743,-0.997344261787089,0.0742544412519101,-2.206944507286
2.68,0.5815659165382385,-0.3021571338176727,2.808797836303711,0.0114880711234574,0.0597009659432486,0.0014633524168841,-0.1331327855587005,0.2597250044345855,0.0127780437469482,0.5750028869328216,-0.3041719593768371,2.82,-0.143655639204172,0.2633686718743153,0.0,0.2895680511008192,-0.2682879567146301,-0.0616237521171569,-0.0898540019989013,12.305943424033558,-0.923130892038033,0.0783321499987164,-2.183948144018153
2.7,0.5784784555435181,-0.2964877188205719,2.809173107147217,0.0101961470339328,0.0565743273819866,0.0012285856710537,-0.1391744613647461,0.2556923031806946,0.0147736072540283,0.5721297741487382,-0.2989045859393509,2.82,-0.143655639204172,0.2633686718743153,0.0,0.3766523584795389,-0.3020837903022766,-0.2016350626945495,0.0997781753540039,12.051499910227903,-0.9466541156014856,0.0741223279533856,-2.1909374607234784
2.72,0.5752338767051697,-0.2908504903316498,2.809506893157959,0.0085253779243339,0.0547218431048214,0.0006486367147377,-0.142470896244049,0.2543994784355163,0.015953779220581,0.5692566613646547,-0.2936372125018645,2.82,-0.143655639204172,0.2633686718743153,0.0,0.1866191617028335,-0.1648217439651489,-0.0646412372589111,0.0590085983276367,12.48933090993478,-0.936589654846268,0.063976536938284,-2.221783316342228
2.74,0.5734997987747192,-0.288095086812973,2.8097898960113525,0.0074450084362332,0.0547109854214357,0.0004316826904046,-0.1488934457302093,0.2507858872413635,0.019773244857788,0.5663835485805714,-0.2883698390643783,2.82,-0.143655639204172,0.2633686718743153,0.0,0.4150165688693701,-0.3211274743080139,-0.1806795597076416,0.1909732818603515,11.913759439255957,-0.9383900020080188,0.0601492677538637,-2.237034368151232
2.76,0.5701492428779602,-0.2824661135673523,2.8100790977478027,0.0058193851915433,0.0539021328243757,0.0012075445658483,-0.1515810191631317,0.2511305212974548,0.0187432765960693,0.5635104357964879,-0.2831024656268919,2.82,-0.143655639204172,0.2633686718743153,0.0,0.1449366948888029,-0.1343786716461181,0.0172317028045654,-0.0514984130859375,12.040985837591052,-0.9290718025764888,0.0440312986116855,-2.1809341327799125
2.78,0.5664607882499695,-0.2767688632011413,2.8104803562164307,0.0056197236672762,0.0549265958677496,0.0008943742201363,-0.1583777368068695,0.2548400163650512,0.0155353546142578,0.5606373230124045,-0.2778350921894057,2.82,-0.143655639204172,0.2633686718743153,0.0,0.4190658892901224,-0.3398358821868896,0.1854747533798217,-0.1603960990905761,11.940155884221896,-0.9283312022033794,0.0483852164428851,-2.2261040335722524
2.8000000000000003,0.5627238750457764,-0.2712529599666595,2.810875654220581,0.0039271953278838,0.0552443854314059,0.0007960498718214,-0.1612289249897003,0.2498356997966766,0.0197196006774902,0.557764210228321,-0.2725677187519193,2.82,-0.143655639204172,0.2633686718743153,0.0,0.3559507461998744,-0.1425594091415405,-0.2502158284187317,0.2092123031616211,12.669521146690386,-0.9055215120942623,0.0736660984501523,-2.232488794592535
2.82,0.5588012337684631,-0.265661209821701,2.811361312866211,0.0023037971261973,0.0571148111274798,0.0008636332053155,-0.1699474453926086,0.249556079506874,0.0166887044906616,0.5548910974442377,-0.2673003453144331,2.82,-0.143655639204172,0.2633686718743153,0.0,0.4617280509610885,-0.4359260201454162,-0.0139810144901275,-0.1515448093414306,12.000059985452026,-0.8938370033302764,0.0089661622109525,-2.2246593982095826
2.84,0.556846559047699,-0.2628124356269836,2.811609268188477,0.0016367180798726,0.0570891049784202,0.0016798421002776,-0.1763069629669189,0.2525091767311096,0.0180190801620483,0.5520179846601543,-0.2620329718769468,2.82,-0.143655639204172,0.2633686718743153,0.0,0.3568408133214545,-0.3179758787155151,0.1476548612117767,0.0665187835693359,11.888693519439585,-0.9527413396208844,0.0099599058256712,-2.2358773070509934
2.86,0.552651047706604,-0.2572139799594879,2.812127590179444,0.0007735124942152,0.0624391856654156,0.001648431864226,-0.1781778037548065,0.2547347545623779,0.0217419862747192,0.5491448718760709,-0.2567655984394605,2.82,-0.143655639204172,0.2633686718743153,0.0,0.236184630429348,-0.0935420393943786,0.1112788915634155,0.1861453056335449,11.903194113174322,-0.9505948174738728,0.0242339927664738,-2.2281723700443297
2.88,0.5485022068023682,-0.251616358757019,2.81274676322937,-0.0020639606417435,0.0659712199170469,0.0022149997481882,-0.1842865347862243,0.253959596157074,0.0234961509704589,0.5462717590919874,-0.2514982250019743,2.82,-0.143655639204172,0.2633686718743153,0.0,0.3201349682059913,-0.3054365515708923,-0.0387579202651977,0.0877082347869873,11.923332912587284,-0.9528208943454296,0.0487653170437763,-2.170242726918721
2.9,0.5441109538078308,-0.2458724677562713,2.813345670700073,-0.0024097250023775,0.0720567589996279,0.0021922673761059,-0.1901189982891082,0.2522060871124267,0.0250571966171264,0.543398646307904,-0.2462308515644879,2.82,-0.143655639204172,0.2633686718743153,0.0,0.3143616070431945,-0.2916231751441955,-0.0876754522323608,0.078052282333374,12.004915245194296,-0.9618886116575078,0.0340350000722465,-2.232548328730072
2.92,0.5398415327072144,-0.2401200383901596,2.813831090927124,-0.0018922026809086,0.0772831109389532,0.0028834122200021,-0.1946760714054107,0.2552225887775421,0.0274068117141723,0.5405255335238206,-0.2409634781270016,2.82,-0.143655639204172,0.2633686718743153,0.0,0.2974343994363993,-0.2278536558151245,0.1508250832557678,0.1174807548522949,11.77261802470366,-1.0072531731768433,0.0145308302691981,-2.2192558086649807
2.94,0.5375357866287231,-0.2373224198818206,2.814100503921509,-0.0028857228070523,0.0813190016610394,0.0029640480336641,-0.1984351873397827,0.2564963102340698,0.0257599353790283,0.5376524207397372,-0.2356961046895153,2.82,-0.143655639204172,0.2633686718743153,0.0,0.2148576308868597,-0.1879557967185974,0.0636860728263855,-0.0823438167572021,11.707016982210916,-0.994966137993078,0.0327268476598875,-2.1757436747180536
2.96,0.5331833958625793,-0.2315830886363983,2.814726591110229,-0.0026973699778926,0.0861318647132286,0.0026562713662275,-0.1974387466907501,0.2575755417346954,0.0248157978057861,0.5347793079556538,-0.230428731252029,2.82,-0.143655639204172,0.2633686718743153,0.0,0.0873073644687942,0.0498220324516296,0.0539615750312805,-0.0472068786621093,12.289649044149428,-1.0151156000527524,0.0271391993980557,-2.167377845118672
