t,x,y,z,roll,pitch,yaw,v_x,v_y,v_z,ref_x,ref_y,ref_z,ref_v_x,ref_v_y,ref_v_z,a_com,a_x,a_y,a_z,thrust,wind_x,wind_y,wind_z
0.0,-2.5010180443286223,-0.6718151886982944,2.880311820707517,0.0335219054446711,0.1008673018008061,0.0440526296403872,0.0044568077062746,-0.0050472628434785,0.0325968406579605,-2.500892916574732,-0.6718596061740071,2.881301800294512,0.1042466970048258,0.0895900762139807,-0.0671055554842723,1.664250595630311,0.2228403853137301,-0.2523631421739257,1.629842032898028,10.223655499132292,-0.9481781665573028,0.2593301995302447,-0.8632090429285184
0.02,-2.501030883679604,-0.6721556595489123,2.8807052580421244,0.0248692590251537,0.1036834304470523,0.0435179963244287,-0.0051494186265166,-0.0253371358718868,0.0090431174139581,-2.500892916574732,-0.6718596061740071,2.881301800294512,0.1042466970048258,0.0895900762139807,-0.0671055554842723,1.6269114992223783,-0.4803113166395648,-1.0144936514204153,-1.1776861622001202,10.223655499132292,-0.9319963778582931,0.2634727617729684,-0.8801086476644523
0.04,-2.5012094869044588,-0.6727159303275189,2.880561631932673,0.0086776727423365,0.1109480975755999,0.0425127808779751,-0.0116952397712196,-0.0284350062081257,-0.0224145788064235,-2.500892916574732,-0.6718596061740071,2.881301800294512,0.1042466970048258,0.0895900762139807,-0.0671055554842723,1.614025423105539,-0.3272910572351467,-0.1548935168119438,-1.572884811019085,8.909454463493603,-0.9193565733881772,0.2694342862789426,-0.8984470763267696
0.06,-2.5014749136099708,-0.6732337948866333,2.879785419685814,-0.0087329162731067,0.1203304439491056,0.0413164791442624,-0.0141189937818056,-0.0227614169722626,-0.0536767850090952,-2.499850449604683,-0.6709637054118672,2.880630744739669,0.124246697302849,0.1079934498726377,-0.0871055557822955,1.593259030242334,-0.1211877005292989,0.2836794617931517,-1.5631103101335846,8.551979983552428,-0.9042489276534704,0.2763148458565039,-0.9186700647195348
0.08,-2.5017512060137315,-0.6735825219257565,2.878397444651381,-0.0253412552627188,0.1305166744787519,0.0400172363205292,-0.0130578154467514,-0.0122420759982796,-0.0836484133406271,-2.497765515664587,-0.6691719038875876,2.8792886336299834,0.1642466978988954,0.1448001971899519,-0.127105556378342,1.5890886844581638,0.0530589167527084,0.5259670486991503,-1.4985814165765945,8.609392621798179,-0.8867173899077297,0.2845490677461597,-0.9397356135116652
0.1,-2.5019660208566927,-0.673671345554371,2.8765351142677824,-0.0394209862011014,0.140291291274405,0.0387621651926021,-0.009343687914537,0.0020874279369388,-0.1109673385117174,-2.4956805817244905,-0.667380102363308,2.8779465225202983,0.2042466984949419,0.181606944507266,-0.1671055569743884,1.553587058116334,0.1857063766107204,0.7164751967609269,-1.3659462585545137,8.709385259369355,-0.8682483882749504,0.2928814641582399,-0.9599536439429552
0.12,-2.5020894697717018,-0.6734452975124715,2.8740215938811198,-0.0521022741435707,0.1503287393553238,0.0374779512902594,-0.0029168841704763,0.0196179782563708,-0.1389603552458368,-2.4915956477545915,-0.6637479634731627,2.8746044113808105,0.2442466990909883,0.2184136918245802,-0.2071055575704349,1.6824334955232991,0.3213401872030342,0.8765275159715964,-1.3996508367059728,8.813556885612797,-0.8492630433845897,0.3005802202160786,-0.9793589039327832
0.14,-2.502060290350748,-0.6728466438053148,2.8709507395631686,-0.0626590445279365,0.1599303435985822,0.0362657508824541,0.0057637897462925,0.0391794052870602,-0.1667642455468467,-2.487510713784693,-0.6601158245830173,2.8712623002413227,0.2842466996870348,0.2552204391418944,-0.2471055581664814,1.754323119465775,0.4340336958384431,0.9780713515344708,-1.3901945150504955,8.898500213555053,-0.8300075805948275,0.3074679901112828,-0.9979113172828844
0.16,-2.501835759102931,-0.6718318208780883,2.8673251871853864,-0.0709764174017172,0.1690190126123968,0.0351699032295289,0.0164942494561589,0.060822677012523,-0.1944526644075047,-2.4824257797998928,-0.6555635170099392,2.8669201890869336,0.3242467002830813,0.2920271864592085,-0.2871055587625278,1.837268703517889,0.5365229854933203,1.082163586273141,-1.3844209430328962,8.993425832521098,-0.8122224406681644,0.3128840627222944,-1.0143621254143755
0.18,-2.501405220172303,-0.6704557751991078,2.86337008462961,-0.0768910708585889,0.1771558940081606,0.0342590533281581,0.0284849506405911,0.0824890237255073,-0.2205226743511128,-2.476340845800192,-0.6500910407539281,2.861578077917644,0.3642467008791277,0.3288339337765227,-0.3271055593585742,1.7978131947183904,0.5995350592216104,1.0833173356492145,-1.3035004971804085,8.993425832521098,-0.7943706084902047,0.317235173264285,-1.0304298714013358
0.2,-2.500687431724787,-0.6685602015391042,2.8586725658890333,-0.081344119079048,0.1851999829404035,0.0334381581327894,0.0428719841429942,0.1056518058397756,-0.2478733244873866,-2.499980972640273,-0.6663313240128325,2.8523439509120547,0.1284849521307072,0.1567750375671363,-0.3205226758412289,1.931035519578284,0.719351675120155,1.1581391057134134,-1.36753250681369,9.042948021661688,-0.7768198004009899,0.3204523116957845,-1.0456615553311752
0.22,-2.499647787606623,-0.6660449263401248,2.853534960426473,-0.0796568987434256,0.1926955874445289,0.0330912282162896,0.0607645846704854,0.1430143595670214,-0.2637906622147957,-2.499980972640273,-0.6663313240128325,2.8523439509120547,0.1284849521307072,0.1567750375671363,-0.3205226758412289,2.218933986729951,0.8946300263745581,1.868127686362293,-0.7958668863704512,9.080081599752702,-0.7626195312314857,0.3186584926470683,-1.0579160742820906
0.24,-2.498226439496551,-0.6628888828711745,2.848098437021656,-0.071358651483602,0.1996416578734547,0.0333009901744861,0.0806684450310595,0.1695236717195325,-0.2791505729822027,-2.499980972640273,-0.6663313240128325,2.8523439509120547,0.1284849521307072,0.1567750375671363,-0.3205226758412289,1.8267691061237128,0.9951930180287074,1.325465607625553,-0.7679955383703502,9.863868450986049,-0.7488038475384191,0.3125390095702977,-1.068766369391124
0.26,-2.496495074915297,-0.6594738428471303,2.8426328352456807,-0.0620456065599608,0.2057815018620885,0.033694926960508,0.1007316691986594,0.1883302778868116,-0.2954165666355103,-2.4986961231189664,-0.6647635736371611,2.8491387241536423,0.1484849524287304,0.1716322403354621,-0.3405226761392522,1.597501133849322,1.0031612083799928,0.9403303083639568,-0.8132996826653804,9.765164534984253,-0.7366890428847319,0.3048324807977739,-1.0777642609229816
0.28,-2.4942495926193216,-0.6555367644469223,2.8365283257558063,-0.0526054136362288,0.211811663024352,0.034171729382459,0.1228888526693133,0.2043073981970961,-0.3142898130728047,-2.4961264240763525,-0.6616280728858184,2.842728270636818,0.1884849530247769,0.2013466458721137,-0.3805226767352986,1.6601269408123374,1.1078591735326992,0.7988560155142238,-0.9436623218647188,9.56557150860408,-0.7250497458376111,0.2968228351346263,-1.0869350754477014
0.3,-2.4915504494404206,-0.6513064008822953,2.8300304374328147,-0.0441960386056855,0.2174400105118932,0.034649952052758,0.1460329112742062,0.2179560497264845,-0.3346390195148431,-2.4935567250337383,-0.6584925721344757,2.836317817119993,0.2284849536208233,0.2310610514087653,-0.4205226773313451,1.6852472667965468,1.1572029302446447,0.6824325764694189,-1.0174603221019234,9.56557150860408,-0.7151643820702339,0.2893712441320649,-1.0948199198692588
0.32,-2.488378602775594,-0.6468217200745124,2.8231124102514977,-0.0370039568700137,0.2226995285004668,0.0351012074344422,0.1701085033257334,0.2299867302864021,-0.3561826917549128,-2.488987025961322,-0.6538713511063003,2.8279073635733663,0.2684849542168698,0.260775456945417,-0.4605226779273915,1.7237323029939164,1.2037796025763574,0.6015340279958814,-1.077183612003482,9.5006263961086,-0.7061425952478195,0.28311956124596,-1.102000383685534
0.34,-2.48490940638419,-0.6423495511660953,2.8161376784645946,-0.0312531128760349,0.2273757142529854,0.035496459967193,0.1939547727882626,0.2403257202848379,-0.3769512850097217,-2.4844173268889054,-0.649250130078125,2.8194969100267397,0.3084849548129163,0.2904898624820686,-0.500522678523438,1.6634856080313736,1.1923134731264593,0.51694949992179,-1.0384296627404477,9.45385057206022,-0.6975728697846936,0.2775470834376856,-1.108602273102067
0.36,-2.4807585390830127,-0.6374325472126129,2.808366906726331,-0.0260669010125961,0.2319792627962163,0.0358865821814379,0.2199814664264535,0.2508341056354422,-0.3990636107969934,-2.478847627801588,-0.6438860489115334,2.8100864564652115,0.3484849554089627,0.3202042680187202,-0.5405226791194844,1.7865958525471557,1.301334681909544,0.5254192675302111,-1.105616289363584,9.453229009400276,-0.6894605625197745,0.2726891473454461,-1.11480643713135
0.38,-2.4760669433709057,-0.6323106808791873,2.80015191917413,-0.0214874273730162,0.2359456765905989,0.036270003693683,0.2479293794464452,0.2608010533800159,-0.4213413439154344,-2.472277928699369,-0.6377791076065256,2.799676002888782,0.3884849560050091,0.3499186735553718,-0.5805226797155308,1.855211094735968,1.3973956509995875,0.498347387228687,-1.11388665592205,9.465125037138025,-0.6819490689893107,0.2680018241392028,-1.120977136017762
0.4,-2.4707972175217305,-0.6269960302937908,2.791489962968533,-0.0173735227471346,0.238643492179235,0.0366602156774245,0.2775239085741525,0.2701459626545403,-0.4437360269766591,-2.463670474398584,-0.6192706282101865,2.779084851978359,0.3479293809365613,0.3138944979360137,-0.5213413454055505,1.913560368170098,1.479726456385365,0.467245463726218,-1.119734153061236,9.465125037138025,-0.6760090339791727,0.2642385133433618,-1.1256168464644258
0.42,-2.465182555965838,-0.6217266999857901,2.783021122168252,-0.0122367305492229,0.239392195938744,0.0371514155113037,0.3118796700778386,0.2829167178791483,-0.4465423099776662,-2.463670474398584,-0.6192706282101865,2.779084851978359,0.3479293809365613,0.3138944979360137,-0.5213413454055505,1.8379919489668288,1.7177880751843038,0.6385377612304011,-0.1403141500503552,9.475859851508176,-0.6715821586192222,0.2583639091848108,-1.1304732237992845
0.44,-2.4585742829347548,-0.6159735035737895,2.774039433237025,-0.0058617738632799,0.2380389389211994,0.037751149801777,0.3469613148001212,0.2915285413465383,-0.4516787792016041,-2.463670474398584,-0.6192706282101865,2.779084851978359,0.3479293809365613,0.3138944979360137,-0.5213413454055505,1.8243276953047716,1.7540822361141295,0.4305911733694989,-0.2568234611968922,10.665443172557389,-0.6721516250287377,0.2559990272626747,-1.1263083753382568
0.46,-2.451272848135634,-0.6100757506379503,2.7649172650466123,0.0001776446280554,0.2345537795331568,0.0383118504805789,0.3812869347193821,0.297770528460817,-0.460395048982304,-2.460191180589218,-0.6161316832308263,2.773871438524304,0.3679293812345846,0.3245131868472133,-0.5413413457035737,1.7980433426827662,1.7162809959630458,0.3120993557139351,-0.4358134890349974,10.4315405913394,-0.6751021934363495,0.2529528134871738,-1.1219982828966086
0.48,-2.443301123690637,-0.6040709201477854,2.755586290254353,0.0054690707452124,0.2287124489543632,0.0387793741592466,0.4136778749996004,0.302470206547888,-0.4721554518236734,-2.453232592970487,-0.6098537932721061,2.7634446116161926,0.407929381830631,0.3457505646696124,-0.5813413462996202,1.7389415324774828,1.6195470140109165,0.2349839043535528,-0.5880201420684683,10.217173459512196,-0.6798341828668126,0.2508477825047842,-1.116580212600219
0.5,-2.4347171265696783,-0.5979841587740035,2.7459961353779585,0.0099253191304372,0.2212153731623814,0.039133170752123,0.442729963254649,0.3060757187383437,-0.4861918495480309,-2.4462740053517558,-0.6035759033133858,2.753017784708081,0.4479293824266774,0.3669879424920116,-0.6213413468956667,1.6233021986147578,1.4526044127524256,0.1802756095227869,-0.7018198862178776,10.0365405100074,-0.6865185929267937,0.248775345313199,-1.1105131527960008
0.52,-2.426056049652278,-0.5921431428969678,2.7366056765942064,0.0133951968436938,0.2133080650295972,0.0393666898989235,0.4672461692220534,0.3087060749846176,-0.5015193983956624,-2.4373154177032217,-0.5962361444635456,2.740590957770168,0.4879293830227239,0.3882253203144107,-0.6613413474917131,1.45163432266449,1.2258102983702224,0.1315178123136917,-0.7663774423815717,9.734906946285264,-0.6938327394110011,0.2467364775856378,-1.1048696727625875
0.54,-2.416467433878024,-0.5859470240889537,2.726393785986561,0.0162921275968966,0.2048413982138577,0.0395203725463102,0.4900670317124435,0.3108523376763523,-0.5188915268373022,-2.428356830054688,-0.5888963856137054,2.728164130832255,0.5279293836187704,0.4094626981368099,-0.7013413480877596,1.4380447271730248,1.141043124519503,0.1073131345867367,-0.8686064220819911,9.734906946285264,-0.7007393953946965,0.2445645151298895,-1.100479298842693
0.56,-2.406444761204168,-0.5797089798824159,2.71582255357111,0.0185983384011112,0.1965827548235363,0.0396055261839869,0.5108419942284326,0.3128704291148766,-0.5373837527157548,-2.4183982423912536,-0.5810256923183051,2.71473730387944,0.5679293842148168,0.430700075959209,-0.741341348683806,1.3943046461719797,1.0387481257994546,0.1009045719262136,-0.924611293922628,9.641777825267129,-0.7073908629104008,0.2422635113192231,-1.096981198993793
0.58,-2.396027364757268,-0.5734336656620768,2.704868513109319,0.0204954650905859,0.1885871112420281,0.0396422734463756,0.5296593084850818,0.3145945711857317,-0.5570597109772439,-2.4074396547129178,-0.5726240645773449,2.7003104769117248,0.6079293848108632,0.4519374537816081,-0.7813413492798524,1.364008170083532,0.9408657128324616,0.0862071035427541,-0.983797913074458,9.565296085710544,-0.7133649466004269,0.2399623564622882,-1.0943927016154733
0.6,-2.385800222571868,-0.5674433894982915,2.694087251971653,0.0219885314889977,0.1813100220926998,0.0396432543051873,0.5457860313369473,0.3158929204776384,-0.5767997296008233,-2.369544399333014,-0.5577039371027902,2.677015527560457,0.6296593099751979,0.3523174977725981,-0.6570597124673601,1.2761516721024315,0.8063361425932725,0.0649174645953376,-0.9870009311789664,9.49077620132175,-0.7200861399886032,0.237982959020184,-1.0910203459812382
0.62,-2.374712217877952,-0.56105485831356,2.68258482357006,0.0253735721375258,0.1751927855091371,0.0397839010329262,0.5622005460790506,0.3217448158068297,-0.5710883212837822,-2.369544399333014,-0.5577039371027902,2.677015527560457,0.6296593099751979,0.3523174977725981,-0.6570597124673601,0.9169257850645592,0.8207257371051657,0.2925947664595613,0.2855704158520544,9.4184392041725,-0.7222513597487744,0.2317230933726498,-1.0944587797539784
0.64,-2.363322502460233,-0.5546076184277043,2.6711967612092944,0.0304668317942844,0.1723834661716145,0.0400961340435207,0.5759405272741637,0.3224391363625911,-0.5684615118999025,-2.369544399333014,-0.5577039371027902,2.677015527560457,0.6296593099751979,0.3523174977725981,-0.6570597124673601,0.7003022415633359,0.6869990597556552,0.0347160277880731,0.1313404691939856,11.0993688084709,-0.7262746341076406,0.2309234925867533,-1.0875124602065935
0.66,-2.3516590438733216,-0.5481777462040616,2.659790986283301,0.0353973288047352,0.1727143302288071,0.040473066181979,0.5900665158862576,0.3205800323744046,-0.5722438451467822,-2.3632478062332622,-0.5541807621250642,2.670444930435783,0.6496593102732211,0.3598620830899713,-0.6770597127653832,0.7370648999551351,0.7062994306046955,-0.0929551994093252,-0.1891166623439855,10.684087203582749,-0.7266875233556654,0.2277742120961227,-1.0858545299850255
0.68,-2.3403033953900785,-0.5421174056289657,2.648840732499784,0.0393697538702669,0.1747748729369609,0.0408377546345876,0.6047467484929829,0.3176066214450968,-0.5802315132793954,-2.350654620033758,-0.5471344121696122,2.657303736186436,0.6896593108692676,0.3749512537247179,-0.7170597133614297,0.8487538573385894,0.7340116303362676,-0.1486705464653903,-0.3993834066306601,10.3231623337806,-0.7239912500328921,0.2236767551151721,-1.08835208714599
0.7000000000000001,-2.328035669266718,-0.535805402522784,2.637114925744385,0.0426754952950089,0.1778779676487769,0.0411973320875335,0.6213910096500115,0.3138821670268651,-0.5920906318091869,-2.338061433834254,-0.5400880622141603,2.6441625419370887,0.729659311465314,0.3900404243594644,-0.7570597139574762,1.0386790679518128,0.8322130578514275,-0.1862227209115829,-0.5929559264895745,10.069721727195429,-0.719375944568021,0.2197563888481828,-1.0928996626401348
0.72,-2.315422028155019,-0.5295720446492636,2.625122174108549,0.0450958266577513,0.181281793331596,0.0415083154615015,0.6392349402941808,0.3097884294879182,-0.6067039811262663,-2.323468247604948,-0.532287253726971,2.629021347657939,0.7696593120613605,0.405129594994211,-0.7970597145535226,1.171232818587637,0.8921965322084668,-0.2046868769473492,-0.7306674658539736,9.748493799208518,-0.713792915097668,0.2161692623365258,-1.098598766451537
0.74,-2.302438159245263,-0.5234252223797499,2.612823481470175,0.0466206310420094,0.1844791153016088,0.0417457005580729,0.6582965846546179,0.3052700874819776,-0.6224356854815236,-2.308875061375641,-0.5244864452397817,2.6138801533787897,0.809659312657407,0.4202187656289575,-0.8370597151495691,1.2562326835897597,0.9530822180218556,-0.2259171002970267,-0.786585217762864,9.748493799208518,-0.7081924104649436,0.2133737427542138,-1.1043196718508648
0.76,-2.289735454997411,-0.5176710962404063,2.60084200385865,0.0472175338434507,0.1868657389164532,0.0418771827376607,0.6778163255999342,0.3007508805924776,-0.6379868830835208,-2.293281875131434,-0.5163084074867238,2.597738959084739,0.8496593132534533,0.4353079362637041,-0.8770597157456155,1.2681514739363005,0.975987047265814,-0.2259603444750013,-0.7775598800998595,9.713182532000246,-0.703017102437321,0.2111393369827107,-1.1098964285883948
0.78,-2.275956041640105,-0.5117086965988349,2.5879024816449667,0.046844741671262,0.1883042619079382,0.041888774875977,0.6990291610416487,0.2958046065253881,-0.6551779769212195,-2.276688688872325,-0.5077531404677972,2.5805977647757867,0.8896593138494998,0.4503971068984506,-0.917059716341662,1.3874290269781202,1.0606417720857242,-0.2473137033544736,-0.8595546918849339,9.693944718458624,-0.6991214120740978,0.2101297974108772,-1.1142306527632289
0.8,-2.2617468873606765,-0.5058457227495987,2.574611064470025,0.0452977061636041,0.1884072037791482,0.0417502699895327,0.7207580046757058,0.2908496473214481,-0.673123085365959,-2.241004583588023,-0.4969184662725655,2.5551435827989057,0.7990291625317648,0.3159845189733175,-0.7551779784113356,1.4306652154500337,1.086442181702857,-0.2477479601970006,-0.8972554222369755,9.623661875600192,-0.6967066939462163,0.2101861482882643,-1.1175914724958569
0.8200000000000001,-2.247036634725396,-0.49997729238971,2.5612694878049,0.0461746761209901,0.1866521023193471,0.0416914123247936,0.7490414492141516,0.2948961053296006,-0.6601440132283232,-2.241004583588023,-0.4969184662725655,2.5551435827989057,0.7990291625317648,0.3159845189733175,-0.7551779784113356,1.5690629137522132,1.414172226922289,0.2023229004076226,0.6489536068817914,11.5298335805046,-0.694432759485199,0.2056322656446656,-1.124187662124897
0.84,-2.232548414305939,-0.4943714677450121,2.548804753315137,0.0505061557790626,0.1829925905438833,0.0417663719965051,0.7744672181175335,0.2941409327589343,-0.6526578204658979,-2.241004583588023,-0.4969184662725655,2.5551435827989057,0.7990291625317648,0.3159845189733175,-0.7551779784113356,1.325785702909652,1.2712884451690942,-0.0377586285333131,0.3743096381212618,11.069384413589432,-0.7019572554977297,0.2070240853144902,-1.1125414831999283
0.86,-2.2167984623274104,-0.4885402868514705,2.535774507353728,0.0558516424688757,0.1771337780254184,0.0417554089630812,0.7987231926750178,0.2888920145568465,-0.6509827623215054,-2.2330142919627054,-0.4937586210828323,2.5475918030147926,0.819029162829788,0.3200205014629034,-0.7751779787093588,1.2436933543006383,1.2127987278742147,-0.2624459101043891,0.0837529072196252,11.069384413589432,-0.7113390337365555,0.2062789499227653,-1.1013841626852865
0.88,-2.2006026125869766,-0.4828393375342958,2.5227176948527235,0.0606711984299897,0.1698356753294807,0.0415740206468873,0.8192699605416529,0.2815265946543993,-0.654964663287184,-2.21703370871207,-0.4874389307033659,2.532488243446566,0.8590291634258345,0.3280924664420752,-0.8151779793054053,1.1093631229282268,1.027338393331756,-0.3682709951223634,-0.199095048283926,10.321146125063931,-0.720810744890294,0.2041706888902682,-1.0924191665169336
0.9,-2.184034673383135,-0.4772990135795188,2.5095245060150098,0.0645011832984877,0.1618304975646681,0.0412299325206963,0.836206833334223,0.273086154104041,-0.6640784099142468,-2.201053125461435,-0.4811192403238996,2.517384683878339,0.8990291640218809,0.3361644314212469,-0.8551779799014517,1.0501893570424952,0.8468436396285028,-0.4220220275179126,-0.455687331353144,10.321146125063931,-0.7291745887563695,0.2015192507766375,-1.0860752231525128
0.92,-2.168013238062747,-0.4721976347599924,2.496783223810304,0.0671750683439028,0.154151493972014,0.0407926190447612,0.8492261261022587,0.2645462322331698,-0.676610601851462,-2.183072542180997,-0.4743959516954746,2.5002811242803102,0.9390291646179274,0.3442363964004186,-0.8951779804974982,0.9993599007509916,0.6509646384017853,-0.4269960935435579,-0.626609596860761,10.0321481843921,-0.7371520162402998,0.1984379678985536,-1.0813153466017564
0.94,-2.150909685442831,-0.4670052685240676,2.4830908502545914,0.0690543721203837,0.1465019427237359,0.040266997507679,0.8602561616801133,0.2552900735253602,-0.6920469117504982,-2.16509195890056,-0.4676726630670497,2.483177564682281,0.979029165213974,0.3523083613795904,-0.9351779810935448,1.0554830910203854,0.5515017788927323,-0.4628079353904801,-0.7718154949518052,9.793844085867022,-0.7430706979687349,0.1946664048035332,-1.0798621838894498
0.96,-2.133603853488962,-0.4620023025551389,2.4690692719253424,0.0699690303425596,0.1395094750941715,0.0397003672836415,0.869630827486298,0.245548948261529,-0.7094054926396964,-2.146111375605221,-0.4607475753141455,2.4650740050693507,1.0190291658100203,0.3603803263587621,-0.9751779816895912,1.1001070525977694,0.4687332903092367,-0.4870562631915626,-0.8679290444599141,9.661814170877731,-0.7473867632419541,0.1905695745874579,-1.0809708215055265
0.98,-2.1161264250168776,-0.4572015675459004,2.4546803385731715,0.0696209107880929,0.1331275848754594,0.0390807047836018,0.8775263093206909,0.235195490124226,-0.7286008929678895,-2.126130792294981,-0.4536206884367619,2.44597044544152,1.0590291664060667,0.3684522913379339,-1.0151779822856375,1.1597371712566047,0.3947740917196407,-0.5176729068651492,-0.9597700164096556,9.558212668733177,-0.7504294685113022,0.1872183936444715,-1.083408865189978
1.0,-2.099389338383379,-0.4528360229483735,2.4406404501022183,0.067842656654155,0.1276123965483587,0.038433626455832,0.8837872373798669,0.2250573016524241,-0.74830507673153,-2.072250109550843,-0.4454417930396891,2.418250293924777,0.977526310810807,0.2427770011709634,-0.8286008944580057,1.151343718707913,0.3130464029587998,-0.5069094235900934,-0.9852091881820236,9.46634157718745,-0.7533548634953353,0.1853128690384909,-1.0858403900602105
1.02,-2.081639372700109,-0.4483815061224918,2.4257634633946523,0.0670242099532708,0.1230963984228658,0.0379226634153609,0.8908369054874858,0.2203233418615721,-0.736774613941874,-2.072250109550843,-0.4454417930396891,2.418250293924777,0.977526310810807,0.2427770011709634,-0.8286008944580057,0.7159954047908149,0.3524834053809489,-0.236697989542603,0.5765231394827985,9.385414971547108,-0.7521739593714146,0.1798803237793827,-1.094790874477425
1.04,-2.063778169197395,-0.444043784787922,2.4111108710863887,0.0688364085969149,0.1213685549346084,0.0377763214784715,0.895105586507032,0.2134864931705547,-0.7292548504383431,-2.072250109550843,-0.4454417930396891,2.418250293924777,0.977526310810807,0.2427770011709634,-0.8286008944580057,0.5511600965679903,0.2134340509773069,-0.341842434550868,0.3759881751765448,10.95555323841927,-0.7561422435788389,0.1811407212008182,-1.0882733769763224
1.06,-2.0467295974119084,-0.440070542514945,2.397263523405431,0.0716586636547505,0.1222939546416728,0.0378827313659564,0.8995716978040126,0.2048936111461363,-0.7287472411466883,-2.062474846442735,-0.4430140230279795,2.4099642849801968,0.9975263111088302,0.2442933033803109,-0.8486008947560288,0.4848748261035124,0.22330556484903,-0.429644101220919,0.0253804645827415,10.95555323841927,-0.7555300451972534,0.1787710652100477,-1.0882093637229842
1.08,-2.02867918907644,-0.4360871985897606,2.3826446067722062,0.0744873671695485,0.1250568634523338,0.0381100997388063,0.9054445006579332,0.1939830591224551,-0.7334021475292637,-2.042924320226519,-0.4381584830045602,2.393392267091037,1.0375263117048767,0.2473259077990059,-0.8886008953520753,0.661812118831722,0.2936401426960333,-0.5455276011840593,-0.2327453191287687,10.540388191121565,-0.7513628172367398,0.1744668206516675,-1.0932514205125683
1.1,-2.010497180255181,-0.4323313697005222,2.3678878013360576,0.0765707262477946,0.128928939068341,0.0383682401534045,0.9126451037933276,0.1823252214292288,-0.7422058740665708,-2.0233737940103027,-0.4333029429811409,2.376820249201877,1.077526312300923,0.2503585122177009,-0.9286008959481218,0.8143394042700265,0.3600301567697139,-0.5828918846613185,-0.4401863268653549,10.243363093448352,-0.7450638428642046,0.1698389437741463,-1.1009758172693764
1.12,-1.9921572608839788,-0.4288153449907855,2.3529185946119893,0.0776142217743412,0.1333349272041569,0.0385940158480174,0.9211543051908768,0.1700565476927618,-0.7542721898171225,-2.0018232677642844,-0.4282957727367869,2.3582482312829143,1.1175263128969697,0.2533911166363958,-0.9686008965441684,0.9598474351009396,0.4254600698774591,-0.6134336868233503,-0.6033157875275863,10.030363272140676,-0.738423892571545,0.1664156038683359,-1.1085525234908564
1.14,-1.9745625087985776,-0.4257089423583294,2.338463971372699,0.0773033886371081,0.1376228623710207,0.0387214999038698,0.9306039347713748,0.1577559860155925,-0.7666646164446762,-1.9802727415182655,-0.4232886024924329,2.339676213363952,1.157526313493016,0.2564237210550908,-1.0086008971402147,0.9926877083224288,0.472481479024911,-0.615028083858464,-0.6196213313776844,9.877817215105097,-0.7314358693857785,0.1642964781135779,-1.1161290439037186
1.16,-1.955830164258004,-0.422693156699398,2.3229869244579318,0.0752633688955541,0.1418086577375272,0.0387016874770076,0.9422096262051464,0.1446563866353392,-0.7804158232923786,-1.957722215257346,-0.4182056171376115,2.3201041954300883,1.1975263140890624,0.2594563254737858,-1.048600897736261,1.1128648473055285,0.5802845716885663,-0.6549799690126659,-0.6875603423851184,9.818080014024416,-0.7252135518815468,0.164274022398755,-1.1225246728090688
1.18,-1.9368500803227675,-0.4199286408712455,2.3072285001604405,0.0714591588771288,0.1451695332178562,0.0384839442194063,0.955162871979909,0.1331048322318554,-0.7947042524634375,-1.9341716889815253,-0.4130468166723227,2.2995321774813235,1.2375263146851088,0.2624889298924808,-1.0886008983323074,1.1240375810158885,0.6476622887381378,-0.5775777201741868,-0.714421458552944,9.793714727939005,-0.7202758808175194,0.1658258672286842,-1.1278818096248269
1.2,-1.9185712089407172,-0.4174927852735889,2.291987519531744,0.0671012521948113,0.147330398335009,0.0381411764995702,0.9681905725588326,0.124160183296915,-0.8088816877302036,-1.889091936723772,-0.4132733992596528,2.2674932875372686,1.0551628734700251,0.148439061216867,-0.8947042539535536,1.0615170720327116,0.6513850289461776,-0.4472324467470187,-0.708871763338309,9.793714727939005,-0.7164057456479677,0.1690410687586274,-1.1316593741862149
1.22,-1.8989958073274589,-0.4150884610634187,2.2759495016740696,0.0630785513908636,0.1478430789163465,0.0376974330335016,0.9888385135197764,0.1164120899641609,-0.7926160101997798,-1.889091936723772,-0.4132733992596528,2.2674932875372686,1.0551628734700251,0.148439061216867,-0.8947042539535536,1.370166670284514,1.0323970480471845,-0.3874046666377077,0.8132838765211925,9.758496371273395,-0.7079031349934702,0.1644117487264976,-1.1482311397434228
1.24,-1.879010564756495,-0.4128496952108835,2.260241098870178,0.0596788416255169,0.1460683372776635,0.0371562590393267,1.0084169862902903,0.1080050967857013,-0.7795148737273682,-1.889091936723772,-0.4132733992596528,2.2674932875372686,1.0551628734700251,0.148439061216867,-0.8947042539535536,1.2506337465433173,0.9789236385257138,-0.4203496589229811,0.6550568236205812,11.35484729471318,-0.7130212088394908,0.1726984602694015,-1.138264937628258
1.26,-1.8586523600476224,-0.4107746421732201,2.2447124932947315,0.0561393479155769,0.1421550721635993,0.0364916764607201,1.0262268285201053,0.100190723608952,-0.7739113902516068,-1.878540307989072,-0.4117890086474841,2.258546244997733,1.0751628737680483,0.1515059070138693,-0.9147042542515768,1.0119954736305898,0.8904921114907371,-0.3907186588374612,0.2801741737880669,11.35484729471318,-0.721576605465601,0.18083768380625,-1.1258239254372095
1.28,-1.839006196551596,-0.4089379218266459,2.2300066354533143,0.0525025113420644,0.1365694150760696,0.0357597617730104,1.0405019345515176,0.0937722496025126,-0.7742812549346568,-1.8574370505196716,-0.4088202274231468,2.2406521599186617,1.115162874364095,0.157639598607874,-0.9547042548476232,0.7828030733574882,0.7137553015706177,-0.3209237003219712,-0.0184932341525001,10.90148295061408,-0.73144092051523,0.1888662433849662,-1.1131075399257502
1.3,-1.81807243229683,-0.4071232854361569,2.214469233185404,0.0484565284646144,0.1295540651014688,0.0349495978931063,1.0517839849861843,0.0882300147921185,-0.7796331483876259,-1.8363337930502708,-0.4058514461988094,2.2227580748395908,1.1551628749601413,0.1637732902018786,-0.9947042554436696,0.6830881938590351,0.564102521733334,-0.2771117405197039,-0.2675946726484524,10.526222157627672,-0.7411985284689458,0.1954600910218395,-1.1024325727220554
1.32,-1.796949507394715,-0.4054071390271555,2.1987749508898364,0.0442867559464732,0.1222072916488128,0.0341570597819623,1.0596851892705283,0.083838031974826,-0.7896960303725565,-1.813230535551068,-0.4025759803947718,2.202863989730717,1.1951628755561876,0.1699069817958832,-1.0347042560397162,0.6763507522967863,0.3950602142172021,-0.2195991408646264,-0.503144099246533,10.205814963196644,-0.7497308830143574,0.2003646746719668,-1.09458132326977
1.34,-1.7756996360366648,-0.4037674671362694,2.1828449605528,0.0400871678439075,0.1151694361344934,0.0334205038494006,1.06477539617758,0.0805057067417213,-0.8027606549381812,-1.7901272780518651,-0.3993005145907343,2.182969904621844,1.2351628761522342,0.1760406733898878,-1.0747042566357627,0.7205883236226256,0.2545103453525876,-0.1666162616552363,-0.6532312282812314,9.92871787306376,-0.756875553594763,0.2039536303557906,-1.089742984785371
1.36,-1.7554349777130545,-0.402261194499361,2.167448783639756,0.0361845363045106,0.1090228876156991,0.0327883574458003,1.0679885676725491,0.0783087585726588,-0.817221917890916,-1.766024020537761,-0.3958717064968466,2.1620758194980696,1.2751628767482803,0.1821743649838925,-1.114704257231809,0.7487976671000159,0.1606585747484512,-0.1098474084531259,-0.7230631476367433,9.77239823939999,-0.7629006282262977,0.2067346287756714,-1.0866582277239274
1.38,-1.7340546334591818,-0.4007112124504985,2.1509231476218504,0.0322518725543138,0.1031796523710946,0.0321964750293456,1.0697764300633232,0.0768839626579448,-0.834571604163968,-1.740920763008756,-0.3922895561131088,2.140181734359394,1.315162877344327,0.1883080565778971,-1.1547042578278557,0.8749830128354767,0.0893931195387054,-0.0712397957356995,-0.8674843136526,9.530533361617929,-0.7676794767564213,0.2089544606895936,-1.0848072998864675
1.4,-1.713724751016421,-0.3992573983891228,2.134884674312208,0.0287257840048538,0.0983254104282787,0.0317042352155158,1.0700283564672353,0.0762672488932642,-0.8528180206202657,-1.6805658119560156,-0.3968670143176013,2.109194567413652,1.1549588733244698,0.0941872655420466,-0.8788910587445135,0.9129286887227068,0.0125963201956014,-0.0308356882340293,-0.9123208228148828,9.43057898576535,-0.7714055969482496,0.2106292750528636,-1.0845382893467344
1.42,-1.6922491367618535,-0.3977089896131867,2.1180818923961597,0.0264399320685745,0.0929336611458934,0.0313056067596924,1.077611228492383,0.078061974949111,-0.824070347900413,-1.6805658119560156,-0.3968670143176013,2.109194567413652,1.1549588733244698,0.0941872655420466,-0.8788910587445135,1.4892528970704295,0.3791436012573923,0.0897363027923418,1.437383635992634,9.43057898576535,-0.7654091337410088,0.1997885878635778,-1.1086795714785445
1.44,-1.67063992342045,-0.3961442204757851,2.101890696064783,0.0257125224465176,0.0863885069886118,0.0310000136261122,1.0825238690099013,0.0782732370751434,-0.7970786127961664,-1.6805658119560156,-0.3968670143176013,2.109194567413652,1.1549588733244698,0.0941872655420466,-0.8788910587445135,1.3717984841787747,0.2456320258759081,0.0105631063016205,1.3495867552123286,12.10628983143215,-0.7789008615178682,0.2083565377743545,-1.0868692181388473
1.46,-1.64897367474526,-0.3945814308711063,2.086147185132976,0.0256713235457029,0.0795773362369615,0.0307438320754553,1.0836506828238115,0.0780026974495674,-0.7785525821877296,-1.669016223222771,-0.3959251416621808,2.100405656826207,1.1719953619766992,0.097647926118867,-0.8877549496606225,0.928111942554566,0.056340690695511,-0.013526981278801,0.9263015304218414,12.10628983143215,-0.7916358394495279,0.2149688617910634,-1.067227594708956
1.48,-1.6284012980673417,-0.3931044568793377,2.0714689938131494,0.0259434909301228,0.0735194977441664,0.0305375656382473,1.0817014180312907,0.0775094094663217,-0.7674095213836927,-1.6459170457562815,-0.3940413963513399,2.082827835651317,1.2060683392811578,0.1045692472725078,-0.9054827314928408,0.566150974449925,-0.0974632396260388,-0.0246643991622851,0.5571530402018465,11.560298237780444,-0.8025625540570772,0.2193665707858084,-1.0516596211990532
1.5,-1.606815262745699,-0.3915622710688792,2.056193894364686,0.0263585188491931,0.0682006226742607,0.0303608881360641,1.0768076697861952,0.0767521847839608,-0.7609111242612008,-1.622817868289792,-0.392157651040499,2.0652500144764265,1.2401413165856163,0.1114905684261485,-0.9232105133250588,0.4085074242518811,-0.2446874122547737,-0.0378612341180452,0.3249198561245947,11.12825261316084,-0.8105215457562287,0.2217130256837904,-1.041234695621365
1.52,-1.585356348073817,-0.3900382982543485,2.040999373634788,0.0267280129451067,0.0647706242906351,0.0302356001338642,1.0691949747740566,0.075706308487725,-0.7590466611589016,-1.5980150419580796,-0.389927839671976,2.0467858042099256,1.274214293890075,0.1184118895797892,-0.940938295157277,0.3953580821062851,-0.3806347506069341,-0.0522938148117893,0.0932231551149576,10.54207501057772,-0.8150728058082148,0.2225411847537913,-1.0358360009578955
1.54,-1.5640685492113615,-0.3885392335252372,2.0258205732100985,0.0268652964406537,0.0640175917701892,0.0301719739840088,1.0603270037112276,0.0743216269043618,-0.7588979166952984,-1.5732122156263673,-0.387698028303453,2.0283215939434243,1.3082872711945337,0.12533321073343,-0.9586660769894952,0.448832871941022,-0.4433985531414497,-0.0692340791681622,0.0074372231801622,10.54207501057772,-0.8156585972120521,0.2215877833081872,-1.0365242726365342
1.56,-1.5439958543786,-0.387141643319216,2.011398345285948,0.0266772501129536,0.0654050404592511,0.0301525079960261,1.053268573770515,0.0729199367892394,-0.7592347099949571,-1.5475575648620437,-0.3852951839060891,2.009414189131118,1.3423602484989925,0.1322545318870708,-0.9763938588217134,0.3602068785207846,-0.3529214970356298,-0.0700845057561204,-0.0168396649829372,10.431438273009917,-0.8137577753132527,0.2204717492740656,-1.0398131557160033
1.58,-1.522994680134541,-0.385699093034448,1.9962067073960048,0.0260766344426307,0.0682818883537392,0.0301483204321258,1.0474273390015858,0.0714610415594785,-0.759928725005016,-1.5210510896651084,-0.3827193064798841,1.9900635897730057,1.3764332258034508,0.1391758530407115,-0.9941216406539316,0.3030266314672402,-0.2920617384464585,-0.0729447614880439,-0.0347007505029417,10.431438273009917,-0.8102804601069244,0.2198803036381361,-1.044092533575715
1.6,-1.5020933816453774,-0.384284805148786,1.980997767181544,0.0249944986723953,0.0719925852524942,0.0301376075956483,1.04317747495241,0.0701250407793769,-0.7609354656762669,-1.470623313184462,-0.382126040956474,1.958210271145754,1.109087040170123,0.0917889635162561,-0.752592462391481,0.2283624821422128,-0.2124932024587966,-0.0668000390050806,-0.0503370335625474,10.408757426125703,-0.8061591708435579,0.2199064536329047,-1.048482367345823
1.62,-1.4821995446565537,-0.3829639919416396,1.966827229850044,0.0236827101443476,0.0733260189648475,0.0300578273120298,1.0513508802857543,0.0689704776743953,-0.7288883504617745,-1.470623313184462,-0.382126040956474,1.958210271145754,1.109087040170123,0.0917889635162561,-0.752592462391481,1.6546564328263744,0.4086702666672215,-0.0577281552490802,1.602355760724622,10.392277992948038,-0.8012249314680389,0.2117670245979421,-1.06570674642134
1.64,-1.461088603568531,-0.3815968921970663,1.9526119121975776,0.0220611718299697,0.0693808979991193,0.0298409789709048,1.0585748466045135,0.0678876866258975,-0.6946764250513199,-1.470623313184462,-0.382126040956474,1.958210271145754,1.109087040170123,0.0917889635162561,-0.752592462391481,1.749152627788512,0.3611983159379606,-0.0541395524248866,1.7105962705227296,12.865915729040353,-0.8133384882885977,0.2227572217590812,-1.041334910778451
1.66,-1.4398896932144924,-0.3802461236236015,1.939018332287721,0.0200690829054699,0.0617576228731146,0.0295394460952602,1.06035809279916,0.0674541575940964,-0.6663164917997907,-1.4595324427827607,-0.3812081513213115,1.9506843465218395,1.1214189804038304,0.0958545479076116,-0.7511252098687741,1.4209624629483768,0.0891623097323268,-0.0216764515900552,1.4179966625764595,12.544638280656727,-0.8282236595679406,0.2330966765116891,-1.0158350111483472
1.68,-1.4187137371239174,-0.3788931479144021,1.9259351542356664,0.0179086975958306,0.052466975405309,0.0292247490518328,1.0567401988516525,0.0679831185346616,-0.6433649593974011,-1.437350701979358,-0.3793723720509864,1.935632497274009,1.1460828608712452,0.1039857166903226,-0.74819070482336,1.162047541959875,-0.1808946973753888,0.0264480470282567,1.147576620119478,12.123110857902248,-0.8423996712523182,0.2414768144669623,-0.993469007960839
1.7,-1.3987101942674025,-0.3775902007335652,1.9138853295261329,0.0158470423786757,0.0435050921451386,0.0289563344483522,1.048872519980898,0.0692113329521437,-0.6261479717616334,-1.4151689611759557,-0.3775365927806612,1.92058064802618,1.17074674133866,0.1121168854730336,-0.7452561997779461,0.9484639486016334,-0.3933839435377062,0.0614107208741047,0.8608493817883867,11.749205181087746,-0.8558993962137289,0.248526776674694,-0.9733361639898708
1.72,-1.3778548254916343,-0.376186726541057,1.901517580930152,0.0137515666107984,0.0349883554598703,0.0287284998801884,1.0368939482678068,0.0711287877880972,-0.6116800290954401,-1.3917540263491823,-0.3752942550712005,1.905675524030621,1.195410621806075,0.1202480542557447,-0.7423216947325322,0.9440394302223976,-0.5989285856545679,0.0958727417976784,0.7233971333096667,11.43506029729997,-0.8671165228214521,0.2538764967526629,-0.9573265497254791
1.74,-1.3572753380958325,-0.3747386521568036,1.889414469936983,0.0117987578604466,0.0282934920120509,0.0285678753051542,1.0215877949005014,0.0736053884622361,-0.5993255852028407,-1.3683390915224092,-0.3730519173617399,1.890770400035062,1.2200745022734898,0.1283792230384557,-0.7393871896871181,0.991267075134147,-0.7653076683652671,0.123830033706946,0.617722194629966,11.19839112851696,-0.8753712510746702,0.2578089519529143,-0.9458097844845086
1.76,-1.337030166350949,-0.3732344506470783,1.877545470820369,0.0100850170786714,0.0242550870404682,0.0284814079042816,1.003659435571302,0.0766578779401838,-0.5881850467570121,-1.3443075596839509,-0.3706063004327115,1.8759386386656385,1.2447383827409046,0.1365103918211667,-0.7364526846417042,1.0663669128316713,-0.8964179664599725,0.1526244738973822,0.5570269222914315,11.040824870618051,-0.8803848126515315,0.2606946536248136,-0.9384396104266932
1.78,-1.318143151277014,-0.3717441082753512,1.866469281985507,0.0087620583845633,0.0234679059752301,0.028469121720491,0.9857483490994348,0.080048991440105,-0.5782553107763735,-1.3196594308338063,-0.3679574042841152,1.8611802399223505,1.2694022632083195,0.1446415606038777,-0.7335181795962902,1.0379141655469906,-0.8955543235933616,0.1695556749960587,0.496486799031931,10.992063022235923,-0.882554260239595,0.2622360040289513,-0.9354453510220928
1.8,-1.2986150282733178,-0.3701005935211033,1.8550134182671416,0.0078070697937387,0.0253471449155518,0.0285234970908947,0.9683044148258376,0.0841226357057665,-0.5678380604578062,-1.268855733822042,-0.3677416587033459,1.8375565164466885,1.0318744390895738,0.1163065005822654,-0.5721370392765013,1.036103909779831,-0.8721967136798514,0.2036822132830747,0.5208625159283664,10.975675174259775,-0.882001836253139,0.2632673370153303,-0.9353290147657732
1.82,-1.27936886084872,-0.3684014042669444,1.8438721552907256,0.0064724548307058,0.0278140305464611,0.0285669260389588,0.9572635199078994,0.085821049366137,-0.5462467678872587,-1.268855733822042,-0.3677416587033459,1.8375565164466885,1.0318744390895738,0.1163065005822654,-0.5721370392765013,1.2154936079816188,-0.552044745896918,0.0849206830185266,1.079564628527374,10.975675174259775,-0.8810497248212966,0.2627306471208919,-0.9383042924280356
1.84,-1.2603446653561223,-0.3666552344601539,1.8331666294308415,0.0042525352848471,0.0293955967989901,0.0285534350855411,0.9456772971358602,0.088998290462128,-0.5254291922018623,-1.268855733822042,-0.3677416587033459,1.8375565164466885,1.0318744390895738,0.1163065005822654,-0.5721370392765013,1.2017766811294197,-0.5793111386019567,0.1588620547995523,1.0408787842698164,11.699506447684143,-0.8833785671882987,0.2682791867568742,-0.9295264691851776
1.86,-1.242493503290951,-0.3649221392795309,1.8233604569699469,0.0019628998989438,0.0307078257387379,0.0285383045281664,0.934024031569905,0.0933532493049885,-0.5078186542138434,-1.2585369894311464,-0.3665785936975233,1.8318351460539235,1.0410996570876017,0.1235580024106975,-0.5709133849765269,1.0780715573434172,-0.5826632782977625,0.217747942143022,0.8805268994009463,11.563303613586868,-0.8857936275673423,0.2743168811808975,-0.920243377487522
1.88,-1.2239455387005758,-0.3629986298793627,1.8133819724201643,-0.0003524962865778,0.032282883745625,0.0285415374842373,0.9214510619932488,0.0988208056708921,-0.4910204184742114,-1.237899500649355,-0.364252463685878,1.8203924052683933,1.0595500930836572,0.1380610060675616,-0.568466076376578,1.084152273154127,-0.6286484788328106,0.2733778182951805,0.8399117869815981,11.4145942348905,-0.8875806440391947,0.2797420198407125,-0.9124258944313028
1.9,-1.2056503553418991,-0.3609571825221155,1.803720548711342,-0.0024302597056541,0.0343199591983695,0.0285732746864993,0.908839806218331,0.1050444996839314,-0.4759354843522383,-1.2172620118675634,-0.3619263336742327,1.8089496644828635,1.0780005290797128,0.1525640097244258,-0.5660187677766291,1.0311806059713875,-0.6305627887458864,0.3111847006519667,0.7542467060986574,11.192408113942292,-0.8886094720705133,0.2845656030369917,-0.9060443141507571
1.92,-1.187604385930863,-0.3587848428238983,1.7943476285130169,-0.0042014379084011,0.0369269421366158,0.0286363548406391,0.8965541173242185,0.1118459353531744,-0.4620909558362643,-1.1957020012859692,-0.3588750534797442,1.7976292891273309,1.0964509650757683,0.16706701338129,-0.5635714591766802,0.9859876375941382,-0.6142844447056262,0.3400717834621487,0.6922264257987004,11.11188706457324,-0.8888639029284293,0.2886298417249484,-0.9012230561535068
1.94,-1.1706825580687277,-0.3565898887204024,1.7856949447016677,-0.0055536820559115,0.0399339488863331,0.028727064161715,0.8854614462763106,0.1188357544109513,-0.4493937985383766,-1.1741419907043749,-0.3558237732852556,1.7863089137717982,1.114901401071824,0.1815700170381542,-0.5611241505767313,0.9125824961131696,-0.5546335523953949,0.3494909528888444,0.6348578648943837,11.11188706457324,-0.8885203723044635,0.2923565297553147,-0.8972745327061808
1.96,-1.1530866798778994,-0.3541276111389558,1.7768452561540942,-0.0064348158668023,0.0435062032857242,0.0288685694361632,0.8748544213744378,0.1269988755974347,-0.4362440964728977,-1.1521207192228793,-0.3524099179993455,1.7750497211312644,1.1333518370678797,0.1960730206950183,-0.5586768419767825,0.938163350895015,-0.530351245093641,0.4081560593241696,0.657485103273947,11.078865841338484,-0.8879435260911607,0.2956422496141551,-0.8936933182790042
1.98,-1.1356914055021945,-0.3514932413447458,1.768255070306996,-0.0064092040582376,0.047262540142065,0.0290839626661384,0.8653372474693031,0.1359025149172508,-0.423418562120986,-1.1296381868414822,-0.3486334876220138,1.7638517112057293,1.1518022730639352,0.2105760243518825,-0.5562295333768336,0.914256150772334,-0.4758586952567367,0.445181965990804,0.6412767175955819,11.031248728769242,-0.8872685674325351,0.2983751522038244,-0.8902039898978236
2.0,-1.1184751447794403,-0.3486767703034014,1.75991781610603,-0.0052054449062921,0.0510035751608443,0.0293955906516096,0.8568759592314942,0.1451354413228896,-0.4109355234840264,-1.0924245431287294,-0.3446981155988833,1.7470841422009469,0.9004955501042575,0.1630360840386115,-0.4024981364675284,0.884119027997721,-0.4230644118904447,0.4616463202819429,0.6241519318479827,11.031248728769242,-0.886653242644456,0.3002067558835181,-0.8870278020668199
2.02,-1.1022070362813063,-0.3457938550584722,1.7523411664213215,-0.0016738031983069,0.0526378711174975,0.0298794250307522,0.8560649113033068,0.1569445702704703,-0.3865520345214094,-1.0924245431287294,-0.3446981155988833,1.7470841422009469,0.9004955501042575,0.1630360840386115,-0.4024981364675284,1.3552378566440555,-0.0405523964093712,0.5904564473790327,1.2191744481308495,11.003403331384106,-0.8889501074649298,0.2977106003438484,-0.8849615352034134
2.04,-1.0851011829469597,-0.3425732362210148,1.7448782367406692,0.0039335742768861,0.0504480580655725,0.0305259876162509,0.8542644211354266,0.1641204856786525,-0.3611683969647268,-1.0924245431287294,-0.3446981155988833,1.7470841422009469,0.9004955501042575,0.1630360840386115,-0.4024981364675284,1.3219914734965654,-0.0900245083940098,0.3587957704091121,1.2691818778341302,11.89647518311358,-0.896346310090725,0.3003368781177674,-0.8684095524467429
2.06,-1.0680601644340566,-0.3392442905019399,1.737892227981252,0.0096250237365929,0.0453108243488759,0.0311449521335433,0.849436053048071,0.1683066781975195,-0.3388175345186616,-1.0834195876276869,-0.3430677547584972,1.743059160836271,0.9075272106312484,0.1684627978628837,-0.3983140513368369,1.162323533138406,-0.2414184043677769,0.2093096259433463,1.1175431223032606,11.741405792206024,-0.9058838258450148,0.3026981890109605,-0.8501185590036393
2.08,-1.0511613756580034,-0.3358534990842197,1.7313169500189705,0.014737834113254,0.0388121556853507,0.031677705639006,0.8404114293963134,0.1706164244524174,-0.3197856695948886,-1.0654096766256016,-0.339807033077725,1.735009198106921,0.9215905316852302,0.179316225511428,-0.3899458810754538,1.059469964527805,-0.4512311825878801,0.1154873127448968,0.9515932461886506,11.52367562589825,-0.9150242180233782,0.3041870423826837,-0.8342326127515989
2.1,-1.0353103972389608,-0.3326022327092912,1.7253960644693629,0.0188630084810384,0.0326839651234615,0.0321045714420731,0.8284582376096132,0.171619203831973,-0.3043898429755557,-1.0473997656235166,-0.3365463113969527,1.7269592353775702,0.935653852739212,0.1901696531599723,-0.3815777108140707,0.9758532646692524,-0.597659589335009,0.0501389689777809,0.7697913309666404,11.149597267452007,-0.9235783782113884,0.3050118052187719,-0.8203134310726231
2.12,-1.0189022484239418,-0.3291678965677005,1.7194584337520409,0.0224065772913761,0.0273376139643718,0.0324976192609486,0.8127678042478427,0.1718413005649701,-0.2902677975574051,-1.0286866885687322,-0.3327429183337533,1.7193276811612888,0.9497171737931938,0.2010230808085166,-0.3732095405526877,1.055546295563677,-0.7845216680885281,0.0111048366498556,0.7061022709075326,11.149597267452007,-0.9302437723480048,0.3054195290118214,-0.8096908774966215
2.14,-1.0028409138672372,-0.3257364537757214,1.7137875511440095,0.0251575910775048,0.0243254398805338,0.032877651119144,0.7940143488845107,0.1713924496813006,-0.2775716543949854,-1.0099736115139482,-0.3289395252705538,1.7116961269450073,0.9637804948471757,0.211876508457061,-0.3648413702913046,1.1325696517001844,-0.9376727681665976,-0.0224425441834763,0.6348071581209841,11.030428432688495,-0.9343692788874812,0.3051324920906472,-0.8035533711934498
2.16,-0.9871662289092866,-0.3223171371260153,1.70836139556859,0.027225411026025,0.0244650833916921,0.0332904587398443,0.7748343101976709,0.1706931895819239,-0.2656372847008401,-0.9909089514328144,-0.3248647965161407,1.7042737769852605,0.9778438159011572,0.2227299361056053,-0.3564732000299216,1.1300354294354973,-0.9590019343419908,-0.0349630049688354,0.5967184847072676,10.971413402853614,-0.935565477114534,0.303898298541669,-0.8027478013006771
2.18,-0.9726160063150796,-0.3190841440533764,1.7034263030725902,0.0286737248683459,0.0269565389098128,0.0337183250723505,0.7580359480802182,0.1697340582025559,-0.254419782117306,-0.9714927083253312,-0.3205187320705141,1.6970606312820482,0.9919071369551392,0.2335833637541496,-0.3481050297685385,1.011109869207535,-0.8399181058726335,-0.0479565689683991,0.560875129176705,10.919480775478403,-0.9345785367136002,0.3028333008464894,-0.8045896995922965
2.2,-0.9576240045904963,-0.3157040571340177,1.698463731417441,0.0296129312416598,0.0313093195574283,0.0341878838144636,0.7423318933946182,0.168359231386107,-0.2424068574203126,-0.9347142089110688,-0.3105974411432485,1.690705313966725,0.7945848866824273,0.188878516898802,-0.2430390407446014,0.9909816372153109,-0.7852027342799994,-0.0687413408224466,0.600646234849668,10.900031084201146,-0.932285011728958,0.3023009953358523,-0.8076642308509362
2.22,-0.942902932437834,-0.312322705689123,1.6937796216304108,0.0308558625087556,0.0360761290939686,0.0347012535221083,0.730725327567367,0.1696264375386755,-0.2264193387722255,-0.9347142089110688,-0.3105974411432485,1.690705313966725,0.7945848866824273,0.188878516898802,-0.2430390407446014,0.9898471274120528,-0.580328291362564,0.0633603076284267,0.7993759324043545,10.902396421748564,-0.9321075330439038,0.3024154407055301,-0.8074172829560782
2.24,-0.9284032877433728,-0.3089324588010232,1.6894126075711815,0.0327924020265494,0.0403561645734569,0.0352601953490731,0.7199127537253743,0.1692239144918383,-0.2110988965276051,-0.9347142089110688,-0.3105974411432485,1.690705313966725,0.7945848866824273,0.188878516898802,-0.2430390407446014,0.9378029223436668,-0.5406286920996317,-0.0201261523418622,0.7660221122310212,11.133258459638457,-0.9311307618826924,0.3034728683192959,-0.8061677584275972
2.26,-0.914822358335768,-0.305732648544289,1.685536177980827,0.0345358884902992,0.0441572024602607,0.035786908857726,0.7102871212379739,0.16768894105457,-0.1977006692134321,-0.9267683600442445,-0.3087086559742605,1.6882749235592789,0.8018946744028691,0.1927074086380513,-0.2407628924700605,0.8284344261887431,-0.4812816243700224,-0.0767486718634108,0.6699113657086488,11.065647602729769,-0.9305901661539766,0.3043317314638358,-0.8048412708830641
2.28,-0.9007170213052926,-0.3024030164927841,1.681721428963838,0.0359313728333539,0.0479636973520955,0.0363140369401633,0.7008483497304435,0.1653919905578866,-0.1845124901125994,-0.9108766623105958,-0.3049310856362845,1.683414142744387,0.8165142498437528,0.2003651921165497,-0.2362105959209787,0.818984824571281,-0.4719385753765182,-0.1148475248341704,0.6594089550416334,10.934322504817828,-0.9300733448258828,0.3052455268415483,-0.8037852538446599
2.3000000000000003,-0.8867929048397722,-0.2991263805368104,1.678159903786938,0.0365810888316501,0.0516198956385122,0.0367920043955555,0.6921331040048544,0.1624961277025305,-0.1722851923236775,-0.8949849645769473,-0.3011535152983084,1.6785533619294948,0.8311338252846364,0.2080229755950482,-0.2316582993718969,0.7646050303153351,-0.4357622862794563,-0.1447931427678059,0.6113648894460962,10.934322504817828,-0.9294542731545522,0.3064735014291253,-0.802975125170469
2.32,-0.87303532798183,-0.2959109601583614,1.6748351505811183,0.0362575919291239,0.0551384027298973,0.0372029372919254,0.6841517820064046,0.1593223883752703,-0.1607893973270509,-0.8783622880712546,-0.2969930557864075,1.6739201959420569,0.8457534007255201,0.2156807590735467,-0.2271060028228151,0.7175085796783256,-0.3990660999224904,-0.1586869663630113,0.5747897498313322,10.879378219367936,-0.9288227778012506,0.3081472774528029,-0.8022210013879937
2.34,-0.860106530743069,-0.2929142807597542,1.6718853915468213,0.0349222290799382,0.058345832629293,0.0375200112572008,0.6772457177193103,0.156407822991122,-0.1502751145148143,-0.8617396115655619,-0.2928325962745065,1.669287029954619,0.8603729761664037,0.2233385425520451,-0.2225537062737333,0.6456364270463039,-0.3453032143547141,-0.1457282692074166,0.5257141406118256,10.835315725726105,-0.9282559286112788,0.3106339198443928,-0.8011140252888147
2.36,-0.8466303379874959,-0.2898112741010811,1.6689936879613898,0.032506623316048,0.0615049642661199,0.0377774161234916,0.6707996272861287,0.1542766345734287,-0.1394483465990873,-0.8447514456738471,-0.2884806921756431,1.664767671380908,0.8749925516072873,0.2309963260305436,-0.2180014097246515,0.6389697751957473,-0.3223045216590781,-0.1065594208846609,0.5413383957863532,10.808561786512657,-0.9283472592857382,0.3140936090945771,-0.7987428565493779
2.38,-0.8332756629052982,-0.2867288562625667,1.6663152197849962,0.0296984255799652,0.0643217479515394,0.0379973952372174,0.6650237089721788,0.1541662651614033,-0.1289305611906666,-0.8273977903961102,-0.2839373434898172,1.6603621202209242,0.8896121270481709,0.238654109509042,-0.2134491131755697,0.5999942159598732,-0.2887959156974984,-0.005518470601272,0.5258892704210357,10.787641817736583,-0.9287919993914956,0.3179611484436196,-0.7955611272059168
2.4,-0.8206907093768173,-0.2837885894872715,1.6639621921198222,0.0272547101034087,0.0666255181245107,0.0382128794470415,0.6600167064136857,0.1552953072510419,-0.1192790542109244,-0.8000244774566893,-0.2790205430044966,1.6598686917254628,0.69363261226102,0.18349717441357,-0.1420748298449534,0.546572039261393,-0.2503501279246534,0.0564521044819285,0.4825753489871076,10.73475831095402,-0.9294687330889532,0.3220201060233903,-0.7918015189409676
2.42,-0.8075026319930841,-0.2806658248059,1.6616838470303887,0.0249685100146673,0.0673831912212214,0.0384199506013235,0.6590264295854821,0.156958030091596,-0.1090559058476318,-0.8000244774566893,-0.2790205430044966,1.6598686917254628,0.69363261226102,0.18349717441357,-0.1420748298449534,0.5202356627021796,-0.0495138414101814,0.0831361420277079,0.5111574181646317,10.72117960248488,-0.933233866845155,0.3257957331181394,-0.7848904828349523
2.44,-0.7943424721182027,-0.2775050935016981,1.6595918518267188,0.0228751861349206,0.0653854578950644,0.0385825493468263,0.6568189109874638,0.1590627083587006,-0.1006384771368288,-0.8000244774566893,-0.2790205430044966,1.6598686917254628,0.69363261226102,0.18349717441357,-0.1420748298449534,0.4476491792410337,-0.1103759299009132,0.1052339133552265,0.4208714355401474,10.603487644327288,-0.9370347656379492,0.3302249591552124,-0.7763731157644769
2.46,-0.7819012270837407,-0.2744571391114298,1.6577415672883276,0.0210977039584972,0.0616870733558215,0.0387252169512653,0.65272980327115,0.161644062978348,-0.0945304880735069,-0.7930881513340791,-0.2771855712603608,1.6584479434270132,0.6993543929187883,0.1893633562640034,-0.1447036835758108,0.3895244664512475,-0.2044553858156883,0.1290677309823712,0.3053994531660942,10.603487644327288,-0.9420831359287822,0.3342998710990928,-0.7666122422172775
2.48,-0.7689150531632553,-0.2711921905069984,1.6559018363566298,0.0194820480596758,0.0567314145456921,0.0388881323073481,0.6458607021615125,0.1647032543323326,-0.089834346747845,-0.7792154990888587,-0.2735156277720895,1.6556064468301142,0.7107979542343248,0.2010957199648701,-0.1499613910375255,0.4432745908162005,-0.3434550554818782,0.1529595676992304,0.2348070662830964,10.480594477305203,-0.9471716323708892,0.3375406002500751,-0.7574931858460545
2.5,-0.7560985966606207,-0.2678619918192219,1.654137165952522,0.0181620878010311,0.0517428671473692,0.0390879936971975,0.6359164918666161,0.1681654261620519,-0.0869372046153989,-0.7653428468436383,-0.269845684283818,1.6527649502332151,0.7222415155498613,0.2128280836657368,-0.1552190984992403,0.5460480397895843,-0.4972105147448169,0.1731085914859667,0.1448571066223064,10.373645339892391,-0.9516330747908928,0.3399081451894238,-0.7499417800429228
2.52,-0.7435146027473237,-0.2644583041073257,1.6524120225199226,0.017260900606756,0.0479679634685023,0.0393527132252439,0.6228909787337946,0.1719980956929943,-0.0857151800932782,-0.7508980165326411,-0.2655891226105033,1.6496605682632304,0.7336850768653977,0.2245604473666035,-0.160476805960955,0.6816279997905456,-0.651275656641076,0.1916334765471178,0.061101226106032,10.27556113189712,-0.9543067777689412,0.3411984998638088,-0.7456385665348243
2.54,-0.7318254392707495,-0.2611516864274564,1.650784137662554,0.0168858299636618,0.0466009452472992,0.0396844684252671,0.6083581920398845,0.1758437022039121,-0.0856940981676871,-0.7364531862216438,-0.2613325609371886,1.6465561862932456,0.7451286381809342,0.2362928110674702,-0.1657345134226698,0.7516498902000365,-0.7266393346955058,0.192280325545889,0.0010540962795575,10.199049669442502,-0.9553474202334156,0.3413144981132215,-0.7448056511641854
2.56,-0.7198141974564501,-0.2575890481252611,1.6490646334376178,0.0171223997457067,0.0477112545332005,0.0401262952117377,0.5938156377765237,0.1801776708735713,-0.0862749717371142,-0.7217222668777582,-0.2567826901713522,1.6433203616367178,0.7565721994964708,0.2480251747683369,-0.1709922208843845,0.7592868085184293,-0.7271277131680409,0.2166984334829619,-0.0290436784713563,10.141770786223788,-0.9547435522485214,0.3404191011011217,-0.7471863913797445
2.58,-0.7080784123991345,-0.253938367279523,1.6473294754246968,0.0181438652419376,0.0507562862583065,0.0406609383913994,0.5807871784907553,0.184583455855613,-0.0872058198932397,-0.7067052585009841,-0.2519395103129941,1.639953094293647,0.7680157608120073,0.2597575384692036,-0.1762499283460993,0.689235393313978,-0.6514229642884173,0.2202892491020833,-0.0465424078062749,10.100573659605288,-0.9524902820813356,0.3389957331842311,-0.7518449607877433
2.6,-0.6971531907504215,-0.2503911080546308,1.6456624161195317,0.0198597748647103,0.0548033371845144,0.041248021258011,0.5701050880700446,0.1885086785087805,-0.0882302751485319,-0.6790390534745967,-0.2447091944867424,1.6429691844300347,0.5967730976533864,0.2038682425121119,-0.1048861202929008,0.571322888573696,-0.5341045210355388,0.196261132658379,-0.0512227627646105,10.078458708705512,-0.948944645139513,0.3369387805095832,-0.7584017543141491
2.62,-0.6858065299685736,-0.2465483883871168,1.6439711508574124,0.0234714228642732,0.0583063323294958,0.0419841741021028,0.5651746557615756,0.1946630385883431,-0.0804298320927287,-0.6790390534745967,-0.2447091944867424,1.6429691844300347,0.5967730976533864,0.2038682425121119,-0.1048861202929008,0.5545994559232306,-0.2465216154234506,0.3077180039781288,0.3900221527901613,10.602400187187412,-0.9484858050875052,0.3339396204307707,-0.7617347316550562
2.64,-0.6745561732376366,-0.2426314518463199,1.642435300404768,0.0282060217301527,0.0597375787770391,0.0427553453393755,0.5599502580592146,0.1965417229087991,-0.0736978354635163,-0.6790390534745967,-0.2447091944867424,1.6429691844300347,0.5967730976533864,0.2038682425121119,-0.1048861202929008,0.4363014002501276,-0.2612198851180469,0.0939342160227965,0.3365998314606218,10.480139381146728,-0.9483691408867072,0.332795290775681,-0.7610207121364465
