t,x,y,z,roll,pitch,yaw,v_x,v_y,v_z,ref_x,ref_y,ref_z,ref_v_x,ref_v_y,ref_v_z,a_com,a_x,a_y,a_z,thrust,wind_x,wind_y,wind_z
0.0,-0.8159514395546198,1.0278335214574152,1.7478128081374855,0.0158750605620335,0.1364733238860379,0.0260585987486831,0.0047769743353838,-0.0090546203007247,0.0014238347035648,-0.8158110165263952,1.0275522505919152,1.7478535267077462,0.0407305017258732,-0.1093117563185703,-0.0982015003417309,0.5168001012342385,0.2388487167691916,-0.4527310150362358,0.0711917351782435,10.546840218620671,-1.2844754123338795,0.1598455064860583,-1.1624378215354518
0.02,-0.8159716455001921,1.0279294606902647,1.7476255213134066,0.0223009540679878,0.1387606697821781,0.0265452096230532,-0.0065162171526453,0.0146083139191425,-0.0212673952239453,-0.8158110165263952,1.0275522505919152,1.7478535267077462,0.0407305017258732,-0.1093117563185703,-0.0982015003417309,1.733754989540185,-0.56465957440146,1.1831467109933622,-1.1345614963755106,9.183255306134017,-1.3098690988777764,0.1562010760166765,-1.1818393369353537
0.04,-0.81617692586826,1.0282477890725177,1.746946596658654,0.0361292920817884,0.1443577095263533,0.0276554736344651,-0.0140237400801277,0.0169464298848122,-0.0489217907644707,-0.8158110165263952,1.0275522505919152,1.7478535267077462,0.0407305017258732,-0.1093117563185703,-0.0982015003417309,1.437528503619517,-0.3753761463741194,0.1169057982834857,-1.382719777026272,9.183255306134017,-1.2985415646220453,0.1402249006204239,-1.166193270558871
0.06,-0.8165045162342353,1.0285434627093413,1.7456662154636935,0.051480237063573,0.1519880068455488,0.0290244019310031,-0.0179627222228624,0.01212264708516,-0.0776270423342903,-0.8154037115091365,1.0264591330287296,1.746871511704329,0.0479351796354859,-0.1293117566165935,-0.1181166981314,1.4686523827182814,-0.1969491071367356,-0.2411891399826116,-1.4352625784909798,8.929590952009221,-1.28480934707517,0.1238012952207432,-1.1549058274833108
0.08,-0.8168755003741283,1.0287023299008984,1.743825296430774,0.066349756055556,0.1603167752129116,0.0304975862985527,-0.0186350035940677,0.0036872332442759,-0.1049784677166422,-0.8145891014746189,1.024272897902358,1.7449074816974943,0.0623445354547112,-0.1693117572126399,-0.1579470937107381,1.4315277148517,-0.0336140685602627,-0.4217706920442021,-1.3675712691175956,8.956785756094177,-1.272040370086133,0.1084453509474523,-1.146144671987832
0.1,-0.8172305093318634,1.0286619073431753,1.7414529965725896,0.0805380118972174,0.1687406900059045,0.0320312790682716,-0.0165878988385183,-0.0076040248689136,-0.1309095294193623,-0.8137744914401015,1.0220866627759868,1.7429434516906597,0.0767538912739365,-0.2093117578086864,-0.1977774892900761,1.4178355940386178,0.1023552377774678,-0.5645629056594803,-1.2965530851360012,9.032413386158623,-1.2611370466930676,0.0949629453103101,-1.1383570453376004
0.12,-0.8175076064734835,1.0283893356182892,1.738729531319454,0.0933786198461581,0.1765431294686535,0.0335140717483725,-0.0124980825055036,-0.0207685251943789,-0.1544996845003346,-0.8122394136146227,1.0179004276198131,1.7389879019048582,0.0911632470931618,-0.2493117584047328,-0.2376078848694142,1.3661314753724243,0.2044908166507371,-0.6582250162732664,-1.1795077540486156,9.107436015985511,-1.2514520154777469,0.0818301866739136,-1.1316996134597137
0.14,-0.8176971162344142,1.02780792954641,1.7353760879200226,0.1062454934099478,0.1844005465462707,0.0350757800990296,-0.0064789085193114,-0.0369479527989588,-0.1796437027874263,-0.810704335789144,1.0137141924636397,1.7350323521190567,0.1055726029123871,-0.2893117590007794,-0.2774382804487523,1.5249803184873372,0.3009586993096086,-0.8089713802289943,-1.257200914354585,9.172199338109747,-1.2443528783850442,0.0696521299521368,-1.127414350070876
0.16,-0.8177485679605917,1.0268786442885105,1.7315204189118183,0.1184732250776237,0.1918308138053104,0.0366162770945246,0.0012031925480708,-0.055424506111262,-0.204696376955115,-0.8088090240681847,1.0085279572925645,1.7300810424437716,0.1199819587316124,-0.3293117595968258,-0.3172686760280904,1.6031486066988896,0.384105053369113,-0.9238276656151588,-1.2526337083844374,9.183322441713244,-1.2384492243187304,0.0588899660386409,-1.1230026995092106
0.18,-0.8176403900442907,1.025632640674816,1.727395593155635,0.1295224709710459,0.1984732534447455,0.0380430461983058,0.0099346867108121,-0.0750188280036929,-0.2282714165729083,-0.8065534784517446,1.0023417221065885,1.7241339728790033,0.1343913145508378,-0.3693117601928722,-0.3570990716074284,1.593705535629706,0.4365747081370679,-0.9797160946215466,-1.178751980889664,9.183322441713244,-1.2332861618892474,0.0483653116197977,-1.1180896204995514
0.2,-0.8173330456255057,1.0238938117065883,1.722570160053606,0.1404541916736611,0.2050310355788915,0.0394828394111312,0.0204865550130151,-0.097996850110618,-0.2530406969563503,-0.81714365570875,1.0218816992746311,1.7159820223269897,0.0618934376442209,-0.1750188294938091,-0.2720428623240986,1.7697801242858788,0.5275934151101483,-1.1489011053462532,-1.2384640191720988,9.210139041348157,-1.2292399228187456,0.0387577312023672,-1.112808853166512
0.22,-0.8166969251762579,1.0214509792229851,1.7174728010313889,0.1443740742734728,0.2098556482161965,0.0401968104288106,0.0428119100120889,-0.1428375422322262,-0.2537989491373433,-0.81714365570875,1.0218816992746311,1.7159820223269897,0.0618934376442209,-0.1750188294938091,-0.2720428623240986,2.504837366052687,1.1162677499536922,-2.2420346060804084,-0.0379126090496506,10.960717257971735,-1.204953949403616,0.0350350589072464,-1.0976723388543574
0.24,-0.8155984116496348,1.0182042811153569,1.712421748932869,0.1399047197431914,0.2118014202236996,0.0398735124435789,0.0656178758449954,-0.1778921902828433,-0.2511409628261253,-0.81714365570875,1.0218816992746311,1.7159820223269897,0.0618934376442209,-0.1750188294938091,-0.2720428623240986,2.0952358571023435,1.1402982916453224,-1.7527324025308586,0.1328993155608998,10.960717257971735,-1.2056927901916996,0.0392294742783259,-1.0985846818809035
0.26,-0.8141387642624752,1.0145543841510212,1.7076632426357716,0.1330507310916667,0.2112729563274303,0.0390288895022656,0.0867267556169866,-0.2040704571171846,-0.2497908588214896,-0.8165247213323078,1.0201315109796931,1.7132615937037488,0.0722851878309026,-0.1950188297918323,-0.2807971514743366,1.6827873012517705,1.0554439885995608,-1.3089133417170649,0.0675052002317849,10.87580161027472,-1.209539524010795,0.0463102951481877,-1.0967813435786904
0.28,-0.8121797450990819,1.0102254028442543,1.7026672514811836,0.1254808762697638,0.2081989723629177,0.0377829877242327,0.1078822211625991,-0.2272859972330117,-0.2499252021584687,-0.8152868525794235,1.0166311343898171,1.7078207364572666,0.0930686882042661,-0.2350188303878787,-0.2983057297748127,1.570456202392608,1.057773277280627,-1.1607770057913525,-0.0067171668489532,10.590919461281374,-1.2168037630901607,0.053677484496473,-1.0922923043817143
0.3,-0.8098188731921613,1.005461117285417,1.697651509706073,0.1184715987415011,0.202713844410291,0.0362996138767312,0.1266664145129368,-0.2479552465076587,-0.2516508666138373,-0.814048983826539,1.0131307577999409,1.7023798792107847,0.1138521885776296,-0.2750188309839252,-0.3158143080752887,1.3991441162482936,0.9392096675168826,-1.03346246373235,-0.0862832227684309,10.590919461281374,-1.2283860119737,0.0606310945184344,-1.0834598511151192
0.32,-0.8071221499911903,1.0003037308682237,1.6925851532266272,0.1123663041656881,0.1957723280321675,0.0347465492441095,0.1417424303534836,-0.2668622719087501,-0.2548402775048503,-0.8117719400549864,1.0076303811802625,1.696063593049279,0.1346356889509931,-0.3150188315799716,-0.3333228863757648,1.2195636565731705,0.7538007920273412,-0.945351270054573,-0.1594705445506494,10.460626065158976,-1.2398870951037353,0.0662549864915261,-1.0730492565388152
0.34,-0.8043128795868187,0.9950655628458184,1.6877104900251974,0.1074713248515485,0.1887597498232347,0.0333257897515998,0.1530280089705488,-0.2837138928160254,-0.2580955149615344,-0.8094948962834339,1.002130004560584,1.689747306887773,0.1554191893243566,-0.3550188321760181,-0.3508314646762409,1.0270564527131334,0.564278930853257,-0.8425810453637633,-0.162761872834205,10.342176761532755,-1.2506459311279488,0.0710605229782917,-1.061102046169589
0.36,-0.801150757807673,0.9892067608789148,1.682509231580802,0.1030058494456033,0.1816147709857322,0.0319389033462895,0.1623995945467456,-0.3012382413273189,-0.2618518177374785,-0.8066982650025472,0.9956296279260042,1.6829933062687554,0.1762026896977201,-0.3950188327720645,-0.3683400429767169,1.0112358991622847,0.4685792788098414,-0.8762174255646765,-0.1878151387972065,10.256103488637564,-1.2598058841269917,0.0750135058435093,-1.049520270234014
0.38,-0.7978249187075748,0.9830021413081084,1.6772281834359175,0.098923495731107,0.1751301058384367,0.0306774615256488,0.169585384037464,-0.3182612926729278,-0.2660637745675409,-0.8033820462123263,0.9881292512765232,1.675801591192226,0.1969861900710836,-0.435018833368111,-0.385848621277193,0.9475764191589804,0.359289474535919,-0.8511525672804415,-0.2105978415031184,10.256103488637564,-1.267463054915421,0.0785068677194906,-1.038758553533651
0.4,-0.7943773410286696,0.9764642018580932,1.6718563539326945,0.095076088399911,0.1696488604605278,0.0295575506535844,0.1747120676439749,-0.334584219439522,-0.2708732699364935,-0.7893456495057015,0.967089076674462,1.6639249947075407,0.2157458435558966,-0.4182612941630439,-0.2745142137673462,0.8886113727789574,0.2563341803255459,-0.8161463383297096,-0.2404747684476293,10.209333463200892,-1.2733814156094774,0.0815651182840283,-1.029814272825099
0.42,-0.7909707462392191,0.9699358276478348,1.6668602489362785,0.0914622660062399,0.1652012178046517,0.0285892389537721,0.1834754615181457,-0.3516133428594789,-0.2547677671380744,-0.7893456495057015,0.967089076674462,1.6639249947075407,0.2157458435558966,-0.4182612941630439,-0.2745142137673462,1.251174784987957,0.4381696937085413,-0.8514561709978441,0.8052751399209551,10.160656427455253,-1.264782502574608,0.0836612442126444,-1.0201890821889952
0.44,-0.7872244153434067,0.9627348090515336,1.6619305787121843,0.0879928949282884,0.1612083953426669,0.0276748026608004,0.1905004327164057,-0.3676166559820196,-0.2392501363341637,-0.7893456495057015,0.967089076674462,1.6639249947075407,0.2157458435558966,-0.4182612941630439,-0.2745142137673462,1.168602923367196,0.3512485599129991,-0.8001656561270359,0.7758815401955318,11.52345069425064,-1.2698328991609975,0.0861583874407916,-1.019811480542972
0.46,-0.7833608046716051,0.9552243781040278,1.6572794052713438,0.0851375516791306,0.158481750322884,0.0269281033449596,0.1953958727910176,-0.3826665195950252,-0.2267724205391815,-0.7871881910701426,0.9629064637328316,1.661179852569867,0.2249779354595831,-0.4382612944610671,-0.2762043016073072,1.007667008185908,0.2447720037305964,-0.7524931806502794,0.6238857897491124,11.326056021140175,-1.2730602910881468,0.0881305627078783,-1.0201635399027342
0.48,-0.7796142239633138,0.9478184770870988,1.6530650937039804,0.0829945949576902,0.1574303682407044,0.0263961509427772,0.1989170735495843,-0.3962494807713194,-0.217474024643739,-0.7828732741990246,0.9545412378495708,1.6556895682945203,0.2434421192669562,-0.4782612950571135,-0.2795844772872293,0.8416588610108451,0.1760600379283328,-0.6791480588147131,0.4649197947721242,11.135658567594874,-1.2730710934810645,0.0894128934020525,-1.0221655230180993
0.5,-0.7755938649281661,0.9397504199684412,1.64880034791011,0.0813287593264033,0.1576833708866702,0.0259921753778748,0.203055206811686,-0.4098945120046598,-0.2095890416475679,-0.7785583573279067,0.9461760119663098,1.6501992840191737,0.2619063030743292,-0.51826129565316,-0.2829646529671514,0.8146839588203159,0.2069066631050858,-0.6822515616670216,0.3942491498085579,10.85994330100948,-1.2714762854059347,0.0902716790969313,-1.0252221064145912
0.52,-0.771483840931898,0.9314152400768798,1.6446754774453856,0.0803294348624209,0.1588444874839856,0.0257077834083413,0.2078446334661341,-0.422969345749181,-0.2033692584784929,-0.7733202312664201,0.9358107860532466,1.6445399909598304,0.2803704868817023,-0.5582612962492065,-0.2863448286470735,0.7625214551006325,0.239471332722406,-0.653741687226056,0.3109891584537477,10.85994330100948,-1.2690753274440998,0.0905818791790724,-1.028659314956195
0.54,-0.7672687022964662,0.9228236481853984,1.6406685312920726,0.080136316455482,0.1604894187715018,0.0255166979159399,0.2135196243459458,-0.4356249856289546,-0.1976494479751789,-0.7680821052049336,0.9254455601401834,1.6388806979004875,0.2988346706890754,-0.598261296845253,-0.2897250043269956,0.7501449434047431,0.2837495439905829,-0.6327819939886792,0.2859905251656996,10.748252395291274,-1.266265496861717,0.0902040857224794,-1.0321796214342285
0.56,-0.7631485758149577,0.9144189891453464,1.6369647084245786,0.0804834105996109,0.1621208088694638,0.0253757860089574,0.2199182624596753,-0.4484053484545096,-0.1925172755665255,-0.7623823745482626,0.9140803342122192,1.6331369004491465,0.3172988544964484,-0.6382612974412993,-0.2931051800069177,0.7593079699559415,0.3199319056864755,-0.6390181412777529,0.2566086204326717,10.748252395291274,-1.2634901619364884,0.0892925866620113,-1.0360738598722146
0.58,-0.758672146481732,0.905303838827187,1.63316885744897,0.0810275268815122,0.1635845926997941,0.0252173451814811,0.2274033931967198,-0.4624127639172682,-0.1873467773976974,-0.7562210392964074,0.9017151082693536,1.6273085986058071,0.3357630383038214,-0.6782612980373458,-0.2964853556868398,0.8351181374674358,0.3742565368522257,-0.7003707731379288,0.2585249084414057,10.740041347191436,-1.2613788321710788,0.0882387814316781,-1.0394243022381755
0.6,-0.7540398724164604,0.8959005323678507,1.6294730451850183,0.0813907260110733,0.164577531876466,0.0250056096862669,0.235429355501872,-0.4771589151329643,-0.1824993707022012,-0.747301976821896,0.8821832006313236,1.623801518579085,0.2742874642785966,-0.5624127654073843,-0.2034233906152896,0.8737310774366454,0.4012981152576075,-0.7373075607848056,0.2423703347748093,10.734892292824952,-1.260030194674515,0.0873713289823709,-1.0420165853017158
0.62,-0.7494632707816558,0.8866364111319908,1.626104043122253,0.0796701019034735,0.1645673399563354,0.0245811851941583,0.2457578069415327,-0.496504576370071,-0.1723034055812211,-0.747301976821896,0.8821832006313236,1.623801518579085,0.2742874642785966,-0.5624127654073843,-0.2034233906152896,1.2092241547688394,0.5164225719830384,-0.967283061855334,0.5097982560490057,10.723983754831352,-1.2543647465242092,0.0881000718002821,-1.0423972095812124
0.64,-0.7444432103314337,0.8765387540478353,1.622762016164165,0.0756564619993066,0.1633145558579198,0.0238881522737508,0.2555690766029435,-0.5117913891379067,-0.1624986254037499,-0.747301976821896,0.8821832006313236,1.623801518579085,0.2742874642785966,-0.5624127654073843,-0.2034233906152896,1.032086928626066,0.4905634830705385,-0.7643406383917833,0.4902390088735581,11.134400601801644,-1.2564162466476598,0.0911667084891705,-1.0439224825999742
0.66,-0.7392401124586206,0.866172983109672,1.619596292269987,0.0715450862384653,0.1611146930802403,0.0231316929865792,0.26412782129996,-0.5240031681537678,-0.1546480589512469,-0.74455910217911,0.8765590729772498,1.621767284672932,0.283664278494972,-0.5824127657054075,-0.2066387132588081,0.8426313712800211,0.4279372348508226,-0.6105889507930562,0.3925283226251519,11.015769602143337,-1.260085384949433,0.0945796548282839,-1.0441943399659337
0.68,-0.7341526653568333,0.856117302769881,1.616715089175309,0.0682385363240248,0.1584033774349238,0.0224273788591697,0.2708699129452631,-0.5340366295870553,-0.1490202402377576,-0.7390733528935381,0.865310817669102,1.6176988168606263,0.3024179069277227,-0.6224127663014539,-0.2130693585458449,0.6667055038748999,0.3371045822651547,-0.5016730716643769,0.2813909356744609,10.881452402336436,-1.2644377420195223,0.0974403630607721,-1.04294571989431
0.7000000000000001,-0.7286756198659545,0.8453358496714171,1.6137837739626109,0.0655974184093088,0.155263618985788,0.0217420792952691,0.2763413575161721,-0.5437242299077114,-0.1444721235651963,-0.7335876036079662,0.8540625623609543,1.6136303490483206,0.3211715353604734,-0.6624127668975004,-0.2195000038328818,0.6009818444273856,0.2735722285454545,-0.4843800160328038,0.2274058336280679,10.674008889341168,-1.268913916106411,0.0995136068201698,-1.04050356368289
0.72,-0.7231076784248855,0.8343660232506369,1.6109299260997374,0.0638458742036129,0.1523098538064149,0.0211449410878288,0.2800544538805328,-0.5528893728431181,-0.1411923623419303,-0.7271641729007566,0.8408143070230043,1.609240348971663,0.339925163793224,-0.7024127674935469,-0.2259306491199187,0.5209216911376973,0.1856548182180339,-0.4582571467703356,0.1639880611633004,10.674008889341168,-1.2728734356201683,0.1007584758664342,-1.0376659818677705
0.74,-0.7174838199459349,0.8232192033744296,1.6081325359175316,0.0630867170729025,0.1501095931823904,0.0206743320242023,0.2820951830804357,-0.5614841224074159,-0.1387082752626276,-0.7207407421935472,0.8275660516850544,1.6048503488950054,0.3586787922259748,-0.7424127680895933,-0.2323612944069556,0.4588163694711935,0.1020364599951445,-0.4297374782148866,0.1242043539651321,10.550645395877837,-1.27538496690068,0.101070882534301,-1.035301630319403
0.76,-0.7121120757691957,0.8124646226447333,1.6055153104921445,0.0631417991757024,0.1490962964550803,0.0203538332989844,0.283369185135828,-0.5701601351023741,-0.1369197218843258,-0.7138484707755189,0.8133177963322031,1.600299582686172,0.3774324206587255,-0.7824127686856397,-0.2387919396939925,0.4474796104496121,0.0637001027696121,-0.4338006347479106,0.0894276689150916,10.550645395877837,-1.2752752008571604,0.100519250938246,-1.034631579406067
0.78,-0.7064274117137598,0.8009619626215072,1.602792421542693,0.06374250423839,0.1490046477885503,0.0201186334301497,0.2851166887173486,-0.5796614546776726,-0.1354870202691682,-0.706487358646672,0.7980695409644508,1.5955880503451625,0.3961860490914762,-0.8224127692816862,-0.2452225849810294,0.4883172031514295,0.0873751790760324,-0.4750659787649269,0.0716350807578786,10.488736299654192,-1.2739251136438368,0.0994478210612873,-1.0351254911950931
0.8,-0.7007019001700205,0.7892620520760054,1.600093545092967,0.0646241202745431,0.1495732084108476,0.0199474616104603,0.2874283601671674,-0.5898164403613795,-0.1344744520473109,-0.6921715772778924,0.7719788898876235,1.5960180705292346,0.3296667871961427,-0.6796614561677887,-0.1591950955541261,0.5231941645606203,0.1155835724909404,-0.5077492841853437,0.0506284110928637,10.488736299654192,-1.2721630537279756,0.0982109867857826,-1.036159633840369
0.8200000000000001,-0.6951876867837999,0.7778998999151179,1.597618596796771,0.0638828572821144,0.150039779408511,0.0196725782823322,0.292811716577575,-0.6049842554821484,-0.1260536782232464,-0.6921715772778924,0.7719788898876235,1.5960180705292346,0.3296667871961427,-0.6796614561677887,-0.1591950955541261,0.9082298354152336,0.2691678205203773,-0.7583907560384462,0.4210386912032265,10.469420610949784,-1.2637389774605932,0.0979342716265992,-1.036109763572265
0.84,-0.6892784774530691,0.765665085219737,1.5951781967904437,0.0610139916012277,0.1501042909522147,0.019216734429031,0.2977669532300213,-0.617384837076422,-0.1185357600260243,-0.6921715772778924,0.7719788898876235,1.5960180705292346,0.3296667871961427,-0.6796614561677887,-0.1591950955541261,0.7662373786531615,0.2477618326223146,-0.6200290797136798,0.3758959098611049,10.984708768765811,-1.2637487840379262,0.1001770645333508,-1.038928955216894
0.86,-0.6832778158676384,0.7532172643757394,1.592864394921415,0.0577364261591347,0.1499869745870284,0.0187313246667268,0.3020185043346723,-0.6267274231997464,-0.1133215214692004,-0.6888749094059309,0.7651822753259456,1.5944261195736933,0.3385768068919015,-0.6996614564658119,-0.1639367106111177,0.5756472140006023,0.2125775552325515,-0.4671293061662196,0.2607119278411958,10.850301246297931,-1.264580933506572,0.1028896943234871,-1.041033317578334
0.88,-0.6771988291130143,0.7406022013716518,1.5906326561350577,0.0549845768941458,0.1498316321587395,0.0182912177096909,0.3056494653394747,-0.6344183513442737,-0.110205290394397,-0.682281573662008,0.7515890462025899,1.5912422176626109,0.3563968462834191,-0.7396614570618584,-0.1734199407251008,0.4528938883840466,0.1815480502401212,-0.384546407226366,0.1558115537401691,10.581285125082104,-1.265652354794094,0.1050700912798406,-1.0422702092685476
0.9,-0.6713618245304147,0.7284853119893391,1.588552092968092,0.0531655723468938,0.1497648767757668,0.0179422195202648,0.308611746577766,-0.6408718727825607,-0.1089599413576411,-0.6756882379180852,0.7379958170792341,1.5880583157515282,0.3742168856749368,-0.7796614576579048,-0.182903170839084,0.3604647809166376,0.1481140619145643,-0.3226760719143517,0.0622674518377962,10.482637817812249,-1.2663982073618518,0.1066043854166345,-1.042818173281195
0.92,-0.6651602432403103,0.7156048370159245,1.5863751736784797,0.0522298089623659,0.1498672619597843,0.0176604017428861,0.3114040649548364,-0.6469281190153058,-0.108857138633974,-0.6682039002045864,0.722402587926076,1.5844002523347465,0.3920369250664545,-0.8196614582539513,-0.1923864009530672,0.3334881135458845,0.1396159188535223,-0.3028123116372516,0.0051401361833555,10.482637817812249,-1.26664774749598,0.1071959066247205,-1.0429899741454212
0.94,-0.658904134802476,0.7026093171828541,1.5841927530249775,0.0525970752488279,0.1501943627541769,0.0174875565294447,0.3140969063966619,-0.6524453003748685,-0.1094195860962413,-0.6607195624910878,0.7068093587729178,1.580742188917965,0.4098569644579721,-0.8596614588499978,-0.2018696310670503,0.3082492187051305,0.1346420720912705,-0.2758590679781347,-0.028122373113365,10.409884906978732,-1.2664253689855274,0.1065589255336273,-1.043195656425674
0.96,-0.6525914112932281,0.6894947555931422,1.581994015235974,0.0541725611233605,0.1506751097477234,0.0174114152754074,0.3170664585688509,-0.6588110965064037,-0.1104270377015159,-0.6527897237928011,0.6902161296048587,1.5768470447483336,0.4276770038494897,-0.8996614594460441,-0.2113528611810335,0.3548117783719684,0.1484776086094513,-0.3182898065767603,-0.05037258026373,10.374676569686926,-1.2658726868134855,0.1048875387884905,-1.0435524344806828
0.98,-0.6465364427394451,0.6769073622965114,1.5798841568344149,0.0563846497967302,0.1511458595670967,0.0173923740568343,0.320158108480613,-0.6659362327874546,-0.1116154560060041,-0.6444143841097264,0.6726229004218982,1.572714819825853,0.4454970432410073,-0.9396614600420906,-0.2208360912950166,0.3928683121189908,0.154582495588107,-0.3562568140525468,-0.0594209152244118,10.354322824401606,-1.2652726654870514,0.1024161636995517,-1.0437864727538135
1.0,-0.6400972202951614,0.6634935441989895,1.5776365190973796,0.0588435921430816,0.151571567094752,0.0173791720221518,0.3236073008451788,-0.6751040534410729,-0.1130928185580154,-0.6305285373154145,0.6436105506571387,1.5743033840341147,0.3608759002465413,-0.7542670008362179,-0.1347640560180681,0.4952990602019519,0.1724596182282878,-0.4583910326809159,-0.0738681276005653,10.344037089799713,-1.264545282677662,0.099801668954669,-1.0436939357507369
1.02,-0.6335444051651254,0.649778994280146,1.5754550265717195,0.0576639304401624,0.1511065026407259,0.0170625710989665,0.3315717050008298,-0.694991342781577,-0.1043799924684138,-0.6305285373154145,0.6436105506571387,1.5743033840341147,0.3608759002465413,-0.7542670008362179,-0.1347640560180681,1.1563405092522734,0.3982202077825514,-0.994364467025205,0.4356413044800833,10.336115169301593,-1.255330472886634,0.0997873658435265,-1.0422634413084286
1.04,-0.6268366864163526,0.6357308103304855,1.5734532782709871,0.0518194374001266,0.1490090275478299,0.016345679397671,0.3386344220544393,-0.7077525237230234,-0.0962156484405937,-0.6305285373154145,0.6436105506571387,1.5743033840341147,0.3608759002465413,-0.7542670008362179,-0.1347640560180681,0.8357425210617837,0.3531358526804751,-0.6380590470723202,0.4082172013910027,11.057194303795768,-1.257615255147795,0.1048309236051658,-1.042612505794993
1.06,-0.6203508155654222,0.6222139892852128,1.571676733253582,0.045580574230493,0.1458801623233104,0.015592107756372,0.3436134423770327,-0.7144080111379517,-0.0911794772808144,-0.6269197783129491,0.6360678806487765,1.572955743473934,0.3690194585997269,-0.7719331544459705,-0.1393937760204809,0.4859248297156129,0.248951016129667,-0.3327743707464137,0.2518085579889653,10.902735563010538,-1.262691441409988,0.1108365747471152,-1.0399944730948971
1.08,-0.6134433007089912,0.6078825312181113,1.569884753507094,0.039808870298429,0.1418646450119916,0.0148642626501205,0.3466886527299948,-0.7185077754825775,-0.0883970435543672,-0.6197022603080182,0.6209825406320522,1.5702604623535728,0.3853065753060983,-0.8072654616654759,-0.1486532160253065,0.2915772789437692,0.1537605176481077,-0.2049882172312889,0.1391216863223576,10.706941462911344,-1.2688769236002573,0.1161435657431948,-1.035239758612046
1.1,-0.6065013699663367,0.5934882381288764,1.5681209457775067,0.0353985194944593,0.1377867680826265,0.0142691768846454,0.3472318031424481,-0.7210550693756772,-0.0881099380560597,-0.6124847423030874,0.6058972006153278,1.5675651812332114,0.4015936920124696,-0.8425977688849812,-0.1579126560301321,0.1310166794298509,0.027157520622667,-0.1273646946549855,0.0143552749153764,10.540966642377498,-1.2748700324554916,0.1200157281606583,-1.029735851303676
1.12,-0.5999201916310388,0.579773851174291,1.5664333511182684,0.0324766607406619,0.1345846686788494,0.0138450346386594,0.3454248240676639,-0.7227588486112454,-0.0895434625004225,-0.604452868462838,0.5890452452376282,1.5644069281126087,0.4178808087188408,-0.8779300761044865,-0.1671720960349577,0.1433791249872802,-0.0903489537392138,-0.0851889617784096,-0.0716762222181401,10.39860136936477,-1.2798834290096952,0.1228309834012605,-1.02404756598737
1.14,-0.5930504690658798,0.565305679090892,1.5646188525605358,0.030639354833996,0.1327277780699962,0.0135545624076139,0.3415749987564509,-0.724164737926839,-0.0918696130766655,-0.5964209946225886,0.5721932898599286,1.5612486749920065,0.4341679254252122,-0.9132623833239918,-0.1764315360397833,0.2356303047037456,-0.1924912655606486,-0.07029446577968,-0.1163075288121505,10.29354938592769,-1.2820699523932897,0.1243932694051658,-1.0203488296680907
1.16,-0.5862610536498829,0.5508052557384155,1.5627513059056484,0.0298396055115498,0.1327872793856033,0.0134085470658471,0.337778173848911,-0.7258621871642573,-0.0948004120099065,-0.5879819428646799,0.5544580268017414,1.5578589358712829,0.4504550421315835,-0.9485946905434972,-0.1856909760446088,0.2543953403622682,-0.1898412453769954,-0.0848724618709162,-0.146539946662047,10.245321699185295,-1.2802596942962547,0.1248833232866122,-1.0198923324909497
1.18,-0.5795367039386777,0.5362705223917507,1.5608207904433462,0.0298886820526192,0.1342676359657091,0.0133740041289555,0.3350390367369866,-0.7275939787436874,-0.0981130387683179,-0.579135713189112,0.5358394560630665,1.554237710750439,0.4667421588379548,-0.9839269977630024,-0.1949504160494344,0.2317081690027865,-0.136956855596218,-0.0865895789715021,-0.1656313379205715,10.189214878137136,-1.2775804533876376,0.1246664835683351,-1.0209778076723433
1.2,-0.5731871981344966,0.5224285810192089,1.5589235579281535,0.03064488486704,0.1364823408306037,0.0134234161013339,0.3335968239095725,-0.7294171906944109,-0.1014383079321261,-0.5627847521018284,0.4998908234545663,1.5559151385049304,0.3702833004455781,-0.7795241753269584,-0.0968704185963388,0.2028638377618888,-0.0721106413707067,-0.0911605975361773,-0.1662634581904104,10.189214878137136,-1.274240260302803,0.1237872414717387,-1.0231139350702505
1.22,-0.5664598862856741,0.5076520880662443,1.5570073328940346,0.0269262748564015,0.1380965858747644,0.0131485218378864,0.3392809434206013,-0.7460282904506148,-0.0891166804743369,-0.5627847521018284,0.4998908234545663,1.5559151385049304,0.3702833004455781,-0.7795241753269584,-0.0968704185963388,1.072450876421339,0.2842059755514381,-0.8305549878101948,0.6160813728894592,10.180527593600344,-1.2594886191348524,0.1262855436742323,-1.0257284602551773
1.24,-0.5596181721550331,0.4926627327520514,1.5553568744132524,0.018146071780266,0.1378775106575497,0.0124902021401484,0.3444240106993976,-0.7512161549754971,-0.0766091960592716,-0.5627847521018284,0.4998908234545663,1.5559151385049304,0.3702833004455781,-0.7795241753269584,-0.0968704185963388,0.7242275984727807,0.2571533639398188,-0.2593932262441145,0.6253742207532671,11.254868265416915,-1.2604133813317169,0.1344650501608082,-1.027970902900225
1.26,-0.5526890603124268,0.4776491215980037,1.5539238942413065,0.0090794841237429,0.1363364904220812,0.0118239121593022,0.3481082766621259,-0.7498989153177793,-0.0673131020315355,-0.5590819190973727,0.4920955817012967,1.554946434318967,0.3773321531872964,-0.7899102146436126,-0.096621894561943,0.5042972837833191,0.1842132981364125,0.0658619828858897,0.4648047013868054,11.117496876820042,-1.2642942132907502,0.14269458401041,-1.0286265889628317
1.28,-0.5460539135624806,0.4634475012863795,1.552706759626492,0.0016941137062926,0.1340419000072404,0.0113108430134357,0.350046435041886,-0.7453825009795186,-0.0612677603281428,-0.5516762530884611,0.4765050981947575,1.5530090259470402,0.391429858670733,-0.810682293276921,-0.0961248464931514,0.38955298962612,0.096907918988004,0.2258207169130333,0.3022670851696329,10.913496311707604,-1.2693649852701137,0.1502385779331223,-1.0276032196668232
1.3,-0.5390477079615491,0.448609095440962,1.5515281640848522,-0.0043609893133748,0.1312283454927963,0.0109337323507336,0.3503303032942124,-0.7389570371363008,-0.0569999289475869,-0.5442705870795496,0.4609146146882183,1.5510716175751134,0.4055275641541696,-0.8314543719102294,-0.0956277984243598,0.3859454348675353,0.0141934126163228,0.3212731921608924,0.2133915690277946,10.74146574173392,-1.2747045233735808,0.1561544385235749,-1.025519488025173
1.32,-0.5320566382821195,0.433911889436488,1.5504145915320109,-0.0085832106507005,0.1286017401028103,0.0107213597351686,0.3486859974127677,-0.7315399425402213,-0.0545576641462534,-0.5361600357964662,0.4442855272500138,1.5491590616066262,0.4196252696376061,-0.8522264505435379,-0.0951307503555681,0.3990040458403236,-0.0822152940722381,0.3708547298039766,0.1221132400666773,10.61709726985464,-1.2797291859586015,0.1603700948041175,-1.0231798496832627
1.34,-0.5251161084016045,0.4193665807920022,1.5493443449196695,-0.0112051629679396,0.1268020449023715,0.0106415115145153,0.3454128169851401,-0.7237830352954404,-0.0525830572184564,-0.5280494845133828,0.4276564398118092,1.547246505638139,0.4337229751210427,-0.8729985291768463,-0.0946337022867765,0.4323840672227687,-0.1636590213813793,0.3878453622390421,0.0987303463898473,10.520917049231684,-1.2828878419339909,0.1629388825920596,-1.0214833159973438
1.36,-0.5185886297835017,0.4056896323969111,1.548362674866191,-0.0125299540193867,0.126207157136967,0.0106529708688553,0.3419924661919744,-0.7164717048230035,-0.0508551563418598,-0.5195864905932135,0.4105080504077719,1.5453463758713717,0.4478206806044793,-0.8937706078101546,-0.0941366542179849,0.4127347643003826,-0.171017539658283,0.3655665236218464,0.0863950438298285,10.499621855851728,-1.2832192814277084,0.1644455983609259,-1.021968382386191
1.38,-0.5117828481226745,0.3914441330339465,1.547364455539553,-0.0127958796027278,0.1265295544808969,0.0107464042989159,0.3388604432290085,-0.7085573785454309,-0.0490624753693949,-0.5107710540359583,0.3928403590379019,1.543458672306324,0.4619183860879159,-0.914542686443463,-0.0936396061491932,0.4349133055491059,-0.156601148148297,0.3957163138786301,0.0896340486232466,10.49010900014855,-1.282684213124819,0.1649030575964821,-1.023766640152758
1.4,-0.5050334185158337,0.3773596203970923,1.5464024452031089,-0.0117555829717359,0.1275360314366567,0.0109345489701628,0.3363388807722284,-0.7004657532348978,-0.0472344425485005,-0.494839825961224,0.3560162641066749,1.5449113317710832,0.3704985998516567,-0.7076590160006,-0.0193232202838074,0.4335158053167425,-0.1260781228390017,0.4045812655266545,0.0914016410447211,10.49075202235781,-1.281721721034007,0.1642421462631599,-1.0264550623580233
1.42,-0.498618482109768,0.3639499838919046,1.5456172745050971,-0.0152184904554628,0.1279842433088991,0.0108219413986734,0.3390968370463891,-0.7093548239337125,-0.0349704101677877,-0.494839825961224,0.3560162641066749,1.5449113317710832,0.3704985998516567,-0.7076590160006,-0.0193232202838074,0.7697863192696403,0.137897813708035,-0.4444535349407363,0.6132016190356384,10.494955736242446,-1.2711303630572743,0.1670349789440816,-1.028800337212874
1.44,-0.4918108690142971,0.3497845412480468,1.5450597894456797,-0.02474001126056,0.1269576155278124,0.0103467705686996,0.3413486051761686,-0.7057446755138017,-0.0215364532722174,-0.494839825961224,0.3560162641066749,1.5449113317710832,0.3704985998516567,-0.7076590160006,-0.0193232202838074,0.7045829071090888,0.1125884064889753,0.1805074209955404,0.6716978447785186,11.230622724102432,-1.2726867106959097,0.1764430612339664,-1.0310856092943108
1.46,-0.4849737303395243,0.3357804455136748,1.5447507040560926,-0.0347968482144601,0.1249139819678828,0.0099084247584616,0.3421142037082075,-0.6947464797716902,-0.0101436224283056,-0.4911348399627075,0.3489396739466689,1.544718099568245,0.3768262311761863,-0.7074793434916338,-0.0133753692666899,0.7926901117902988,0.0382799266019445,0.5499097871055736,0.5696415421955889,11.171408531213274,-1.2772858555828437,0.1861524505579062,-1.0324418371502564
1.48,-0.4784808245125977,0.322723569210612,1.5446484783962664,-0.0430009979898722,0.1224961560997725,0.0096539930808229,0.3412201268419226,-0.6805568717192825,-0.0011743264288678,-0.4837248679656744,0.3347864936266569,1.5443316351625689,0.3894814938252456,-0.7071199984737014,-0.0014796672324549,0.840524569613096,-0.0447038433142449,0.7094804026203883,0.4484647999718902,10.957116098396,-1.2830303296921044,0.1951595907569725,-1.0326133596462217
1.5,-0.4716819832260356,0.3092903378569125,1.54471371973646,-0.049740836375682,0.1199973638724264,0.0095659792815992,0.338585797833981,-0.6637945676582384,0.0071920820822017,-0.4763148959686412,0.3206333133066449,1.5439451707568927,0.4021367564743049,-0.7067606534557691,0.01041603480178,0.945927214603579,-0.1317164503970819,0.8381152030522032,0.4183204255534776,10.904894649687776,-1.2884328255204254,0.2023553363112676,-1.0324260953151552
1.52,-0.464954743607148,0.2962073210221624,1.544936989276834,-0.0544439816988576,0.1181873243085542,0.0096258883627529,0.3342323166427514,-0.6458559506098212,0.014737535731387,-0.4682721608391551,0.3064981002375295,1.5441534914529285,0.4147920191233643,-0.7064013084378368,0.022311736836015,0.9970965987106766,-0.217674059561479,0.896930852420863,0.3772726824592653,10.904894649687776,-1.2925582164975191,0.2074206274623818,-1.0329972593947128
1.54,-0.458651968100213,0.2841153030489229,1.545289602115984,-0.0572336721476737,0.1175117932260943,0.0097697329190163,0.3295717485681932,-0.6283244777859088,0.022014301065063,-0.460229425709669,0.2923628871684141,1.544361812148964,0.4274472817724236,-0.7060419634199044,0.03420743887025,0.977272669057306,-0.2330284037279112,0.876573641195616,0.3638382666837998,10.885747674266897,-1.2939389996677302,0.211079077066205,-1.0357482338037771
1.56,-0.4521086042132404,0.2717464352100665,1.545814079393361,-0.0586652074438518,0.1177599472770451,0.0099913408892722,0.325105527084343,-0.6096815030143541,0.0300713517211064,-0.4518703090139565,0.2782366577247471,1.5448675253958557,0.4401025444214828,-0.705682618401972,0.046103140904485,1.0397400010936406,-0.2233110741925115,0.9321487385777372,0.4028525328021701,10.885747674266897,-1.2940558362625507,0.2133191793803058,-1.040278852252315
1.58,-0.4456482034008476,0.2597565769119855,1.5465038328381762,-0.0584501463278323,0.1187144340092866,0.0103027116513952,0.3212477774304091,-0.5904125397043485,0.038518228468977,-0.4431948107520174,0.2641194119065283,1.5456706311936028,0.4527578070705421,-0.7053232733840397,0.05799884293872,1.0694915920993553,-0.1928874826966908,0.9634481655002802,0.4223438373935297,10.917355975581811,-1.2936816458397886,0.2140657770676298,-1.045937505712332
1.6,-0.4392574148757324,0.2481572161254749,1.5473677564734225,-0.056216895694463,0.1201069941976265,0.0107434114178586,0.3181047256556771,-0.5708112156615787,0.0474536334788,-0.4295858145293271,0.230235949926768,1.548429744261625,0.3462906037402093,-0.5715358939903039,0.0244654229781852,1.0884991288212882,-0.1571525887366004,0.9800662021384908,0.4467702504911481,10.949171519079757,-1.2930989880805357,0.2130520958811681,-1.053210637638805
1.62,-0.4332445873811579,0.2374202780110764,1.5482233664305374,-0.0542679034140127,0.1212953404722844,0.0111695414705167,0.3148800796070515,-0.5600824020366242,0.0413620677550186,-0.4295858145293271,0.230235949926768,1.548429744261625,0.3462906037402093,-0.5715358939903039,0.0244654229781852,0.6375989274321945,-0.1612323024312828,0.536440681247724,-0.304578286189068,10.984699609849486,-1.30198464702843,0.2125894986120531,-1.0595726962994654
1.64,-0.4269877295684396,0.2263464989900085,1.5489741273955475,-0.0540153400416196,0.1221273159263622,0.011527892831375,0.3109721514635143,-0.5477095327143409,0.034177574032821,-0.4295858145293271,0.230235949926768,1.548429744261625,0.3462906037402093,-0.5715358939903039,0.0244654229781852,0.7415806559060942,-0.1953964071768565,0.618643466114166,-0.3592246861098772,9.97801826556406,-1.303122795890758,0.2128349636280089,-1.058422793545264
1.66,-0.4208105950977384,0.2155317967988763,1.549593720878799,-0.0548179879020714,0.1228667355524722,0.0118306650179436,0.3069572508132545,-0.5343315284133878,0.0281878917538484,-0.4261229084919251,0.224520590986865,1.5486743984914069,0.3512991690021693,-0.567760564847495,0.0216548618800268,0.759879464308014,-0.2007450325129917,0.668900215047652,-0.299484113948632,10.046507075193404,-1.3039568033946567,0.2141456957437219,-1.0576455723056828
1.68,-0.4147140992188627,0.204995488185223,1.550104134300779,-0.0562061164493256,0.1236988055864565,0.0121007767699033,0.3029401611584538,-0.5199785265014885,0.0231462082649311,-0.4191970964171209,0.2130898731070589,1.5491637069509707,0.3613162995260894,-0.5602099065618772,0.0160337396837101,0.786708722431809,-0.2008544827400371,0.7176500955949683,-0.2520841744458666,10.114338272907844,-1.304673223996141,0.2159597852021939,-1.0572284692120146
1.7,-0.4089959519758616,0.1952624529899248,1.5505018226843763,-0.0576699394908056,0.1246677205297526,0.0123492907054215,0.2992245456144052,-0.5053235220758372,0.0189666569514334,-0.4122712843423167,0.2016591552272528,1.5496530154105344,0.3713334300500094,-0.5526592482762593,0.0104126174873934,0.784288854264157,-0.1857807772024294,0.7327502212825632,-0.2089775656748831,10.16510305535394,-1.3053021868919232,0.2180612490626381,-1.05712710105476
1.72,-0.4030508691807267,0.1853274391722374,1.550839337187932,-0.0589706415333048,0.1259136432348953,0.0126266221603063,0.2955360954943563,-0.4889774097100596,0.0150254009784443,-0.4048446157413165,0.1906059702617276,1.5498612677602823,0.3813505605739295,-0.5451085899906415,0.0047914952910767,0.8607170737346548,-0.1844225060024462,0.8173056182888799,-0.197062798649457,10.203494471859813,-1.3058478880728537,0.2199954559278747,-1.0577823417027938
1.74,-0.3971774237117863,0.175730772716894,1.5510968074424245,-0.0595653751585074,0.1273990133837338,0.0129505557661691,0.2920671411693857,-0.471652449122249,0.0109201673046524,-0.3974179471403163,0.1795527852962024,1.55006952011003,0.3913676910978496,-0.5375579317050236,-0.0008296269052399,0.9069741548059076,-0.1734477162485259,0.8662480293905289,-0.2052616836895927,10.233653062960911,-1.3068227582878358,0.2213546967620816,-1.0593188267113018
1.76,-0.3913684476106964,0.1664891756882322,1.5512711242444128,-0.0590014910752623,0.1290448375595699,0.0133564600451101,0.289062688696254,-0.4535787617350734,0.0067256279653846,-0.3897408502762181,0.1686883667878177,1.55013724440487,0.4013848216217696,-0.5300072734194059,-0.0064507491015567,0.939785973907522,-0.1502226236565873,0.9036843693587816,-0.2097269669633886,10.225529419633858,-1.307616538850866,0.2216389916803378,-1.0612366834030669
1.78,-0.3859008972309655,0.1580469136247492,1.5513601087916262,-0.0570671723964862,0.13064700726183,0.0138466500473642,0.2866589767823312,-0.4361992669746862,0.0028615802868342,-0.3818133251490219,0.1580127147365734,1.550064440644802,0.4114019521456897,-0.522456615133788,-0.0120718712978734,0.8982699114875898,-0.1201855956961372,0.8689747380193569,-0.1932023839275207,10.225529419633858,-1.3085424569140418,0.2205555775474812,-1.0636253029468243
1.8,-0.3801901451335632,0.1495042041887469,1.5513773811422835,-0.053669442025121,0.1322839669591218,0.0144693662209445,0.2845872161144507,-0.4194561966440025,-0.000896882442817,-0.371567948391849,0.1362369502760149,1.551503187805968,0.3101744452456329,-0.4167258837715374,0.0079968040219581,0.8642173315396081,-0.1035880333940281,0.8371535165341865,-0.1879231364825639,10.23545157789158,-1.3099147440157752,0.2181793903427352,-1.066583508462472
1.82,-0.3744753812303917,0.1412670141492704,1.5513888384717365,-0.0500877785059112,0.1328454573937738,0.0151679639459069,0.2870070814963838,-0.4050853388706446,0.0025792064063479,-0.371567948391849,0.1362369502760149,1.551503187805968,0.3101744452456329,-0.4167258837715374,0.0079968040219581,0.7491002858363658,0.1209932690966558,0.7185428886678974,0.173804442458249,10.702036950783622,-1.3032025084956724,0.2149600498793507,-1.06768384065219
1.84,-0.3687145248769472,0.1333087024392618,1.5514850966031457,-0.046863409107789,0.1314809782434404,0.0159376706320827,0.2887764884272933,-0.3914723062586773,0.0068295990084387,-0.371567948391849,0.1362369502760149,1.551503187805968,0.3101744452456329,-0.4167258837715374,0.0079968040219581,0.7185250431501015,0.0884703465454772,0.6806516305983612,0.2125196301045395,10.702036950783622,-1.3085149149399675,0.2133647686558044,-1.0721601577744757
1.86,-0.3632224681723993,0.1259953168561958,1.551651940074506,-0.0440822936804911,0.1289040779921407,0.0167033969799117,0.2891135637038133,-0.3790632437762015,0.010519327273359,-0.3684662039393926,0.1320696914382995,1.5515831558461874,0.3148775389382932,-0.4128312071309076,0.0090238487689829,0.6475193937346246,0.0168537638259969,0.6204531241237932,0.1844864132460121,10.701835910709631,-1.3157644333149467,0.2120623788398713,-1.076212048585648
1.88,-0.3574527471260895,0.1185457166763444,1.5518994743648016,-0.0414124864223883,0.1253906530544741,0.0175173710000334,0.2876650994254989,-0.3665858742154232,0.0140218757888519,-0.36226271503448,0.1237351737628687,1.5517430919266266,0.3242837263236139,-0.4050418538496481,0.0110779382630324,0.6520173426090164,-0.0724232139157204,0.6238684780389109,0.1751274257746463,10.68031774078554,-1.3239201873405682,0.2110444417156587,-1.0797297808931876
1.9,-0.3517345945272081,0.1113401141945395,1.552212519448328,-0.0389802518177319,0.1217418856343643,0.0183099060046163,0.2840522601034226,-0.3546361543173628,0.017088594595155,-0.3560592261295673,0.115400656087438,1.5519030280070658,0.3336899137089346,-0.3972525005683885,0.013132027757082,0.6427541867739499,-0.1806419661038144,0.5974859949030242,0.153335940315157,10.65885462181177,-1.3317150217108595,0.2101417967707926,-1.0822030287523094
1.92,-0.3461135632137603,0.1043679686261564,1.5525822908083011,-0.0367614261436243,0.1188067136959231,0.0190504018316735,0.2781494000484015,-0.3432017885282386,0.0197339631292837,-0.3493854278553886,0.1074556060760702,1.5521656685622074,0.3430961010942552,-0.389463147287129,0.0151861172511315,0.6568608157555427,-0.2951430027510554,0.5717182894562078,0.1322684267064335,10.61944974969174,-1.3373930200930824,0.2093029221755645,-1.084200517795831
1.94,-0.3409012452440855,0.0979518261832455,1.5529820299093275,-0.0348344289558282,0.1174574149835953,0.019682311321454,0.2708912839932242,-0.3327698817785797,0.0222050275894799,-0.3427116295812099,0.0995105560647024,1.5524283091173492,0.3525022884795759,-0.3816737940058695,0.0172402067451811,0.6473235023356652,-0.3629058027588616,0.5215953374829441,0.1235532230098094,10.61944974969174,-1.3392512295566537,0.2082970735717277,-1.0867102135735711
1.96,-0.3355616042873086,0.091409024718378,1.5534536424961145,-0.0329562629127389,0.1177631200221108,0.0202739235172558,0.2636446060461769,-0.322094908221179,0.0248187786787867,-0.3358026766223982,0.0917602398853662,1.552742301909842,0.3619084758648965,-0.3738844407246099,0.0192942962392306,0.6582193716312965,-0.3623338973523682,0.5337486778700357,0.1306875544653399,10.62181486424288,-1.3374935846334317,0.2072435697512756,-1.090764148988474
1.98,-0.3303563485744438,0.0850766421683739,1.5539778880585713,-0.0311835375761841,0.1193837400396561,0.020814433125469,0.2574085909848509,-0.3117189533152898,0.0274673397604824,-0.3286585689789535,0.0842046575380614,1.553107646939686,0.3713146632502172,-0.3660950874433504,0.0213483857332802,0.6196030984783802,-0.3118007530662964,0.5187977452944609,0.1324280540847879,10.622927736483687,-1.3346649315827048,0.2062925626271755,-1.0964678466234916
2.0,-0.325263300170021,0.0789486832595597,1.5545558186955464,-0.0294826122979874,0.1218621018296735,0.0213242705168227,0.2523670068980195,-0.3016437805202757,0.0301767657738326,-0.3174859190252013,0.0694906945026094,1.555351255046595,0.2744756266449986,-0.2815470020362456,0.0451356801156403,0.5793696278624791,-0.2520792043415709,0.5037586397507066,0.1354713006675067,10.62785601651558,-1.331457765780095,0.2054638582980489,-1.102972072287859
2.02,-0.3204684107923491,0.0732697553041098,1.5551826448075543,-0.0292881652398211,0.1235937896459611,0.0217285218866912,0.2523634691989913,-0.2961090497499729,0.0356364956564642,-0.3174859190252013,0.0694906945026094,1.555351255046595,0.2744756266449986,-0.2815470020362456,0.0451356801156403,0.3887219687847312,-0.0001768849514111,0.2767365385151377,0.2729864941315801,10.635408573446512,-1.3239692082739565,0.2055131650910083,-1.1064809356828296
2.04,-0.3154273273244136,0.0674194201162537,1.5559578567200087,-0.0313472948057692,0.1239231953918451,0.022041194616049,0.2516083168585578,-0.2890329892073774,0.0415832320830832,-0.3174859190252013,0.0694906945026094,1.555351255046595,0.2744756266449986,-0.2815470020362456,0.0451356801156403,0.4636932229055557,-0.0377576170216747,0.3538030271297732,0.2973368213309527,10.819157060428552,-1.3258044125734911,0.2088110001249251,-1.1125469268694084
2.06,-0.3104120581802071,0.0617352696607787,1.5568497858312411,-0.0348840881809164,0.1233234801811292,0.022285913345634,0.2498500809548479,-0.2793039269209063,0.0472786350047053,-0.3147411627587513,0.066675224482247,1.5558026118477517,0.2778890337770281,-0.2755126117804368,0.0486693481866719,0.5704902735953333,-0.0879117951854968,0.4864531143235595,0.2847701460811008,10.832272965912123,-1.328760338235073,0.2137824265948072,-1.1190155137597804
2.08,-0.3054438684041031,0.0562790855060638,1.557851507170596,-0.0384083787081822,0.1222832723926245,0.0225568473048935,0.2469824622990831,-0.2668720544638372,0.052597201317819,-0.3092516502258513,0.0610442844415221,1.556705325450065,0.2847158480410872,-0.2634438312688191,0.055736684328735,0.6911255985179344,-0.1433809327882382,0.6215936228534502,0.2659283156556866,10.826024098826563,-1.332405275931252,0.2186105777325574,-1.1248833823012816
2.1,-0.300786949220372,0.0513403467858887,1.5588990166343693,-0.0411230493780883,0.1212856895662177,0.0228680555010452,0.243360835132082,-0.253798161445344,0.0573949034185061,-0.3037621376929513,0.0554133444007971,1.5576080390523774,0.2915426623051463,-0.2513750507572015,0.0628040204707982,0.7194803809741848,-0.1810813583500548,0.6536946509246605,0.2398851050343545,10.815190616687689,-1.3358101292696405,0.2230326888342097,-1.130941267795019
2.12,-0.2959657734182973,0.0464152091811321,1.5600991391129342,-0.0431914765036314,0.1204933147870874,0.0232475733622288,0.2389482434525032,-0.2395373411319463,0.0623576026859006,-0.2979312844468484,0.0503858433856531,1.5588641194617934,0.2983694765692053,-0.2393062702455838,0.0698713566128613,0.7865595104000469,-0.2206295839789401,0.713041015669888,0.2481349633697272,10.820774147570772,-1.3384962507352922,0.2266090534630108,-1.1372311723062445
2.14,-0.2912376856926809,0.041782471745865,1.5613987691473603,-0.0443662515824173,0.1201410905380114,0.0236752033084994,0.2341376553940248,-0.2246154666650956,0.0673456446609285,-0.2921004312007454,0.0453583423705091,1.560120199871209,0.3051962908332644,-0.2272374897339661,0.0769386927549244,0.8226248504291992,-0.2405294029239182,0.7460937233425349,0.2494020987513913,10.820774147570772,-1.340356378624704,0.2291687696640231,-1.1440622394696465
2.16,-0.2868358232919976,0.0376657779419437,1.562726118004338,-0.0443858149840815,0.1202528778458284,0.0241398937824945,0.2295148403099083,-0.2096520546067462,0.0721164090089036,-0.2860989075980411,0.0406325608681555,1.561552963684177,0.3120231050973235,-0.2151687092223485,0.0840060288969876,0.8185876742808318,-0.2311407542058274,0.7481706029174667,0.2385382173987572,10.833513419915109,-1.341683960276329,0.2306985955822277,-1.1523478837691434
2.18,-0.2822954647148918,0.0336415675714372,1.5642226125446412,-0.0429606858127692,0.1207898152760914,0.0247105946406223,0.2248182833618925,-0.1937048497956344,0.0772829126248026,-0.2799267136387352,0.0362084988785923,1.563162410900696,0.3188499193613825,-0.2030999287107308,0.0910733650390507,0.8704363102298207,-0.234827847400787,0.7973602405555932,0.2583251807949507,10.84752482974909,-1.3424863122558643,0.2306616706872029,-1.1615978709769348
2.2,-0.2778460679976514,0.0299323953788157,1.5658242103861102,-0.0399392011676015,0.121675202028646,0.0253750582279096,0.2204214223301848,-0.1784317827448998,0.0826302285422575,-0.2710545505467971,0.0239563250816555,1.5680867581758813,0.246301553813319,-0.1734002909969636,0.061988711884048,0.8384401463274708,-0.2198430515853888,0.7636533525367306,0.2673657958727454,10.867662370824291,-1.3428741340907355,0.2288551859905815,-1.171177974939648
2.22,-0.2735023577435588,0.0265246572330303,1.5674233505229185,-0.035204455611567,0.1230075248782133,0.0261379697075628,0.2141966628256894,-0.1638245082281066,0.0764820198575078,-0.2710545505467971,0.0239563250816555,1.5680867581758813,0.246301553813319,-0.1734002909969636,0.061988711884048,0.8513527026576454,-0.3112379752247679,0.7303637258396556,-0.3074104342374872,10.161359832219205,-1.3523862772910713,0.226192657936341,-1.1820321277180958
2.24,-0.2694906046566313,0.0235174248021123,1.568814984511829,-0.0299512018688746,0.1248497937047567,0.0268930854374619,0.2085520249455854,-0.1535920671910469,0.0703788167898001,-0.2710545505467971,0.0239563250816555,1.5680867581758813,0.246301553813319,-0.1734002909969636,0.061988711884048,0.6591924492515189,-0.2822318940051999,0.511622051852989,-0.3051601533853844,10.20872711469474,-1.3498700121777392,0.2207119341800311,-1.1825961059872754
2.26,-0.2653739040024035,0.0205373229986709,1.5701639990831844,-0.0247668882728756,0.1273018250206198,0.0276484689561337,0.2035420356312964,-0.1449623059620367,0.0648765775029125,-0.2685915350086639,0.0222223221716859,1.5687066452947218,0.2505982079036044,-0.1693393792372294,0.0589298717358971,0.5697530363437882,-0.250499465714453,0.4314880614505079,-0.275111964344378,10.20872711469474,-1.3461562347837397,0.2155554398702961,-1.183948469974468
2.28,-0.2613465698135758,0.0177153394847946,1.5714116075124418,-0.0203096031872441,0.1300946448867532,0.0283454524185737,0.1995570995897988,-0.1376091292964149,0.0601816435499806,-0.2636655039323975,0.0187543163517466,1.5699464195324029,0.259191516084175,-0.1612175557177611,0.0528121914395953,0.479560546628535,-0.1992468020748775,0.3676588332810898,-0.2347466976465945,10.258798701938758,-1.342186242706736,0.2112064052417873,-1.1859967525373984
2.3000000000000003,-0.257387988484594,0.0150311535113175,1.5725724105400962,-0.0166585198135674,0.1330424106496835,0.0289830658289808,0.1965966981953106,-0.1310453969510589,0.0561175104454015,-0.2587394728561312,0.0152863105318073,1.5711861937700835,0.2677848242647456,-0.1530957321982928,0.0466945111432934,0.4134118304115647,-0.148020069724411,0.3281866172677991,-0.2032066552289563,10.303186317341895,-1.338532313387261,0.207919587652592,-1.1884217330999125
2.32,-0.2536728444889949,0.0125979530128722,1.573604014806422,-0.0138573281271086,0.1358306027139593,0.0295410122130346,0.1946839538907891,-0.1252969306850326,0.0526640576063576,-0.2533837763708362,0.0122243958878415,1.5721200839929497,0.2763781324453161,-0.1449739086788245,0.0405768308469916,0.3486753206696096,-0.0956372152260728,0.2874233133013146,-0.172672641952196,10.364193498413442,-1.3350790577810552,0.2052555925506567,-1.1913157721190957
2.34,-0.2497935984584131,0.0101516464396523,1.574617518704187,-0.0115034740068231,0.1386323457754754,0.0300854001277698,0.1934067999361119,-0.119573063583285,0.0488514193712108,-0.2480280798855413,0.0091624812438756,1.5730539742158154,0.2849714406258868,-0.1368520851593562,0.0344591505506897,0.3497498646694497,-0.0638576977338586,0.2861933550873802,-0.1906319117573399,10.364193498413442,-1.3324979605621088,0.2033197101286336,-1.1943071147041435
2.36,-0.2459314644164585,0.0078187714717176,1.5755530861275555,-0.009608126495165,0.1411761467992413,0.0305956819126814,0.1929158913149059,-0.1139718015125243,0.0448868045941595,-0.2424575506957322,0.0063036121878965,1.5738349224312738,0.2935647488064574,-0.1287302616398879,0.0283414702543879,0.3439959970338705,-0.0245454310603021,0.2800631035380356,-0.1982307388525658,10.350395773544731,-1.3304434553519988,0.2019407319962475,-1.1967491474559095
2.38,-0.2422651277750218,0.005704165597719,1.5763675021560126,-0.0081257939658441,0.1432385501253522,0.0310555522266655,0.1930441218990995,-0.1088868150669743,0.041036595412325,-0.2366721888014087,0.003647788719904,1.5744629286393246,0.302158056987028,-0.1206084381204196,0.022223789958086,0.3189735137046346,0.0064115292096822,0.2542493222774992,-0.1925104590917242,10.350395773544731,-1.3290651961235729,0.2008682739061758,-1.1987810015180445
2.4,-0.2383989814052889,0.0035794346266118,1.577144996791292,-0.0069001140918025,0.1449985889020975,0.0315120015389011,0.1935740451501828,-0.1038649018046848,0.0369115705302863,-0.2326129216800669,0.0002598248443702,1.5784193319266289,0.2115169740844681,-0.0922637986201455,0.040368348356597,0.3260224752353595,0.026496162554164,0.2510956631144749,-0.2062512441019351,10.348558337299435,-1.3284308661424118,0.200177384226611,-1.20018542838331
2.42,-0.2344727960330986,0.0015598518845758,1.577900098689337,-0.0058784616757907,0.1452097834159766,0.0319552953687594,0.1990558084765211,-0.0983939127859026,0.0391184442314688,-0.2326129216800669,0.0002598248443702,1.5784193319266289,0.2115169740844681,-0.0922637986201455,0.040368348356597,0.4026528950057201,0.2740881663169159,0.2735494509391131,0.110343685059127,10.759913074403812,-1.3211516775396153,0.198986870116541,-1.199722460587186
2.44,-0.2304385075868857,-0.0003564105142619,1.578708680283475,-0.0050505806275904,0.1427571522579584,0.0323890108750365,0.2038724189786184,-0.093506941339084,0.0416016414727176,-0.2326129216800669,0.0002598248443702,1.5784193319266289,0.2115169740844681,-0.0922637986201455,0.040368348356597,0.3648578325522106,0.2408305251048625,0.2443485723409265,0.1241598620624399,10.759913074403812,-1.3279503496824658,0.1991994166070983,-1.202315484063621
2.46,-0.2265340230979625,-0.002089404988551,1.5795171890268136,-0.0045880032959103,0.1384486639129464,0.0327767556648938,0.2066392274410773,-0.0891517745396625,0.0433972772205426,-0.2304977519392222,-0.0006628131418311,1.5788230154101948,0.2152115445215418,-0.0889391953307797,0.0402346989454514,0.2731621068961838,0.1383404231229457,0.2177583399710768,0.0897817873912489,10.733983957401506,-1.337947177050972,0.1997979526345868,-1.2019476835912872
2.48,-0.2223994191336608,-0.0038263624769278,1.5804004444272532,-0.0044918615546338,0.1327312439838147,0.0331522406035393,0.2063818542444681,-0.0847680051057737,0.0448235630401136,-0.2262674124575328,-0.002508089114234,1.5796303823773268,0.2226006853956892,-0.0822899887520482,0.0399674001231602,0.230856918084232,-0.012868659830463,0.2191884716944404,0.0713142909785486,10.69446304826306,-1.3484573183635014,0.2007099253666858,-1.1990116668466249
2.5,-0.2183047663691088,-0.0054760288190525,1.5813061310383785,-0.0047970366427924,0.1269800653092661,0.0334917939375171,0.2029845376678911,-0.0803996488405076,0.0456873396574768,-0.2220370729758435,-0.0043533650866369,1.5804377493444588,0.2299898262698366,-0.0756407821733166,0.039700101300869,0.2800464534076313,-0.1698658288288454,0.2184178132633038,0.0431888308681602,10.659538233269814,-1.356875233932978,0.2017879076024582,-1.1948342986074003
2.52,-0.2143085829926383,-0.0070368186820738,1.582223936585853,-0.0054402886485812,0.1221712940054613,0.0337979620087855,0.1966925038535055,-0.0758847153888118,0.0460593070744943,-0.2174372764504467,-0.0058661807301033,1.581231751370476,0.237378967143984,-0.0689915755945851,0.0394328024785778,0.3876618157425932,-0.3146016907192836,0.225746672584793,0.0185983708508769,10.62414996807638,-1.363917872064592,0.2031660083095228,-1.190425511288639
2.54,-0.2106545118628495,-0.0084332223569107,1.5831011508937818,-0.006266208336054,0.1194433151675789,0.0340599065979289,0.1882263074428729,-0.0713273578723926,0.0462645639976885,-0.21283747992505,-0.0073789963735696,1.5820257533964934,0.2447681080181315,-0.0623423690158536,0.0391655036562866,0.4808537189218511,-0.423309820531631,0.227867875820957,0.010262846159707,10.597269691913423,-1.3673894032439105,0.2046288212487298,-1.187273458364958
2.56,-0.2069926976950044,-0.0098045304724796,1.5840279666953725,-0.0071953411449854,0.119223911131641,0.0343094638243853,0.1787468884475732,-0.0660289336531918,0.0463970068309329,-0.2080529548777996,-0.0087255818525676,1.5828130729519536,0.2521572488922789,-0.055693162437122,0.0388982048339954,0.5430244580107311,-0.4739709497649833,0.2649212109600389,0.0066221416622221,10.596161340886283,-1.3638785502865518,0.2057536245323211,-1.1861992647665778
2.58,-0.2035056051696747,-0.0110626504639702,1.5849567510439913,-0.0079401468218949,0.1212580280964548,0.0345478551391321,0.1707473076625018,-0.0600879320240786,0.0464665731754603,-0.2030837013086955,-0.0099059371670974,1.5835937100368565,0.2595463897664263,-0.0490439558583905,0.0386309060117042,0.4982309518945517,-0.3999790392535701,0.297050081455661,0.0034783172263685,10.577172074398732,-1.3585929266635046,0.2066797022449423,-1.188224689883414
2.6,-0.2003229366110997,-0.0121423731225713,1.5858404049419317,-0.0082643455533255,0.124551477913034,0.0347817814972448,0.1648901214273556,-0.053924201907229,0.046534466073138,-0.1949682397865496,-0.0140670470651741,1.5872800797027642,0.1828411003319769,-0.0349884012080004,0.0400729109872581,0.4251552921936288,-0.2928593117573111,0.3081865058424788,0.0033946448838882,10.577172074398732,-1.3520076349330437,0.2072937172026063,-1.1928531131073474
2.62,-0.1970498391103179,-0.0131709110515744,1.5867640003137444,-0.0087476716911895,0.1280461265453204,0.0350090168713731,0.1627944817606755,-0.0491209924503615,0.0457717138860897,-0.1949682397865496,-0.0140670470651741,1.5872800797027642,0.1828411003319769,-0.0349884012080004,0.0400729109872581,0.2647844292908459,-0.1047819833340041,0.2401604728433759,-0.038137609352417,10.57786388356999,-1.345075366719831,0.2079847983446953,-1.196840046972443
2.64,-0.1938104553425569,-0.0140979218970792,1.5876695580632378,-0.0097921925624745,0.1305942305317624,0.0351959603406649,0.1612226695860915,-0.0437481996653567,0.0448171652588689,-0.1949682397865496,-0.0140670470651741,1.5872800797027642,0.1828411003319769,-0.0349884012080004,0.0400729109872581,0.2839395133848877,-0.0785906087291996,0.2686396392502382,-0.0477274313610377,10.525365279067046,-1.3430253630967512,0.2096639731080553,-1.2006177577021369
