t,x,y,z,roll,pitch,yaw,v_x,v_y,v_z,ref_x,ref_y,ref_z,ref_v_x,ref_v_y,ref_v_z,a_com,a_x,a_y,a_z,thrust,wind_x,wind_y,wind_z
0.0,1.4917278328682264,-0.5216368320482134,3.0048214932729658,0.0157068957207074,0.1364307182508474,0.026117381770185,0.0055549908049046,-0.0073614894573661,0.0151512373090702,1.491898603884703,-0.521879724503009,3.0052929039364757,-0.0944789026712418,0.0922677339709981,-0.0848067494856825,0.8868616603919277,0.2777495402452301,-0.3680744728683071,0.7575618654535141,10.553401156168547,-1.2848663513888612,0.1604546645640748,-1.1726066787771403
0.02,1.4919697881397165,-0.5220083358759152,3.004898073607225,0.0058667290900018,0.1315385858877756,0.0253887696709173,0.0179976185839548,-0.0256171658109761,-0.0084343448966607,1.491898603884703,-0.521879724503009,3.0052929039364757,-0.0944789026712418,0.0922677339709981,-0.0848067494856825,1.6158344540507883,0.6221313889525132,-0.9127838176805,-1.1792791102865503,9.177457322719874,-1.2868772786483742,0.1703648123881571,-1.1529349458515394
0.04,1.492411048410229,-0.5225247146343854,3.00442481766138,-0.0103921583860555,0.1174967110570715,0.0243488849346045,0.0241626819596593,-0.024374436698577,-0.0376447778421207,1.491898603884703,-0.521879724503009,3.0052929039364757,-0.0944789026712418,0.0922677339709981,-0.0848067494856825,1.493989436822155,0.3082531687852257,0.0621364556199523,-1.4605216472729994,9.177457322719874,-1.316979419804361,0.1881256611599308,-1.12297869929826
0.06,1.4928447422804016,-0.5229214009294691,3.0034362658399023,-0.0261101803377034,0.099018472729143,0.0237092974397496,0.0203509653958209,-0.0171453611811955,-0.0648431395055448,1.4909538148579906,-0.520957047163299,3.0044448364416185,-0.114478902969265,0.1122677342690213,-0.1048067497837057,1.4199820361306204,-0.1905858281919194,0.3614537758690797,-1.3599180831712063,8.898396156774652,-1.3461159370770637,0.2041810510491133,-1.0834075958627627
0.08,1.493126633187305,-0.5231545701652119,3.0018472683757635,-0.0419798043688368,0.0778168346442941,0.0235202686207149,0.0073493857492041,-0.0062235582689464,-0.09256796514622,1.489064236804566,-0.519111692483879,3.0027487014519045,-0.1544789035653115,0.1522677348650677,-0.1448067503797521,1.6255712910905935,-0.6500789823308416,0.5460901456124533,-1.3862412820337615,8.884598573737094,-1.3716774567351495,0.2191780683636703,-1.0383987708376612
0.1,1.4930640437412055,-0.5231396939778503,2.999711860139099,-0.0570551989289572,0.0575339426302942,0.0237401720396067,-0.0133621925484094,0.0074733367262599,-0.119557643814845,1.487174658751141,-0.5172663378044591,3.001052566462191,-0.194478904161358,0.1922677354611142,-0.1848067509757986,1.8337237814918577,-1.035578914880681,0.6848447497603177,-1.3494839334312496,8.898831844430788,-1.389878615724796,0.2317326335590464,-0.9968748983211204
0.12,1.4925231749893493,-0.522823458838632,2.997043197670988,-0.0713746949509563,0.0400136966775354,0.0241999838417414,-0.0398575651989335,0.0237630299160133,-0.1459349201753755,1.483285080667914,-0.5134209830952368,2.997356431442675,-0.2344789047574044,0.2322677360571607,-0.224806751571845,2.0390681599116784,-1.3247686325262031,0.8144846594876702,-1.3188638180265255,8.931608474463701,-1.4012285074909072,0.243206310906364,-0.9560249107785894
0.14,1.49140572300256,-0.5221558326493434,2.993843672576029,-0.0849864678093866,0.0263350088022567,0.0247126284574766,-0.0703714130784404,0.0424740025297879,-0.1726892418595855,1.4793955025846866,-0.5095756283860146,2.993660296423159,-0.2744789053534509,0.2722677366532072,-0.2648067521678915,2.23438422017639,-1.5256923939753464,0.9355486306887296,-1.3377160842104996,8.972770925091936,-1.4056528395419945,0.2531980543142493,-0.920178199378438
0.16,1.4897482223024328,-0.5211284364736393,2.990302562482558,-0.0965072093908321,0.0174132135943987,0.0251385052220349,-0.102381198412646,0.0644159803293615,-0.1986676738126651,1.4745059244865582,-0.504730273661891,2.988964161388742,-0.3144789059494973,0.3122677372492536,-0.304806752763938,2.3350351569300267,-1.6004892667102804,1.0970988899786822,-1.2989215976539792,8.961594174631955,-1.4061978886273951,0.2616119556818317,-0.8915525056714843
0.18,1.487324513474591,-0.5195725494511674,2.9860362175023574,-0.1065201966727962,0.0129367212298079,0.0253709119465389,-0.138217125736473,0.0897427435927308,-0.2265630267169427,1.468616346373529,-0.4988849189228664,2.983268026339424,-0.3544789065455437,0.3522677378453,-0.3448067533599844,2.5999083340627385,-1.7917963661913492,1.2663381631684658,-1.3947676452138815,8.961594174631955,-1.4016070586400795,0.2680240443181332,-0.8714645923744667
0.2,1.4841838546119548,-0.517489321502951,2.981211006661613,-0.1141780292707197,0.0137236216193516,0.0252501631233294,-0.1733226637338147,0.1167873915548666,-0.2544262309948051,1.4804136571877673,-0.5150854122715308,2.97470806616651,-0.2382171272265891,0.189742745082847,-0.3265630282070589,2.6173316250088288,-1.7552768998670836,1.3522323981067883,-1.3931602138931187,8.951961801686139,-1.3909162596342244,0.2723907409017396,-0.8622546135430204
0.22,1.4805439155426616,-0.5148769878020384,2.976249381839067,-0.1160248790874164,0.0193056562353899,0.0249647098764699,-0.2074427531755703,0.1554696013825558,-0.2653481082276671,1.4804136571877673,-0.5150854122715308,2.97470806616651,-0.2382171272265891,0.189742745082847,-0.3265630282070589,2.6361815486402294,-1.7060044720877785,1.934110491384458,-0.546093861643096,8.949607540985198,-1.3706513607253472,0.2736167869652063,-0.8702254417480817
0.24,1.476067889373703,-0.5114094703814334,2.97082706619576,-0.1116072332721042,0.0297448015425705,0.0246033046545091,-0.2375883892784216,0.1879956137987342,-0.2763669277549643,1.4804136571877673,-0.5150854122715308,2.97470806616651,-0.2382171272265891,0.189742745082847,-0.3265630282070589,2.284794981786151,-1.5072818051425656,1.6263006208089208,-0.550940976364861,10.046228680515014,-1.3509338472878247,0.2702805277042042,-0.887579339018166
0.26,1.471050533812863,-0.5073678034324577,2.965150492460586,-0.1051303049026463,0.0425660771988204,0.0241883757460162,-0.2620612129095881,0.2141419893891531,-0.2906634579661024,1.4780314859155017,-0.5131879848207024,2.97144243588444,-0.2582171275246124,0.2097427453808702,-0.3465630285050821,1.9280448834735535,-1.2236411815583257,1.307318779520944,-0.7148265105569068,9.822626120291716,-1.3334496040321195,0.2655614892632532,-0.9060534088955562
0.28,1.4658804638888303,-0.5030816841358865,2.959462308395912,-0.0988804934315811,0.0553998006331853,0.0238143651414216,-0.2805965611704284,0.235672226430658,-0.307375641896041,1.4732671433709696,-0.5093931299190454,2.9649111753202986,-0.2982171281206588,0.2497427459769166,-0.3865630291011285,1.6480346885928463,-0.9267674130420178,1.0765118520752472,-0.8356091964969309,9.38699309074218,-1.3169457938880016,0.2604598810430353,-0.925301905458427
0.3,1.4601030481893915,-0.4981538412979079,2.953097160355412,-0.0929634457041854,0.0683635057712366,0.0235109904931806,-0.2959342760257614,0.2560815008382486,-0.3282851401368634,1.4685028008264378,-0.5055982750173885,2.9583799147561574,-0.3382171287167053,0.2897427465729631,-0.426563029697175,1.649993254161049,-0.7668857427666459,1.02046372037953,-1.0454749120411193,9.38699309074218,-1.3031233860246183,0.2559456854322005,-0.9409420387936434
0.32,1.4543631486125204,-0.4931076362067887,2.946635709144774,-0.0881615624775201,0.0794056722785089,0.0233477284678583,-0.3074109668882492,0.2742017478268734,-0.3508515283773756,1.4617384582521036,-0.4998034200859292,2.949848654162214,-0.3782171293127517,0.3297427471690095,-0.4665630302932214,1.5566788865268593,-0.5738345431243908,0.9060123494312372,-1.128319412025608,9.20666875243478,-1.291198324299545,0.2519691910886324,-0.955321142336693
0.34,1.448111587933093,-0.4874341847931862,2.939352582173069,-0.083994476630507,0.089227742815554,0.0233212053403814,-0.3170566940940184,0.2922899030167605,-0.3763742192176967,1.4549741156777696,-0.49400856515447,2.94131739356827,-0.4182171299087982,0.369742747765056,-0.5065630308892679,1.6367873710657788,-0.4822863602884614,0.9044077594943578,-1.2761345420160553,9.06344201615684,-1.2816388500899136,0.2486800725076449,-0.9660050029412368
0.36,1.441682063459516,-0.4813964310510832,2.931544869125475,-0.0803964032188053,0.0971202915959563,0.0234506446839092,-0.3253810226380823,0.3105244575582804,-0.4031666690180029,1.4472097730885345,-0.4872137102081096,2.931786132959425,-0.4582171305048446,0.4097427483611024,-0.5465630314853143,1.6730427305803557,-0.4162164272031948,0.9117277270759948,-1.3396224900153102,8.977148896761719,-1.274737988212246,0.2458676802280906,-0.9733731353007692
0.38,1.435095819676215,-0.47499708877051,2.923190189762401,-0.0769788004651769,0.1032839735326642,0.0237296101202013,-0.3328526978939015,0.3283914882872841,-0.4309525604188285,1.438445430484398,-0.479418855246848,2.92125487233568,-0.498217131100891,0.4497427489571489,-0.5865630320813607,1.6934524492424186,-0.3735837627909605,0.8933515364501821,-1.3892945700412829,8.924618327767348,-1.270118318423861,0.2433174070116501,-0.977707940851376
0.4,1.428705118580867,-0.4685919323657391,2.914730823663477,-0.0737883919827059,0.1077897646425908,0.0241094738356428,-0.3395044339237829,0.3448359493214061,-0.4581062593041412,1.4184531847815198,-0.4585775143561458,2.9016425617414594,-0.4328526993840176,0.4283914897774002,-0.5309525619089447,1.6217191912197726,-0.3325868014940669,0.8222230517061002,-1.3576849442656302,8.880337154155313,-1.266746995010821,0.2406715008650524,-0.9801053144112394
0.42,1.4218730433438302,-0.4615140966948188,2.905482884470521,-0.0708482039930032,0.1112885666221576,0.0245815006096353,-0.3432381873905473,0.3622606180953756,-0.4641565988433703,1.4184531847815198,-0.4585775143561458,2.9016425617414594,-0.4328526993840176,0.4283914897774002,-0.5309525619089447,0.9409657344625806,-0.1866876733382205,0.8712334386984738,-0.3025169769614561,8.839581812940196,-1.2530689742148162,0.2379113156835973,-0.9848051354072423
0.44,1.4149776575349202,-0.4541008713427825,2.896116085169256,-0.0688344887838454,0.1134100491303361,0.0250903374001275,-0.3462385620447477,0.3783618066195811,-0.4726085303712821,1.4184531847815198,-0.4585775143561458,2.9016425617414594,-0.4328526993840176,0.4283914897774002,-0.5309525619089447,0.92152816900799,-0.1500187327100222,0.8050594262102778,-0.4225965763955924,10.173608067695568,-1.2540889932823476,0.2371534127208866,-0.988471090127772
0.46,1.408367577166621,-0.4467605616902357,2.8870090462453395,-0.0677372356048255,0.1140475543329682,0.0256115211701826,-0.3495374579346783,0.3935615302132499,-0.485576454287188,1.4141246577876796,-0.4542935994583718,2.89633303612237,-0.4528526996820408,0.4483914900754234,-0.5509525622069679,1.012523286281923,-0.1649447944965271,0.7599861796834417,-0.648396195795295,9.610968399472767,-1.2569938368063431,0.2370208253832585,-0.988887962955292
0.48,1.4013357625608631,-0.4387264101587899,2.877118877858732,-0.0673020245491639,0.1133615743161757,0.0262001740955104,-0.3535546263804071,0.409082030530327,-0.5029114437307421,1.4054676037999994,-0.4457257696628238,2.885713984884191,-0.4928527002780873,0.4883914906714698,-0.5909525628030143,1.180598822019868,-0.2008584222864429,0.7760250158538512,-0.8667494721777053,9.610968399472767,-1.2604404544590202,0.2374092988968217,-0.9865233283104196
0.5,1.3942176294213735,-0.4303845000788254,2.8668506119915795,-0.0676504508699027,0.1112576147151201,0.0268289363868466,-0.358157371660073,0.4243728871446244,-0.5231458583087973,1.396810549812319,-0.4371579398672758,2.8750949336460123,-0.5328527008741337,0.5283914912675163,-0.6309525633990608,1.2888241670463645,-0.2301372639832932,0.7645428307148705,-1.0117207289027597,9.404950406637,-1.2646677146312668,0.23838276639769,-0.9814269201686197
0.52,1.3869993592271792,-0.4217373184556242,2.856152864723624,-0.0687877792363807,0.1076965676411153,0.0275041161372835,-0.3635766248165031,0.4396552111015551,-0.5455873811332224,1.3861534957948365,-0.4265901100419255,2.862475882378031,-0.5728527014701802,0.5683914918635627,-0.6709525639951073,1.3843226475222858,-0.2709626578215052,0.7641161978465344,-1.122076141221251,9.252296232108163,-1.26927772700238,0.2399235435923976,-0.974896927883133
0.54,1.3800309837082938,-0.4132368074822702,2.84556848129578,-0.0705679651286912,0.1030409257435518,0.0281922628541548,-0.3699189859424503,0.4544398941453416,-0.5674152626079364,1.3754964417773534,-0.4160222802165752,2.8498568311100496,-0.6128527020662267,0.6083914924596092,-0.7109525645911537,1.3557920259310778,-0.3171180562973608,0.7392341521893248,-1.091394073735702,9.13942168344147,-1.2746515335531143,0.2421673896600606,-0.966503793198954
0.56,1.3725391511496006,-0.4039686974548283,2.833974916229019,-0.0727249603726611,0.0974309827640696,0.0289609281994861,-0.3791437230002897,0.4716500580142137,-0.5908008907598222,1.3638393877449695,-0.4044544503763237,2.8362377798271674,-0.652852702662273,0.6483914930556556,-0.7509525651872001,1.523296686661846,-0.4612368528919719,0.8605081934436071,-1.1692814075942914,9.108592713566397,-1.2801037820677723,0.2446770608842234,-0.9576713899499432
0.58,1.364837960789132,-0.3943413130513851,2.8219112128243853,-0.0743880007505773,0.0919116164317084,0.0297710226411787,-0.3906346371903446,0.4900961598819842,-0.6143871455272492,1.3511823336976847,-0.391886620521171,2.821618728529384,-0.6928527032583195,0.688391493651702,-0.7909525657832466,1.603598451135242,-0.574545709502744,0.922305093388523,-1.1793127383713464,9.085022454038151,-1.2841434684738295,0.2467192510791103,-0.9498238568433912
0.6,1.3568843783618172,-0.3843351872163195,2.809372537029313,-0.0750871585091816,0.0871529654433975,0.0305983697797129,-0.4042301385744388,0.5093977524441363,-0.63827914096172,1.3453062289296147,-0.3698365050572859,2.791191855548022,-0.4906346386804607,0.5770957177943339,-0.7143871470173653,1.6794467684039651,-0.6797750692047078,0.9650796281076068,-1.1945997717235424,9.076151204543748,-1.2870516341661802,0.2478872346442296,-0.9436823075991484
0.62,1.3490232692878326,-0.374377849207416,2.7972420795175825,-0.0721738344987375,0.0856494547895959,0.0314034269893678,-0.4222486933297166,0.536398435979029,-0.6373268843007961,1.3453062289296147,-0.3698365050572859,2.791191855548022,-0.4906346386804607,0.5770957177943339,-0.7143871470173653,1.6237395261930456,-0.900927737763893,1.3500341767446356,0.0476128330461955,9.062823223288888,-1.2781706203978342,0.2450938130938956,-0.9406420497500346
0.64,1.3404005035841813,-0.3634225636093412,2.784474971449012,-0.0655127802572164,0.0886080988908591,0.0321670941306516,-0.4385233309163378,0.5569963475735727,-0.6397263285249295,1.3453062289296147,-0.3698365050572859,2.791191855548022,-0.4906346386804607,0.5770957177943339,-0.7143871470173653,1.318043173816044,-0.8137318793310588,1.0298955797271858,-0.1199722112066703,10.202045282623658,-1.272920462693304,0.2405564107530243,-0.9527776793438464
0.66,1.3314868643886255,-0.3521073526447119,2.7715969734970827,-0.0581267526980647,0.0943327098104623,0.0328148260317088,-0.4516498653263253,0.5732378325938524,-0.6482039595004827,1.34039988254281,-0.3640655478793426,2.784047984077849,-0.5106346389784839,0.5944956293768038,-0.7343871473153885,1.126900581504656,-0.6563267204993728,0.8120742510139833,-0.4238815487776604,9.84167861246533,-1.266615061462948,0.2350818072369115,-0.965423566352401
0.68,1.3223409210811856,-0.3404982718510295,2.758486554684477,-0.0509774209707858,0.1014242393900025,0.0333972498430983,-0.4619800317738298,0.5867801679565438,-0.662391873894454,1.330587189769201,-0.3525236335234559,2.7697602411375017,-0.5506346395745304,0.6292954525417437,-0.7743871479114349,1.1083818168386363,-0.5165083223752281,0.6771167681345669,-0.7093957196985634,9.84167861246533,-1.2598822047124447,0.2297747606073159,-0.9764612691229492
0.7000000000000001,1.313485129603761,-0.3292378184637791,2.74572606382734,-0.0447555870600976,0.1084884179329207,0.0339257319160353,-0.4695179495762283,0.59787226277564,-0.680107939798507,1.3207744969955917,-0.3409817191675692,2.7554724981971543,-0.5906346401705769,0.6640952757066836,-0.8143871485074814,1.110983532042991,-0.3768958901199215,0.5546047409548116,-0.8858032952026529,9.54626403401562,-1.2526395887122226,0.2244837432937828,-0.9864238729269484
0.72,1.3040298053914845,-0.3171723176424503,2.7318935115688205,-0.0389599221507721,0.1155835956324861,0.0344732663800834,-0.4754786070814594,0.6081124551567191,-0.7023855367840779,1.3089618041921802,-0.3276998136534356,2.7391847552270048,-0.6306346407666233,0.6988950988716235,-0.8543871491035279,1.2616282191554036,-0.2980328752615557,0.5120096190539547,-1.1138798492785429,9.312454337010422,-1.245114661733619,0.219753929791506,-0.9956174106647064
0.74,1.2944739576013364,-0.3049131836188262,2.717591925184171,-0.0339768437104665,0.1218629311862795,0.0350162590221097,-0.4797256959108532,0.6173327095226276,-0.7267341014724019,1.2971491113887683,-0.3144179081393019,2.722897012256855,-0.6706346413626698,0.7336949220365634,-0.8943871496995743,1.3189991058358583,-0.212354441469692,0.4610127182954282,-1.2174282344162013,9.119839040966326,-1.2378960000806418,0.2157790263077419,-1.0026071424369858
0.76,1.285326761400346,-0.293097381806477,2.70354009586735,-0.0297480190301409,0.1269190588041294,0.0355381521902999,-0.4828928598919105,0.6259162609595944,-0.7511818384011284,1.2843364185704558,-0.3002660070460448,2.7056092692718043,-0.7106346419587162,0.7684947452015032,-0.9343871502956208,1.305182098301016,-0.1583581990528632,0.4291775718483381,-1.222386846436324,9.027975636113297,-1.2313829669928635,0.2120200666344757,-1.0080344090774038
0.78,1.2756401374025237,-0.2804897248124236,2.6882340806472165,-0.0255834217704495,0.131357350346619,0.0360978423838937,-0.4855638855046923,0.6343183850347155,-0.7781883377154603,1.270523725737242,-0.2852441103736641,2.6873215262718526,-0.7506346425547626,0.8032945683664431,-0.9743871508916672,1.420458616092768,-0.1335512806390909,0.4201062037560543,-1.3503249657165928,8.901443109323736,-1.2258410322557771,0.2084923805865841,-1.0119941685889902
0.8,1.26590581197539,-0.2677206467255191,2.6723768086215256,-0.0216322133511952,0.1349692550473095,0.0366626487032033,-0.4877101048394442,0.6420798347407408,-0.8062229149911615,1.2513619431272889,-0.2487738055606878,2.649324663761444,-0.5855638869948084,0.6449927489682191,-0.8781883392055764,1.4584099920798062,-0.1073109667375948,0.3880724853012662,-1.4017288637850622,8.901443109323736,-1.2213067606060413,0.2052750600820265,-1.0143800634285738
0.8200000000000001,1.2566327028509012,-0.2552539799709568,2.6570098737939105,-0.0118041878937084,0.1381643473820377,0.0376272567887004,-0.4879068100077663,0.6664614060455223,-0.808541293927616,1.2513619431272889,-0.2487738055606878,2.649324663761444,-0.5855638869948084,0.6449927489682191,-0.8781883392055764,1.2246168718280666,-0.0098352584161076,1.2190785652390734,-0.1159189468227239,8.851234459652915,-1.213699632390598,0.1957384930297359,-1.012200716232922
0.84,1.2468922299795069,-0.241819996591531,2.640790733399558,0.0046373928095699,0.1414217694137413,0.0390792316357571,-0.4860759472545593,0.674656434307107,-0.8137133261056279,1.2513619431272889,-0.2487738055606878,2.649324663761444,-0.5855638869948084,0.6449927489682191,-0.8781883392055764,0.4931035983432967,0.091543137660352,0.4097514130792345,-0.2586016089005938,10.412900717718912,-1.2126140463508126,0.1813341861361026,-1.0226173825808318
0.86,1.2371956792987309,-0.2283112290268503,2.6243854864999423,0.0216179605460676,0.1438860179666579,0.0405708877499921,-0.4837180538973135,0.6753880522750084,-0.8265284004207957,1.2455063042573409,-0.2423238780710056,2.640542780369388,-0.6055638872928316,0.6471276217549199,-0.8981883395035996,0.6525355462317249,0.1178946678622921,0.0365808983950721,-0.6407537157583909,10.014381074010998,-1.2120065194403464,0.1668598686011018,-1.02937699828135
0.88,1.2280287147060691,-0.2155026859132407,2.6085079940866307,0.0371627696951137,0.1452099235627256,0.0419128332678464,-0.4814348122375547,0.6725271551217651,-0.8441291624484364,1.2337950265174449,-0.2294240230916412,2.6229790135852764,-0.6455638878888781,0.6513973673283213,-0.938188340099646,0.8988669937092101,0.1141620829879397,-0.1430448576621668,-0.8800381013820358,9.329307337156024,-1.211542020710087,0.1519369898534166,-1.032874422172993
0.9,1.2184242766536943,-0.2021095538609071,2.59139020951677,0.0527424210700345,0.1454037858626509,0.0431904488166988,-0.4792020968352893,0.6666038011286126,-0.8669040521537341,1.2220837487775484,-0.2165241681122768,2.6054152468011647,-0.6855638884849246,0.6556671129017227,-0.9781883406956924,1.1819123716293278,0.1116357701132692,-0.2961676996576234,-1.1387444852648865,9.329307337156024,-1.211464274766736,0.1376116841829098,-1.0329045329008923
0.92,1.2088634665471838,-0.188863266286673,2.573780705516308,0.0675167270669539,0.1441993916783301,0.0442782841629161,-0.4770440770027478,0.6580155793886598,-0.893029908866667,1.2083724710078498,-0.2034108258542424,2.5858514799872507,-0.725563889080971,0.6599368584751242,-1.018188341291739,1.379288758053349,0.1079009916270745,-0.4294110869976386,-1.306292835646644,9.106089263288595,-1.2117170208977188,0.1246104838209944,-1.0299436129763728
0.94,1.1998230013847353,-0.1764698794704434,2.556551037054704,0.0805881237049713,0.1414628946577024,0.0450590858924339,-0.4747975397782738,0.6468894585560695,-0.9192819085189248,1.1946611932381517,-0.1902974835962079,2.566287713173337,-0.7655638896770175,0.6642066040485256,-1.058188341887785,1.430039317662704,0.1123268612236993,-0.5563060416295174,-1.3125999826128831,8.942845116047465,-1.212612926493689,0.11184400876666,-1.0228836155997665
0.96,1.190346491565728,-0.1636836927949268,2.537867740945767,0.092980963165114,0.1367548631725032,0.0455338448171314,-0.4732381208919603,0.6322841196920505,-0.9476622573750983,1.1799499154535518,-0.1770773976988384,2.545723946344522,-0.8055638902730639,0.6684763496219271,-1.0981883424838317,1.5978046750103263,0.077970944315675,-0.7302669432009523,-1.41901744280869,8.883742125235585,-1.216025927745775,0.1005664477539043,-1.0122174831669395
0.98,1.1808795605627336,-0.1512162560624867,2.5186134727633127,0.1037542247453508,0.1306643335494136,0.0456478390617383,-0.4738147905128059,0.615247149708019,-0.9763126966655824,1.1642386376540508,-0.1637505681621339,2.524160179500805,-0.8455638908691103,0.6727460951953286,-1.138188343079878,1.6669122394611056,-0.0288334810422785,-0.851848499201574,-1.4325219645241916,8.846036259136781,-1.2201320132602986,0.0908555525682717,-0.9990350171325656
1.0,1.1713787292768938,-0.1391121628943604,2.498785122015618,0.1128184969730387,0.1239239266216247,0.0454567376538303,-0.4764695969616065,0.5962461645447282,-1.0050282293273034,1.1571888210370933,-0.1204538985770858,2.4697978379300336,-0.573814792002922,0.5739929682931764,-1.0573238653243155,1.726750742364514,-0.1327403224400336,-0.950049258164537,-1.4357766330860555,8.830399911314544,-1.22354280278665,0.0830992943916427,-0.985245733489826
1.02,1.1622572883598656,-0.1279400729882913,2.479685584176851,0.12223769965346,0.1192647654016309,0.0454346534186867,-0.4834801841001491,0.5793242455803564,-1.004163106996807,1.1571888210370933,-0.1204538985770858,2.4697978379300336,-0.573814792002922,0.5739929682931764,-1.0573238653243155,0.9168534644513636,-0.3505293569271289,-0.8460959482185892,0.0432561165248035,8.82319521809086,-1.224922376225161,0.0750643917864554,-0.9651195867950206
1.04,1.1525103724817278,-0.1165930095469129,2.459576227383839,0.133117236164605,0.1182018359340392,0.0458698874889,-0.4904131942764789,0.5559860070882504,-1.0071915998163183,1.1571888210370933,-0.1204538985770858,2.4697978379300336,-0.573814792002922,0.5739929682931764,-1.0573238653243155,1.2266945165538792,-0.34665050881649,-1.1669119246053017,-0.1514246409755504,10.496692953068305,-1.221174988736039,0.0649958286336257,-0.9630959240630084
1.06,1.1426499856818546,-0.1057381026572072,2.439345630832386,0.1437316624581625,0.1195407901919983,0.0465596853815524,-0.4950369870230069,0.5304272389787853,-1.015722432760262,1.1514506731170642,-0.114713968894154,2.4592245992767903,-0.5938147923009451,0.5657421320102078,-1.0735260990560622,1.366935621521482,-0.231189637326401,-1.2779384054732557,-0.4265416471971761,10.161656019258771,-1.2160449841656664,0.0558294929864238,-0.9625316657921736
1.08,1.1332163585318131,-0.0959148572901337,2.419929632201736,0.1533727459556814,0.121761148731787,0.0472953529053983,-0.4976343650876349,0.5046806201160436,-1.027657061222007,1.1399743772770057,-0.1032341095282905,2.438078121970304,-0.6338147928969916,0.5492404594442708,-1.1059305665195556,1.424842194941069,-0.1298689032313976,-1.2873309431370827,-0.59673142308726,9.678976725767823,-1.209950267187489,0.0466198446649071,-0.9628524752122716
1.1,1.123249168363055,-0.0861319780783759,2.3992125989056894,0.1625749608091606,0.1242136307281848,0.0479995671829998,-0.4988865861887233,0.4750124673480206,-1.0435399174730806,1.1284980814369472,-0.091754250162427,2.416931644663818,-0.6738147934930381,0.5327387868783338,-1.138335033983049,1.683769928646006,-0.0626110550544206,-1.483407638401152,-0.7941428125536776,9.678976725767823,-1.203582045640055,0.0381616212289802,-0.9634439167064895
1.12,1.1132692666547666,-0.0769655235003362,2.378149890784826,0.1702088365189959,0.1262061755281379,0.0484925231765441,-0.4990467140514518,0.4433368043676111,-1.0619796639199544,1.1150217855670863,-0.0810994744248603,2.394164943984157,-0.7138147940890845,0.5162371143123967,-1.1707395014465425,1.832619378925898,-0.0080063931364227,-1.5837831490204737,-0.921987322343687,9.519991495085378,-1.1977050339758857,0.0310212332921145,-0.9633513645407258
1.14,1.1032968831968306,-0.0684501630660558,2.356709646864192,0.1759470452447532,0.127351861678802,0.0486741651661503,-0.4982960621622547,0.4102274477258326,-1.081024599758433,1.1015454896972257,-0.0704446986872936,2.371398243304496,-0.753814794685131,0.4997354417464597,-1.2031439689100356,1.910171822495948,0.0375325944598547,-1.6554678320889276,-0.9522467919239164,9.411334572167108,-1.1933083838480807,0.0259731572793572,-0.9607513676321476
1.16,1.093838510211727,-0.0609866158516548,2.3359898446119955,0.1795574721314969,0.1275994803117121,0.0485332413360402,-0.497461343356171,0.3775859219679979,-1.0989474934214585,1.0870691938124637,-0.0602024647638754,2.3478214309382475,-0.7938147952811774,0.4832337691805226,-1.235548436373529,1.862388303053865,0.0417359403041855,-1.6320762878917316,-0.8961446831512898,9.404421424263091,-1.1899488390491444,0.02245378012103,-0.955982160809872
1.18,1.0838995911774774,-0.053804070602481,2.3138132002213005,0.1814349961558105,0.1270467372794198,0.0480649783242079,-0.4965200634240953,0.3427196594797999,-1.1176921542363356,1.0715928979128004,-0.0503727726546055,2.323434506885412,-0.8338147958772238,0.4667320966145856,-1.2679529038370223,1.97983874145803,0.0470639966037828,-1.7433131244099036,-0.9372330407438568,9.429969297739262,-1.1871091206932147,0.0205493251526489,-0.9503544440727948
1.2,1.0739814119110604,-0.0473319745294851,2.2912638292023475,0.1809771380500482,0.125573450972032,0.0472300772340886,-0.4953975810965597,0.3065216874649814,-1.136216685567819,1.0590735880062725,-0.036668087628491,2.257928592509484,-0.5965200649142115,0.3303264233195215,-1.118392382909276,2.033907203888814,0.0561241163767822,-1.809898600740925,-0.9262265665741732,9.429969297739262,-1.1848327006696455,0.0205142786332966,-0.9438582194133204
1.22,1.0641148893130488,-0.0417456002398585,2.268689121997163,0.1745494650210671,0.1237590478466689,0.0458932011327168,-0.4913201193054191,0.2560722459455116,-1.117924498188142,1.0590735880062725,-0.036668087628491,2.257928592509484,-0.5965200649142115,0.3303264233195215,-1.118392382909276,2.690899460876337,0.2038730895570301,-2.522472075973486,0.914609368983854,11.950523220764808,-1.1764604822776927,0.0268716748192397,-0.92014194977744
1.24,1.054336197480798,-0.0370809993609433,2.2465589964124657,0.1627215433176866,0.1221413090991091,0.0442222994835698,-0.4868945852527078,0.2144629631240052,-1.0959206357838096,1.0590735880062725,-0.036668087628491,2.257928592509484,-0.5965200649142115,0.3303264233195215,-1.118392382909276,2.363835722549584,0.2212767026355616,-2.0804641410753195,1.1001931202166193,11.767745388942783,-1.1771195452155525,0.0361545037265519,-0.914078201088962
1.26,1.045133366634171,-0.0333654795808963,2.225923018700352,0.149081445571271,0.1200244601772796,0.0424028886671776,-0.4821709686188203,0.1799258209605184,-1.0771608722453918,1.0531083873571303,-0.0333648233952958,2.246744668680391,-0.6165200652122347,0.3278477760874659,-1.118532428643864,1.979302573472654,0.2361808316943769,-1.7268571081743411,0.9379881769208898,11.550271548764613,-1.178553247972764,0.0473136774455121,-0.9086874406903984
1.28,1.0355469699811977,-0.0301062541668131,2.2045697305567296,0.1331491469684815,0.1162273702056563,0.0402071526378974,-0.4768382697967735,0.1487757301117385,-1.0591011802366002,1.041177986058846,-0.0267582949289053,2.2243768210222057,-0.6565200658082812,0.3228904816233545,-1.11881252011304,1.819971367952196,0.2666349411023394,-1.5575045424389964,0.9029846004395824,11.550271548764613,-1.181607333095258,0.0596919834616788,-0.9014028656244928
1.3,1.0260622137790203,-0.0274185636755968,2.1835618399506536,0.1162224644268327,0.1100130496789037,0.0377315931287769,-0.4724363020797841,0.1224091670725772,-1.0425245383676067,1.029247584760562,-0.0201517664625149,2.20200897336402,-0.6965200664043276,0.3179331871592432,-1.1190926115822162,1.5727031044767716,0.2200983858494681,-1.3183281519580654,0.8288320934496718,11.233708516693696,-1.187728620394018,0.0728566608656276,-0.8903978914984485
1.32,1.0166355488501408,-0.0252084713663916,2.162872841375361,0.0987627895158378,0.1015749198870115,0.0351254364945137,-0.4710061577614381,0.100767160827902,-1.027057215194453,1.0153171834324757,-0.01379310271933,2.179627121132376,-0.7365200670003741,0.3129758926951319,-1.1193727030513922,1.331972065405869,0.0715072159172991,-1.0821003122337551,0.7733661586576845,11.122275653559882,-1.19443642157605,0.0854274206351915,-0.8781989485629561
1.34,1.007676124344422,-0.0234639340509223,2.143512054143926,0.082211113123963,0.0920678402330238,0.032696676139004,-0.4726161156288852,0.0845231735547268,-1.0116101080215594,1.001386782104389,-0.0074344389761452,2.1572452689007315,-0.7765200675964206,0.3080185982310205,-1.1196527945205683,1.1236905789372114,-0.0804978933723526,-0.8121993636587644,0.772355358644683,11.122275653559882,-1.201925384147753,0.0983787713690013,-0.8630587411526558
1.36,0.9981725803734484,-0.0219148139116578,2.123457829245927,0.0652730668756463,0.0811999124074429,0.0303273573550501,-0.4780769459786821,0.0717307158389241,-0.99456374792816,0.9864563807614012,-0.0011997075945631,2.134856414382358,-0.8165200681924669,0.3030613037669092,-1.1199328859897446,1.100052311203542,-0.2730415174898443,-0.6396228857901309,0.8523180046699719,11.132361306981691,-1.209594792867447,0.1106830414288018,-0.8473137936651091
1.38,0.988519641056594,-0.0205774571502176,2.103748741425588,0.0491458797754652,0.0702265929233187,0.0282392159906557,-0.4872900313982086,0.0630291673946922,-0.9771807422725112,0.9705259794035124,0.0049110914254161,2.1124605575772546,-0.8565200687885134,0.2981040093027979,-1.120212977458921,1.0756007320320111,-0.4606542709763239,-0.4350774222115959,0.8691502827824327,11.14934504258963,-1.215999099786386,0.1215187901088617,-0.834205189797392
1.4,0.9786445056826384,-0.0193721498927429,2.084386368118099,0.0340869684268044,0.0598247227402204,0.0264696993835938,-0.4999860552313324,0.05818094776966,-0.9599277974080844,0.9641551394866836,-0.017425998780483,2.0548897043119623,-0.5872900328883247,0.0774675599891489,-0.9217906711486727,1.098132916816935,-0.6348011916561896,-0.2424109812516103,0.8626472432213428,11.134616236537113,-1.2212285612534004,0.1319657999753877,-0.8226881027800775
1.42,0.9689574601460456,-0.0182251191311544,2.0665108349283137,0.023006574385272,0.0526162882134821,0.0252571769104387,-0.5192943187662802,0.0618484908863734,-0.9215109547449128,0.9641551394866836,-0.017425998780483,2.0548897043119623,-0.5872900328883247,0.0774675599891489,-0.9217906711486727,2.1576107813127616,-0.96541317674739,0.1833771558356671,1.920842133158579,11.134616236537113,-1.2147007748423555,0.1392059203237906,-0.8141437945690609
1.44,0.9583491059065862,-0.016972880808207,2.048509037273534,0.0146950092493058,0.0502030494050688,0.0244105929603037,-0.5399693616476197,0.0630711049360589,-0.8809517613717949,0.9641551394866836,-0.017425998780483,2.0548897043119623,-0.5872900328883247,0.0774675599891489,-0.9217906711486727,2.277059699666267,-1.033752144066974,0.0611307024842758,2.0279596686558987,12.948418241910076,-1.2107418792926536,0.1445884548570817,-0.8209671605272733
1.46,0.9473548656401476,-0.0156941360746366,2.031282753175048,0.0078175026585587,0.0515690945021983,0.0237448575852312,-0.558054560944071,0.0647782933446417,-0.8438612270139748,0.9582822391578004,-0.0166513231805915,2.0456717976004755,-0.6072900331863479,0.0803552385080402,-0.9107126569239052,2.0650040343806806,-0.904259964822568,0.0853594204291409,1.854526717891003,12.726028812352524,-1.205339181332765,0.1492171425601209,-0.8314056369958062
1.48,0.93602641673419,-0.0143675596982407,2.014761569462867,0.0018966403972308,0.0552097428782904,0.0231645210214786,-0.5735512401565123,0.0677744395904196,-0.8101155955049987,0.9465364385000338,-0.0151019719808086,2.0272359841775023,-0.6472900337823944,0.0861305955458229,-0.8885566284743698,1.862720862662332,-0.7748339606220622,0.1498073122888972,1.6872815754488069,12.245125927137453,-1.1992958065542276,0.153149221144952,-0.8429332156315669
1.5,0.9250016709346948,-0.0130387046395768,1.9996651917849595,-0.0029563778172706,0.0597337835063044,0.0226613121945055,-0.5859564757598336,0.0718962510647301,-0.780678891599994,0.9347906378422672,-0.0135526207810256,2.0088001707545287,-0.6872900343784408,0.0919059525836056,-0.8664006000248344,1.610433743587875,-0.6202617801660648,0.2060905737155241,1.4718351952502318,12.06627644074706,-1.1922441971876034,0.1568171730023484,-0.8556319367679079
1.52,0.9131662848883,-0.0115438411526386,1.9843577305569813,-0.0072830709584861,0.0647951744247363,0.0221758799188137,-0.5967428191892057,0.077340102405392,-0.7517219538192985,0.9210448371546984,-0.0117145017293535,1.991472158754032,-0.7272900349744873,0.0976813096213882,-0.8442445715752991,1.56882517160984,-0.5393171714686062,0.2721925670330957,1.4478468890347762,12.06627644074706,-1.1856078772100411,0.1600118688181493,-0.8678413941702736
1.54,0.9011366610223802,-0.009928585310317,1.969615921576729,-0.0107867277869419,0.0695476541945786,0.0217437454582356,-0.6055587200989155,0.0838287771228698,-0.7239657144598046,0.9072990364671296,-0.0098763826776813,1.9741441467535352,-0.7672900355705338,0.1034566666591709,-0.8220885431257636,1.4918376518748413,-0.4407950454854925,0.3244337358738872,1.3878119679746947,11.938687504464724,-1.179338409618976,0.16267288533595,-0.879844807264147
1.56,0.8889433292206964,-0.008172929150841,1.9554178345154252,-0.0133777027039251,0.0737204229780537,0.0213800889526832,-0.613257602746413,0.0911898720151105,-0.6972552938178699,0.8925532357646596,-0.0078938797000647,1.957370035464277,-0.8072900361665801,0.1092320236969536,-0.7999325146762283,1.4377978673144602,-0.3849441323748759,0.3680547446120355,1.335521032096737,11.880390578343397,-1.1742550456680778,0.1646499119483035,-0.8911591088388802
1.58,0.8772258987952487,-0.0063626122534447,1.9424156396271524,-0.0149646941509966,0.0771387544642074,0.0211057885719353,-0.6197234570117843,0.0988049086743559,-0.6727525881794948,0.8768074350472885,-0.0057669927965034,1.941149824886257,-0.8472900367626266,0.1150073807347362,-0.7777764862266929,1.3230444420951335,-0.3232927132685637,0.38075183296227,1.2251352819187544,11.83400518070448,-1.1697616296842408,0.1660717981745569,-0.902195176717205
1.6,0.8647672181695272,-0.004295564262908,1.9292255389607065,-0.0155951594664726,0.0801489681962878,0.0209047185423251,-0.6257580448957343,0.1074023131161732,-0.6475881699508684,0.8462397259446595,-0.0014223668197269,1.9087780102181775,-0.6934000059100044,0.0987198886075931,-0.6313489928213615,1.363432762231528,-0.3017293941974974,0.429870222090864,1.258220911431318,11.79204239907267,-1.166170549778817,0.1666750124604903,-0.9123761489123956
1.62,0.8521376690178565,-0.0020076032491487,1.9165143859288791,-0.0134341004715685,0.0842639814460822,0.020891676970734,-0.6365978726652645,0.1204404857285023,-0.6248981082540549,0.8462397259446595,-0.0014223668197269,1.9087780102181775,-0.6934000059100044,0.0987198886075931,-0.6313489928213615,1.4162756713888478,-0.5419913884765093,0.651908630616458,1.1345030848406767,11.767183996691529,-1.164294709098309,0.1651470296788343,-0.923558176912616
1.64,0.8393235459882404,0.0005049042732121,1.9042434539462647,-0.0080081707482734,0.0904453448851084,0.0211034817313101,-0.6438775125597707,0.1292224664437871,-0.6033310819430171,0.8462397259446595,-0.0014223668197269,1.9087780102181775,-0.6934000059100044,0.0987198886075931,-0.6313489928213615,1.2198903292697214,-0.3639819947253098,0.4390990357642364,1.0783513155518898,11.653423243870748,-1.156090937444706,0.1607871884076041,-0.9386486991986897
1.66,0.8270488569927459,0.0030118476802652,1.8929731800073908,-0.0019504412239259,0.0968824301488318,0.0213998633401884,-0.6476360450193225,0.1339351776976895,-0.5841179236077217,0.8393057258855594,-0.000435167933651,1.902464520289964,-0.7081353156896484,0.0987028845942405,-0.6230682737497348,1.0068287675038057,-0.1879266229775911,0.2356355626951217,0.9606579167647676,11.575998017201528,-1.1481726817281286,0.1553065666093448,-0.954079485937925
1.68,0.8140807666380923,0.0057202009587702,1.88149312582324,0.0044308269081467,0.1033254135158359,0.0217537147957126,-0.6488111913098494,0.1364809466451592,-0.5649682939148233,0.8254377257673593,0.0015392298385008,1.8898375404335368,-0.7376059352489365,0.0986688765675354,-0.6065068356064814,0.9676908412726384,-0.0587573145263475,0.1272884473734831,0.9574814846449232,11.49484919912993,-1.1411007431884217,0.1497006905911335,-0.9681173962170626
1.7,0.8011135430050114,0.0084592090813794,1.8703838519834053,0.0104142456514954,0.1087680249767975,0.0221107375835774,-0.64778612967513,0.1372009693646256,-0.5469835025891521,0.8115697256491592,0.0035136276106526,1.8772105605771097,-0.7670765548082245,0.0986348685408303,-0.5899453974632282,0.9014181924881756,0.0512530817359691,0.0360011359733236,0.8992395662835606,11.440397928803575,-1.1355457486793683,0.1443622727337055,-0.9800522996240416
1.72,0.7881843255548509,0.0111964075875809,1.8596246948486173,0.0158147176291186,0.1128001744489896,0.0224368200891787,-0.6452001675166827,0.1364425248999982,-0.5298777669418943,0.7962281945529948,0.0054863249814692,1.865411652627845,-0.7965471743675124,0.0986008605141251,-0.5733839593199749,0.8658357672282777,0.1292981079223654,-0.0379222232313722,0.8552867823628907,11.385429693821608,-1.1317495453696778,0.1396993413214011,-0.9892120028000018
1.74,0.7759601922930351,0.0137700664759383,1.8497139611497455,0.020308395135057,0.1151004720592013,0.0226900062823074,-0.6418184768406869,0.1345516900630876,-0.5142218549387859,0.7808866634568302,0.0074590223522859,1.8536127446785804,-0.8260177939268005,0.09856685248742,-0.5568225211767215,0.8064097420940292,0.1690845337997903,-0.0945417418455288,0.782795600155417,11.350122410184667,-1.1295738486710023,0.1353365181222726,-0.9963667715372164
1.76,0.7631614683551625,0.0164307979968409,1.839600879579545,0.0243773504768168,0.1160173163121806,0.0228827909890015,-0.6383449628604891,0.1316336191918902,-0.497918234877328,0.7648083668716835,0.0094308695224348,1.8422278726828971,-0.8554884134860885,0.0985328444607149,-0.5402610830334682,0.8461507904746228,0.1736756990098897,-0.1459035435598721,0.8151810030728929,11.328222643154731,-1.1294592208214955,0.1315775916363201,-1.0009587422727586
1.78,0.7504288475016175,0.0190237488546988,1.8298125536318284,0.0277763227406854,0.1156606219510528,0.0229943680627382,-0.6351922449597109,0.1278496098031039,-0.4817348645788292,0.7479933047975547,0.0114018664919162,1.8312570366407956,-0.8849590330453765,0.0984988364340098,-0.5236996448902148,0.8458129690342943,0.15763589503891,-0.1892004694393115,0.8091685149249406,11.328754458100777,-1.1302594511092854,0.1285232016778933,-1.004070642352023
1.8,0.7377555695726616,0.0215329057401934,1.82034803001352,0.0304981431662545,0.1141953004715302,0.0230208270245168,-0.6324146936348506,0.1233681408456947,-0.4655253342709285,0.718669235253632,0.025416229344854,1.8057258104028868,-0.6710898985096205,0.1094355874021287,-0.4423238599461178,0.8522722983020251,0.1388775662430175,-0.2240734478704598,0.8104765153950338,11.32824148157215,-1.1319361140232016,0.1258659436699785,-1.0060412889070216
1.82,0.7256733594187159,0.0238459389334351,1.8116445806571533,0.0331054775281472,0.1145842414611488,0.0230977823701479,-0.6393577953612097,0.1200977056716667,-0.4515450955404082,0.718669235253632,0.025416229344854,1.8057258104028868,-0.6710898985096205,0.1094355874021287,-0.4423238599461178,0.7974168965673356,-0.3471550863179573,-0.1635217587014022,0.6990119365260172,11.334800105551947,-1.1372093227790627,0.1236297643083538,-1.0069096612562185
1.84,0.7128390170103536,0.0261975035656783,1.802768937059809,0.0360127399763696,0.1191235845257383,0.0233298624282982,-0.6431396472601012,0.1151659962552628,-0.4367508077470873,0.718669235253632,0.025416229344854,1.8057258104028868,-0.6710898985096205,0.1094355874021287,-0.4423238599461178,0.8023327128825649,-0.1890925949445732,-0.2465854708201938,0.7397143896660435,11.276328178344556,-1.1289401539824402,0.1205034013548702,-1.0165697549963792
1.86,0.6999744067424825,0.0284389806869187,1.7941852842343189,0.0386525190635341,0.1257903046729448,0.0236319837972771,-0.6427715978869866,0.1092686086568616,-0.422388549350746,0.7119583362685358,0.0265105852188753,1.8013025718034257,-0.6782694292196024,0.1057527829219337,-0.4344416590195755,0.7765132115265412,0.0184024686557315,-0.2948693799200631,0.7181129198170683,11.24955754190796,-1.1208296635504689,0.1178784891066894,-1.027162695780684
1.88,0.6877965959497947,0.0304531007218083,1.786291040059904,0.0407777497922271,0.1327038049541338,0.0239277299448815,-0.6389377818779742,0.1031079416065905,-0.4093297818454704,0.6985365382983434,0.0286992969669178,1.7924560946045032,-0.6926284906395663,0.0983871739615436,-0.418677257166491,0.746966151261381,0.1916908004506168,-0.3080333525135537,0.6529383752637785,11.24955754190796,-1.112205356654873,0.1155093763786568,-1.0388117090545126
1.9,0.6750887585924945,0.0324435339997794,1.7782450456942598,0.0426000432771848,0.1395343736362865,0.0242029845660312,-0.6318915908757226,0.0963026416547481,-0.395989817215084,0.685114740328151,0.0308880087149604,1.7836096174055809,-0.7069875520595301,0.0910215650011535,-0.4029128553134064,0.8275197451038827,0.3523095501125839,-0.3402649975921177,0.6669982315193196,11.21871247179024,-1.1048660875151233,0.1135928049556892,-1.049248409640628
1.92,0.6625485372650597,0.0342933306169501,1.7704616928744936,0.0439640041993789,0.1451638987136795,0.0244020493564715,-0.6224352118862755,0.0890312659229428,-0.3830383082606373,0.6709749892869604,0.0327084400149835,1.7755513602993127,-0.7213466134794939,0.0836559560407634,-0.3871484534603218,0.8803942196854989,0.4728189494723533,-0.363568786590264,0.6475754477223344,11.21871247179024,-1.0993617946011305,0.1121454585685726,-1.057737785842532
1.94,0.6502159137373615,0.0359922274475126,1.762934815026845,0.0447005588209706,0.1491321578819242,0.0244864722522816,-0.6113427691974923,0.0812543487636838,-0.3703056301267625,0.6568352382457698,0.0345288713150066,1.7674931031930443,-0.7357056748994578,0.0762903470803733,-0.3713840516072373,0.92957492673637,0.5546221344391589,-0.3888458579629536,0.6366339066937399,11.219952280548569,-1.0960852739208011,0.1113434168469631,-1.063711304408719
1.96,0.6387140979297182,0.0374567575099936,1.7560206819778208,0.0445900456650251,0.1511988045432679,0.0244328892405944,-0.6000910501274735,0.0733982386818619,-0.3581285916191672,0.64233651066908,0.0361651623910199,1.7598289561331035,-0.7500647363194216,0.0689247381199832,-0.3556196497541527,0.917332974529678,0.5625859535009381,-0.3928055040910941,0.6088519253797664,11.219952280548569,-1.0949933003086183,0.1113469153089552,-1.0675900627519632
1.98,0.6268387430579082,0.0388367250598871,1.7489966168423232,0.0434684156420548,0.1516996913376098,0.0242302170243588,-0.5881525316208027,0.065103416168125,-0.3448881487838656,0.6274788065568913,0.0376173132430234,1.7525589191194897,-0.7644237977393855,0.0615591291595931,-0.3398552479010682,0.9831602503450392,0.5969259253335413,-0.4147411256868439,0.6620221417650812,11.237591196115318,-1.0955941177770916,0.1123378430681688,-1.0696094006202257
2.0,0.6152017654265418,0.0400535632011524,1.742242441723925,0.0412530712202359,0.1505596445534117,0.0238821893165577,-0.5762358882151073,0.0571329597202763,-0.3311591802269458,0.5974311164768681,0.0420918958682934,1.73175220940313,-0.5833419343388997,0.0495379742467717,-0.3341276691771775,0.992495772890808,0.5958321702847713,-0.3985228223924376,0.686448427845987,11.30034415796581,-1.097652307576072,0.1143708242247796,-1.0701742864912436
2.02,0.6036775021341223,0.0411268384265351,1.7356542529585577,0.0382029136611281,0.1509648071039762,0.0235430185456445,-0.5767207370511828,0.0509015421115179,-0.3289638906874866,0.5974311164768681,0.0420918958682934,1.73175220940313,-0.5833419343388997,0.0495379742467717,-0.3341276691771775,0.3312285463643129,-0.0242424418037734,-0.3115708804379166,0.1097644769729622,10.528737818209263,-1.1111591435708177,0.1181134490378832,-1.065168950797669
2.04,0.5921668199539076,0.0420983904683298,1.7290938682396015,0.0351195689336246,0.1553258215118998,0.0233505643691698,-0.57379710061932,0.0465852957722947,-0.3271537494166708,0.5974311164768681,0.0420918958682934,1.73175220940313,-0.5833419343388997,0.0495379742467717,-0.3341276691771775,0.2759268194054505,0.1461818215931387,-0.215812316961159,0.0905070635407873,10.528737818209263,-1.1031314077846093,0.1207228747045166,-1.0708961988878238
2.06,0.5813227171382142,0.0429522900028546,1.7229015597224355,0.0325382764490812,0.1612862289458526,0.0232456160497047,-0.5675403312740974,0.043464642164333,-0.324794130525824,0.5915976971334791,0.0425872756107611,1.7284109327113582,-0.5823798148825191,0.046424885862501,-0.33197557325584,0.3689628805525111,0.3128384672611284,-0.1560326803980858,0.1179809445423424,10.572637805872546,-1.095244769977954,0.1231901135708641,-1.077995392114168
2.08,0.5700666021483163,0.0437938978461496,1.716436319263702,0.0302890798029746,0.1683833007501989,0.0231818043006361,-0.5581156258859348,0.0408180258938547,-0.3218599410608614,0.5799308584467011,0.0435780350956966,1.7217283793278146,-0.5804555759697578,0.0401987090939597,-0.3276713814131647,0.5109772919443688,0.4712352694081323,-0.1323308135239179,0.14670947324813,10.616120914981366,-1.0879921738889873,0.1253287303645389,-1.085482952916495
2.1,0.5590323049448049,0.0445881894715607,1.7100334060019056,0.0285445475956311,0.1754762008920621,0.0231420633369636,-0.545630864639821,0.0386505406724808,-0.3186145481945266,0.5682640197599231,0.044568794580632,1.7150458259442711,-0.5785313370569967,0.0339725323254183,-0.3233671895704895,0.6540256692481474,0.6242380623056876,-0.1083742610686954,0.1622696433167397,10.689288032165678,-1.0815865719306754,0.1269491612758866,-1.092642253984408
2.12,0.5482766112300254,0.0453436549969263,1.7036973887031666,0.0272972468094411,0.1817834647395477,0.0231072439250839,-0.530458774319401,0.0369900236802821,-0.3151502079713105,0.5566933930187832,0.0452482452271404,1.7085784821528611,-0.5766070981442355,0.027746355556877,-0.3190629977278143,0.782545996339122,0.7586045160209998,-0.0830258496099321,0.1732170111608061,10.723190440659891,-1.0765655760767343,0.1282554403631073,-1.0994249807508554
2.14,0.5383604694423113,0.0460364904701873,1.6977414504081518,0.0267409600750973,0.18646218105509,0.023079329708344,-0.5141764427088499,0.0359498763864451,-0.3119732165999532,0.5451227662776433,0.0459276958736487,1.7021111383614516,-0.5746828592314742,0.0215201787883356,-0.3147588058851391,0.8310979232956072,0.8141165805275574,-0.0520073646918514,0.1588495685678648,10.723190440659891,-1.074198248452262,0.1289706941905891,-1.1046661671615408
2.16,0.5282680575258072,0.0467458220171451,1.6915379654125169,0.0269172944656794,0.1897478465827756,0.0230597412837881,-0.4959846059843778,0.0349879550531906,-0.3085308837979884,0.5336002455093224,0.0464514921009436,1.6957513993661086,-0.572758620318713,0.0152940020197943,-0.3104546140424639,0.9269814873835172,0.9095918362236028,-0.0480960666627248,0.172116640098241,10.730310620737328,-1.074235966088407,0.1289254376178876,-1.1079727882801165
2.18,0.5185462683560692,0.0474349273079799,1.6854065207185356,0.0279012390689021,0.1912785623444336,0.0230507064198855,-0.4772305237579474,0.0339036279852737,-0.3047547783892718,0.5221258307138206,0.0468196339090249,1.6894992651668326,-0.5708343814059518,0.009067825251253,-0.3061504221997887,0.9580583716607092,0.937704111321519,-0.0542163533958424,0.1888052704358295,10.74919387803766,-1.077755010814577,0.1281562760669828,-1.1088574137509195
2.2,0.5092031398014132,0.0480979199891543,1.679356321401586,0.0296429861631254,0.1910140366908042,0.0230436755474387,-0.4581836845205616,0.0323669672017496,-0.3004343250096133,0.4946847421681718,0.0491301087072436,1.670168781799072,-0.4800227177779505,0.0194293161417593,-0.2757040072422591,0.9795531235010236,0.9523419618692937,-0.0768330391762057,0.2160226689829208,10.80776638538464,-1.0828515080936276,0.1266934597484166,-1.1081603305661016
2.22,0.5007062542846908,0.0486716260273828,1.673701712338234,0.0311874757918097,0.1882622276428081,0.02294959605875,-0.4373766170025871,0.0283171766070433,-0.2949637644201847,0.4946847421681718,0.0491301087072436,1.670168781799072,-0.4800227177779505,0.0194293161417593,-0.2757040072422591,1.0946025485548725,1.040353375898723,-0.2024895297353146,0.2735280294714315,10.80776638538464,-1.0881613033008133,0.1250094910840022,-1.1062021672147693
2.24,0.4921785946373815,0.0491942194344143,1.6678785665844835,0.0322221349770123,0.1819320953449045,0.0226939804256831,-0.4171189924830871,0.0241540185170473,-0.2874853350087113,0.4946847421681718,0.0491301087072436,1.670168781799072,-0.4800227177779505,0.0194293161417593,-0.2757040072422591,1.0995796275369727,1.0128812259750013,-0.2081579044998036,0.373921470573671,10.915620335193124,-1.1023764650256844,0.1242896969547815,-1.0975203798158495
2.26,0.4840163718515854,0.0496299541795157,1.662225500695063,0.0327676377030922,0.1732446657110107,0.0223211447208058,-0.4005818565359685,0.0196311987922044,-0.2780723544786432,0.4898845149903923,0.0493244018686612,1.6674117417266494,-0.4805811565819511,0.0165344537730564,-0.2698938530128565,0.9779276124237776,0.8268567973559265,-0.2261409862421435,0.470649026503403,10.997235389315392,-1.1172023493621408,0.1239203941202541,-1.087486604328117
2.28,0.4761448134001146,0.0499716385391978,1.6567791695225629,0.0327644701270632,0.1634234873916377,0.0218709187401045,-0.3878024766658101,0.0148040612213395,-0.2669832380824087,0.4802840606348333,0.0497129881914964,1.6618976615818042,-0.4816980341899524,0.0107447290356506,-0.2582735445540514,0.8797475624335449,0.638968993507924,-0.2413568785432462,0.5544558198117278,11.145949019008183,-1.1308811059054562,0.1239683515742294,-1.0776297470553724
2.3000000000000003,0.4688684361664409,0.0502056967610128,1.6518223893618702,0.0322199640602227,0.1539574944949023,0.0214060450620264,-0.3790221016003964,0.0101224786132446,-0.2553091349380808,0.4706836062792743,0.0501015745143315,1.656383581436959,-0.4828149117979536,0.0049550042982449,-0.2466532360952463,0.766969501072501,0.439018753270684,-0.2340791304047422,0.5837051572163937,11.145949019008183,-1.1439674627415637,0.1244805314532356,-1.0678225420374212
2.32,0.4613564919206285,0.0503577444484141,1.6468533156435683,0.0310953294481191,0.1445626704232445,0.0209093115396153,-0.3728709018442012,0.0053751402228503,-0.2421662584703532,0.4610273080433152,0.0502006746002964,1.651450516715054,-0.4839317894059548,-0.0008347204391608,-0.2350329276364413,0.7633964927864711,0.3075599878097579,-0.2373669195197168,0.6571438233863774,11.195681880781194,-1.155047709745411,0.1254572150380918,-1.0593738216283104
2.34,0.4539380106717599,0.0504187123629629,1.642153286017893,0.0294790425155695,0.1362677774962944,0.0204313248977997,-0.3694364936038434,0.0010143160373373,-0.2284714538698892,0.4513710098073561,0.0502997746862613,1.6465174519931491,-0.485048667013956,-0.0066244451765666,-0.2234126191776362,0.7388498165785873,0.1717204120178922,-0.2180412092756493,0.6847402300232036,11.232417597884703,-1.1639288344148204,0.126849465651943,-1.0527282907104831
2.36,0.4469300669206055,0.0504005151695813,1.6379446900770265,0.0275766926049478,0.1298029351634419,0.0200136390664149,-0.3684844610182676,-0.0026182054717007,-0.2152218175083208,0.441686789631197,0.0502541316537911,1.6418748949827142,-0.4861655446219573,-0.0124141699139724,-0.2117923107188311,0.6885754175677091,0.0476016292787873,-0.1816260754519056,0.6624818180784198,11.26238144200397,-1.1705948625542262,0.128520681993963,-1.0481242369001007
2.38,0.439550763040398,0.0503180381549855,1.6337880456120268,0.0254784301881152,0.1249371239126595,0.0196412400323674,-0.3696369924119857,-0.0053814826604558,-0.2011386213336816,0.4319746475148379,0.0500637455028857,1.6375228456837496,-0.4872824222299585,-0.0182038946513782,-0.200172002260026,0.7198965966178235,-0.0576265696859035,-0.1381638594377544,0.7041598087319564,11.26238144200397,-1.1752553805677135,0.1303689673551934,-1.045659543696322
2.4,0.4321276974598564,0.0501886477532738,1.6299118736264655,0.0235840672791132,0.1226648333437373,0.0193650314440692,-0.3725570798798603,-0.0074208319780669,-0.1872055350908996,0.4210689134197987,0.0500489640219627,1.6237311145453428,-0.3803733041978624,-0.0135335093435479,-0.16166557944163,0.7190562368620415,-0.1460043733937294,-0.101967465880555,0.6966543121391,11.27309048103598,-1.1759789181565166,0.1319646905066158,-1.047085500380666
2.42,0.4246485582905391,0.050004883025806,1.6262954956608482,0.0213668243430187,0.1229870027996576,0.0191376138438226,-0.3749553912669783,-0.0105290000074238,-0.1752322044934761,0.4210689134197987,0.0500489640219627,1.6237311145453428,-0.3803733041978624,-0.0135335093435479,-0.16166557944163,0.6300262923154375,-0.1199155693558995,-0.1554084014678461,0.5986665298711765,11.262397132441947,-1.173917930781493,0.1337753653161668,-1.0512458856461708
2.44,0.4171400207975677,0.0497801724670131,1.622917818160763,0.0189055133344755,0.125043170692372,0.0189363733525225,-0.3755539464984204,-0.0117543078385567,-0.1631461471315533,0.4210689134197987,0.0500489640219627,1.6237311145453428,-0.3803733041978624,-0.0135335093435479,-0.16166557944163,0.6081373820976037,-0.0299277615721071,-0.0612653915566416,0.6043028680961404,11.130295930063768,-1.169436252906774,0.1359412926265738,-1.0578461185792556
2.46,0.4100136804450157,0.0495549288231889,1.6199349225610975,0.0168391434389113,0.12782471882177,0.0187826836137204,-0.3744226648654449,-0.0119537618284916,-0.1514682674867725,0.4172651803778201,0.0499136289285272,1.6221144587509264,-0.3825205665550378,-0.0151639146801664,-0.1537709710632196,0.586712137732797,0.0565640816487744,-0.0099726994967475,0.5838939822390421,11.15089545189494,-1.165023905157324,0.1379492191621156,-1.065140151860191
2.48,0.4025528135158268,0.0493196744649807,1.617036633968049,0.0150865701879808,0.130998211915004,0.0186567639457173,-0.3716073078516393,-0.0116096011351011,-0.1389796749400198,0.4096577142938628,0.0496429587416562,1.618881147162094,-0.3868150912693885,-0.0184247253534032,-0.1379817543063989,0.6403312140932707,0.1407678506902793,0.0172080346695271,0.6244296273376317,11.16891602652504,-1.161128968738786,0.1396237757821267,-1.0725134246325292
2.5,0.3951634428621152,0.0490971203574555,1.6143890432120105,0.0138481844491495,0.1339443204521155,0.0185663800152498,-0.3674092026306708,-0.0106835753834541,-0.1264130268096742,0.4020502482099056,0.0493722885547853,1.6156478355732613,-0.3911096159837392,-0.02168553602664,-0.1221925375495782,0.6640825558071741,0.2099052610484264,0.046301287582351,0.6283324065172804,11.19090746038637,-1.1583327329704425,0.1408226104944556,-1.0792681502190815
2.52,0.3878695559196381,0.0488989198120719,1.61199340079567,0.0133044381419761,0.1363299748367701,0.0185211087570823,-0.3621747301553009,-0.009225597567693,-0.1137853552830383,0.3942280558902308,0.0489385778342525,1.6132039848222697,-0.3954041406980899,-0.0249463466998769,-0.1064033207927576,0.6873563296996476,0.2617236237684978,0.0728988907880511,0.6313835763317954,11.20495476328415,-1.1565560342843486,0.1414810276063199,-1.0856905901412122
2.54,0.3810446994866694,0.0487410609548895,1.609951978175718,0.0136017555384094,0.1378837295869638,0.0185302798254794,-0.3565507102527949,-0.0075588641438171,-0.1017415306855467,0.386405863570556,0.0485048671137197,1.610760134071278,-0.3996986654124406,-0.0282071573731137,-0.0906141040359369,0.6698158536217093,0.2812009951252969,0.0833366711937965,0.6021912298745796,11.218613280498175,-1.1560790277958932,0.1413128866640342,-1.0912098332089024
2.56,0.3739781402329523,0.0486070182015238,1.608051685640039,0.0148133839432802,0.1387476798184362,0.0185968043710877,-0.3504481635944906,-0.0060124405699494,-0.088917250078952,0.3784763081330224,0.0479896361263559,1.608711013739207,-0.4039931901267913,-0.0314679680463506,-0.0748248872791162,0.7143085374389618,0.3051273329152143,0.0773211786933851,0.6412140303297349,11.229630987671044,-1.156535121047903,0.140220137916454,-1.095690449468439
2.58,0.3670335623650693,0.0484982212905273,1.6064090537365243,0.0168742831984555,0.1388953636526769,0.0187147325738069,-0.3443777076716885,-0.0050334294812654,-0.0759866075189663,0.3704393895776302,0.0473928848721613,1.6070566238260564,-0.408287714841142,-0.0347287787195874,-0.0590356705222955,0.715909238026308,0.3035227961401071,0.0489505544342025,0.6465321279992852,11.246360869088676,-1.1575792309751132,0.1382580779973168,-1.0999773795408854
2.6,0.3602082736103652,0.0483941291203666,1.6050261554428291,0.0194274518626767,0.1384394129512997,0.0188565949556298,-0.3385226854376936,-0.0055960290173622,-0.0629513131895687,0.3498146769814849,0.048246549816464,1.602609723360576,-0.3492109738107189,-0.0071308342760329,-0.0719354348787917,0.7150466800367263,0.2927511116997461,-0.0281299768048407,0.6517647164698825,11.257499042295422,-1.1586110147702198,0.1358743864013781,-1.1041955090309008
2.62,0.3537920418845165,0.0482448047111461,1.6038288797890057,0.02082673532712,0.1381734487326056,0.0189225270099619,-0.3372551415546205,-0.0097648810045942,-0.0644543720308535,0.3498146769814849,0.048246549816464,1.602609723360576,-0.3492109738107189,-0.0071308342760329,-0.0719354348787917,0.2304624712796487,0.063377194153652,-0.2084425993616034,-0.0751529420642417,11.270061963894475,-1.167577205090705,0.1349240088905549,-1.1052747279076676
2.64,0.3470631098733633,0.0480093323399267,1.602514998848959,0.0205201898887775,0.1386789113476016,0.0188869338556538,-0.3355901602273767,-0.0134145097421007,-0.0667168066188636,0.3498146769814849,0.048246549816464,1.602609723360576,-0.3492109738107189,-0.0071308342760329,-0.0719354348787917,0.2302746349835796,0.0832490663621898,-0.1824814368753254,-0.1131217294005053,10.313117452260483,-1.166236203607655,0.1351321621514148,-1.1045123110376662
