t,x,y,z,roll,pitch,yaw,v_x,v_y,v_z,ref_x,ref_y,ref_z,ref_v_x,ref_v_y,ref_v_z,a_com,a_x,a_y,a_z,thrust,wind_x,wind_y,wind_z
0.0,1.8182459689208477,0.8689895071467366,2.5459348195420715,0.011276865882508,0.1362245489761937,0.0257071828759427,0.0011680633310927,-0.0035870440887164,0.0007865412647116,1.8182832830336664,0.8688019046852719,2.545958001562641,-0.0987748558428893,-0.1055635232346932,-0.0992228739007495,0.1926778684808766,0.0584031665546395,-0.1793522044358236,0.0393270632355829,10.543925848404797,-1.2845791516565714,0.1648153801903195,-1.1623713945635286
0.02,1.8183881272888407,0.8691941498444394,2.545712558567901,0.0185759604719778,0.1311855513821694,0.0261437697300262,0.0125474940125359,0.0199787325737017,-0.0241295286318104,1.8182832830336664,0.8688019046852719,2.545958001562641,-0.0987748558428893,-0.1055635232346932,-0.0992228739007495,1.8066874462847209,0.5689715340721564,1.1782888331209114,-1.2458034948261074,10.54332345799412,-1.297306874576485,0.1577827030638968,-1.1683047314703516
0.04,1.818697789701675,0.8696195653296244,2.544958457798474,0.0326010021707567,0.1176695006480493,0.0267367268903106,0.0183197766719229,0.0228707117270492,-0.0539634482060449,1.8182832830336664,0.8688019046852719,2.545958001562641,-0.0987748558428893,-0.1055635232346932,-0.0992228739007495,1.5262253664557084,0.2886141329693532,0.1445989576673753,-1.4916959787117208,8.79534410475435,-1.3260815076011008,0.1438881982452654,-1.1389163594346825
0.06,1.8190389047874784,0.8700402876784011,2.5435554616336686,0.0479378708908908,0.0978199499746095,0.0269071627217128,0.0144892629911992,0.0186475236975699,-0.0846194102339237,1.8172955344752375,0.8677462694529249,2.544965772823633,-0.1187748561409126,-0.1255635235327164,-0.1192228741987727,1.5590831921720034,-0.1915256840361843,-0.2111594014739677,-1.5327981013939411,8.79534410475435,-1.355665312141283,0.1288474937291675,-1.096301534657975
0.08,1.8192031382959533,0.8703342425485625,2.5415578062543265,0.0626940491139547,0.0760551976726584,0.0265676869416487,0.0014587557191256,0.0106212236129362,-0.1135151864284356,1.81532003735838,0.865634998988231,2.542981315345618,-0.158774856736959,-0.1655635241287629,-0.1592228747948191,1.6349170427727175,-0.6515253636036846,-0.4013150042316814,-1.4447888097255943,8.795228852880882,-1.3787410340563655,0.1146360883757686,-1.0498641021544832
0.1,1.8190218828324145,0.8704351601485716,2.5389981210893247,0.0767325428505981,0.0552799524472085,0.0258692037359059,-0.019176689942703,-0.0004357276090765,-0.14099477958332,1.813344540241522,0.8635237285235372,2.5409968578676034,-0.1987748573330055,-0.2055635247248093,-0.1992228753908656,1.804997110763772,-1.0317722830914329,-0.5528475611006396,-1.3739796577442225,8.85119437291587,-1.3929683222296745,0.1021029306325199,-1.0063246716110057
0.12,1.81841140773574,0.8702999216349736,2.53606690342023,0.0894299072407063,0.0381207229043668,0.0250553057108844,-0.0440397950037059,-0.0134977910562749,-0.1661709787295114,1.809369043094862,0.859412458029041,2.537012400359786,-0.2387748579290519,-0.2455635253208558,-0.239222875986912,1.885890040684895,-1.2431552530501435,-0.6531031723599218,-1.2588099573095672,8.911309763323061,-1.3991000514413536,0.089980230365255,-0.9623769796071494
0.14,1.8172218204378048,0.8698643872369237,2.532460522007165,0.1021604619467038,0.0236180947045446,0.0242137872091963,-0.0736103965610459,-0.0296417991202413,-0.1931552543217922,1.8053935459482016,0.8553011875345448,2.5330279428519686,-0.2787748585250984,-0.2855635259169023,-0.2792228765829586,2.158240372428738,-1.4785300778670007,-0.8072004031983194,-1.3492137796140418,8.965764270425097,-1.3983325205841306,0.0789437500715606,-0.9236990831820724
0.16,1.8154061227345275,0.8690811076157986,2.528312224025255,0.1142710963121508,0.0133419969799902,0.0235619768889233,-0.1062218361486568,-0.0481333703888535,-0.2203166442956732,1.8004180487866406,0.8501899170251475,2.52804348532925,-0.3187748591211448,-0.3255635265129487,-0.319222877179005,2.314727470606312,-1.6305719793805429,-0.9245785634306098,-1.3580694986940478,8.9468197821775,-1.3949217038082156,0.0686851479352197,-0.8966300839242035
0.18,1.8129141542569065,0.8679043888319222,2.5236202747921133,0.1257883660757924,0.0078640381887583,0.0232892781440688,-0.1411893687144124,-0.0688563438854483,-0.2475161712822669,1.7944425516101783,0.844078646500849,2.5220590277916304,-0.3587748597171912,-0.3655635271089951,-0.3592228777750514,2.4453957923883176,-1.7483766282877844,-1.0361486748297395,-1.359976349329686,8.9468197821775,-1.3876148400914436,0.0598530437848572,-0.8762138737672037
0.2,1.8098945379513012,0.866378377195823,2.518659801171085,0.1360674147513873,0.0075271561999416,0.0235412316446933,-0.1742295804575008,-0.0908406150030542,-0.2732129421955549,1.8058546858211857,0.8644615716376498,2.511244466228,-0.2411893702045286,-0.1688563453755644,-0.347516172772383,2.36394151998866,-1.652010587154419,-1.099213555880295,-1.284838545664399,8.967576930838277,-1.3685045815613688,0.0507968618228195,-0.862325478869193
0.22,1.806036240964648,0.8641350009983781,2.513042227696217,0.1414692170687455,0.0125529374143042,0.0241600025398291,-0.2091789107572778,-0.1303014819879222,-0.2860746939672726,1.8058546858211857,0.8644615716376498,2.511244466228,-0.2411893702045286,-0.1688563453755644,-0.347516172772383,2.7129505940201133,-1.7474665149888462,-1.9730433492434007,-0.6430875885858833,8.970279982480406,-1.3374452001611956,0.0449039345264245,-0.8606192506689927
0.24,1.8015357685881408,0.8611762562333821,2.507193253809243,0.1407602848728339,0.0224026309101764,0.0250367198513114,-0.2383996017685596,-0.1630613278793479,-0.2982611589379861,1.8058546858211857,0.8644615716376498,2.511244466228,-0.2411893702045286,-0.1688563453755644,-0.347516172772383,2.277919124162004,-1.4610345505640914,-1.637992294571286,-0.6093232485356759,9.77177266023864,-1.314068730770387,0.043674547853661,-0.8717072793413849
0.26,1.7967736565324115,0.8577932529322336,2.501383609929709,0.1369590430780689,0.0340246538859054,0.0259404907093153,-0.260948404326131,-0.1905490297109358,-0.3125149234881027,1.8034427921191405,0.8627730081838941,2.507769304500276,-0.2611893705025518,-0.1888563456735876,-0.3675161730704063,1.915197152131327,-1.1274401278785675,-1.3743850915793945,-0.712688227505831,9.56399191604487,-1.2908494733397948,0.0454717740300002,-0.8845781619234794
0.28,1.7913505813618835,0.8537230947687758,2.494951746416014,0.1318319252088301,0.0469213260863295,0.0268429757269155,-0.2797590516804517,-0.2147666711232502,-0.3300365593021747,1.79861900471505,0.8593958812763829,2.500818981044828,-0.3011893710985982,-0.2288563462696341,-0.4075161736664527,1.765886697289091,-0.9405323677160377,-1.2108820706157208,-0.8760817907035978,9.56399191604487,-1.269766655863799,0.0484595396929424,-0.8985931262307931
0.3,1.785596759245427,0.8491991816559764,2.48814048174614,0.1267736495137564,0.0592202214403239,0.027603262429691,-0.2944121542224546,-0.236326941004759,-0.3503359529453285,1.7937952173109593,0.8560187543688715,2.4938686575893807,-0.3411893716946447,-0.2688563468656805,-0.4475161742624992,1.6519867082922164,-0.7326551271001458,-1.0780134940754371,-1.014969682157693,9.216185316980043,-1.25200026593253,0.0519137271286508,-0.909465791403129
0.32,1.7795863428172325,0.84426453073253,2.480894228909792,0.1222266503382625,0.07005110272017,0.0281540574281965,-0.3058099983426237,-0.2561085630990342,-0.373278345391253,1.7869714298770665,0.8506416274315579,2.4849183341041305,-0.3811893722906911,-0.3088563474617269,-0.4875161748585456,1.6183145510153487,-0.5698922060084544,-0.9890811047137612,-1.1471196222962248,9.216185316980043,-1.2378355835763717,0.0550925045260211,-0.916546676840312
0.34,1.77368930838465,0.8392223764427954,2.473570852939693,0.1185114667519507,0.0785549295453673,0.0284595854037004,-0.3143730027636194,-0.2737514407640795,-0.3964706407045511,1.7801476424431737,0.8452645004942443,2.4759680106188804,-0.4211893728867376,-0.3488563480577735,-0.5275161754545921,1.5186167545804403,-0.4281502210497834,-0.8821438832522621,-1.159614765664904,9.082003743557834,-1.2260302221432184,0.0580622349782955,-0.921228763505105
0.36,1.7673182285439604,0.8335540941317126,2.4653729257219603,0.1150314060450183,0.0855833947718856,0.02855275175456,-0.3222718438324328,-0.292087916816184,-0.4221492193331193,1.7723238549943794,0.8388873735420296,2.4660176871187294,-0.461189373482784,-0.3888563486538199,-0.5675161760506384,1.6263513186142595,-0.3949420534406722,-0.9168238026052268,-1.28392893142841,9.006773037976927,-1.217765036616444,0.0608756618125525,-0.9222767228221764
0.38,1.7607968552187026,0.827523169121103,2.456651580905587,0.1117139734635584,0.0908736735999264,0.028435151021719,-0.3294839633077777,-0.309987629289769,-0.4487182512333616,1.763500067530684,0.8315102465749136,2.455067363603677,-0.5011893740788305,-0.4288563492498663,-0.6075161766466849,1.6418951169911522,-0.3606059737672418,-0.8949856236792508,-1.3284515950121143,8.94126883574063,-1.2113824787376997,0.0635613848527672,-0.9208460636514634
0.4,1.7541355350050016,0.8211406328452174,2.4473903966831854,0.1084405534696547,0.0946921581861768,0.0281409574168089,-0.3363427310799717,-0.3272557990576344,-0.4760439834050329,1.7443226570533137,0.8120237876566145,2.434215668343919,-0.4294839647978938,-0.4099876307798851,-0.5487182527234777,1.6522167088510378,-0.3429383886097037,-0.8634084883932691,-1.3662866085835668,8.895286259097702,-1.2065111958142138,0.066010075626775,-0.9180451830451368
0.42,1.7477057648378105,0.8147509360860018,2.4383004584418333,0.1056929493583956,0.0971824979744297,0.027754531839317,-0.340178583328706,-0.3446077893251624,-0.4794431621668591,1.7443226570533137,0.8120237876566145,2.434215668343919,-0.4294839647978938,-0.4099876307798851,-0.5487182527234777,0.9046542778505992,-0.1917926124367114,-0.8675995133763992,-0.1699589380913108,8.853237287533375,-1.192659524798947,0.0671840983721147,-0.9169573450578856
0.44,1.7408665321400558,0.8076847679606989,2.4286401748556594,0.1036544150105098,0.0985198198106757,0.0272673055245392,-0.3436574522611514,-0.3612645496770384,-0.4867445615602692,1.7443226570533137,0.8120237876566145,2.434215668343919,-0.4294839647978938,-0.4099876307798851,-0.5487182527234777,0.925824804662107,-0.1739434466222739,-0.832838017593801,-0.3650699696705006,10.185159274227772,-1.1911681572340715,0.0683773396160481,-0.91648708278707
0.46,1.7339546581930911,0.8002870616268073,2.4187764691451705,0.1024179410699735,0.0983496738237121,0.0266784898204523,-0.3474648983295877,-0.3777361508905467,-0.4992255737659498,1.7400278174053347,0.8079239113488157,2.428728485816684,-0.449483965095917,-0.4299876310779083,-0.5687182530215009,1.050697337223295,-0.1903723034218124,-0.8235800606754162,-0.6240506102840326,9.869177366764234,-1.1908699695454423,0.0689641608963358,-0.9130330606479552
0.48,1.7273143530936248,0.7929581271943957,2.4091395366621176,0.1017815233530696,0.0967407636694022,0.0260085383104977,-0.3514169268916482,-0.3929424638599105,-0.5145389528566626,1.7314381381093769,0.799724158733218,2.4177541207622144,-0.4894839656919635,-0.4699876316739548,-0.6087182536175474,1.0969845749296818,-0.1976014281030252,-0.7603156484681878,-0.7656689545356393,9.605668758511456,-1.191656634013437,0.0690953699605722,-0.9072972784549382
0.5,1.7202380698599855,0.7849372638089035,2.3986528387381023,0.1017471721835079,0.0933924895136689,0.0251788208485891,-0.3561174670110407,-0.4083773724427862,-0.5334331431311465,1.722848458813419,0.7915244061176203,2.406779755707745,-0.52948396628801,-0.5099876322700012,-0.6487182542135939,1.2422981792872343,-0.2350270059696235,-0.7717454291437859,-0.9447095137241956,9.408138780399897,-1.1937045891616047,0.0687183783051916,-0.8987539272961387
0.52,1.713056475922586,0.7766099381988844,2.3877637266609946,0.1024534204249667,0.0883047791913623,0.0242199659004252,-0.3621536642048255,-0.4236631858955148,-0.5544935609209534,1.7122587794876587,0.7813246534722202,2.393805390623473,-0.5694839668840564,-0.5499876328660477,-0.6887182548096403,1.335695480784343,-0.3018098596892421,-0.7642906726364307,-1.0530208894903414,9.24607352232033,-1.1975174698401494,0.06792291882757,-0.8875233289259006
0.54,1.705728805068174,0.7679748203537874,2.3764478046803226,0.1038987161665422,0.0820804738075065,0.0231866837557272,-0.370573519590432,-0.4391716063511655,-0.5760244312119357,1.7016691001618984,0.7711249008268203,2.3808310255392016,-0.6094839674801029,-0.5899876334620942,-0.7287182554056868,1.3919262240065708,-0.4209927692803261,-0.7754210227825326,-1.0765435145491165,9.132308000022933,-1.2011068648332104,0.0663307542500103,-0.8755192162394589
0.56,1.6985859591132504,0.759469392941016,2.365296428044628,0.1055923771422126,0.0759033997145097,0.022186330801928,-0.3810106304373692,-0.4553022359072507,-0.5967054912807281,1.690079420821237,0.759925148166519,2.3668566604400283,-0.6494839680761493,-0.6299876340581405,-0.7687182560017332,1.411414838270367,-0.5218555423468607,-0.806531477804262,-1.0340530034396225,9.101456964968747,-1.2039111326024332,0.064310587402729,-0.8642199450291282
0.58,1.6908316003702912,0.7501747069700279,2.353129013993754,0.1071798026822845,0.0698062391170102,0.0211484670314641,-0.3939893647722781,-0.4732863750429805,-0.6189543407194494,1.6774897414656746,0.7477253954913167,2.351882295325954,-0.6894839686721957,-0.669987634654187,-0.8087182565977796,1.5707387646711952,-0.6489367167454407,-0.8992069567864885,-1.1124424719360648,9.089991826956066,-1.2054443415339635,0.0623693106472158,-0.8538660117594726
0.6,1.6827967821749792,0.7405066108837992,2.34051196424277,0.1080176551636765,0.0646659856717131,0.0201522886594143,-0.4089124713488898,-0.4924571929408098,-0.6416074650345264,1.6711321321316772,0.7265103882178788,2.322181296957782,-0.4939893662623942,-0.5667848732443508,-0.7151998828880667,1.660860778333767,-0.7461553288305889,-0.9585408948914688,-1.132656215753847,9.062961783905848,-1.2057047731483783,0.0610579359593138,-0.8449485059180563
0.62,1.67483845740283,0.7308838125196057,2.3283415197477284,0.1061238441835955,0.0628049736370943,0.0193465018313883,-0.427838907537944,-0.5186607978120882,-0.6382703352264182,1.6711321321316772,0.7265103882178788,2.322181296957782,-0.4939893662623942,-0.5667848732443508,-0.7151998828880667,1.624788701973724,-0.9463218094527076,-1.3101802435639158,0.1668564904054092,9.04817171380273,-1.1934316295867995,0.0610623172285882,-0.8387010584767716
0.64,1.6660912120059106,0.7202668671222546,2.315583267441963,0.101064928365736,0.0653058640716162,0.018764476095894,-0.4453706431908616,-0.5408314773468861,-0.6379774350679712,1.6711321321316772,0.7265103882178788,2.322181296957782,-0.4939893662623942,-0.5667848732443508,-0.7151998828880667,1.4133175302646157,-0.8765867826458829,-1.108533976739895,0.0146450079223481,10.64815447561341,-1.1854416625782678,0.0635670199527158,-0.8449307934276135
0.66,1.6570262506179565,0.7092557509313163,2.3027709525355755,0.0951689750871365,0.070511465445773,0.018389261572466,-0.4598910838830504,-0.5588862364885789,-0.6434955418169283,1.6661922384690533,0.7208425394854353,2.315029298128901,-0.5139893665604174,-0.5854845728846249,-0.7344489913217901,1.1908684096624598,-0.7260220346094387,-0.9027379570846428,-0.2759053374478515,10.27491453937546,-1.1768129281260613,0.0670365957649856,-0.852762989023959
0.68,1.647700012461187,0.6979138849018216,2.2897876432874864,0.0892800191109462,0.07706718983755,0.0181215247525271,-0.4717118339364428,-0.5742639969674761,-0.6545230784339747,1.6563124511438054,0.7095068420205484,2.30072530047114,-0.5539893671564639,-0.6228839721651729,-0.772947208189237,1.1155852869810186,-0.5910375026696196,-0.7688880239448581,-0.5513768308523237,9.915992519911017,-1.1685255757384378,0.0705793722107019,-0.8602730253586539
0.7000000000000001,1.638644584315941,0.6868744619674089,2.277207296552109,0.0840470308408932,0.0836394336159177,0.0178993887924376,-0.4807297539026705,-0.5869892916131594,-0.6691664251289301,1.6464326638185576,0.6981711445556613,2.286421302813378,-0.5939893677525103,-0.660283371445721,-0.8114454250566839,1.069677061974084,-0.4508959983113819,-0.6362647322841641,-0.7321673347477686,9.621566863079352,-1.160097087168025,0.0742089713147639,-0.8673457056803745
0.72,1.6289482755147178,0.6750099884179757,2.263627961200041,0.0791196156423962,0.0902489353215258,0.0176578654576045,-0.4882888049523131,-0.5987830188862836,-0.6881641269870241,1.634552876463507,0.6849654771267469,2.270192394312245,-0.6339893683485568,-0.6976827707262692,-0.8499436419241309,1.1801948267690454,-0.3779525524821331,-0.5896863636562111,-0.9498850929047008,9.3835007798898,-1.1522615840392263,0.0775228775762375,-0.8726308456453657
0.74,1.6191187776641625,0.6629218422427172,2.249645508296273,0.0748710428075348,0.0960797962667641,0.0173857900189979,-0.4942035486478624,-0.6094732726732912,-0.7092061674151418,1.622673089108457,0.6717598096978326,2.2539634858111115,-0.6739893689446033,-0.7350821700068173,-0.8884418587915778,1.2165866023358218,-0.2957371847774642,-0.5345126893503804,-1.0521020214058818,9.185590779019549,-1.145223062715733,0.0803749589385721,-0.8762467789060234
0.76,1.6091806721626216,0.6506214115592048,2.235225762595636,0.071050570811277,0.1009834940079145,0.0170649158927988,-0.4992776683185906,-0.6199552220895749,-0.7317027799811489,1.6097933017385058,0.6576191572869043,2.236772121888292,-0.7139893695406496,-0.7724815692873653,-0.9269400756590248,1.2666052373800505,-0.2537059835364119,-0.5240974708141832,-1.124830628300355,9.022220650377676,-1.1397643796383006,0.0828415589198808,-0.8780375249258758
0.78,1.59965139775559,0.6387469166031523,2.22109919171698,0.0675790073105349,0.104871471543326,0.0167124849396847,-0.5035308148872912,-0.6293739546039242,-0.754168731608688,1.5959135143536534,0.6425435198939625,2.2186183025437853,-0.7539893701366961,-0.8098809685679134,-0.9654382925264716,1.236447290063997,-0.2126573284350286,-0.4709366257174663,-1.1232975813769586,8.962124339812362,-1.134945134843616,0.0853327980387524,-0.8787356025947017
0.8,1.5895378681791288,0.6260623602747806,2.20575579389108,0.0640612324197086,0.1082395110836088,0.0163018820913177,-0.5075765088042103,-0.6385015439103773,-0.7790373127401337,1.5744748570112257,0.6072782188729561,2.183390755136546,-0.6035308163774074,-0.6717274282076496,-0.7819854277011744,1.3398944485555258,-0.2022846958459556,-0.4563794653226538,-1.2434290565722816,8.962124339812362,-1.1310618395914531,0.08774070858685,-0.8783648486206321
0.8200000000000001,1.579410754698898,0.6130222178225426,2.190314462466291,0.0557028308806086,0.1105739698377819,0.015491280807843,-0.504735865247226,-0.662361310665773,-0.761473728576198,1.5744748570112257,0.6072782188729561,2.183390755136546,-0.6035308163774074,-0.6717274282076496,-0.7819854277011744,1.4881508778710697,0.1420321778492161,-1.1929883377697847,0.8781792081967832,11.613278750720385,-1.111102699227734,0.0927216418191364,-0.8791577328389767
0.84,1.569350692278461,0.5996324028136519,2.1752691510030737,0.04247735805354,0.1114439285594971,0.0142727583477656,-0.5016293833793298,-0.6743021597832682,-0.7441129970974558,1.5744748570112257,0.6072782188729561,2.183390755136546,-0.6035308163774074,-0.6717274282076496,-0.7819854277011744,1.0649285242674091,0.1553240933948096,-0.5970424558747633,0.8680365739371088,11.613278750720385,-1.1129043090337822,0.1024439397012487,-0.8804521793711024
0.86,1.559847061618305,0.5867677429184083,2.161236461465452,0.0292447314693788,0.1107809224508327,0.0130388832099559,-0.4990325560961995,-0.6789236528366613,-0.733853374810004,1.5684395488474514,0.6005609445908796,2.175570900859534,-0.6235308166754305,-0.6801981229283948,-0.7875487669196717,0.5774113773172215,0.1298413641565132,-0.231074652669655,0.5129811143725904,11.2224056132236,-1.1151628276159342,0.1132575978527804,-0.8801692701753142
0.88,1.5498926608524046,0.5731823818660223,2.146622925833288,0.0160561066106452,0.1081447046765044,0.0117980874298927,-0.4966612828354555,-0.6791894189459827,-0.7282652385836751,1.5563689325199033,0.5871263960267266,2.159931192305511,-0.663530817271477,-0.6971395123698849,-0.7986754453566662,0.3038125860871845,0.1185636630372022,-0.0132883054660692,0.279406811316446,10.806022817405392,-1.1189078559452976,0.1235065113020836,-0.8768670132981747
0.9,1.5399788525303946,0.5596306735934469,2.13206944443314,0.0042774823519917,0.1030693105960279,0.0107076106057379,-0.4952126840438674,-0.67605026820371,-0.7273190890402162,1.5442983161923551,0.5736918474625736,2.1442914837514877,-0.7035308178675235,-0.7140809018113751,-0.8098021237936608,0.1792198705521349,0.0724299395794048,0.1569575371136389,0.047307477172942,10.236490738870998,-1.125293419892736,0.1322421143062631,-0.8700352912307752
0.92,1.5300646737602244,0.5461696606067746,2.117502227307853,-0.0058714005777588,0.0958737204971731,0.0098315139648064,-0.4965614751157241,-0.6706719164143669,-0.7293112767459717,1.5302276998350046,0.5594102294263461,2.128095441275614,-0.7435308184635699,-0.7310222912528652,-0.8209288022306553,0.2945959825778931,-0.0674395535928351,0.2689175894671547,-0.0996093852877744,10.236490738870998,-1.1335843205479577,0.1401239139371219,-0.8598436119676186
0.94,1.520589445392461,0.5335062702411005,2.103619945581192,-0.0139296431800408,0.0878641821433233,0.0092221879099581,-0.5009143259377874,-0.6631293722794441,-0.731745434793361,1.516157083477654,0.5451286113901186,2.111899398799741,-0.7835308190596164,-0.7479636806943555,-0.8320554806676499,0.4521128390846244,-0.2176425411031635,0.3771272067461362,-0.1217079023694611,10.062903713873313,-1.1411023088323318,0.146535473612983,-0.8486610443364812
0.96,1.510495847569435,0.5203363089867221,2.088960573292717,-0.0208941136844953,0.0790138558187829,0.0087951063612082,-0.5085088667237126,-0.6543735888963076,-0.7340545807454688,1.5010864671054025,0.5304234586178538,2.0954251893629428,-0.8235308196556628,-0.7649050701358456,-0.8431821591046444,0.590916549585532,-0.3797270392962626,0.437789169156827,-0.1154572976053924,10.05181463264671,-1.1481581096711275,0.1516810438186625,-0.837471168086112
0.98,1.5002180684964317,0.5073542144699609,2.074255723051335,-0.0264360649437716,0.0705358790044219,0.008548814653684,-0.5190443280956454,-0.6445245661217757,-0.7363061656822929,1.4850158507182498,0.5152947711095518,2.07867281296522,-0.8635308202517092,-0.7818464595773358,-0.854308837541639,0.7298438714212588,-0.5267730685966365,0.4924511387265962,-0.1125792468412045,10.05181463264671,-1.153838754876637,0.1555367679701832,-0.8278947192805877
1.0,1.4902351424533191,0.4952117929819036,2.0602437284005704,-0.0305180548113976,0.0633496272198054,0.0084403014081372,-0.531319576498593,-0.6343606208169354,-0.738520953640301,1.4742658520916492,0.4751279861638721,2.0374404147672207,-0.6190443295857615,-0.639795265850056,-0.6990208154191742,0.8045072920937204,-0.613762420147379,0.5081972652420108,-0.1107393979004056,10.05494421606454,-1.1583818882411052,0.1586620387106085,-0.8195170075018962
1.02,1.4794295861487936,0.4825425599987799,2.0457142358458804,-0.0372037502482033,0.0584611103313206,0.0081349452170632,-0.5488556749051983,-0.6312851774311151,-0.7129888391884932,1.4742658520916492,0.4751279861638721,2.0374404147672207,-0.6190443295857615,-0.639795265850056,-0.6990208154191742,1.5563273817916206,-0.8768049203302652,0.1537721692910165,1.2766057225903904,10.052652686452348,-1.1539692160604176,0.1629584405337949,-0.8118075832860866
1.04,1.4682634565770374,0.4700312964646669,2.031728307543637,-0.0462506148018272,0.0581068683913202,0.0075522755769992,-0.5663327276945916,-0.6196006924262935,-0.687175631945853,1.4742658520916492,0.4751279861638721,2.0374404147672207,-0.6190443295857615,-0.639795265850056,-0.6990208154191742,1.6645541686759853,-0.8738526394696688,0.5842242502410833,1.2906603621320123,11.962732025333937,-1.1522894190070718,0.1696045410333991,-0.8168247314229174
1.06,1.4573572483121982,0.458412018018867,2.018881797247824,-0.0543687186272831,0.0606478643527715,0.0069224836654011,-0.5804876266879366,-0.6041856794672164,-0.6663743545462246,1.4680754087957917,0.4687300335053715,2.030450206613029,-0.6390443298837847,-0.638849405795712,-0.6915637453665504,1.475361761989752,-0.7077449496672494,0.7707506479538551,1.0400638699814169,11.74614524952176,-1.1490554208242842,0.1764216414437384,-0.824861656100212
1.08,1.4456151714319876,0.4465242635694816,2.005756854636904,-0.0615512677958621,0.0649512667707444,0.0062696891660409,-0.5927056653965146,-0.5855618130180167,-0.6473396162591336,1.4556945222040762,0.4559341281883704,2.0164697903046456,-0.6790443304798311,-0.6369576856870242,-0.6766496052613029,1.4649659834446522,-0.610901935428898,0.9311933224599832,0.9517369143545508,11.500791327485786,-1.1447098686690362,0.1823198228603943,-0.8343189040906619
1.1,1.4336542831958974,0.4350276564387231,1.992984620192837,-0.067035340213956,0.0698667548883269,0.005696916043625,-0.6025797833061777,-0.5653059659728319,-0.630934487188515,1.443313635612361,0.4431382228713693,2.002489373996262,-0.7190443310758776,-0.6350659655783363,-0.6617354651560554,1.3936694405736134,-0.4937058954831541,1.0127923522592397,0.820256453530932,11.323557945773246,-1.1403678464125582,0.1870400084954241,-0.8439921471508363
1.12,1.421518320646302,0.4239484143037871,1.980517409637362,-0.0706989713776059,0.0746262408883789,0.0052655969648606,-0.610429844602446,-0.5441172445892857,-0.6165883868277232,1.4289327489908434,0.4304369035598026,1.989254664693141,-0.7590443316719241,-0.6331742454696484,-0.6468213250508079,1.3382787189022207,-0.3925030648134153,1.0594360691773108,0.7173050180395879,11.176998124356032,-1.136601067029735,0.190291545408914,-0.8527574305370367
1.14,1.409860978888486,0.4138215207804112,1.968936474376113,-0.0725703779891029,0.0785152310537411,0.0050234490019887,-0.6162571180397772,-0.5233452270490967,-0.6031624054504007,1.414551862369326,0.4177355842482358,1.97601995539002,-0.7990443322679706,-0.6312825253609605,-0.6319071849455604,1.2705223378079158,-0.2913636718665624,1.038600877009449,0.6712990688661269,11.07956603475759,-1.1331588482560713,0.1924430210063263,-0.8610174864376471
1.16,1.397479038282036,0.4035920201198905,1.9570231240714424,-0.0727765803520731,0.081755712649352,0.004970767139015,-0.6216074084140656,-0.500898396701497,-0.5888658002188901,1.3991709757329074,0.4050815579393862,1.96315809958953,-0.8390443328640169,-0.6293908052522726,-0.6169930448403129,1.3572755071178233,-0.2675145187144179,1.1223415173799822,0.7148302615755275,11.07956603475759,-1.1311686536019143,0.1932352794414691,-0.8682490371451076
1.18,1.3849959882433929,0.393819831890465,1.945397336063242,-0.0707045009689132,0.0841749500986066,0.0051576702458467,-0.6264281914889265,-0.4777190890248076,-0.5744080080755548,1.3827900890815874,0.3924748246332539,1.9506690972916712,-0.8790443334600634,-0.6274990851435848,-0.6020789047350654,1.3870364157849155,-0.2410391537430445,1.1589653838344705,0.7228896071667656,11.105430803280797,-1.130133298359007,0.1922828544366631,-0.8750605498436558
1.2,1.372420874492014,0.3844996886362837,1.9340650194374445,-0.066237357308321,0.0858390412926556,0.0055853983468755,-0.6308701899081715,-0.45635817295132,-0.5594981045545042,1.3536745786689466,0.3699338774392247,1.916676935659464,-0.7264281929790426,-0.4777540680127768,-0.5283406659134225,1.3212922731763337,-0.2220999209622487,1.0680458036743803,0.7454951760525297,11.12818230067387,-1.1288388005810917,0.1895609708292408,-0.8813934888335356
1.22,1.36038112519293,0.3759885978943235,1.92357283485798,-0.0616175175463372,0.0871988261342855,0.0060494593922705,-0.6361664696552419,-0.440533358537797,-0.5457071248696678,1.3536745786689466,0.3699338774392247,1.916676935659464,-0.7264281929790426,-0.4777540680127768,-0.5283406659134225,1.0824352764129184,-0.2648139873535238,0.7912407206761479,0.6895489842418223,11.151106113445168,-1.1285382106300288,0.18628618430326,-0.8869583235291076
1.24,1.347613741013084,0.3673520091227729,1.912818477268373,-0.0569236977948235,0.0884621841197785,0.0065515276357367,-0.6402724145621872,-0.424158078943849,-0.5304077383959607,1.3536745786689466,0.3699338774392247,1.916676935659464,-0.7264281929790426,-0.4777540680127768,-0.5283406659134225,1.1391661334400416,-0.2052972453472634,0.8187639796974039,0.764969323685355,11.116127591523764,-1.1272900366873624,0.1831079500372457,-0.8928315364686464
1.26,1.3347734538195228,0.3590345647131787,1.9023777702865767,-0.0521416010190328,0.0890304526244002,0.0071113636297381,-0.643604383669172,-0.4086316719654844,-0.5143976031648034,1.3464102967391562,0.3651563367590969,1.9113935290003297,-0.7464281932770658,-0.4777610638103707,-0.5191271974809961,1.127492529806354,-0.1665984553492427,0.7763203489182302,0.800506761557862,11.173314415311324,-1.1270975055477117,0.1798342680948224,-0.897656588337718
1.28,1.321871378490114,0.3510166499265308,1.8922643966623656,-0.0472314544570522,0.0886681577518512,0.0077349433674495,-0.6465747372855628,-0.3941950196051881,-0.4977387674131767,1.3318817328795751,0.3556012553988413,1.9008267156820613,-0.7864281938731122,-0.4777750554055584,-0.5007002606161431,1.11215639702576,-0.1485176808195376,0.7218326180148116,0.8329417875813344,11.21668341754048,-1.1273628257848889,0.1766025547874012,-0.9015515413155752
1.3,1.3095605550188745,0.3436551051531337,1.8829710252367509,-0.0425199444114703,0.0873394289569223,0.0083767301721163,-0.6492523793342756,-0.3816228049328725,-0.4813403736723503,1.3173531690199944,0.3460461740385858,1.8902599023637927,-0.8264281944691587,-0.4777890470007461,-0.4822733237512903,1.0417985241722578,-0.1338821024356395,0.6286107336157809,0.8199196870413206,11.2547240975764,-1.1283612282373996,0.1731166867842888,-0.9044083308196212
1.32,1.2965470757223887,0.3361506679706865,1.8735319160673023,-0.0376167405880422,0.0846821040783729,0.0090938857564548,-0.6520458554972911,-0.3696477551781645,-0.4633981563693704,1.3008246051306112,0.3364903930985709,1.8806144358887675,-0.8664281950652052,-0.4778030385959337,-0.4638463868864373,1.087575844997052,-0.1396738081507753,0.5987524877353989,0.8971108651489978,11.290529625609452,-1.1303484697819937,0.1696433221603553,-0.9058171720536252
1.34,1.2834748233404805,0.328872900069406,1.864458669384116,-0.0328573649230298,0.0804710096313233,0.0098430505583834,-0.6552224043786082,-0.3588754731661875,-0.4448183009317946,1.284296041241228,0.3269346121585559,1.8709689694137412,-0.9064281956612515,-0.4778170301911215,-0.4454194500215844,1.0855223979980515,-0.1588274440658565,0.5386141005988526,0.9289927718787894,11.36493523549234,-1.1335226462527834,0.1664439855273217,-0.9056469129361714
1.36,1.2703212910416288,0.3217975700135718,1.8557635296276451,-0.0283278555027777,0.0748334977927197,0.0105990717106525,-0.6602848098867603,-0.3493040883037387,-0.4256230637442925,1.2667674773369435,0.3173784814286614,1.861784176360337,-0.946428196257298,-0.4778310217863091,-0.4269925131567316,1.101926141352657,-0.2531202754076034,0.478569243122437,0.9597618593751024,11.36493523549234,-1.138702981900985,0.1633065226478732,-0.9042564632720008
1.38,1.2577040889309643,0.3152423672012858,1.84786481279824,-0.0243042894777601,0.0688946520169695,0.0112884314028819,-0.6677773511480789,-0.3412574207259314,-0.4067846514520362,1.248238913417758,0.307822000908887,1.8530600567285536,-0.9864281968533444,-0.4778450133814969,-0.4085655762918787,1.0906108510295174,-0.3746270630659298,0.4023333788903682,0.9419206146128152,11.40270882798086,-1.144159472770853,0.1604014821011052,-0.9024859281902596
1.4,1.2442428944764483,0.3084967252953867,1.8399433108259504,-0.0204127586208758,0.0628377835375057,0.0119586979428225,-0.6781341433439724,-0.3337891948512499,-0.3863351914016353,1.2297103494985726,0.2982655203891127,1.844335937096771,-1.026428197449391,-0.4778590049766845,-0.3901386394270257,1.205423119341424,-0.5178396097946736,0.3734112937340744,1.022473002520044,11.446339779286973,-1.1484195344472097,0.1579970523486011,-0.901272035813459
1.42,1.2304901192314206,0.3018791658137869,1.8323500239332624,-0.017196471637205,0.0593522126003428,0.012511335057252,-0.696956871165526,-0.3282249763048756,-0.3744677048537795,1.2243152213735604,0.2981794961649893,1.827525580225638,-0.767777352638195,-0.3543262829853194,-0.3732566662368491,1.1468356983888786,-0.9411363910776792,0.2782109273187144,0.5933743273927927,11.494290983800056,-1.156678871280692,0.1558428280768137,-0.8971836246258394
1.44,1.2170754954978171,0.2956983309085236,1.8253479570740092,-0.0146566454276205,0.0603079888969299,0.0129229198440152,-0.7136204329176042,-0.3226910334825784,-0.3631355952706369,1.2243152213735604,0.2981794961649893,1.827525580225638,-0.767777352638195,-0.3543262829853194,-0.3732566662368491,1.044886980766501,-0.8331780876039141,0.2766971411148594,0.5666054791571312,11.014137319563815,-1.1505409088006364,0.1538799403271438,-0.9050580058526334
1.46,1.202648277496593,0.2893031624460495,1.8182152024463984,-0.0122007028543112,0.0640709413160637,0.0133073471250005,-0.7278660122167795,-0.3171662860025127,-0.350723795506896,1.2243152213735604,0.2981794961649893,1.827525580225638,-0.767777352638195,-0.3543262829853194,-0.3732566662368491,0.9842663989779158,-0.7122789649587624,0.2762373740032853,0.6205899881870452,11.014137319563815,-1.1433559717171065,0.1521191363209442,-0.9149615739060242
1.48,1.1879693355142522,0.2830140857649422,1.811331170798128,-0.009894674203475,0.069256751162578,0.0136755433769448,-0.7390413937525433,-0.3120693095427952,-0.3383155917466741,1.2166374478471784,0.2946362333351361,1.8237930135632696,-0.7877773529362182,-0.356940055437197,-0.3665510691938117,0.8729717092437588,-0.5587690767881903,0.2548488229858731,0.6204101880110918,11.028479283673732,-1.136167029189768,0.1505668810524651,-0.9252386673543131
1.5,1.1730973383198866,0.2768221314500892,1.804692583643864,-0.0077178957461495,0.0747752008299849,0.0140441877101347,-0.7474451118081246,-0.30742813594549,-0.3261830493227842,1.2012819007944149,0.2875497076754297,1.8163278802385323,-0.8277773535322647,-0.3621676003409521,-0.3531398751077369,0.7735656972512323,-0.4201859027790633,0.2320586798652629,0.6066271211944946,11.021501164097572,-1.1289589447262005,0.1490386118318182,-0.9358543630234262
1.52,1.158836015284435,0.2710214349928626,1.7986076015842076,-0.0057700438590198,0.0796048126173665,0.01439996136735,-0.7532794795753126,-0.3034378717181769,-0.3149655318645927,1.185926353741651,0.2804631820157233,1.808862746913796,-0.8677773541283111,-0.3673951452447073,-0.3397286810216621,0.6629380698289409,-0.2917183883594021,0.1995132113656567,0.5608758729095747,11.006963323648051,-1.1226917404412171,0.1476174225442293,-0.9454615458741
1.54,1.1437222237706497,0.2649930109409253,1.7924278515500045,-0.003850375882932,0.0837492424962641,0.0147795441434037,-0.7577575346200792,-0.2996520124090869,-0.3036331955940974,1.1685708066590843,0.2731152791108291,1.8020681732933623,-0.9077773547243576,-0.3726226901484625,-0.3263174869355872,0.6379803152131069,-0.2239027522383307,0.1892929654544989,0.5666168135247646,10.994193962862482,-1.117800373773825,0.1463106120783199,-0.9535388719736324
1.56,1.1285269555695878,0.2590346650605103,1.7864694133373349,-0.0021108991330783,0.0867740089598943,0.0151568935891265,-0.7615832776510177,-0.29636980755367,-0.292789868392221,1.1512152595765182,0.265767376205935,1.7952735996729292,-0.947777355320404,-0.3778502350522177,-0.3129062928495124,0.5978856982288715,-0.1912871515469261,0.1641102427708457,0.5421663600938209,10.97275493676807,-1.1146389058709265,0.1452140105438946,-0.9593859326694004
1.58,1.1132587405948409,0.2531372852231379,1.7807254805415365,-0.000601697651723,0.0888375214985155,0.0155234142846747,-0.7650901565798233,-0.293534765862547,-0.2821561029104619,1.1328597124790507,0.258288784678447,1.788814305904648,-0.9877773559164504,-0.3830777799559729,-0.2994950987634376,0.5775219249793829,-0.1753439464402761,0.1417520845561487,0.5316882740879547,10.953830060054315,-1.1121523944978544,0.1442341573072958,-0.9643487553395496
1.6,1.098690268166814,0.2475828646320619,1.7754651784145363,0.0005420332352151,0.0900608004238951,0.0158529416577604,-0.7683000139759941,-0.2912778256474019,-0.2720993135050895,1.0750042327658498,0.2384605469300106,1.7666176753960134,-0.8389657924421737,-0.293034127824627,-0.2531309747992187,0.5397591518040793,-0.1604928698085428,0.1128470107572526,0.5028394702686234,10.949783214592571,-1.1103699631524797,0.143509984130325,-0.9683196618628732
1.62,1.0832278295286046,0.2417111674509849,1.7700950688172097,-0.0007928813845001,0.0925826668324316,0.0160238282359304,-0.7775479990565184,-0.2954545702293458,-0.2656476232911631,1.0750042327658498,0.2384605469300106,1.7666176753960134,-0.8389657924421737,-0.293034127824627,-0.2531309747992187,0.6012377440931113,-0.4623992540262134,-0.2088372290971918,0.3225845106963165,10.953654443144842,-1.1096182916811914,0.1450591104480642,-0.9685251876966772
1.64,1.0676078456948046,0.235792491521095,1.7648507957223016,-0.0056023151255613,0.0974741133157655,0.0159426344160016,-0.7836268137903539,-0.2952984614390448,-0.2590596422680994,1.0750042327658498,0.2384605469300106,1.7666176753960134,-0.8389657924421737,-0.293034127824627,-0.2531309747992187,0.4482684811665693,-0.3039407366917768,0.0078054395150489,0.3293990511531869,10.715154427303789,-1.103068213931501,0.1493330757514355,-0.975677976496814
1.66,1.05268672604427,0.2302241758384584,1.7599902184634666,-0.0108967667088435,0.1028969649600924,0.0157918410614776,-0.7865449748705619,-0.2907588373581776,-0.2529331890434172,1.066614574841428,0.2355302056517643,1.7640863656480212,-0.8537409196146438,-0.292934000217043,-0.24732594917697,0.4082195487720064,-0.1459080540103963,0.2269812040433583,0.3063226612341096,10.725381403346546,-1.096325963764034,0.1546682059125634,-0.98370036225025
1.68,1.0369473045490554,0.2244834124717064,1.7549967638957478,-0.0159868674444668,0.1084603107511785,0.0156468813947765,-0.7870989746639332,-0.2835893198876872,-0.2467615169038262,1.0498352589925846,0.2296695230952717,1.7590237461520368,-0.883291173959584,-0.292733745001875,-0.2357158979324727,0.473810176994242,-0.027699989668567,0.3584758735245191,0.3085836069795497,10.718998413492956,-1.0903306406368365,0.1596751534284604,-0.9914695424938104
1.7,1.0212198902329517,0.2189041000251638,1.750123342179012,-0.0200999324075679,0.1131596652750955,0.0155680868535085,-0.7856201118526992,-0.2749211337331405,-0.2409050136325205,1.0330559431437412,0.2238088405387792,1.7539611266560524,-0.9128414283045242,-0.292533489786707,-0.2241058466879754,0.528259209553279,0.0739431405616997,0.4334093077273393,0.2928251635652856,10.713709171435768,-1.0859697348599795,0.1636924568696231,-0.9979512256535112
1.72,1.006320223879961,0.2137729425006455,1.7456012119579347,-0.0230198024984165,0.1164487664444315,0.0155789259838943,-0.7829111555735738,-0.2658694347676307,-0.2354081865963605,1.0147991145776507,0.2179581707430451,1.749479009722293,-0.9423916826494644,-0.292333234571539,-0.2124957954434781,0.5465501023462583,0.1354478139562687,0.4525849482754862,0.274841351808,10.713709171435768,-1.082997086282654,0.1670427935052397,-1.0034344533561554
1.74,0.9906998025535616,0.2085606228419334,1.7409546149324555,-0.0251393348588468,0.1185030790969144,0.0156890501472969,-0.7793436139316149,-0.2560013093692451,-0.2295348592179128,0.99654228601156,0.2121075009473109,1.744996892788533,-0.9719419369944046,-0.292132979356371,-0.2008857441989808,0.6012554089981164,0.1783770820979469,0.4934062699192804,0.2936663689223823,10.722000951433074,-1.0817405868360086,0.1695333480740371,-1.007444698508873
1.76,0.9751499825944848,0.2035507009084038,1.7364281971180102,-0.0263083072318993,0.1192190440007733,0.0159026643739683,-0.7759155616600436,-0.2455765417125564,-0.223386199139371,0.9775467010868462,0.206261837531956,1.7408050271358864,-1.0014921913393446,-0.291932724141203,-0.1892756929544835,0.6289541792412646,0.171402613578564,0.5212383828344338,0.3074330039270906,10.736906785301471,-1.082271676994905,0.1711882433367426,-1.009993719712165
1.78,0.9596651082389192,0.1987569246168554,1.7320300497746297,-0.0262613957919547,0.1188848996353005,0.0162326542346061,-0.7728577538495475,-0.2345145668072255,-0.2167335079636721,0.9578123598035088,0.2004211804969803,1.7369034127643517,-1.0310424456842848,-0.291732468926035,-0.1776656417099862,0.6632793101162702,0.1528903905248069,0.5530987452665489,0.3326345587849472,10.760351609877944,-1.083626847243935,0.1717374090612985,-1.0118593007866143
1.8,0.9450064775362574,0.1944101365780382,1.727980763649578,-0.0248708720152275,0.1178310409464705,0.0166601106601088,-0.7703866380656736,-0.2237876975513828,-0.2098355633117347,0.921022220546442,0.1870311962764942,1.721193374376446,-0.7868756412630492,-0.2347713112243545,-0.1859416553404478,0.6495263229277999,0.1235557891936911,0.5363434627921326,0.3448972325968663,10.793918462636611,-1.0856474200551272,0.1710192797807834,-1.0135703304714898
1.82,0.9295175566173384,0.1900431619769902,1.7238128491097091,-0.0220156988816155,0.119187551254197,0.0171466859640012,-0.7783008433365314,-0.2138133956574365,-0.2075952102590773,0.921022220546442,0.1870311962764942,1.721193374376446,-0.7868756412630492,-0.2347713112243545,-0.1859416553404478,0.6464141960488742,-0.3957102635428866,0.4987150946973162,0.1120176526328703,10.832355232249029,-1.090751276195735,0.1690173587235896,-1.011965395756766
1.84,0.91390783366212,0.1858530812420953,1.7196900277747502,-0.0184568581541248,0.1249842162281483,0.0175936990760763,-0.7816673412617822,-0.2058827940934226,-0.204726978935812,0.921022220546442,0.1870311962764942,1.721193374376446,-0.7868756412630492,-0.2347713112243545,-0.1859416553404478,0.4540223022375061,-0.1683248962625394,0.396530078200695,0.1434115661632679,10.532050606204391,-1.081222959680184,0.1660081983141726,-1.0227225742427346
1.86,0.8982794803096227,0.1818054043007037,1.715634623604349,-0.0148770604523652,0.1329262136686788,0.0180242793014513,-0.7805981693019265,-0.1993498013817642,-0.2009993592959303,0.9131534641338114,0.1846834831642506,1.7193339578230415,-0.7896792187457495,-0.2348226601077803,-0.179783284815803,0.3798627075337697,0.0534585979927837,0.3266496355829193,0.1863809819940817,10.58898457665964,-1.0722380546090202,0.1631877912631934,-1.0342310192778856
1.88,0.8834859679880557,0.1780716138146695,1.7118553893173003,-0.0117049135944207,0.1412954036186239,0.0184293190630641,-0.7763824530053716,-0.1940185672208988,-0.1970382063853641,0.8974159513085505,0.1799880569397635,1.7156151247162326,-0.7952863737111503,-0.234925357874632,-0.1674665437665133,0.3933352703226073,0.2107858148277464,0.2665617080432669,0.19805764552831,10.635748950731797,-1.063121275437465,0.1604488529512195,-1.0463067455328885
1.9,0.8680299103151243,0.1742435925375308,1.7079619855592258,-0.008685705227906,0.1503051286281885,0.018855773205772,-0.7691555940987956,-0.1890793077670162,-0.1925225465700131,0.8816784384832894,0.1752926307152764,1.7118962916094236,-0.800893528676551,-0.2350280556414836,-0.1551498027172236,0.4924808554053159,0.3613429453287964,0.2469629726941299,0.2257829907675521,10.673106813052073,-1.0545676725698143,0.1580266334207414,-1.058030921771738
1.92,0.8527447182517408,0.1705082833500752,1.7041615062116156,-0.0060100575757233,0.1591542350139206,0.019281830165292,-0.7594756619181645,-0.1847017411671908,-0.1877715204474692,0.8656605679097584,0.1705920696024468,1.708793295555079,-0.8065006836419516,-0.2351307534083352,-0.1428330616679338,0.5818857825523405,0.4839966090315561,0.2188783299912733,0.2375513061271941,10.712366498124538,-1.0468049204935006,0.1559602990030912,-1.0696079676048689
1.94,0.8376810571969044,0.1668554422772299,1.700456190539271,-0.003671160369583,0.1674928796268577,0.0197052880401957,-0.7472083866567787,-0.1807796968732588,-0.1830397996367802,0.8496426973362273,0.1658915084896171,1.7056902995007346,-0.8121078386073524,-0.2352334511751869,-0.1305163206186441,0.6860350858601917,0.6133637630692912,0.1961022146965987,0.2365860405344491,10.764262015044553,-1.0401400984887692,0.1542998522676019,-1.08005284305128
1.96,0.8236276653911656,0.1634543904957147,1.69702314089609,-0.0017345735509157,0.1743628908356298,0.0201034565605537,-0.732706003114332,-0.1773998639339996,-0.1785947748845062,0.8334846478885614,0.1611883799326161,1.7028952219726223,-0.817714993572753,-0.2353361489420385,-0.1181995795693544,0.7770145496672818,0.7251191771223353,0.1689916469629584,0.2222512376137034,10.764262015044553,-1.0343514638302616,0.152841501272286,-1.0900525718858405
1.98,0.8091542349845326,0.159940826561003,1.6935025055274413,3.437939466779643e-05,0.1799162654961906,0.0205139136142644,-0.7153992365307332,-0.174130714326733,-0.1736969141769558,0.8171864195667603,0.1564826839314439,1.7004080629707423,-0.8233221485381538,-0.2354388467088902,-0.1058828385200647,0.9140576407486942,0.8653383291799377,0.1634574803633326,0.2448930353775164,10.786358598875267,-1.0310379701659926,0.1516829236235711,-1.0980497836336354
2.0,0.7950443565291302,0.1564888889580247,1.6900849741086212,0.0015246445996097,0.1834116506848411,0.0209070632375923,-0.6966413789617766,-0.1712302373844194,-0.168301666137228,0.773384273157996,0.1512342908446664,1.6848176598185935,-0.6919716402149917,-0.1705131638474848,-0.1347277438748032,0.98663403610501,0.9378928784478324,0.1450238471156814,0.2697624019863939,10.86883969248538,-1.030224900497107,0.1508496159666756,-1.1036983229371418
2.02,0.7819247396396686,0.1532252362925703,1.6868634589718303,0.0015558385669914,0.186462361749312,0.021182021430121,-0.684991519143967,-0.1719972608838751,-0.171106210703561,0.773384273157996,0.1512342908446664,1.6848176598185935,-0.6919716402149917,-0.1705131638474848,-0.1347277438748032,0.6003603689615896,0.5824929908904763,-0.0383511749727893,-0.14022722831665,10.86883969248538,-1.034698890096465,0.1515462545953474,-1.103253144978971
2.04,0.7683779814878873,0.1497889210638474,1.6834293114360417,-0.0004152295499944,0.1905080190219924,0.0213263853696791,-0.670078517105129,-0.1714411359306058,-0.1720233399083511,0.773384273157996,0.1512342908446664,1.6848176598185935,-0.6919716402149917,-0.1705131638474848,-0.1347277438748032,0.7475761345045663,0.7456501019419026,0.0278062476634657,-0.0458564602395086,10.338991170898224,-1.0311926923461892,0.1539903973094395,-1.107677251030642
2.06,0.7551572130077882,0.1463840585242099,1.6800030231808052,-0.0037179163983919,0.1944796906569554,0.0213670515461735,-0.6526443754194657,-0.168662184854702,-0.1704743943819043,0.766464556755846,0.1495291592061916,1.6834703823798456,-0.6872861209518434,-0.1697896537516352,-0.1269339098143727,0.8861025584574677,0.8717070842831631,0.1389475537951906,0.0774472763223399,10.511055380340622,-1.0289805994765864,0.1579246929625176,-1.1125491185441108
2.08,0.7423065860223502,0.1430654193893075,1.676629445935265,-0.0070887471037971,0.1977557481407012,0.0213950589454969,-0.6332581916914052,-0.163336325897585,-0.1668882219235901,0.7526251239515462,0.1461188959292419,1.6807758275023494,-0.6779150824255468,-0.1683426335599359,-0.1113462416935116,1.0210895235849735,0.969309186403028,0.266292947855852,0.1793086229157123,10.665405528615338,-1.0280235290062552,0.1620230519213391,-1.1175496050595546
2.1,0.7298606531265082,0.1398696858826251,1.6733483471694834,-0.0098624192130589,0.199904697633346,0.0214666672198856,-0.6124185618077849,-0.1566634595790434,-0.1614098333648754,0.7387856911472463,0.1427086326522922,1.6780812726248533,-0.6685440438992502,-0.1668956133682367,-0.0957585735726506,1.1278630898647053,1.0419814941810157,0.3336433159270804,0.2739194279357357,10.798607338767397,-1.0281014356187828,0.1653611467488446,-1.1214131516603072
2.12,0.7184314486066495,0.1369647016896023,1.670348662254102,-0.0117868045742037,0.2007263943971799,0.0215948515933161,-0.5918428730606096,-0.1496435979619016,-0.1546145456447298,0.7254148102692614,0.1393707203849274,1.6761661011534004,-0.6591730053729535,-0.1654485931765374,-0.0801709054517895,1.1388737416237338,1.0287844373587651,0.3509930808570871,0.3397643860072782,11.028291840542806,-1.029817881092485,0.1681622834041631,-1.124646067719063
2.14,0.7068253456698698,0.1340550851260143,1.6673431254534723,-0.013037927700678,0.2002672240125962,0.0218005682028072,-0.5699269936865778,-0.1417555786481385,-0.1462365458104704,0.7120439293912764,0.1360328081175627,1.6742509296819472,-0.6498019668466569,-0.1640015729848381,-0.0645832373309284,1.2376565543944933,1.095793968701586,0.3944009656881547,0.4188999917129718,11.028291840542806,-1.033179307360342,0.1701923501537429,-1.1272721524313702
2.16,0.6956607029282298,0.1313103663863009,1.664517553817085,-0.0132845606737982,0.1982986959292305,0.0220970658666587,-0.5477165569879594,-0.1332013661251079,-0.1366813736665534,0.6989073244764488,0.1327310713549905,1.6727254499135158,-0.6404309283203603,-0.1625545527931388,-0.0489955692100674,1.282360484548316,1.110521834930922,0.4277106261515298,0.4777586071958467,11.109716165118698,-1.0380415417799034,0.1712154209081543,-1.129335236419191
2.18,0.6849415728908892,0.1287416326401974,1.6618973166139954,-0.0122332681114505,0.1945152856115309,0.0225045097504418,-0.5254968108000669,-0.1242915893623345,-0.1257987823901246,0.6860049955247786,0.1294655100972107,1.671589661848106,-0.6310598897940637,-0.1611075326014396,-0.0334079010892063,1.3148498350635165,1.1109873093946232,0.4454888381386697,0.5441295638214396,11.184313833784472,-1.0445474239092192,0.1709760758174179,-1.1305529094347937
2.2,0.6751622759653251,0.1264642923440176,1.6596229933555129,-0.0099161236435118,0.1891218197401269,0.0229920661562053,-0.5053903235657909,-0.1160811510267121,-0.1140997653134376,0.6586667323508858,0.1225270531720807,1.6556073774944893,-0.532245528078309,-0.1293155321569853,-0.1155341659305166,1.233439426082384,1.0053243617137997,0.4105219167811216,0.5849508538343505,11.261588762095926,-1.0545852892091587,0.1693323321500909,-1.129677128150423
2.22,0.6652323184581407,0.1242250533624194,1.6572746765390929,-0.006110472699409,0.1815063683945518,0.0235880853569103,-0.4892740284644745,-0.1088033736758828,-0.1223094623784658,0.6586667323508858,0.1225270531720807,1.6556073774944893,-0.532245528078309,-0.1293155321569853,-0.1155341659305166,0.9748078488354694,0.8058147550658229,0.3638888675414661,-0.410484853251411,11.340327784253532,-1.0752260785733594,0.166691242303334,-1.1234700441270171
2.24,0.6555860589752724,0.122101226858011,1.6547536729387744,-0.0017793877608798,0.1722897274434718,0.0241803810594705,-0.4765152667114838,-0.1041110066397015,-0.1290406198093361,0.6586667323508858,0.1225270531720807,1.6556073774944893,-0.532245528078309,-0.1293155321569853,-0.1155341659305166,0.7584734508059244,0.6379380876495339,0.2346183518090648,-0.3365578715435142,9.97748777223569,-1.088176336957822,0.1626680529653571,-1.1117463276661703
2.26,0.6461604409544187,0.120051085588351,1.652144053580096,0.0023451116777937,0.1626710039665433,0.0247020843065807,-0.4669613617277644,-0.1011581234683275,-0.131563203189188,0.6533442770701027,0.1212338978505108,1.6544520358351842,-0.5335952715339575,-0.1303203207159155,-0.1134812426385949,0.5156550357797997,0.4776952491859693,0.1476441585687007,-0.1261291689925905,10.176259811331876,-1.099955912848634,0.1590423785845099,-1.1010822597211831
2.28,0.6373549886086742,0.1181463292183376,1.649648230342262,0.0058101076325746,0.1540491414053912,0.0251182993756965,-0.460544407844196,-0.0994469815263704,-0.1310195485802727,0.6426993665085365,0.1186475872073711,1.6521413525165738,-0.5362947584452543,-0.1323298978337758,-0.1093753960547517,0.3331698674218732,0.3208476941784222,0.0855570970978512,0.0271827304457641,10.534847665655434,-1.1109969461509572,0.1557063724606524,-1.0914024582297746
2.3000000000000003,0.6281942317586449,0.1161683922425239,1.647054188989599,0.0089278433918117,0.1460957490972467,0.0254832858679581,-0.4559913354554147,-0.0984162846965671,-0.1283191975126734,0.6320544559469703,0.1160612765642314,1.6498306691979634,-0.5389942453565512,-0.1343394749516361,-0.1052695494709085,0.2696511636389405,0.2276536194390638,0.0515348414901688,0.1350175533799652,10.534847665655434,-1.1201159100009497,0.1529038764965178,-1.083724886942471
2.32,0.6191024414936835,0.1142035286049087,1.644533655383522,0.011500274213704,0.1397177189134051,0.0257904197669092,-0.4534995479789644,-0.0980455282765587,-0.1238723909468806,0.6212745710398393,0.1133744870651987,1.6477252782085452,-0.541693732267848,-0.1363490520694965,-0.1011637028870652,0.2555413556762854,0.1245893738225145,0.0185378210004194,0.2223403282896378,10.64934513694061,-1.1275648015318298,0.1506554111086079,-1.07786644879325
2.34,0.6100381797077069,0.1122410048172211,1.6421053024458758,0.0135832776814654,0.1354129570074259,0.0260629354429008,-0.4531153699396453,-0.0981503499205737,-0.1191870388629335,0.6104946861327082,0.110687697566166,1.645619887219127,-0.5443932191791448,-0.1383586291873568,-0.097057856303222,0.2351122311444946,0.019208901965953,-0.005241082200752,0.2342676041973572,10.738805417996446,-1.1330014680942535,0.1489992318453277,-1.0741969254237245
2.36,0.6014182782765545,0.1103703203773798,1.6398847543317028,0.0151332240018713,0.1337772552619651,0.0263101839135795,-0.4540791671337346,-0.0986900948591803,-0.1148021682242796,0.5996473140527947,0.1079506686391868,1.643617142394305,-0.5470927060904417,-0.1403682063052171,-0.0929520097193788,0.2260935655199768,-0.0481898597044616,-0.0269872469303274,0.2192435319326932,10.74875964297189,-1.1345122513061088,0.147590919483038,-1.0739490662843774
2.38,0.5923346139022917,0.1083864808428965,1.6376349946912905,0.0162731799057268,0.134428749120319,0.0265622490139684,-0.4539892614582664,-0.099645405959082,-0.1104281724077635,0.5887324548000988,0.105163400284261,1.641717043734079,-0.5497921930017385,-0.1423777834230774,-0.0888461631355356,0.2239003223031225,0.0044952837734091,-0.0477655549950883,0.2186997908258027,10.73969403832325,-1.132600775530601,0.1466135677313948,-1.076827662244707
2.4,0.5832695527949904,0.1063790685366103,1.6354693171690682,0.0167644592481464,0.1366881464963636,0.0267882413593726,-0.4523025167643607,-0.1009776665328539,-0.1063742505950003,0.5696351508293783,0.1034042105449424,1.6321135860709022,-0.4612004227699822,-0.1003577610340204,-0.0815484162998372,0.2294248676737276,0.0843372346952836,-0.0666130286885911,0.2026960906381596,10.722385970539108,-1.1296489082868653,0.1462991889864678,-1.0807259023355056
2.42,0.5747108328111779,0.1044148896410508,1.6334905294257136,0.0155270657678835,0.1395278564966741,0.0268892209371459,-0.4486109502758653,-0.105217579502162,-0.1021238328448554,0.5696351508293783,0.1034042105449424,1.6321135860709022,-0.4612004227699822,-0.1003577610340204,-0.0815484162998372,0.3523867767703448,0.1845783244247695,-0.2119956484654094,0.2125208875072469,10.706434045483547,-1.1250677744292623,0.1476198348399166,-1.0845339189720915
2.44,0.565793753614183,0.1022827138698245,1.6315014592624224,0.0120816225214565,0.1425695789502825,0.0268371901738034,-0.4432136981284922,-0.107225920488521,-0.0969767616436747,0.5696351508293783,0.1034042105449424,1.6321135860709022,-0.4612004227699822,-0.1003577610340204,-0.0815484162998372,0.3861868272282086,0.2698626073686538,-0.1004170493179489,0.2573535600590336,10.742756978103898,-1.1221753316131065,0.1513095309865706,-1.088804237866528
2.46,0.5569976170686751,0.1001494400849949,1.6296212813483304,0.0080322878827466,0.1452438533937198,0.0267277434960608,-0.4366330519294756,-0.1058929230379365,-0.091285433003997,0.5650231466016785,0.1024006329346022,1.6312981019079038,-0.4626426550323254,-0.1005002320490081,-0.0757724650782519,0.4400937635456577,0.3290323099508302,0.0666498725292258,0.2845664319838868,10.82138089019736,-1.1203559184474197,0.1556784939396145,-1.0926776086774677
2.48,0.5483432141020346,0.0980650640435162,1.6278600295745091,0.004393087614203,0.1472612605192831,0.0266334837501141,-0.4291780202973859,-0.1027117107084434,-0.0851346480677702,0.5557991381462788,0.1003934777139217,1.629667133581907,-0.4655271195570117,-0.1007851740789834,-0.0642205626350813,0.5087478841540555,0.3727515816044857,0.1590606164746565,0.3075392468113377,10.82138089019736,-1.1196861947976458,0.1595045638785278,-1.0958891264246564
2.5,0.5402647324955595,0.0961544780513017,1.6263046027522832,0.0016101773215104,0.1484525037355311,0.0265835850795351,-0.421624259273849,-0.0987180234952749,-0.0789084235754826,0.5465751296908792,0.0983863224932413,1.6280361652559103,-0.4684115840816981,-0.1010701161089588,-0.0526686601919108,0.5286178075549794,0.3776880511768443,0.1996843606584239,0.3113112246143835,10.883408862045144,-1.119929152475551,0.162879800754092,-1.0993628164796632
2.52,0.5319176887421894,0.0942301389162756,1.6247994026440007,-0.0005840410878034,0.1489351263380118,0.0265794397723993,-0.4135345413213264,-0.0940373908296704,-0.0719206309103519,0.5372068980092453,0.0963649201710622,1.626982792052072,-0.4712960486063844,-0.1013550581389342,-0.0411167577487402,0.5834833010304248,0.4044858976261306,0.2340316332802232,0.3493896332565346,10.883408862045144,-1.1211347097219957,0.1655252904212927,-1.1024610255324028
2.54,0.5237323098405898,0.0924052451728553,1.623438929944003,-0.0020033094808617,0.1486729663611097,0.0266293504123934,-0.4055128179378934,-0.0888300224504816,-0.0644786153468672,0.5278386663276112,0.094343517848883,1.6259294188482338,-0.4741805131310707,-0.1016400001689095,-0.0295648553055697,0.6059049577368575,0.4010861691716522,0.2603684189594432,0.3721007781742356,10.916297081527771,-1.1233189924853555,0.1674199040024527,-1.105154111136973
2.56,0.5157034681083865,0.0906894711747453,1.6222316232544347,-0.0025426666142384,0.1477961557691513,0.0267410719255979,-0.3978647411197809,-0.0831321947113324,-0.0566249653270655,0.5183983230328602,0.0923149919759544,1.6251648432054748,-0.4770649776557571,-0.1019249421988849,-0.0180129528623991,0.6177340418705654,0.3824038409056263,0.2848913869574594,0.3926825009900811,10.945884612884583,-1.1260748325240657,0.1684104805933021,-1.1074666350847178
2.58,0.5082134068837856,0.0891679458804199,1.6212341060925934,-0.0020749355131236,0.1465262363120881,0.0269138938952008,-0.3910135382356493,-0.0774410400148025,-0.0487700945475754,0.5088858681249918,0.0902793425522765,1.6246890651237953,-0.4799494421804434,-0.1022098842288602,-0.0064610504192286,0.593774405186545,0.3425601442065773,0.2845577348264911,0.3927435389745076,11.000098396129031,-1.1293902055273364,0.1684090530721683,-1.1097718982064717
2.6,0.5004645109433392,0.0876811753015663,1.6203497332583805,-0.000461227197459,0.1448481183517249,0.0271679783800414,-0.3843069648391434,-0.0716473733783909,-0.0400599868119075,0.4886627299720031,0.0852958938796798,1.6187956013652147,-0.3935009217856823,-0.0809974263496241,-0.0293647276946959,0.6213104630205631,0.3353286698252938,0.289683331820581,0.435505386783393,11.000098396129031,-1.1329863228967727,0.1672181901104639,-1.1120457597622295
2.62,0.4928054442799126,0.0863058970268047,1.61954278504219,0.0023635056717218,0.1436494245624196,0.0274956536112601,-0.3818061513046727,-0.0665905309922922,-0.0410737024901037,0.4886627299720031,0.0852958938796798,1.6187956013652147,-0.3935009217856823,-0.0809974263496241,-0.0293647276946959,0.2865891777800458,0.1250406767235368,0.252842119304935,-0.0506857839098071,10.42386771883048,-1.140953666494668,0.1652446549192625,-1.1127195074283058
2.64,0.4855794502924208,0.0850700546121181,1.618762755573794,0.0054996474587434,0.1434377408489411,0.0278295050313745,-0.3788589063602851,-0.063852822194072,-0.0409641632703218,0.4886627299720031,0.0852958938796798,1.6187956013652147,-0.3935009217856823,-0.0809974263496241,-0.0293647276946959,0.2012045045888725,0.1473622472193819,0.1368854399110122,0.0054769609890929,10.42386771883048,-1.1408188709747549,0.1620049112540033,-1.1131062962941811
