t,x,y,z,roll,pitch,yaw,v_x,v_y,v_z,ref_x,ref_y,ref_z,ref_v_x,ref_v_y,ref_v_z,a_com,a_x,a_y,a_z,thrust,wind_x,wind_y,wind_z
0.0,-0.8478723185012772,0.5954249665196657,2.366400095721718,0.0192999254486672,0.136632828761527,0.0262667271321907,0.0061927128137272,-0.0075037263003241,0.0179529678142501,-0.847685513639281,0.5952628650363638,2.366960052497675,0.0499448324231115,-0.1058121637166675,-0.081964905244535,1.0209856190502609,0.3096356406863603,-0.3751863150162068,0.8976483907125056,10.555678653443463,-1.2847814712730912,0.1564861210672861,-1.1750848642867902
0.02,-0.8478620139668333,0.5955425846632055,2.3665527249330247,0.0255719767697878,0.138926863712587,0.0267468038703129,-0.0048799498339931,0.015366681140586,-0.0037631580850821,-0.847685513639281,0.5952628650363638,2.366960052497675,0.0499448324231115,-0.1058121637166675,-0.081964905244535,1.6712641313532026,-0.553633132386018,1.1435203720455072,-1.085806294966614,10.555062205313334,-1.3087478101357988,0.1519674549165466,-1.1935069208293507
0.04,-0.8480464926806156,0.5958863490226805,2.366184811373524,0.0400074205727644,0.1448618887944453,0.0279254050839172,-0.0124855017381419,0.0169683790637679,-0.0320221893410099,-0.847685513639281,0.5952628650363638,2.366960052497675,0.0499448324231115,-0.1058121637166675,-0.081964905244535,1.465420335200222,-0.3802775952074415,0.080084896159098,-1.412951562796391,9.247037585942053,-1.298462243258796,0.1368192492579141,-1.1798785375672929
0.06,-0.8483237936783352,0.596162348800903,2.3653092043065063,0.0544428353995362,0.1521247138571322,0.0292363405175304,-0.0160050196872958,0.0117099470643495,-0.0587097390213035,-0.8471860653150499,0.5942047433991972,2.3661404034452294,0.0587202871827092,-0.1258121640146907,-0.1019649055425582,1.371371049009949,-0.1759758974576953,-0.2629215999709188,-1.3343774840146767,8.974864995122516,-1.2843769277716923,0.1204369610185263,-1.1665771157496168
0.08,-0.8486548887924175,0.5963071532546651,2.3638485222341568,0.0691648527419897,0.1604357299009016,0.0307174354573356,-0.0166149959823763,0.0027269617485645,-0.08592637546811,-0.8461871686665876,0.5920885001248638,2.364501105340339,0.0762711967019048,-0.1658121646107372,-0.1419649061386047,1.4333626510253843,-0.0304988147540246,-0.4491492657892512,-1.3608318223403266,9.002344205187,-1.2717485879956385,0.1051313754176721,-1.158025553564049
0.1,-0.8489695351022231,0.5962421872425755,2.361854861150204,0.0832128873270531,0.1688463017498663,0.0322583167230142,-0.0145627248324007,-0.0090715446067246,-0.1120456639249059,-0.8451882720181254,0.5899722568505305,2.362861807235448,0.0938221062211004,-0.2058121652067837,-0.1819649067346511,1.4366922065791736,0.1026135574987812,-0.5899253177644628,-1.3059644228397942,9.115333854564597,-1.2602934522292,0.091011054681532,-1.1496850490880288
0.12,-0.8492183929531805,0.5959136630089087,2.3593503611120177,0.0965790363105731,0.1770413998113175,0.0338250159850127,-0.0102119058790494,-0.0234696101097241,-0.1371254336196834,-0.8433118298937035,0.5858560135463947,2.359222509100755,0.1113730157402959,-0.2458121658028301,-0.2219649073306976,1.4622147275080544,0.2175409476675655,-0.7199032751499712,-1.2539884847388736,9.115333854564597,-1.2506092535907103,0.0786413627681582,-1.1417249667160132
0.14,-0.8493606568428945,0.5952719759129799,2.356344134339877,0.1092862579454201,0.1848704431984926,0.035389820849846,-0.0040450092715057,-0.0402423027141144,-0.1622770092846587,-0.8414353877692814,0.5817397702422591,2.3555832109660617,0.1289239252594915,-0.2858121663988766,-0.2619649079267441,1.5426888777395151,0.3083448303771824,-0.8386346302195153,-1.2575787832487666,9.173813290012731,-1.2430731144058498,0.0665297250580811,-1.1365195905144256
0.16,-0.8493658261572555,0.594330152321918,2.353022548563421,0.1207725442442531,0.1919114893067826,0.0368541813268513,0.0033413281683296,-0.058275922167948,-0.186131318608906,-0.8391201729068796,0.5766235269232223,2.350943912816468,0.146474834778687,-0.325812166994923,-0.3019649085227905,1.5401278231998092,0.3693168719917704,-0.9016809726916812,-1.1927154662123656,9.177787043813623,-1.2365844058959503,0.0553177357479918,-1.1309226109972663
0.18,-0.8492046947315118,0.5929469222827586,2.349035174728577,0.1322729422466214,0.1988872961186483,0.0383548584835767,0.0125410066726284,-0.0793380529307609,-0.2113780904510006,-0.8363661853064978,0.5705072835892843,2.3453046146519725,0.1640257442978826,-0.3658121675909694,-0.3419649091188369,1.7070785902376215,0.4599839252149424,-1.0531065381406444,-1.262338592104728,9.199030940649209,-1.2315616421149065,0.044910801852008,-1.1257813423716951
0.2,-0.8488443119432212,0.5911089613390335,2.3445435077985586,0.1428155709857373,0.2054232766439108,0.0397724048434162,0.0231829391421076,-0.1034304299464868,-0.236509700806492,-0.8485776443978804,0.5889800196362205,2.3384662702060277,0.0647071109893398,-0.179338054420877,-0.3113780919411167,1.820227455576004,0.5320966234739587,-1.2046188507862967,-1.2565805177745706,9.228446179352431,-1.2271140039715205,0.0361226232584882,-1.119749196657995
0.22,-0.8482042987655957,0.5885904018042173,2.3396873460730565,0.1470202954522889,0.211142636897293,0.0406411753675955,0.0402418425519686,-0.1440569546513458,-0.2474433421165457,-0.8485776443978804,0.5889800196362205,2.3384662702060277,0.0647071109893398,-0.179338054420877,-0.3113780919411167,2.2699478008526954,0.852945170493053,-2.0313262352429464,-0.5466820655026863,9.228446179352431,-1.211422494435494,0.0325181987708817,-1.1060800805601356
0.24,-0.8472719693597629,0.5855299301491134,2.334878278908696,0.1450298451491951,0.2155068181710216,0.0408626654111154,0.0570133502096121,-0.1754307505377818,-0.2581663146472212,-0.8485776443978804,0.5889800196362205,2.3384662702060277,0.0647071109893398,-0.179338054420877,-0.3113780919411167,1.8578083037061188,0.8385753828821736,-1.5686897943218008,-0.5361486265337708,10.049641046657598,-1.20929847680387,0.0351660213998926,-1.1051352828554564
0.26,-0.845944284840971,0.5817278021109695,2.3295786963697447,0.1401089929413031,0.2189659801645898,0.0406939867041863,0.0748230598352296,-0.2025493902729441,-0.2712515851409319,-0.847930573287987,0.5871866390920117,2.335352489286616,0.0751403318526821,-0.1993380547189002,-0.33137809223914,1.7491645733949046,0.890485481280872,-1.3559319867581143,-0.6542635246855388,10.049641046657598,-1.2094659279524491,0.0406220162859927,-1.1041107965427606
0.28,-0.8442612794982882,0.5774281812601455,2.323997737008173,0.1346000323124284,0.2212348240919965,0.0402824329152656,0.0925096636908104,-0.2259001056662433,-0.2862468898513843,-0.8466364310682002,0.5835998780035941,2.329124927447794,0.0960067735793667,-0.2393380553149467,-0.3713780928351864,1.6453958708183465,0.8843301927790426,-1.1675357696649624,-0.7497652355226203,9.894989583862298,-1.2110630207881623,0.0465741617455752,-1.1015514801509656
0.3,-0.8422292275066151,0.5726878858915811,2.3180956539099355,0.1294295876869827,0.2223840377488946,0.039718407935713,0.1097066533613702,-0.2469942787220884,-0.3031760730509176,-0.8453422888484134,0.5800131169151767,2.3228973656089718,0.1168732153060513,-0.2793380559109931,-0.4113780934312329,1.6025743621144717,0.8598494835279898,-1.054708652792255,-0.8464591599766647,9.763408514903858,-1.2133527122902816,0.0517346636460655,-1.0984278455310157
0.32,-0.8399871000116864,0.5678085364330755,2.3121603527263823,0.1251310707853804,0.2226226922779712,0.0390988479581332,0.1253595048445041,-0.2656632948931933,-0.3207274341388449,-0.8430048245422924,0.5744263557969568,2.3146698037403466,0.1377396570327358,-0.3193380565070395,-0.4513780940272793,1.5013279125401195,0.782642574156693,-0.9334508085552444,-0.8775680543963632,9.646927614177912,-1.2170843191530751,0.0564959315946646,-1.0937813801294944
0.34,-0.8373139875676052,0.562300009573071,2.3055440473515336,0.1213708760739497,0.2222239484659592,0.0384069261634612,0.1410576948720578,-0.2842956002694518,-0.3400110448003783,-0.8406673602361714,0.5688395946787369,2.306442241871722,0.1586060987594204,-0.3593380571030861,-0.4913780946233258,1.553587472530065,0.7849095013776854,-0.9316152688129242,-0.9641805330766696,9.54819329761358,-1.2214148302935173,0.0604450716235146,-1.0875864167997042
0.36,-0.8343294310851326,0.5564161234602715,2.2985351795307167,0.1180875856125792,0.2212419471694544,0.037668024079288,0.1565679684029865,-0.3030945926044184,-0.3599042647459208,-0.8378082348868833,0.5622528335456158,2.2972146799881963,0.179472540486105,-0.3993380576991325,-0.5313780952193722,1.5729835485599424,0.7755136765464354,-0.9399496167483312,-0.9946609972771248,9.488008696272118,-1.225090361038435,0.0636391959556138,-1.0804622573455491
0.38,-0.8312084610183852,0.5504807300190758,2.291502946697802,0.1150583337098397,0.219630965568008,0.0368860105808713,0.1711115547590325,-0.3206364554714419,-0.3792906764437016,-0.8344274484944281,0.5546660723975937,2.286987118089769,0.2003389822127896,-0.4393380582951789,-0.5713780958154187,1.4958825283566546,0.7271793178023025,-0.8770931433511736,-0.9693205848890412,9.412643874488822,-1.2292107406163657,0.0668291898891489,-1.0714506205535062
0.4,-0.8276304825844606,0.5438801918598247,2.283696832809823,0.1119079911330146,0.2171370069534924,0.0359710799718748,0.1858317359019383,-0.338402054673319,-0.400297574583387,-0.8226528832804335,0.5344489072455038,2.2725384128756168,0.2298405141704152,-0.4060687390517451,-0.4792906779338177,1.5601202015652595,0.7360090571452871,-0.8882799600938546,-1.0503449069842683,9.412643874488822,-1.2339758043683833,0.0698567085332424,-1.061772059865841
0.42,-0.8237383928047098,0.5368700876301843,2.2756948484268977,0.1076510865010007,0.2146145269954664,0.034977537917248,0.2026729601284139,-0.3611158914213583,-0.3975600108046493,-0.8226528832804335,0.5344489072455038,2.2725384128756168,0.2298405141704152,-0.4060687390517451,-0.4792906779338177,1.4204220048155285,0.8420612113237815,-1.1356918374019642,0.1368781889368842,10.842059865958618,-1.2339547335853422,0.0740225912337483,-1.040944406715829
0.44,-0.8197480330758465,0.5298296792353222,2.2681487842873915,0.102878900983124,0.2134329317800857,0.0341216234431855,0.2165665015570274,-0.3787374251141468,-0.397028663119532,-0.8226528832804335,0.5344489072455038,2.2725384128756168,0.2298405141704152,-0.4060687390517451,-0.4792906779338177,1.1223093083873532,0.6946770714306744,-0.8810766846394258,0.0265673842558655,10.842059865958618,-1.2381777361747748,0.0781505260322953,-1.0422034034292251
0.46,-0.8152690774789928,0.5220812436071599,2.2601660963543284,0.0981525949943308,0.213445983038894,0.0333751932112885,0.2306684138711882,-0.3951065651148511,-0.4015009744454345,-0.8203544781387293,0.5303882198549863,2.267745506096279,0.2415863060526918,-0.4231551957678057,-0.499290678231841,1.1031933691274785,0.7050956157080401,-0.8184570000352165,-0.2236155662951267,10.50408469818467,-1.2397367779777408,0.082042745386428,-1.0432826152063568
0.48,-0.8105094536492647,0.514022069617073,2.252046377456093,0.0939293126334134,0.2141904321865243,0.0327349429576368,0.2446261679084363,-0.4099646331646158,-0.4104196119741375,-0.815757667855321,0.5222668450739514,2.2581596925376024,0.2650778898172449,-0.457328109199927,-0.5392906788278874,1.1125681769043867,0.6978877018624027,-0.742903402488232,-0.4459318764351488,10.191051664174664,-1.240774693022929,0.0856089182719754,-1.043390916164888
0.5,-0.8054724165463041,0.505679381382693,2.2437071422992245,0.0902715854375325,0.2152499393049419,0.0321605797071016,0.2584285576823624,-0.4236184727057184,-0.4230381038274349,-0.8111608575719127,0.5141454702929165,2.248573878978926,0.2885694735817979,-0.4915010226320483,-0.5792906794239339,1.157756056275774,0.6901194886963071,-0.6826919770551332,-0.6309245926648721,9.943115307088192,-1.2416818086625268,0.0885929091904697,-1.0424953423885546
0.52,-0.8004327281494008,0.4975100358250642,2.235524794848616,0.087325167978511,0.2163166170506259,0.0316538315171218,0.2713982097439886,-0.4357066845924043,-0.4376220654990337,-0.8053894681002767,0.5043154498402755,2.2369880653904475,0.312061057346351,-0.5256739360641696,-0.6192906800199803,1.1478552601000245,0.6484826030813073,-0.6044105943342926,-0.7291980835799378,9.750034453795706,-1.2426682513466878,0.091272764888317,-1.0403887598431036
0.54,-0.7948619274422823,0.4886699611789187,2.2265987961780755,0.0847988189453222,0.2173901938830485,0.03115302400214,0.2850097144561842,-0.4477326842356559,-0.4542623468921059,-0.7996180786286408,0.4944854293876345,2.2254022518019685,0.3355526411109041,-0.5598468494962909,-0.6592906806160268,1.231662182571014,0.6805752356097816,-0.6012999821625814,-0.832014069653611,9.598575856932255,-1.243536097263992,0.0934224679080878,-1.03695957924488
0.56,-0.7890146307506354,0.4795862242260735,2.217329405630022,0.082588697649451,0.2182447367996037,0.0306529357289812,0.299028829660193,-0.4599773334928412,-0.4718603669460518,-0.7932593995628909,0.4838010860991905,2.2128164381985886,0.3590442248754572,-0.5940197629284122,-0.6992906812120732,1.2807784120934425,0.700955760200439,-0.6122324628592635,-0.8799010026972948,9.52394010149419,-1.2442127926237918,0.095237078957069,-1.0328093435695551
0.58,-0.7828846094862929,0.4702595540205673,2.20769820229276,0.0803863187813826,0.2186411726287384,0.0301138919192211,0.3132071983725406,-0.4719699980126104,-0.4903440109423933,-0.7863134309030273,0.4722624199749435,2.199230624580308,0.3825358086400102,-0.6281926763605334,-0.7392906818081196,1.3100527060108134,0.7089184356173811,-0.5996332259884635,-0.9241821998170752,9.474420246044248,-1.2455229254767226,0.0969469693172036,-1.0282803759050398
0.6,-0.7767994399893116,0.4611811313766369,2.198198147068762,0.078235687354355,0.2185071784193188,0.0295569360934844,0.3265539332508527,-0.4829536816687632,-0.5087041744053903,-0.7672242495676659,0.4466610541199368,2.1831810017456403,0.3658557911128379,-0.5237733484612188,-0.5903440124325094,1.260825365542703,0.667336743915603,-0.5491841828076355,-0.918008173149848,9.424811731511909,-1.247712289752776,0.0987880726831887,-1.022932548744235
0.62,-0.7700504081255372,0.451283778903719,2.1880826628873664,0.0726228990389415,0.2175450075013844,0.028677196368403,0.3479082979205718,-0.5044233330910309,-0.5003024254520191,-0.7672242495676659,0.4466610541199368,2.1831810017456403,0.3658557911128379,-0.5237733484612188,-0.5903440124325094,1.5712608059425608,1.0677182334859563,-1.0734825711133875,0.4200874476685601,9.37206216190043,-1.2441470168966966,0.1034056037791792,-1.0081799392031283
0.64,-0.7628774923049289,0.4410455356639588,2.178146229788287,0.0637993017907106,0.2154286043548584,0.027514642728528,0.3681027151012653,-0.5176873060670075,-0.4941656193128583,-0.7672242495676659,0.4466610541199368,2.1831810017456403,0.3658557911128379,-0.5237733484612188,-0.5903440124325094,1.2464026776738009,1.009720859034677,-0.6631986487988295,0.3068403069580366,11.168803309984469,-1.2487072307733782,0.1108456726560321,-1.0099627711623942
0.66,-0.7553220207155992,0.4305997304731484,2.16825650874727,0.0545747764584459,0.2120621867609798,0.0262908182476813,0.3863023039671244,-0.5260102903277805,-0.4950427492911823,-0.7635656916565375,0.4414233206353246,2.177277561621316,0.3763855096608974,-0.5341340185509404,-0.6103440127305326,1.0015818225315507,0.909979443292952,-0.4161492130386468,-0.0438564989162004,10.755483879430358,-1.255498528156296,0.1184315101452707,-1.009988560372124
0.68,-0.7478275541028133,0.420554926298171,2.1587909133804617,0.0463963124225386,0.2075738965908886,0.0251546322004819,0.4015246085750292,-0.5309310906233761,-0.5012438020083271,-0.7562485758342807,0.4309478536661003,2.165470681372665,0.3974449467570163,-0.5548553587303838,-0.6503440133265791,0.8578838614955161,0.7611152303952429,-0.2460400147797803,-0.3100526358572358,10.344390454747554,-1.2645521492672722,0.1259895491594992,-1.0057854741226813
0.7000000000000001,-0.7396574808992189,0.4099031580151194,2.148655395533968,0.0387814396566484,0.2017677820540816,0.0240443712382998,0.4143424827175806,-0.5340087220757571,-0.5121416977493278,-0.748931460012024,0.4204723866968759,2.153663801124015,0.4185043838531352,-0.5755766989098272,-0.6903440139226256,0.8551810400036567,0.6408937071275683,-0.1538815726190523,-0.5448947870500376,10.010335853051402,-1.275147035157388,0.132672540538552,-0.9980339777458852
0.72,-0.7312672330208229,0.3992068204220636,2.138260667749824,0.0323045319997912,0.1956116443073147,0.023067033896596,0.4238159687991543,-0.53554395951673,-0.5269180666690294,-0.7405613723349613,0.4089608527186794,2.1398569208455624,0.4395638209492541,-0.5962980390892706,-0.730344014518672,0.8809724328675935,0.4736743040786861,-0.0767618720486418,-0.7388184459850788,9.736658797008204,-1.2844953001298889,0.1381987982680098,-0.9886434381477311
0.74,-0.7227172129286971,0.388493299784773,2.1275445256500194,0.0269944210441431,0.1897534213072148,0.0222395206979361,0.4306277410586023,-0.5359251612452715,-0.5439151970869867,-0.7321912846578986,0.3974493187404828,2.12605004056711,0.4606232580453731,-0.617019379268714,-0.7703440151147185,0.9157619757850236,0.3405886129724006,-0.0190600864270751,-0.8498565208978626,9.508047471835198,-1.2922200313023713,0.1423911002171993,-0.9784842182255622
0.76,-0.7144865113997322,0.3783115906144434,2.1170347068215767,0.0228059695634603,0.1848088648747827,0.0215744285331736,0.435333857964997,-0.5358979208249027,-0.5615028580802907,-0.7232947110534329,0.3854197512578002,2.111243160273756,0.481682695141492,-0.6377407194481572,-0.8103440157107649,0.9103215058326132,0.2353058453197332,0.0013620210184361,-0.8793830496652,9.386124719930194,-1.2990640742686983,0.145935716592433,-0.9677857449428584
0.78,-0.705745006142127,0.3675992853869577,2.1055960935074056,0.0190750007475462,0.1805732751428029,0.0209812081038658,0.4384349311436911,-0.5353668320656129,-0.5814831402564504,-0.7138716515215643,0.3728721502706315,2.0954362799655013,0.502742132237611,-0.6584620596276006,-0.8503440163068113,1.0113238674737532,0.1550536589347062,0.0265544379644933,-0.9990141088079884,9.29200395191856,-1.304686215524035,0.1488260481949932,-0.9576608853507926
0.8,-0.6969597648421055,0.3569028875377527,2.093743846199632,0.0159309260456342,0.1777550274575394,0.0204858776956252,0.4398436406309036,-0.534333192189031,-0.6027802272410508,-0.6838232595849424,0.3408309437836771,2.0765219364945837,0.4779308872963687,-0.5611918017000266,-0.6519010436201551,1.0684320145000563,0.070435474360625,0.0516819938290946,-1.064854349230021,9.115684006514584,-1.3084889307437482,0.1511545712215902,-0.948635712483837
0.8200000000000001,-0.6884992495945048,0.346698516873719,2.082454899643269,0.0114087936004824,0.1758274801217018,0.0199448871405877,0.450531311171539,-0.5384804461677373,-0.5844372831760017,-0.6838232595849424,0.3408309437836771,2.0765219364945837,0.4779308872963687,-0.5611918017000266,-0.6519010436201551,1.081537810391506,0.5343835270317704,-0.207362698935315,0.9171472032524552,9.115684006514584,-1.2990292739925602,0.1535063887152849,-0.9300319176296808
0.84,-0.6793860858861078,0.3359320204936651,2.070927580992277,0.0051840937089456,0.1738102590413766,0.0193063170855429,0.4600344582914337,-0.5376318689808934,-0.5697174161605344,-0.6838232595849424,0.3408309437836771,2.0765219364945837,0.4779308872963687,-0.5611918017000266,-0.6519010436201551,0.8770752153855425,0.4751573559947347,0.0424288593421917,0.7359933507733674,11.564833190823265,-1.304546627678195,0.1588825804812906,-0.9347308425795924
0.86,-0.6701038314619087,0.3252187106955781,2.0596160092973204,-0.0009039779433767,0.1719640769682398,0.0187146319843617,0.4676061313096867,-0.5336904625932976,-0.5624730836065049,-0.6790439507119786,0.3352190257666768,2.0700029260583817,0.4858300785269042,-0.5663567956269093,-0.6659846242928961,0.5597885108701615,0.3785836509126505,0.197070319379794,0.3622166277014726,11.088143982442489,-1.3100469291689958,0.1642277550162759,-0.9385620195264678
0.88,-0.6606885327468643,0.3146059121694019,2.048377565122393,-0.006178707927194,0.1703040440257783,0.0182135402520371,0.4735025376743789,-0.5279244717807876,-0.5616930268921968,-0.6694853329660513,0.3239951897326763,2.056964905185979,0.5016284609879752,-0.5766867834806748,-0.6941517856383779,0.4141942374812456,0.2948203182346065,0.2882995406254973,0.039002835715407,10.646221939199677,-1.314849080364891,0.1686499247139957,-0.9401942995652188
0.9,-0.6516482806389214,0.3046418717793756,2.037669507849989,-0.0102650899088129,0.168964683097514,0.0178283318954642,0.4777943336244852,-0.5213934826632605,-0.5654918604320962,-0.6599267152201239,0.3127713536986758,2.043926884313576,0.5174268434490462,-0.5870167713344403,-0.7223189469838598,0.4344665337930861,0.2145897975053157,0.3265494558763571,-0.1899416769949702,10.03678473369564,-1.3195548684175122,0.1724986432317097,-0.9412054150159912
0.92,-0.6420548306886257,0.2942935807309113,2.02628288197134,-0.0136029565046209,0.1678696875322269,0.0175118523586345,0.4812947158337207,-0.5139160173993778,-0.5731236325895704,-0.649578178351143,0.301031018271987,2.0294805053738982,0.5332252259101172,-0.5973467591882058,-0.7504861083293417,0.5621590269819212,0.1750191104617771,0.3738732631941355,-0.3815886078737118,9.829422077013078,-1.3235838917183036,0.1754552180202074,-0.9411303487239762
0.94,-0.6323971744995307,0.2841001077170514,2.0147256402714757,-0.0159996429125907,0.1671127931945989,0.0172782111677705,0.4842973289720534,-0.5059637947380349,-0.5822519183027927,-0.639229641482162,0.2892906828452982,2.0150341264342213,0.5490236083711882,-0.6076767470419713,-0.7786532696748235,0.6236568186436351,0.1501306569166333,0.3976111330671439,-0.4564142856611108,9.759772190048352,-1.3263173147409146,0.1774754353746825,-0.9394218038887732
0.96,-0.6226805459405564,0.2740678711250304,2.0029751815910752,-0.0175463318419579,0.1666116193833272,0.0171183698030244,0.4872200960885904,-0.4978044765547183,-0.5923237186763046,-0.6284861450516543,0.2772920977222652,1.9998835684609069,0.5648219908322593,-0.6180067348957368,-0.8068204310203054,0.6643760298166729,0.1461383558268497,0.4079659091658277,-0.5035900186755982,9.71143433580255,-1.328331016898884,0.1787029749999747,-0.937777289170402
0.98,-0.6129064490627818,0.2642027423358494,1.991014028766137,-0.0182429659197204,0.1662303272364414,0.0170318630480505,0.4900368501117448,-0.489233100319996,-0.6032770850055397,-0.6173476890596198,0.2650352629028882,1.984028831453956,0.5806203732933303,-0.6283367227495023,-0.8349875923657872,0.7095400406716648,0.1408377011577199,0.4285688117361158,-0.5476683164617524,9.71143433580255,-1.3303291448409074,0.1793121795763213,-0.9360236719831438
1.0,-0.6035703058791008,0.2549934369621593,1.9794396657569464,-0.0179381886585641,0.1659024715709368,0.0170292127330218,0.4925634943690679,-0.4807254520366065,-0.6145172844803931,-0.5884046065571945,0.2397410873198495,1.9608501745158609,0.4956707416718821,-0.4864945488504762,-0.622727645217675,0.716076278673264,0.1263322128661564,0.4253824141694756,-0.562009973742672,9.66200092413419,-1.3323437136725185,0.1790686098626017,-0.9342102446588768
1.02,-0.5935310486550672,0.2453723644125534,1.967380574218024,-0.0200030760809804,0.162509284329715,0.0169309359219638,0.5115697179375642,-0.4807122758120424,-0.5889197261713974,-0.5884046065571945,0.2397410873198495,1.9608501745158609,0.4956707416718821,-0.4864945488504762,-0.622727645217675,1.5941076652244914,0.9503111784248148,0.0006588112282046,1.279877915449784,9.612416231796487,-1.32012553601865,0.1790459722308004,-0.9171862151441436
1.04,-0.5831301848347907,0.235819275435434,1.955864573341625,-0.0253600223439511,0.1531704538875561,0.0167758799758023,0.5265038445071366,-0.4740418614366772,-0.5643632484312913,-0.5884046065571945,0.2397410873198495,1.9608501745158609,0.4956707416718821,-0.4864945488504762,-0.622727645217675,1.475248422584664,0.7467063284786191,0.3335207187682598,1.2278238870053082,11.700753046494356,-1.3373928213170787,0.1847322795514232,-0.9160406314282596
1.06,-0.5725100115143263,0.2264475079700952,1.9447666154374756,-0.0310032690485189,0.1401693489917585,0.0167873892243687,0.5340072261557238,-0.463454263621646,-0.5465591048943463,-0.5834478991404757,0.2348761418313448,1.954622898063684,0.4967975199839095,-0.4859468385565723,-0.626617757260102,1.1015732961784088,0.3751690824293607,0.5293798907515579,0.8902071768472464,11.700753046494356,-1.356177994267917,0.1903713200154666,-0.9095486937576608
1.08,-0.5623511840513533,0.2177614679420133,1.9344991503969629,-0.0356484696935031,0.126257779899873,0.0169931397953103,0.5344808946043039,-0.4515718021976925,-0.5350527885032647,-0.573534484307038,0.2251462508543353,1.9421683451593303,0.4990510766079644,-0.4848514179687644,-0.6343979813449562,0.8273641401804279,0.023683422429005,0.5941230711976775,0.5753158195540842,11.262258876135093,-1.3755450676202208,0.1954435412185987,-0.8971473922903829
1.1,-0.5517130302873607,0.2088712900564739,1.9238829494721352,-0.0395167039384388,0.1115171923531603,0.0173748044414646,0.528839305017057,-0.4382306968950741,-0.5273421779601376,-0.5636210694736004,0.2154163598773257,1.929713792254977,0.5013046332320193,-0.4837559973809565,-0.6421782054298103,0.8204665421488367,-0.282079479362346,0.6670552651309197,0.3855305271563525,10.899702195816644,-1.3932010020181766,0.1993851428213209,-0.8815882906216648
1.12,-0.5412464461358069,0.2002537317570775,1.913378081054999,-0.042298192248533,0.0978926650916153,0.0178596877015387,0.5177992524470798,-0.4243943168049965,-0.523669775553964,-0.55359497680896,0.2057412399297066,1.9168702281463808,0.5035581898560743,-0.4826605767931486,-0.6499584295146644,0.903900871470185,-0.55200262849886,0.6918190045038769,0.1836201203086807,10.61984476856378,-1.4076769770562745,0.202107051715048,-0.8661369318798605
1.14,-0.5310479217425143,0.1919173591352494,1.9029249384391635,-0.043978516377821,0.0863249325700372,0.0183823494828204,0.5025747763038141,-0.4101997937407088,-0.521787206227838,-0.5435688841443196,0.1960661199820874,1.9040266640377843,0.5058117464801292,-0.4815651562053407,-0.6577386535995186,1.045003858996624,-0.761223807163286,0.7097261532143878,0.094128466306298,10.38760317445758,-1.418898430724988,0.2038147048170318,-0.8501869857324963
1.16,-0.5216704609392558,0.1842644371282352,1.8930199513460384,-0.0445025460785827,0.077715386005033,0.0188743159324853,0.485346652806688,-0.3962616259853143,-0.5209203449714918,-0.5334864525640778,0.1864183855491635,1.890988594327067,0.5080653031041841,-0.4804697356175328,-0.6655188776843727,1.108864518378488,-0.8614061748563051,0.6969083877697263,0.0433430628173137,10.304230115963035,-1.4261946054875307,0.2045013914807584,-0.8373964096099463
1.18,-0.5121765527306755,0.1764973737982317,1.8826041418291173,-0.0436879598421578,0.0715125489782475,0.0193702701089462,0.4648314399016683,-0.3813234017888128,-0.5207285167140837,-0.5233476820682346,0.1767980366309348,1.877756019014228,0.510318859728239,-0.4793743150297249,-0.6732991017692268,1.268918142320028,-1.0257606452509809,0.7469112098250713,0.0095914128704022,10.252974215271024,-1.4311529098496132,0.204110828312703,-0.8280394030528596
1.2,-0.5031207147245235,0.1690308652515009,1.872185159753861,-0.041161593613576,0.0690282736222841,0.0198234101031131,0.4420465827595058,-0.3663981742121506,-0.5211511505114045,-0.4889349807355921,0.157431203708791,1.8565677159934133,0.4716676581954246,-0.3677839245373427,-0.5234815570017274,1.3620671353961884,-1.1392428571081274,0.7462613788331102,-0.0211316898660385,10.220202969533602,-1.431837047589489,0.2024819920616951,-0.8239221315397495
1.22,-0.4949322390872404,0.1621625066337532,1.862456001638492,-0.0387870457210659,0.0705316595904989,0.0200948680706442,0.4215953348211703,-0.3568159629049494,-0.5029750412172743,-0.4889349807355921,0.157431203708791,1.8565677159934133,0.4716676581954246,-0.3677839245373427,-0.5234815570017274,1.449519976443315,-1.0225623969167734,0.4791105653600636,0.908805464706508,10.191687246554466,-1.4227663393653347,0.1998274547049892,-0.8190952267486308
1.24,-0.486703676082203,0.1551416487766661,1.852582897314003,-0.0371230544611902,0.0754594004355374,0.0202032684658568,0.4027858989374025,-0.3457537605180832,-0.4854847954844096,-0.4889349807355921,0.157431203708791,1.8565677159934133,0.4716676581954246,-0.3677839245373427,-0.5234815570017274,1.3982809943905687,-0.9404717941883912,0.5531101193433086,0.8745122866432337,11.384868165400803,-1.4164730734623598,0.1990899279256383,-0.832120967744203
1.26,-0.478821044004226,0.1483462780038246,1.8430285275506224,-0.0356876465282774,0.0826647300730185,0.0202258384128202,0.386881928940873,-0.3343988305430252,-0.4708246482284519,-0.4842183041536378,0.1537533644634176,1.851332900423396,0.4730349018541758,-0.3650760290870487,-0.5240321650592561,1.2214649134905051,-0.7951984998264772,0.5677464987528996,0.7330073627978856,11.028989992792049,-1.408953509488064,0.1985047332226403,-0.8475878395671179
1.28,-0.471223063368948,0.1417781327230892,1.833745591952183,-0.0342048375565639,0.0911383952033069,0.0202233237322697,0.3740920393589211,-0.3230741168176401,-0.4582162193376186,-0.4747849509897293,0.1463976859726707,1.8408632692833613,0.4757693891716784,-0.3596602381864607,-0.5251333811743136,1.0616059716010997,-0.6394944790975909,0.5662356862692536,0.6304214445416678,11.028989992792049,-1.40119549215544,0.197894018306892,-0.8632928110676312
1.3,-0.4642124605765446,0.1357462822433814,1.8251450511950529,-0.0326432851397423,0.0996050838756333,0.0202347513842794,0.3647651487407075,-0.3125401120288,-0.4477525983799226,-0.4653515978258208,0.1390420074819239,1.830393638143327,0.4785038764891808,-0.3542444472858727,-0.526234597289371,0.8767033549635844,-0.4663445309106812,0.5267002394420045,0.5231810478847992,10.9134429255364,-1.3926874504941198,0.1970957745905461,-0.8800041796511244
1.32,-0.4569954932283248,0.1296079342729684,1.81629434376386,-0.0308763530361526,0.108333926463926,0.0202808170792086,0.3576649338937951,-0.3019369234455841,-0.4379406572171774,-0.4557815202960372,0.1319571185362064,1.8198689461975397,0.4812383638066833,-0.3488286563852846,-0.5273358134044285,0.804852235482903,-0.3550107423456211,0.5301594291607981,0.4905970581372598,10.829877380920152,-1.3847263513187282,0.1961932893243824,-0.8961157429029375
1.34,-0.4498930538413704,0.1236773851787435,1.807634616255492,-0.0290320006251058,0.1163908392017108,0.0203726131580245,0.3531113497865066,-0.2917320169048116,-0.4285515695553872,-0.4462114427662536,0.1248722295904889,1.809344254251752,0.4839728511241858,-0.3434128654846966,-0.528437029519486,0.7297777278884826,-0.2276792053644255,0.510245327038622,0.469454383089507,10.767622618269344,-1.3776128380891912,0.195207076719304,-0.9108164260248772
1.36,-0.4428574527177678,0.1179474450725748,1.7991589764265872,-0.0271086582602336,0.123386353342466,0.0205187592415254,0.3507393284626836,-0.2818819723824877,-0.4195091760766407,-0.4365730030535324,0.1179227354172862,1.7987920319030883,0.4867073384416883,-0.3379970745841085,-0.5295382456345434,0.678996947851964,-0.1186010661911513,0.4925022261161954,0.452119673937329,10.767622618269344,-1.3721417768152082,0.1942340340268785,-0.9235241477373012
1.38,-0.436201430158543,0.1126823268022792,1.7912703211391374,-0.0252222091269045,0.1288436655629482,0.0207085140312615,0.3500134581373001,-0.2729246120849999,-0.4113472000530688,-0.4268662011578737,0.1111086360165982,1.788212279151548,0.4894418257591909,-0.3325812836835205,-0.530639461749601,0.6069988546892922,-0.0362935162691702,0.4478680148743919,0.4080988011785913,10.76440535511574,-1.3679548355404594,0.1931803405651922,-0.9352291981658268
1.4,-0.4291989412959106,0.1073187099659311,1.7831290517363128,-0.0232131449743343,0.1332682847043237,0.0209555172279177,0.3502802821214915,-0.2639848561309841,-0.403240849971401,-0.418700757251678,0.0990360961980292,1.770702961136484,0.3557266257376338,-0.2609613759393247,-0.3954456289133756,0.6035381992932525,0.0133411992095683,0.4469877977007902,0.4053175040833912,10.73734931848685,-1.365328298532262,0.1921110377526816,-0.9450290079856424
1.42,-0.4221106894831062,0.1021286937545788,1.7752852974824893,-0.0213681158360249,0.1347105491568936,0.0212673874861807,0.3581566895684652,-0.2554369344367549,-0.3815527110611342,-0.418700757251678,0.0990360961980292,1.770702961136484,0.3557266257376338,-0.2609613759393247,-0.3954456289133756,1.2303252912872735,0.3938203723486827,0.4273960847114594,1.0844069455133414,10.73734931848685,-1.3584144808464569,0.1906077071946997,-0.948973351834054
1.44,-0.4152361841455612,0.0973547178871891,1.7682278196140957,-0.0197942551591875,0.132093191512868,0.0216364510867748,0.3647692504278523,-0.2475423494789855,-0.3624483481766383,-0.418700757251678,0.0990360961980292,1.770702961136484,0.3557266257376338,-0.2609613759393247,-0.3954456289133756,1.0851579539369371,0.3306280429693553,0.3947292478884701,0.9552181442247926,11.486223319711826,-1.3653745851440433,0.1903342589574098,-0.9546644150343648
1.46,-0.4078978705487802,0.0924882145714086,1.7611709124714272,-0.0182408949731727,0.1259634418260155,0.0220776687912959,0.3681449900723624,-0.2395864309184229,-0.3443080826835326,-0.4151434909943017,0.0964264824386359,1.76674850484735,0.3568692592577006,-0.2585687287101897,-0.3922653146854369,1.0046908609743892,0.1687869822255078,0.3977959280281301,0.9070132746552856,11.486223319711826,-1.3767516889492646,0.1901204147640857,-0.9534896491168536
1.48,-0.4005402492894729,0.0877759116954178,1.7544553764301996,-0.0167764251061209,0.1179457165568895,0.0225359227150355,0.3670309096430844,-0.2321008408943151,-0.3282224226847263,-0.408028958479549,0.0912072549198494,1.7588395922690827,0.359154526297834,-0.2537834342519196,-0.3859046862295596,0.8888527589104966,-0.0557040214639037,0.3742795012053879,0.8042829999403173,11.347707452618124,-1.3886252521289268,0.1898707035611235,-0.9494000839833304
1.5,-0.393250872403123,0.0832081403121032,1.748039324019282,-0.0154237642491243,0.1094230715666505,0.0229822013032538,0.361709682958838,-0.2251012613019492,-0.3141629567424163,-0.4009144259647964,0.0859880274010629,1.750930679690815,0.3614397933379675,-0.2489981397936495,-0.3795440577736823,0.8291232575407214,-0.2660613342123197,0.349978979618297,0.7029732971154973,11.090673925058582,-1.3991571596366077,0.1895908021794408,-0.9439807157037616
1.52,-0.3864597849954452,0.0789938068177633,1.742188834952956,-0.0142862935362404,0.1018212569956399,0.0233774387151283,0.3533090171451884,-0.2188934205569123,-0.3023716054548626,-0.393685630098037,0.0810080646051899,1.7433397985353414,0.363725060378101,-0.2442128453353794,-0.373183429317805,0.7876300496026901,-0.4200332906824783,0.3103920372518415,0.5895675643776854,11.090673925058582,-1.4081544253946885,0.1892472087266989,-0.9377034651687476
1.54,-0.3795123335929981,0.0746806406427496,1.736265005139382,-0.0133056792925668,0.0950570585765344,0.0237519701728903,0.341725739653355,-0.2127766044006429,-0.2906627611983772,-0.3864568342312776,0.0760281018093169,1.7357489173798677,0.3660103274182345,-0.2394275508771094,-0.3668228008619277,0.8784713870767876,-0.5791638745916705,0.3058408078134747,0.585442212824272,10.95415220738687,-1.4143403688755234,0.1889583942204083,-0.93308042976291
1.56,-0.3728250387291194,0.070487108003469,1.7305674018138262,-0.0125735718829396,0.0902860766217655,0.0240772260188218,0.3274362215976379,-0.2069066032715554,-0.2797194261083851,-0.379170906688515,0.0711677713749007,1.728317051935791,0.3682955944583679,-0.2346422564188393,-0.3604621724060504,0.9465778129821164,-0.7144759027858522,0.293500056454371,0.5471667544996034,10.95415220738687,-1.4184979653173455,0.1888500350981517,-0.9310317382869876
1.58,-0.3664494783780296,0.0664090414376916,1.725080940597424,-0.0120750535238912,0.0884353991018521,0.0243473114839246,0.3110753237511984,-0.2012063071181915,-0.2694792379451084,-0.3718278474697489,0.0664270733019412,1.7210442022031112,0.3705808614985014,-0.2298569619605692,-0.3541015439501731,1.0062725875688416,-0.8180448923219757,0.2850148076681949,0.5120094081638354,10.921631568034172,-1.4179924574999203,0.1887640903355497,-0.9328039627288336
1.6,-0.3606899510026528,0.0626400915830218,1.7200540033327645,-0.0117971001816335,0.0894124031681673,0.0245571631324026,0.296358199080906,-0.1958162991412706,-0.2601893160925305,-0.3508957121904697,0.056348726081782,1.7116069787001686,0.3096879254104591,-0.1855393081953667,-0.2684579436726036,0.910972821465062,-0.7358562335146229,0.2695003988460467,0.4644960926288938,10.88940627903412,-1.4122654708902482,0.1886051805309702,-0.9378596438782408
1.62,-0.354898717205358,0.0587714515272208,1.714965526487559,-0.0120899507966243,0.0922432487241584,0.0247165089117745,0.2837925767399212,-0.1912261279289814,-0.249093643123225,-0.3508957121904697,0.056348726081782,1.7116069787001686,0.3096879254104591,-0.1855393081953667,-0.2684579436726036,0.8690202748154945,-0.628281117049237,0.2295085606144581,0.5547836484652735,10.858688065171007,-1.4033748866009528,0.1887866974356984,-0.9444804706740176
1.64,-0.349341514507318,0.0549986602210781,1.7100899039078177,-0.0132329466224084,0.0959943894004594,0.0248046048474374,0.2727434271709528,-0.1862034680084702,-0.2391054590979041,-0.3508957121904697,0.056348726081782,1.7116069787001686,0.3096879254104591,-0.1855393081953667,-0.2684579436726036,0.7859304024502122,-0.5524574784484204,0.2511329960255604,0.4994092012660475,10.864156256272508,-1.397240311290895,0.1899518043802865,-0.953496037310589
1.66,-0.3442530437647799,0.0515145231229667,1.7056305144939523,-0.0149059038958093,0.100027836928577,0.0248381394257525,0.2635960285753889,-0.1807500988351705,-0.2308147420169994,-0.3477988329363651,0.0544933329998283,1.7089223992634426,0.3094104457423113,-0.1824059084108017,-0.2682536848181027,0.6748150230285824,-0.457369929778198,0.2726684586649874,0.4145358540452351,10.801713891191866,-1.390482521400988,0.1917371239087353,-0.9632957161881804
1.68,-0.3390695672948257,0.0479688298459529,1.7010972719562554,-0.0170101172624751,0.1044111636875298,0.024842467082572,0.2553744016198859,-0.1739657391812366,-0.2230009470803722,-0.3416050744281559,0.050782546835921,1.703553240389991,0.3088554864060155,-0.1761391088416718,-0.2678451671091008,0.6608291704764554,-0.4110813477751496,0.3392179826966934,0.3906897468313602,10.75659666629508,-1.384220828979941,0.1939130733825248,-0.9731609352245668
1.7,-0.3340367037616336,0.0445731790482876,1.6967109927379622,-0.0189688132551818,0.1086503225131873,0.0248540851747257,0.2484346441350821,-0.1659630928416001,-0.2160646596307741,-0.3354113159199468,0.0470717606720136,1.6981840815165383,0.3083005270697198,-0.1698723092725418,-0.2674366494000989,0.6330771397875588,-0.3469878742401858,0.400132316981823,0.3468143724799061,10.75659666629508,-1.3791464646276153,0.1959523496251255,-0.9821973569720328
1.72,-0.3291305610396445,0.0413465291858856,1.692454965628258,-0.0204635317422575,0.1125319949301634,0.0249011002603221,0.2425964761810358,-0.1571940589266413,-0.2098999110285733,-0.3292453053785523,0.0436743144865628,1.6928353485285366,0.3077455677334241,-0.1636055097034119,-0.267028131691097,0.6102955968006192,-0.2919083977023173,0.4384516957479448,0.3082374301100393,10.717502544112904,-1.3747202489013757,0.197779749840304,-0.9911756325793885
1.74,-0.3245689913496719,0.038449757522782,1.6885207673521925,-0.0212725713628354,0.1157715058178642,0.0249960256919746,0.2378956432511282,-0.1482512373194643,-0.2045476366545814,-0.3230792948371579,0.040276868301112,1.6874866155405346,0.3071906083971283,-0.1573387101342819,-0.2666196139820951,0.5716614590541855,-0.2350416464953791,0.4471410803588468,0.2676137186995928,10.686508445550317,-1.371169732808406,0.1990854223604463,-0.9996017967865364
1.76,-0.3198566780595478,0.0355891852596025,1.6844851035806048,-0.0212462000055138,0.1186502421604037,0.0251687810632317,0.2336196100520586,-0.1383504821617261,-0.1993265208688187,-0.3169271582791709,0.0370360921048894,1.6821480954952577,0.3066356490608327,-0.151071910565152,-0.2662110962730932,0.599102375770133,-0.2138016599534803,0.4950377578869125,0.2610557892881379,10.653507472608908,-1.3684955590705556,0.1996317883860636,-1.0075932326991248
1.78,-0.3152243224291332,0.0329295647489881,1.6805494195263748,-0.020084351736768,0.1209708552658407,0.0254340585062929,0.2298474973518448,-0.1282201578209242,-0.1945256335333157,-0.3107888957045913,0.033951985897895,1.6768197883927056,0.3060806897245369,-0.144805110996022,-0.2658025785640913,0.5913983950797241,-0.1886056350106926,0.5065162170400928,0.2400443667751453,10.653507472608908,-1.3667849176393154,0.1992262688390952,-1.0147196848672226
1.8,-0.3106634778023862,0.0304706665665484,1.6767056835454035,-0.0176392390145981,0.1227520430616873,0.0258010125961043,0.2264199496477612,-0.1184247843586323,-0.1900921848880415,-0.303731947561541,0.0265185568579418,1.670823137849709,0.2464519096989231,-0.1197502083445033,-0.1709934217527677,0.5642536916578941,-0.1713773852041786,0.4897686731145934,0.2216724322637142,10.638565526991442,-1.365634711227492,0.1976310109239475,-1.021326757957298
1.82,-0.306382968460387,0.0283203778327854,1.6732412646316668,-0.0138918533114266,0.1241703315971599,0.0262538533648095,0.2243916348325516,-0.1091039613964758,-0.1748151348886079,-0.303731947561541,0.0265185568579418,1.670823137849709,0.2464519096989231,-0.1197502083445033,-0.1709934217527677,0.9005277041361018,-0.1014157407604771,0.4660411481078284,0.7638524999716761,10.625044478974814,-1.355756941555584,0.1938557661567693,-1.0270542682955195
1.84,-0.3019137779838493,0.0262100641954951,1.6699102323835746,-0.0093414996622512,0.125548618862834,0.0267727919928536,0.2226587742997191,-0.1025720459564833,-0.1591977768909729,-0.303731947561541,0.0265185568579418,1.670823137849709,0.2464519096989231,-0.1197502083445033,-0.1709934217527677,0.8508386976503773,-0.0866430266416293,0.3265957719996222,0.7808678998817528,11.367890230183548,-1.3549212874321848,0.1904051177158503,-1.0391204151594438
1.86,-0.2974767836858145,0.0242095212568508,1.6668774336408183,-0.0050350925281753,0.1267655669429467,0.0272733067289645,0.2211404888752899,-0.0978447586562216,-0.1449380095822397,-0.3012674284645517,0.0253210547744968,1.6691132036321812,0.2497727921683387,-0.1180562184492192,-0.166286979396658,0.7549725153084482,-0.0759142712214583,0.236364365013085,0.7129883654366606,11.301872729136448,-1.354755303756169,0.1873220029935268,-1.0514923108076395
1.88,-0.2930686426824089,0.0222898874800777,1.6641163353991866,-0.0012757538406258,0.1277989756793828,0.0277323535492376,0.2197550715797356,-0.0942935709523583,-0.1319071741540713,-0.2963383902705733,0.0229260506076067,1.665693335197126,0.2564145571071701,-0.1146682386586508,-0.1568740946844388,0.6788464243606557,-0.0692708647777151,0.1775593851931642,0.651541771408419,11.23220379999566,-1.35446429225081,0.1844391099368087,-1.0637995946233645
1.9,-0.2889057179413968,0.0205239498176652,1.6617254710936629,0.0017283641875345,0.1286155696674398,0.0281242553068905,0.2185173812210044,-0.0916887987804159,-0.1204347591705696,-0.2914093520765948,0.0205310464407167,1.6622734667620704,0.2630563220460014,-0.1112802588680824,-0.1474612099722196,0.5914664425085656,-0.0618845179365612,0.1302386085971198,0.5736207491750834,11.17636384508296,-1.354126374912923,0.182017805213724,-1.0752070487201153
1.92,-0.2845485401862064,0.0187130926723261,1.659437405517933,0.0043171824455518,0.1293227093240189,0.0284908144477061,0.2172672030282417,-0.0894826932545799,-0.1090180012672899,-0.2861482256356748,0.018305441263355,1.659324242562626,0.2696980869848328,-0.1078922790775141,-0.1380483252600003,0.5847482537957743,-0.0625089096381328,0.1103052762918034,0.5708378951639843,11.133060425330768,-1.353642635009875,0.1800514895937792,-1.085444731463178
1.94,-0.2802153948666132,0.0169416901811415,1.657374704865791,0.0063628734619906,0.1298988856964538,0.0288127851934906,0.2161125691756817,-0.0877076317713589,-0.0978425370304492,-0.2808870991947548,0.0160798360859934,1.6563750183631816,0.2763398519236641,-0.1045042992869457,-0.1286354405477811,0.5687157099808248,-0.0577316926279991,0.0887530741610471,0.5587732118420348,11.10569911559378,-1.3528390898123726,0.1785106470133822,-1.0947914598055937
1.96,-0.275903907725997,0.0152024385196772,1.655533242242413,0.0079189659029104,0.1303454653625327,0.029093568968224,0.2150925017700337,-0.0862816969936542,-0.0868846578394628,-0.275459928630364,0.0139389304033959,1.6536611162815429,0.2829816168624954,-0.1011163194963774,-0.1192225558355618,0.5548624691457047,-0.0510033702824,0.0712967388852375,0.5478939595493226,11.10605274374393,-1.3521289906906129,0.1774456680043154,-1.1031545260904103
1.98,-0.2718259937676437,0.0135721348102329,1.6539845474862045,0.0088915116006351,0.1306366834510526,0.0293183875467508,0.2142010456135413,-0.0853545438352622,-0.0767001513046784,-0.2698667139425024,0.0118827242155627,1.651182536317709,0.2896233818013267,-0.097728339705809,-0.1098096711233426,0.5132701053420387,-0.0445728078246207,0.0463576579195983,0.509225326739221,11.104168053075227,-1.3515338207209795,0.1768146312709448,-1.111384054204874
2.0,-0.267551554064647,0.0118720498509807,1.6525616480720016,0.0092895874159786,0.1308132882176277,0.0295049075354784,0.2132807890518831,-0.0846724050609712,-0.0661437964278374,-0.2611159414869667,0.0093044076184698,1.6501495399209705,0.2279103523304602,-0.0836962762608774,-0.1035225003612799,0.5309162215747155,-0.0460128280829086,0.0341069387145495,0.5278177438420455,11.10051173127249,-1.350988762646179,0.1767957340411683,-1.11905332242775
2.02,-0.2633177292183118,0.010205481862618,1.6512275538829984,0.0096230500078048,0.1309859182673648,0.0296820431698318,0.2100683642138341,-0.0821360821805547,-0.0684226440919291,-0.2611159414869667,0.0093044076184698,1.6501495399209705,0.2279103523304602,-0.0836962762608774,-0.1035225003612799,0.2342314761617984,-0.1606212419024491,0.1268161440208234,-0.1139423832045821,11.100809705796564,-1.361852489018877,0.1778180140620983,-1.127855714254168
2.04,-0.2591559256241211,0.0085855634426613,1.649817002540909,0.0103283323748495,0.1313876875557546,0.0298820570249353,0.2063509096583002,-0.08005401994882,-0.0724435497889499,-0.2611159414869667,0.0093044076184698,1.6501495399209705,0.2279103523304602,-0.0836962762608774,-0.1035225003612799,0.2929254774409813,-0.1858727277766966,0.1041031115867383,-0.2010452848510403,10.280806244773885,-1.3610524793033505,0.1772409237239758,-1.1258094065355946
2.06,-0.2552702682393257,0.0070803833803151,1.6484023397643277,0.0111248162412345,0.1320733668586972,0.0300789309719731,0.2029177434007757,-0.0785084021907002,-0.0762634687425169,-0.2588368379636621,0.0084674448558611,1.6491143149173575,0.230652213673844,-0.0833646227460004,-0.1088869701726002,0.2681759945345616,-0.1716583128762244,0.0772808879059887,-0.1909959476783511,10.259374952320286,-1.359241449797468,0.1764465666565945,-1.1237143886065757
2.08,-0.2512478357693727,0.0055238440760997,1.6468346005128969,0.011955569222222,0.133105733870209,0.0302838076540927,0.199570708513728,-0.0772409873340627,-0.08030910147422,-0.2542786309170529,0.0067935193306435,1.647043864910132,0.2361359363606116,-0.0827013157162465,-0.1196159097952408,0.2700746524285819,-0.1673517443523856,0.0633707428318773,-0.2022816365851561,10.25794460319321,-1.357038208531318,0.17564684281052,-1.1219009220886722
2.1,-0.2472884851538719,0.0039891666079977,1.6451858688917695,0.0126672516726517,0.134412208673035,0.0304783987032609,0.1965995044865738,-0.0762941346365607,-0.0843603047494195,-0.2497204238704437,0.005119593805426,1.6449734149029065,0.2416196590473792,-0.0820380086864926,-0.1303448494178814,0.2556209663678384,-0.14856020135771,0.0473426348750971,-0.2025601637599738,10.254126201505642,-1.3546592814120564,0.1749898767693857,-1.1203644787213616
2.12,-0.2433839747278908,0.0024704290309172,1.6434559286410937,0.0131578881535029,0.1359289117079843,0.0306550984898114,0.1940745981483369,-0.0756086186359636,-0.0884289823142807,-0.2448880306894961,0.0034788336316961,1.6423665179145488,0.2471033817341468,-0.0813747016567387,-0.141073789040522,0.2418637081640598,-0.1262453169118438,0.0342758000298572,-0.2034338782430568,10.25208996199126,-1.3520046895196125,0.174513273830707,-1.1189410296413438
2.14,-0.2397175725032051,0.0010387751288668,1.6417323407610265,0.013353799863407,0.1374935499396428,0.0308010409037325,0.1920477300958597,-0.0751027407282262,-0.0927950567968318,-0.2400556375085485,0.0018380734579663,1.639759620926191,0.2525871044209144,-0.0807113946269847,-0.1518027286631626,0.2420057486242504,-0.1013434026238602,0.02529389538687,-0.218303724127556,10.217122471962284,-1.3497754174000605,0.1743710182284974,-1.1176645870835484
2.16,-0.2358947291707489,-0.0004580404379609,1.6398236013050371,0.0132392293873343,0.1391765053258321,0.0309278290232977,0.190394255921376,-0.0745852091334147,-0.0978670453241973,-0.2350861512604317,0.0002138959599803,1.6368845004472676,0.258070827107682,-0.0800480875972308,-0.1625316682858032,0.2679873290803162,-0.0826737087241888,0.0258765797405725,-0.2535994263682776,10.217122471962284,-1.3475989119571563,0.1745556999076704,-1.1160806971964805
2.18,-0.2321000333484264,-0.001943484331535,1.6378094879263565,0.012795815338572,0.140792202593127,0.0310257630031147,0.1891969697695607,-0.0739602031847412,-0.1033002674438691,-0.2299795719451458,-0.0013936988622618,1.633741156477778,0.2635545497944496,-0.0793847805674769,-0.1732606079084438,0.2799286925580189,-0.0598643075907609,0.031250297433677,-0.27166110598359,10.16636481774367,-1.345662960192805,0.1750737508980749,-1.1141806014496616
2.2,-0.2283250651827934,-0.0034139596241352,1.6356833978399006,0.0120673360249243,0.1422619750318822,0.0310970771098427,0.1883832009833947,-0.0730944431187146,-0.1090298164480993,-0.2226401848599483,-0.005641494490772,1.632644474554163,0.198254914410078,-0.0540804671784813,-0.0964619834766424,0.2925726060362603,-0.040688439308302,0.0432880033013304,-0.2864774502115086,10.16636481774367,-1.3442195665320522,0.175847107498571,-1.1122906940462962
2.22,-0.2246842413445313,-0.004849354109062,1.6337169998387056,0.009334839469803,0.1422796078933635,0.031003974640585,0.1946415254185163,-0.0768869938121082,-0.0976756252375567,-0.2226401848599483,-0.005641494490772,1.632644474554163,0.198254914410078,-0.0540804671784813,-0.0964619834766424,0.6754030714002646,0.3129162217560807,-0.1896275346696826,0.5677095605271312,10.148882148273517,-1.3255375300641343,0.1770697019234129,-1.105106638314773
2.24,-0.2207302395749583,-0.0063818026632223,1.6318826732540668,0.0045402450158524,0.1397181430049641,0.0307581995782221,0.200210587927269,-0.0758010696598846,-0.0864912446398341,-0.2226401848599483,-0.005641494490772,1.632644474554163,0.198254914410078,-0.0540804671784813,-0.0964619834766424,0.6270647052846522,0.2784531254376332,0.0542962076111791,0.5592190298861307,11.124817217229976,-1.3326791846990929,0.1827276914547742,-1.1127361154321591
2.26,-0.216685134621497,-0.007857481507358,1.630248802524575,-0.000358078159929,0.1348753209547923,0.0305207854965241,0.2036751277909153,-0.071793240279981,-0.0774364507287753,-0.2206576357158476,-0.0061822991625569,1.6316798547193967,0.2000665033381814,-0.0501045199772293,-0.095094326683197,0.524535569759002,0.1732269931823141,0.2003914689951806,0.4527396955529401,11.124817217229976,-1.3430582892747502,0.1883829108010838,-1.116615951948014
2.28,-0.2138305013067087,-0.0088329453947651,1.6292040525423224,-0.0034446595171512,0.1305975047470664,0.0303986931216029,0.2038607894141919,-0.0678435823132298,-0.072258259047715,-0.216692537427646,-0.0072639085061265,1.6297506150498635,0.2036896811943883,-0.0421526255747253,-0.0923590130963063,0.3257604080397152,0.0092830811638328,0.1974828983375594,0.2589095840530138,11.003742690488252,-1.3525139377444029,0.1925317603597448,-1.1178383522110713
2.3000000000000003,-0.2097760040510352,-0.0101263012469745,1.627827579400693,-0.0072241786555781,0.1241591098943959,0.0302982439466561,0.2013217716255083,-0.061802960295168,-0.0657905701006896,-0.2127274391394444,-0.0083455178496961,1.627821375380331,0.2073128590505952,-0.0342007311722213,-0.0896236995094156,0.4603442353603962,-0.1269508894341825,0.3020311009030905,0.323384447351268,10.903472337740824,-1.3624576697213209,0.1970977116139325,-1.116521256577442
2.32,-0.2058050797301847,-0.0112897709817506,1.626567703239477,-0.0103063493562518,0.1181502985024599,0.0302720818011065,0.1957262628866145,-0.0549336846097587,-0.0605737813676381,-0.2085811819584325,-0.0090295324731405,1.6260289013901428,0.2109360369068021,-0.0262488367697174,-0.086888385922525,0.5140806142388719,-0.2797754369446889,0.3434637842704681,0.2608394366525765,10.850786450317171,-1.3711997382315682,0.2008877139817321,-1.114816296312188
2.34,-0.201976695323215,-0.0123097354423648,1.6254064592586066,-0.012638767873622,0.1134819650531835,0.0303046315197446,0.1873069670039425,-0.0475705640348569,-0.0558070536332512,-0.2044349247774206,-0.009713547096585,1.6242364273999546,0.214559214763009,-0.0182969423672134,-0.0841530723356343,0.6079099050317649,-0.4209647941336006,0.3681560287450862,0.2383363867193424,10.767765035434422,-1.3769672849083576,0.2036408159199575,-1.1135058240443063
2.36,-0.1985189332256491,-0.0131379284378752,1.6243889173195811,-0.0141685991104988,0.1111488385879779,0.0303672472107794,0.1770885046533323,-0.0401233373854592,-0.051544984876879,-0.2001980881500036,-0.0101987643599668,1.6225123362494385,0.2181823926192159,-0.0103450479647094,-0.0814177587487436,0.6671644993222833,-0.5109231175305068,0.3723613324698879,0.2131034378186107,10.767765035434422,-1.379034692012042,0.2056495128144846,-1.114167560486203
2.38,-0.1950918956099011,-0.0138535029893464,1.6234031937198794,-0.0149959186066366,0.1113322886052908,0.0304540094270354,0.1664777204961877,-0.0318743114450833,-0.0472691498039873,-0.1958706720761813,-0.010485184263286,1.6208566279385943,0.2218055704754228,-0.0023931535622055,-0.0786824451618529,0.7051913480841157,-0.5305392078572293,0.4124512970187965,0.2137917536445887,10.76234318126808,-1.3748835522892755,0.206530520231105,-1.1176250458582322
2.4,-0.1918610030712542,-0.0143987510629982,1.6225006137430886,-0.014827800579753,0.1135723718218702,0.030579432547549,0.1573952003475843,-0.0231433608779359,-0.0432210393535943,-0.1867680095850917,-0.0154472185616005,1.62103973622968,0.1787718890802365,-0.0184789768511315,-0.0510342492530705,0.6616435374775809,-0.4541260074301709,0.4365475283573687,0.2024055225196476,10.7463047968713,-1.3694578593423476,0.2064917842157222,-1.1241726039044846
2.42,-0.1887971572008056,-0.0147256959212405,1.6216687479223229,-0.012120296371444,0.1172030096121873,0.0308628804645947,0.1497273225562424,-0.0108345754375902,-0.0401642230941394,-0.1867680095850917,-0.0154472185616005,1.62103973622968,0.1787718890802365,-0.0184789768511315,-0.0510342492530705,0.7410240793717284,-0.3833938895670949,0.6154392720172815,0.1528408129727477,10.735009724200609,-1.36502385054089,0.204310506474689,-1.1343084070402756
2.44,-0.1860103867615579,-0.0148523448063556,1.6209309701887744,-0.0074666173096999,0.121403880631213,0.0312768308368043,0.1441979398393904,-0.0035447044526322,-0.0376578983951561,-0.1867680095850917,-0.0154472185616005,1.62103973622968,0.1787718890802365,-0.0184789768511315,-0.0510342492530705,0.474336261800342,-0.2764691358426024,0.3644935492479032,0.1253162349491618,10.686366769466986,-1.3588696856602656,0.1994721931657852,-1.1432901219184792
2.46,-0.1831707199600534,-0.0148731305116685,1.6202023913109178,-0.0023577618060823,0.1261147778262826,0.0317391576255463,0.1402278618564392,0.0010049959576244,-0.0353623920267697,-0.1849802906942893,-0.0156320083301119,1.6205293937371492,0.1812307227970462,-0.0157999099323412,-0.0517872691428871,0.32299629448767,-0.1985038991475604,0.2274850205128345,0.1147753184193189,10.660758385669396,-1.3522195499199352,0.1942818439216869,-1.1520484851437514
2.48,-0.1803921808389506,-0.0148230416778357,1.6195160463101428,0.0022055395019212,0.1306949338248236,0.0321770537253069,0.1379429810973253,0.0038154217258418,-0.0334149561714349,-0.1814048529126846,-0.0160015878671345,1.619508708752088,0.1861483902306658,-0.0104417760947605,-0.0532933089225204,0.2056190621797548,-0.1142440379556949,0.1405212884108683,0.097371792766741,10.645967776481484,-1.3461011322781278,0.189629651211891,-1.160154599286631
2.5,-0.1776436249251229,-0.0147291307870831,1.618865306095144,0.0059591348991077,0.1348142946040662,0.0325662677952334,0.1370729002569012,0.0055845521329348,-0.0317740060959481,-0.1778294151310799,-0.0163711674041571,1.6184880237670265,0.1910660576642852,-0.0050836422571798,-0.0547993487021537,0.1282534621015609,-0.0435040420212057,0.0884565203546526,0.0820475037743417,10.635166398671572,-1.341199222969585,0.1859949669808692,-1.1669734566811516
2.52,-0.1749007464232699,-0.0146064715630337,1.618244688942635,0.0089153397171937,0.1382804203004333,0.0328995576152205,0.1372670517910331,0.006745023118459,-0.0303836024703259,-0.1740080939777941,-0.0164728402493007,1.6173920367929835,0.1959837250979047,0.0002744915804007,-0.056305388481787,0.0910715373839806,0.0097075767065982,0.0580235492762094,0.0695201812811113,10.628005015252713,-1.3372383666543586,0.1829980416059021,-1.1731524455033089
2.54,-0.1722840302901753,-0.0144721346326519,1.6176785823897954,0.0110585499516443,0.1408882778108048,0.0331629932176469,0.1381483004508043,0.0074711364927735,-0.0292843802825461,-0.1701867728245084,-0.0165745130944443,1.6162960498189405,0.2009013925315242,0.0056326254179814,-0.0578114282614202,0.0792484897460842,0.0440624329885577,0.036305668715725,0.0549611093889861,10.62290535887496,-1.3345267416491704,0.1807743359722735,-1.1782440701109498
2.56,-0.1695065886315671,-0.0143169425123926,1.6171032520592383,0.0127408957477051,0.1429011663640729,0.033388380075258,0.1395370371494068,0.0080570559860725,-0.028318071724086,-0.1662425099853823,-0.0165422325936484,1.6151624118504064,0.2058190599651437,0.0109907592555621,-0.0593174680410535,0.0895215546785605,0.0694368349301283,0.0292959746649503,0.0483154279230062,10.617161091668097,-1.332927497503594,0.1791847327429125,-1.1822279149923849
2.58,-0.1666984066672021,-0.0141535749568046,1.61654531477073,0.0138609051701374,0.1441939063929824,0.033559629760596,0.1411805006801102,0.008270207738051,-0.0275324886733315,-0.1621753054604156,-0.016375998746913,1.6139911228873818,0.2107367273987632,0.0163488930931428,-0.0608235078206868,0.0916998742604947,0.0821731765351677,0.0106575875989216,0.0392791525377269,10.612099567818404,-1.3322917633877196,0.1781893039415369,-1.1850226863331592
2.6,-0.1638565502347477,-0.0139901195230214,1.6160012996189896,0.0143065274699604,0.1448365269506155,0.0336683457572376,0.1428606492065996,0.0081275117733541,-0.0269078450535181,-0.1596393816331965,-0.013740064569902,1.6151686903370637,0.1331334713040802,0.0132078080824704,-0.0360124414855263,0.0899088546971162,0.08400742632447,-0.0071347982348441,0.0312321809906701,10.606382520815714,-1.332416760971858,0.1779033656369798,-1.1866473581183128
2.62,-0.1609157469194434,-0.0138052554361074,1.6154859095248413,0.0147663727821472,0.1429451869101019,0.0337346119326286,0.1508924519165984,0.0101099333594184,-0.0246541184773523,-0.1596393816331965,-0.013740064569902,1.6151686903370637,0.1331334713040802,0.0132078080824704,-0.0360124414855263,0.4287164960593224,0.4015901354999393,0.0991210793032143,0.1126863288082865,10.600610099299956,-1.3275844314371588,0.1769665440882638,-1.1859577477921526
2.64,-0.1579860330925579,-0.0136013268243855,1.6150333813308018,0.0155024223051758,0.1372088248422,0.0337505474269385,0.1564130471225916,0.0112003490242337,-0.0230531775813166,-0.1596393816331965,-0.013740064569902,1.6151686903370637,0.1331334713040802,0.0132078080824704,-0.0360124414855263,0.2925277316046703,0.2760297602996606,0.0545207832407656,0.0800470448017877,10.719086547924237,-1.3423192184827166,0.1769813941550455,-1.1839880139245706
