t,x,y,z,roll,pitch,yaw,v_x,v_y,v_z,ref_x,ref_y,ref_z,ref_v_x,ref_v_y,ref_v_z,a_com,a_x,a_y,a_z,thrust,wind_x,wind_y,wind_z
0.0,0.6664085471242688,0.3532963392948081,2.668255992581294,0.0111020729251519,0.1362535363691825,0.025754102053058,0.003454396218038,0.0021207743308388,0.0070811966000633,0.6665213462207957,0.3532574405714385,2.6684792054774573,-0.0964063721058088,-0.0560133124953437,-0.092828019191086,0.4079640985500106,0.1727198109019009,0.1060387165419413,0.354059830003168,10.545444007279002,-1.2867467502043888,0.1654171707240004,-1.1696025412439788
0.02,0.6666017968373757,0.3535803354086965,2.66817374808649,0.018981098803046,0.1311598363850593,0.0262295621785781,0.0153658383628474,0.0223589317090863,-0.0163392341885433,0.6665213462207957,0.3532574405714385,2.6684792054774573,-0.0964063721058088,-0.0560133124953437,-0.092828019191086,1.6582988620569674,0.595572107240472,1.0119078689123748,-1.1710215394303354,10.545444007279002,-1.2975248080170554,0.1575201273693491,-1.1735078852446748
0.04,0.6669954616152967,0.3540806914561982,2.667547968846376,0.0335496804829286,0.1164377617795989,0.0268173135540754,0.0218617249924706,0.0255471241860925,-0.0447730624968638,0.6665213462207957,0.3532574405714385,2.6684792054774573,-0.0964063721058088,-0.0560133124953437,-0.092828019191086,1.467006907484082,0.3247943314811589,0.1594096238503125,-1.4216914154160245,9.18823429388749,-1.326450109646749,0.1437751202656037,-1.1458805423052534
0.06,0.6673860402735486,0.3545313170329852,2.666430273513837,0.0480710127977386,0.097170356973295,0.0269490281626773,0.0180961925729991,0.0213951079765416,-0.0713591776661451,0.6655572824997377,0.3526973074464851,2.6675509252855463,-0.116406372403832,-0.0671328741377521,-0.1128280194891092,1.358528609195213,-0.1882766209735729,-0.2076008104775452,-1.3293057584640635,8.972452656994847,-1.3572728951825257,0.1287027400589491,-1.1051532887811195
0.08,0.6676221371352894,0.3548792664780089,2.664715856169082,0.0628125468553248,0.0751048136347298,0.0265896445062078,0.005019534984684,0.0132723988336468,-0.0986249091611018,0.6636291550576214,0.3515770411965782,2.6656943649017246,-0.1564063729998785,-0.0893719974225688,-0.1528280200851557,1.5655649870391712,-0.6538328794157576,-0.406135457144743,-1.363286574747837,8.93572118834345,-1.3809048351284,0.1143995864494394,-1.0578687173463863
0.1,0.6675117062383497,0.3550262236361762,2.662462921762419,0.0766470770363543,0.0539948575931085,0.0258528709730214,-0.0158098921984077,0.00162324605285,-0.1252718797993609,0.6617010276155053,0.3504567749466714,2.663837804517903,-0.1964063735959249,-0.1116111207073856,-0.1928280206812021,1.7885950082972322,-1.041471359154589,-0.5824576390398358,-1.332348531912956,8.964789593313071,-1.3963605211749195,0.1013100854224231,-1.01197715861081
0.12,0.6669183628937374,0.3548935206976025,2.6596804759945187,0.0888836753670074,0.0358130016184369,0.0249120270588679,-0.0424710404657995,-0.0140564653360036,-0.1515950309530417,0.6577729001435868,0.3482245525325236,2.659981244104279,-0.2364063741919713,-0.1338502439922023,-0.2328280212772486,2.030750146394876,-1.3330574133695894,-0.7839855694426889,-1.3161575576840376,8.993460745570246,-1.4020839782525951,0.0906397857407378,-0.9695536118031288
0.14,0.6658227421983968,0.354453521208197,2.6565445946788597,0.0986960503642961,0.0221414181447983,0.0239953677564943,-0.0713519539501787,-0.0311707051303714,-0.1771169044585363,0.6538447726716683,0.3459923301183759,2.656124683690655,-0.2764063747880179,-0.1560893672770191,-0.2728280218732951,2.108536456088552,-1.4440456742189605,-0.8557119897183906,-1.276093675274731,8.993460745570246,-1.4002540520620563,0.081504899027858,-0.9290162391434702
0.16,0.6640514403005386,0.3536204956867551,2.6527137233718694,0.107063643034419,0.0119459276118203,0.0231611234622026,-0.1042036118950513,-0.0509648270185395,-0.2046050547856494,0.6489166451848486,0.3432041296221078,2.65126812326213,-0.3164063753840643,-0.1783284905618358,-0.3128280224693415,2.3593627844486598,-1.6425828972436316,-0.9897060944084028,-1.3744075163556524,8.972443134499372,-1.3959069762760024,0.0742397177680821,-0.9003791907726267
0.18,0.6615953681813798,0.3523750991619328,2.648328207122915,0.1133465623325482,0.0066805717507441,0.0226286640759966,-0.1396002232959297,-0.0720941353991034,-0.2324863719060475,0.6429885176831278,0.3398599510437192,2.645411562818704,-0.3564063759801107,-0.2005676138466525,-0.3528280230653879,2.488340619606752,-1.7698305700439183,-1.0564654190281952,-1.3940658560199062,8.947925856487473,-1.3870204462877838,0.0689145457222711,-0.8788443838956451
0.2,0.658429381882783,0.3507009155130526,2.6433846366722453,0.1177724786766771,0.0067211097715433,0.022540190021344,-0.1744832567463969,-0.0938107435786649,-0.2603328392718776,0.6546153570165832,0.3487703923919776,2.6367038885276126,-0.2396002247860458,-0.1324033741309646,-0.3324863733961636,2.4818656482005883,-1.7441516725233612,-1.0858304089780717,-1.392323368291505,8.948376845497023,-1.369018650485403,0.064970351790428,-0.8650135794770046
0.22,0.6547696761331059,0.3485562319432457,2.6383348853514668,0.1163811536650879,0.0119484077426026,0.0226710694101895,-0.2081025960049606,-0.1285646386002526,-0.2694857048885371,0.6546153570165832,0.3487703923919776,2.6367038885276126,-0.2396002247860458,-0.1324033741309646,-0.3324863733961636,2.460623975920826,-1.6809669629281807,-1.737694751079387,-0.4576432808329755,8.93131335584576,-1.3369601116924812,0.0641288690812845,-0.8619348197983915
0.24,0.6502886991898694,0.3456967093638461,2.63283749940769,0.1089369006163847,0.0221041300717892,0.0228926442598128,-0.2375233690322153,-0.154360462206884,-0.2798144314561955,0.6546153570165832,0.3487703923919776,2.6367038885276126,-0.2396002247860458,-0.1324033741309646,-0.3324863733961636,2.0234185142816696,-1.4710386513627385,-1.2897911803315705,-0.5164363283829188,9.80517854388745,-1.3133447635019722,0.068094512596358,-0.8759937453739945
0.26,0.6452790429400544,0.3424031007685634,2.627095899815115,0.0999350504157312,0.0346158478908231,0.023171238828812,-0.261424094726678,-0.1733139358558695,-0.2937480450616071,0.6522193547687228,0.347446358650668,2.633379024793651,-0.2596002250840691,-0.1444652218773368,-0.3524863736941868,1.6767710340037814,-1.195036284723132,-0.9476736824492724,-0.696680680270581,9.80517854388745,-1.2929634491723998,0.0737473211861352,-0.8886524303021238
0.28,0.6401257214177353,0.3389661930189522,2.6213503310362336,0.0915998385393926,0.0470829254419423,0.02340685163991,-0.2795143351275623,-0.187477177470839,-0.3103460215601535,0.6474273502730019,0.3447982911680487,2.626729297325728,-0.2996002256801155,-0.1685889173700812,-0.3924863742902332,1.4171688631317834,-0.9045120200442152,-0.7081620807484784,-0.829898824927322,9.332958767709895,-1.2732555487696875,0.0798802285407361,-0.9021239787557216
0.3,0.6343730278443055,0.3350867390361311,2.6149284845206395,0.0837202991067538,0.059599484514473,0.0235616644536088,-0.2945228886279155,-0.1997273600215336,-0.3311367667606587,0.642635345777281,0.3421502236854294,2.6200795698578045,-0.339600226276162,-0.1927126128628257,-0.4324863748862797,1.4208964922634544,-0.7504276750176592,-0.6125091275347313,-1.0395372600252584,9.332958767709895,-1.256093891076104,0.0856095280258702,-0.9135751248418756
0.32,0.6283553459267709,0.33098271338106,2.608058632314332,0.0769679281376748,0.0706694657612436,0.0235927244902646,-0.3063378665492695,-0.2101281571477903,-0.3549468563109412,0.6358433412517578,0.3382959714281729,2.611429842360079,-0.3796002268722084,-0.2168363083555701,-0.4724863754823261,1.427139313921476,-0.5907488960676999,-0.5200398563128344,-1.190504477514126,8.988326283110837,-1.2420734139632432,0.0907036476123761,-0.9214944170075988
0.34,0.6221289402138335,0.3266862353146407,2.6006912465032794,0.0713802502838813,0.0797824854988339,0.0234981795076206,-0.3157198739555502,-0.2191934637885953,-0.3806115994701995,0.6290513367262345,0.3344417191709164,2.602780114862353,-0.4196002274682549,-0.2409600038483146,-0.5124863760783727,1.4395145786809722,-0.469100370314035,-0.4532653320402494,-1.2832371579629132,8.988326283110837,-1.231194998654778,0.0947632163944916,-0.9257162815409464
0.36,0.6160517145180336,0.3224403334325665,2.5932050743630257,0.0669013262737406,0.0866027630529419,0.0233026120939831,-0.3235436301330043,-0.22735645620654,-0.4061248747030424,0.6212593321858101,0.3299843745263413,2.5931303873497265,-0.4596002280643013,-0.265083699341059,-0.552486376674419,1.3953250687980108,-0.3911878088727089,-0.4081496208972315,-1.2756637616421456,8.905674977154376,-1.2226459683333837,0.098413155677649,-0.9269308195884188
0.38,0.6095008108226032,0.3178093897869939,2.584789355554736,0.0628219215769736,0.092091925603967,0.0230086833031158,-0.3311416027955862,-0.2353207071887218,-0.4341568649271348,0.6124673276304845,0.3249239374944475,2.5824806598221985,-0.4996002286603477,-0.2892073948338035,-0.5924863772704655,1.5057813239412756,-0.3798986331290943,-0.3982125491090935,-1.401599511204618,8.783746401743883,-1.216628400810022,0.1015375814919761,-0.9265533531255068
0.4,0.6028022149991914,0.313025613558764,2.575802505547476,0.0592817070207483,0.0961093542923819,0.0226502155830498,-0.3383842429793363,-0.2426954188733678,-0.463116000941519,0.5929437306828239,0.3060433544275578,2.5630815123083788,-0.409744296770558,-0.2429307614097261,-0.5341568664172509,1.5374278584396517,-0.3621320091875046,-0.3687355842322992,-1.4479568007192134,8.783746401743883,-1.2119804052620633,0.1040337651098236,-0.9249200332837209
0.42,0.5959467641436488,0.3079585272391964,2.5664518987867617,0.0520779959594625,0.1002239152065706,0.0220326642594106,-0.3465218011199226,-0.2614672978053025,-0.4691777303290326,0.5929437306828239,0.3060433544275578,2.5630815123083788,-0.409744296770558,-0.2429307614097261,-0.5341568664172509,1.0669440640142271,-0.4068779070293127,-0.9385939465967316,-0.3030864693756768,8.738132661663712,-1.1985144397585732,0.108802173596958,-0.9208608434006472
0.44,0.589301967591654,0.302885477328696,2.5574624200698306,0.041530017132949,0.1050598600590612,0.0212124041824478,-0.3523584784513616,-0.2707526129283313,-0.4768736070651171,0.5929437306828239,0.3060433544275578,2.5630815123083788,-0.409744296770558,-0.2429307614097261,-0.5341568664172509,0.6699074524557265,-0.29183386657195,-0.4642657561514413,-0.3847938368042258,10.123109069142629,-1.1920000576809775,0.1174541457862132,-0.9257346304701208
0.46,0.5822044357587932,0.2974252231004283,2.5477904809555767,0.0298588410121797,0.110193557800938,0.0202751903517474,-0.3569790257833861,-0.2744845242552691,-0.4901573675489633,0.5888462877151184,0.3036140468134605,2.557739943644206,-0.4254648355655523,-0.2444527722539269,-0.5541568667152741,0.7275556892633684,-0.2310273666012247,-0.1865955663468893,-0.6641880241923082,9.813340203309965,-1.1871660650334372,0.1268482496380169,-0.9290881596805745
0.48,0.5750268648888036,0.2919338153872843,2.53779816725671,0.0189586750457149,0.1147770621123474,0.0193434628356285,-0.3605149818825571,-0.2744690366109913,-0.5083904551153576,0.5806514017797072,0.298755431585266,2.547056806315861,-0.4569059131555411,-0.2474967939423286,-0.5941568673113206,0.9286397412427956,-0.1767978049585505,0.0007743822138861,-0.911654378319718,9.263629873958052,-1.1838527681297393,0.135263785826207,-0.9304291151340562
0.5,0.568149727396357,0.286742517403834,2.52793222873174,0.0097571293957202,0.1183350983762407,0.0185057716136628,-0.3632341030033743,-0.2721016127751466,-0.5292100567956146,0.572456515844296,0.2938968163570715,2.5363736689875163,-0.4883469907455298,-0.2505408156307304,-0.634156867907367,1.0564730585925506,-0.1359560560408618,0.1183711917922353,-1.0409800840128491,9.263629873958052,-1.1815257074154455,0.1431261250642394,-0.929834173195581
0.52,0.5608583837749712,0.2813437659852871,2.5170899089803798,0.0013683448884034,0.1211192950262928,0.0177000415577833,-0.3657878132110737,-0.2679613279216937,-0.5540499680646009,0.5626895760293854,0.2888860000444569,2.523690531629369,-0.5197880683355185,-0.253584837319132,-0.6741568685034135,1.26558739953406,-0.1276855103849672,0.2070142426726484,-1.2419955634493165,9.076081518016508,-1.180454957555103,0.1498521682310566,-0.927469523748335
0.54,0.5535182376846504,0.2760431004565353,2.5057351370403764,-0.0057037928600116,0.1229023155015557,0.0169912781708543,-0.3681470207662938,-0.2624190807688543,-0.5802138913250008,0.5529226362144748,0.2838751837318423,2.5110073942712217,-0.5512291459255072,-0.2566288590075338,-0.71415686909946,1.342416891438588,-0.1179603777610088,0.2771123576419704,-1.3081961630199923,8.920731946638625,-1.180026835528892,0.1554109070390286,-0.9236418915964212
0.56,0.5461279571674403,0.2708638405912764,2.4938498273002145,-0.0115466428176967,0.1238464756471714,0.0163879898769178,-0.3708118942489852,-0.2558957531544406,-0.6070213490333876,0.5423696694598146,0.2787882668770176,2.4973242568981733,-0.5826702235154959,-0.2596728806959354,-0.7541568696955063,1.3859068715381535,-0.1332436741345699,0.3261663807206827,-1.3403728854193386,8.861799761368275,-1.180273379253062,0.1599139332550993,-0.9191064966841228
0.58,0.5386805468980232,0.2658240963566159,2.4814215596836378,-0.0162595146188795,0.1242193902292609,0.0158897397294927,-0.3738351342932824,-0.248599022526246,-0.6344488469912886,0.5310306757654045,0.2736252494799829,2.482641119510224,-0.6141113011054846,-0.2627169023843372,-0.7941568702915528,1.4271036248784974,-0.1511620022148607,0.364836531409729,-1.3713748978950502,8.828605435106965,-1.1803204374364342,0.1633165628509636,-0.9156804781072424
0.6,0.5315460187196754,0.2611769308894269,2.469101101925788,-0.0198222451551545,0.124244324895252,0.0155052239780349,-0.3770379530359992,-0.2411142278607155,-0.6610586980740649,0.5199887901833591,0.2533941452303037,2.4496991173340734,-0.4076684852795247,-0.2393387154601035,-0.7344488484814047,1.3913701643805882,-0.1601409371358358,0.3742397332765268,-1.330492554138818,8.7958110466152,-1.1802827262002615,0.1661418724371711,-0.9130201131244576
0.62,0.5239176667368047,0.2564269265853801,2.455808886274684,-0.0233507693529519,0.1265642724828565,0.0150854705345841,-0.3851160822688543,-0.2340207469634591,-0.6656289762376685,0.5199887901833591,0.2533941452303037,2.4496991173340734,-0.4076684852795247,-0.2393387154601035,-0.7344488484814047,0.5840827972881105,-0.4039064616427557,0.354674044862821,-0.2285139081801779,8.763826386502387,-1.17482287024864,0.1681100478350075,-0.9051362001997284
0.64,0.5161613456567432,0.2518347476919347,2.4424198686998517,-0.0268456916110804,0.1327117725578589,0.014584275297938,-0.3895914062069286,-0.2255115603086896,-0.6732025249895954,0.5199887901833591,0.2533941452303037,2.4496991173340734,-0.4076684852795247,-0.2393387154601035,-0.7344488484814047,0.6119506160104374,-0.2237661969037158,0.4254593327384717,-0.3786774375963475,10.154664601235709,-1.168839866716731,0.1708085350814291,-0.9142925871829616
0.66,0.5087404214267559,0.2476421125273844,2.429508698575662,-0.0297417125274345,0.1403056054750832,0.0140869002780309,-0.3910085428725105,-0.2163470997893395,-0.6854977286940981,0.5159121053305639,0.2510007580757026,2.4423546288492592,-0.4144351554767732,-0.2374866540468749,-0.7544488487794279,0.7700124139825275,-0.0708568332790954,0.4582230259675066,-0.6147601852251328,9.82341602381348,-1.162284084476318,0.1733474702844461,-0.9244100577940249
0.68,0.5009249874456774,0.2434222843567093,2.4156223000242067,-0.032188281995255,0.1490841629730243,0.0135771643829113,-0.3901800328032067,-0.2062063187287593,-0.7026952201437471,0.5077587356249733,0.2462139837665005,2.427665651879632,-0.4279684958712701,-0.2337825312204179,-0.7944488493754743,0.9990940666602782,0.0414255034651922,0.507039053029007,-0.8598745724824497,9.320490547951522,-1.154954980481056,0.1754298321344961,-0.9356247812659528
0.7000000000000001,0.4931466196219777,0.2394103415713615,2.401351459743821,-0.0339505212245007,0.1580652738063357,0.0131075841078805,-0.3874381538838237,-0.1956457742711139,-0.7235322381448087,0.4996053659193828,0.2414272094572985,2.412976674910003,-0.441501836265767,-0.2300784083939609,-0.8344488499715208,1.1760360521971989,0.1370939459691494,0.5280272228822713,-1.0418509000530818,9.320490547951522,-1.148452247448297,0.1768859873575514,-0.9454500542923324
0.72,0.4854411398884348,0.235614283190642,2.386635883052925,-0.0349375291891908,0.1669108458780872,0.0127015428089432,-0.3830239774015201,-0.1846025931881437,-0.7469993987841723,0.4907753291940675,0.2368256412894193,2.3962876979105725,-0.455035176660264,-0.2263742855675039,-0.8744488505675673,1.3154318976308592,0.2207088241151761,0.5521590541485113,-1.1733580319681802,9.036679849471511,-1.142177798509108,0.177787009841819,-0.9548284943723924
0.74,0.4782186032894858,0.2322176097463145,2.37221023710592,-0.0349304040325214,0.1750214201587914,0.0124032744049882,-0.3772917896827608,-0.1736232756821312,-0.7703283079058231,0.4819452924687522,0.23222407312154,2.379598720911142,-0.4685685170547609,-0.2226701627410469,-0.9144488511636136,1.32064509780937,0.2866093859379665,0.5489658753006262,-1.1664454560825377,9.036679849471511,-1.1364616172055304,0.1777966166115693,-0.9630290902947416
0.76,0.4707490014057466,0.2288700147306095,2.356537932848752,-0.0336828036778621,0.1831603599467458,0.0122101553792794,-0.3697958334457157,-0.1618352345442559,-0.7957205325539887,0.4727769222335744,0.2277151080243222,2.36190974389681,-0.4821018574492578,-0.2189660399145898,-0.95444885175966,1.4490620641977714,0.3747978118522538,0.5894020568937619,-1.2696112324082798,8.997183486666472,-1.1314439094345266,0.1767186358969296,-0.9706776916155052
0.78,0.4634439894286325,0.2257584737392511,2.340350832160009,-0.0309271678589653,0.1908518390599015,0.0121675764310663,-0.3609132280399735,-0.1503289640321816,-0.8217226429844549,0.4632702184885342,0.2232987459977659,2.343220766867578,-0.4956351978437547,-0.2152619170881328,-0.9944488523557066,1.4894669237090423,0.4441302702871103,0.5753135256037184,-1.3001055215233093,8.944625052313313,-1.1274607235940184,0.1744628983757397,-0.9771845342586576
0.8,0.4563333274934823,0.2228559096468722,2.3236384695686967,-0.0272031140370471,0.1979924893750438,0.0122467746318284,-0.3504759392728603,-0.1408114894707631,-0.8482201815702896,0.4453983280266338,0.218242025537642,2.299264700010786,-0.3799889625807937,-0.1631538467853749,-0.8843383132482221,1.5013651037831832,0.5218644383556625,0.4758737280709246,-1.324876929291735,8.944625052313313,-1.123842597844808,0.1712294605854562,-0.9833567659167144
0.8200000000000001,0.4498386443940004,0.2203089751803892,2.3075365197439286,-0.0220579053644905,0.2041799857904277,0.0124879313802235,-0.3332449445584983,-0.1285769718595832,-0.8438246839193023,0.4453983280266338,0.218242025537642,2.299264700010786,-0.3799889625807937,-0.1631538467853749,-0.8843383132482221,1.079248580754772,0.8615497357181007,0.6117258805589928,0.2197748825493617,8.926104358703924,-1.116019958291704,0.1658630055712264,-0.9776997973764766
0.84,0.4436915803067294,0.2179568533798935,2.291543464793455,-0.0153555660851524,0.2096730791874622,0.0128948849851526,-0.3147018657640398,-0.120147332219846,-0.8400770177732869,0.4453983280266338,0.218242025537642,2.299264700010786,-0.3799889625807937,-0.1631538467853749,-0.8843383132482221,1.0355549202907053,0.9271539397229244,0.4214819819868626,0.1873833073007702,10.86304422872854,-1.117298475358713,0.1601621612108737,-0.9867484031918652
0.86,0.4376154316943823,0.2156224655821484,2.2747420955585564,-0.0078758585460017,0.2142653649105063,0.0134113141056616,-0.2939249077225676,-0.1140391760214326,-0.840440992926541,0.4415984384008258,0.2166104870697883,2.290421316878304,-0.3838041094889577,-0.1657188233360136,-0.8968614473009755,1.0829635676160807,1.0388479020736112,0.30540780992067,-0.0181987576627018,10.599102695302465,-1.1193692950268808,0.1539835438800077,-0.9945498249793222
0.88,0.4319629291875734,0.2133868982098577,2.257894078194239,-0.0004336233072488,0.2170498290379264,0.0139673883405522,-0.272502957429496,-0.1100460824939327,-0.844460911484785,0.43399865914921,0.2133474101340808,2.27273455061334,-0.3914344033052857,-0.170848776437291,-0.9219077154064824,1.1079310622654996,1.0710975146535766,0.1996546763749926,-0.2009959279122009,10.165767535751002,-1.12342659198297,0.1477647002740751,-0.9991754789920952
0.9,0.4267425672958182,0.211211565865052,2.2409334125334155,0.0067236293768072,0.2176158472643936,0.0145139203077348,-0.2508026827223256,-0.1078510520593768,-0.8513577112682695,0.4263988798975941,0.2100843331983733,2.255047784348375,-0.3990646971216138,-0.1759787295385683,-0.9469539835119892,1.1437721891058124,1.0850137353585223,0.1097515217277939,-0.3448399891742282,10.165767535751002,-1.1288093126012078,0.1420225474661038,-1.0005966238978508
0.92,0.4221871745625534,0.2091701008859873,2.2246740134430096,0.0131200514087399,0.2157009144712879,0.0149784991154127,-0.2299648856436419,-0.1072417288824547,-0.8597723341388607,0.4184175859551618,0.2065647586076019,2.236108704678135,-0.4066949909379418,-0.1811086826398457,-0.9720002516174964,1.12404508348265,1.041889853934183,0.0304661588461041,-0.4207311435295569,10.023076837391272,-1.136428121130376,0.1363007720263785,-0.9984623213633956
0.94,0.4178170467457523,0.2070188786399961,2.2073835282835628,0.0193370760791874,0.2106447559689936,0.0153602141444504,-0.208612521446477,-0.1080039569509135,-0.8687542945686295,0.4104362920127296,0.2030451840168305,2.2171696250078954,-0.4143252847542699,-0.186238635741123,-0.9970465197230032,1.1588572621322355,1.067618209858244,-0.0381114034229357,-0.4490980214884421,9.918213313032538,-1.1482328559451478,0.1311112689886028,-0.9908371228028552
0.96,0.4138464832905822,0.2048367518944276,2.189919448281504,0.0249194666019757,0.2029087781982129,0.0155976563961748,-0.1899833479821565,-0.1102039086103077,-0.8771103288418697,0.4022642407248891,0.1993973605985272,2.197604388635018,-0.4219555785705979,-0.1913685888424004,-1.02209278782851,1.0267779702094566,0.9314586732160276,-0.1099975829697119,-0.4178017136620082,9.903509426262644,-1.1622299184925065,0.1265073593923001,-0.9795299562855312
0.98,0.4102164572018865,0.202597094010045,2.1722931301698467,0.0297745116857881,0.1933127148083699,0.0156818994126249,-0.1744455572683975,-0.1136025056810717,-0.8850143003435557,0.3939014320916404,0.195621288352692,2.1774129955595027,-0.4295858723869259,-0.1964985419436777,-1.047139055934017,0.8880402127908439,0.7768895356879468,-0.1699298535381983,-0.395198575084299,9.909172476209278,-1.176191602631013,0.1227257212651314,-0.9667091100394168
1.0,0.4068621183567244,0.2002787704499638,2.154510997993267,0.0338961145021463,0.1825919968836166,0.015625903660123,-0.1622035091067245,-0.1179796673744762,-0.8927245720808646,0.4014941793384666,0.1969169687259914,2.128042415152669,-0.2470851865132019,-0.1273922218577604,-0.865731177029175,0.7557704313250061,0.6121024080836492,-0.2188580846702245,-0.3855135868654491,9.878098105573372,-1.1908525525428473,0.1193589445837228,-0.9518128724048586
1.02,0.4040114557990429,0.1979284427804904,2.1378356276813637,0.0355890761229885,0.169676811996377,0.0152828459066918,-0.139621988653336,-0.1282648805609046,-0.8619956471396677,0.4014941793384666,0.1969169687259914,2.128042415152669,-0.2470851865132019,-0.1273922218577604,-0.865731177029175,1.9748275268481064,1.1290760226694283,-0.5142606593214228,1.5364462470598472,9.878098105573372,-1.1923796973338892,0.1169443748413277,-0.9219959499733263
1.04,0.4014074886551394,0.1952671576755829,2.120927742936068,0.0347282465629495,0.1522840724531678,0.0146019013529539,-0.1229702077267188,-0.1371039876540744,-0.830598398386294,0.4014941793384666,0.1969169687259914,2.128042415152669,-0.2470851865132019,-0.1273922218577604,-0.865731177029175,1.831119091917428,0.8325890463308588,-0.4419553546584909,1.5698624376686845,12.47082982225129,-1.2167876452017252,0.1181249421285366,-0.9032658133717694
1.06,0.3990585542513046,0.1924371225020287,2.104606143433647,0.0317654159607747,0.1325762027488589,0.0137439407484776,-0.1136644466577505,-0.1449913504519327,-0.8029838809307874,0.3990233274733346,0.1956430465074138,2.119385103382377,-0.2616131123621628,-0.1301501650930981,-0.8618745523662988,1.5094446456215629,0.4652880534484149,-0.394368139892913,1.380725872775329,12.14143885456906,-1.2385028613963502,0.1206072840471243,-0.8830829393912971
1.08,0.3969289538293861,0.1896295690108497,2.0895841800317028,0.0277946183433902,0.1128310554343961,0.0129048495405464,-0.1116472959995366,-0.1498173048727148,-0.7795747298736797,0.3940816237430706,0.1930952020702586,2.1020704798417937,-0.2906689640600846,-0.1356660515637736,-0.8541613030405466,1.1993196884733102,0.1008575329106954,-0.2412977210391062,1.1704575528553862,11.608238521361272,-1.2595904942967455,0.1240141131601416,-0.8599452896558234
1.1,0.3946571802945576,0.1865987332026063,2.074229330047481,0.0233982383939446,0.0920380806536801,0.0121186410528657,-0.1163116759440146,-0.1528587548011475,-0.757222594646612,0.3891399200128065,0.1905473576331033,2.0847558563012103,-0.3197248157580063,-0.141181938034449,-0.8464480537147944,1.1517647406726916,-0.2332189972239037,-0.1520724964216346,1.1176067613533849,11.608238521361272,-1.2780864933025136,0.1274228378034634,-0.8362407783607555
1.12,0.3922223948044849,0.1835227838720463,2.0592971726331357,0.0191774768795507,0.0722020338723637,0.0114800677366989,-0.1274653132278639,-0.1544966468454156,-0.7371996463174378,0.3827454236976464,0.1877237188724144,2.0678268952269145,-0.348780667455928,-0.1466978245051245,-0.8387348043890421,1.148917724209535,-0.5576818641924615,-0.0818946022134017,1.0011474164587086,11.27749060804399,-1.2934414948956516,0.1305381425597988,-0.8136196529219771
1.14,0.3895022651647087,0.1804265143123796,2.0447574571869067,0.015318618421367,0.0542123754193619,0.0110023809163402,-0.1442861203684149,-0.155030712431742,-0.7177654199634759,0.3763509273824862,0.1849000801117254,2.0508979341526183,-0.3778365191538498,-0.1522137109758,-0.8310215550632899,1.2854123199261218,-0.8410403570275532,-0.0267032793163216,0.9717113176980984,11.27749060804399,-1.303961809481376,0.133072778225019,-0.7941364519993293
1.16,0.3865570585473791,0.1774829192384942,2.031300741071702,0.0120287978907223,0.0395302715248416,0.0106885108206178,-0.1649769916601369,-0.1547907897874613,-0.6997176010118769,0.3692300347748781,0.1819385441892695,2.0341618043114664,-0.4068923708517716,-0.1577295974464754,-0.8233083057375375,1.372856043614496,-1.0345435645860976,0.011996132214033,0.9023909475799508,11.248115254109509,-1.310771923694498,0.1353346619553807,-0.7785875169002789
1.18,0.382994300722185,0.1743965600775924,2.017500844632564,0.0089567018013012,0.0271246110420028,0.0104850142523899,-0.190294453259308,-0.1538441885293982,-0.6812578916311004,0.3613827458748219,0.1788391111050467,2.017618505703458,-0.4359482225496933,-0.1632454839171509,-0.8155950564117853,1.5673471107176564,-1.265873079958553,0.0473300629031545,0.9229854690388228,11.248115254109509,-1.3132739742551394,0.1372314743558484,-0.7687563448960807
1.2,0.378891774156797,0.1713361426472958,2.0040614060143955,0.0062921098981898,0.0182320664695776,0.0103889107263078,-0.2187765352523378,-0.1522527468384354,-0.6636610590525008,0.3734795780592196,0.1667043506511225,1.9834379500510089,-0.2357314800282308,-0.1653127750413082,-0.6337653763353565,1.6758655958285211,-1.4241040996514935,0.0795720845481393,0.8798416289299782,11.23289341203963,-1.3129895050136196,0.1388665466122161,-0.7633780372823674
1.22,0.3740933063288216,0.1683252896026827,1.9910957318762432,0.0044751308941407,0.0167194978806179,0.0104242526057851,-0.2589457074141113,-0.149117375164393,-0.6330807297227248,0.3734795780592196,0.1667043506511225,1.9834379500510089,-0.2357314800282308,-0.1653127750413082,-0.6337653763353565,2.529105320866524,-2.008458608088673,0.1567685837021243,1.5290164664888029,12.380032996066802,-1.301428299727071,0.1394860510299356,-0.7657611035621007
1.24,0.3688535151980749,0.1655219904584505,1.979356762945515,0.0036846341222202,0.023322036075189,0.0105670960561574,-0.2896832163226795,-0.1462059082017438,-0.6041662181778497,0.3734795780592196,0.1667043506511225,1.9834379500510089,-0.2357314800282308,-0.1653127750413082,-0.6337653763353565,2.115017772772623,-1.536875445428412,0.1455733481324592,1.445725577243756,12.380032996066802,-1.2833396757834312,0.1397403243614413,-0.7892859844641075
1.26,0.3627863445844269,0.1626326252926467,1.9675742772993916,0.0037117264963246,0.0345860494184834,0.0107976432222918,-0.3146753263653081,-0.1429368362035715,-0.5756981331755981,0.3711222632589373,0.1650512229007094,1.9771002962876556,-0.2448188853820153,-0.1676064923436902,-0.6242668732762077,1.901134043017157,-1.249605502131426,0.1634535999086125,1.4234042501125754,12.096484716087616,-1.265927136201106,0.139638514366141,-0.8150855377843366
1.28,0.3562832979893542,0.1598103618696118,1.956335601648442,0.0047131434338628,0.0478804051102679,0.0111164322314301,-0.3337787601351912,-0.1395681249072892,-0.5496020850349334,0.3664076336583727,0.1617449673998833,1.964424988760948,-0.2629936960895845,-0.1721939269484542,-0.6052698671579101,1.6258022067258866,-0.9551716884941552,0.1684355648141178,1.3048024070332398,11.896770376550194,-1.2502621782322547,0.1390239936033347,-0.8397819697100549
1.3,0.3497983743077199,0.1571892530722445,1.9461237104657332,0.0066018895872067,0.0611561134094703,0.0115114680505451,-0.3474464274191239,-0.1366205208563753,-0.5266650028483223,0.3616930040578081,0.1584387118990571,1.951749681234241,-0.2811685067971536,-0.1767813615532182,-0.5862728610396125,1.3431336845792738,-0.6833833641966353,0.1473802025456938,1.1468541093305529,11.737018230289324,-1.2348659971958909,0.1377134549941615,-0.8652778492582531
1.32,0.3427345243627672,0.1544791643862069,1.9358308999831588,0.0093759379782656,0.0751018999810647,0.0120193225242711,-0.357766163415422,-0.1348362596992584,-0.5039144855007812,0.356069633921865,0.1549030846679927,1.9400242240134489,-0.2993433175047227,-0.1813687961579821,-0.5672758549213149,1.2522645272573756,-0.5159867998149076,0.0892130578558456,1.137525867377054,11.620716897443344,-1.2197158785951134,0.135725667272043,-0.8893103882475989
1.34,0.3355039761522371,0.1517861030775487,1.925982698270511,0.0122680651219158,0.0886314935093964,0.0125748437102486,-0.3643734901530205,-0.134618950528581,-0.4821102127805776,0.3504462637859219,0.1513674574369284,1.9282987667926563,-0.3175181282122918,-0.1859562307627461,-0.5482788488030174,1.1392215530243204,-0.3303663368799225,0.010865458533868,1.0902136360101788,11.51804848512893,-1.205909402437754,0.1337035724585142,-0.9106931598917576
1.36,0.3281766455207937,0.1490854076203493,1.9165607513663476,0.0148856559270318,0.1015475738238037,0.0131433672627035,-0.3676674606758353,-0.1354207942174575,-0.4612242432892254,0.3443685233822896,0.1477171443407449,1.9170482347248217,-0.3356929389198609,-0.1905436653675101,-0.5292818426847198,1.0579661108705944,-0.1646985261407385,-0.0400921844438253,1.044298474567612,11.51804848512893,-1.192521983562838,0.1317739591196169,-0.9314663281834528
1.38,0.321183343536132,0.1464982986621138,1.907988522604191,0.0169803092372891,0.1131713568027536,0.0136767425686702,-0.3680167924411111,-0.1367913958387152,-0.4422048847311918,0.3378364127109681,0.1439521453794423,1.906272627809944,-0.35386774962743,-0.1951310999722741,-0.5102848365664222,0.9535939668505,-0.0174665882637897,-0.0685300810628841,0.9509679279016776,11.489660948813253,-1.1799322517211897,0.1301689787296613,-0.9508877906629104
1.4,0.3138558292224808,0.1437431121939049,1.899347942382646,0.0187470021438104,0.12430155334151,0.0142127341180784,-0.3644731341615928,-0.1386113734299255,-0.4229174124364063,0.3027825039140764,0.139658728870178,1.885878278367632,-0.3289012331313901,-0.1475056166531221,-0.434272026189584,0.9847289220346712,0.1771829139759123,-0.0909988795605137,0.964373614739278,11.463603892731044,-1.16801951878431,0.1289068940603474,-0.969162301726568
1.42,0.3065910808759369,0.1409313750997081,1.890979091258324,0.0194603980793159,0.134541247727412,0.0146741904220881,-0.3620138498519314,-0.1422973699787808,-0.4155384357152823,0.3027825039140764,0.139658728870178,1.885878278367632,-0.3289012331313901,-0.1475056166531221,-0.434272026189584,0.4303601611580979,0.1229642154830679,-0.1842998274427673,0.3689488360561987,11.447560039084236,-1.1646299213639275,0.1290296954032966,-0.9816774097476082
1.44,0.2993948932075382,0.1380511354319521,1.882724892909494,0.0187284678649126,0.1445037230399789,0.0150303128763954,-0.3574402615933415,-0.1454377843014725,-0.4102484895812295,0.3027825039140764,0.139658728870178,1.885878278367632,-0.3289012331313901,-0.1475056166531221,-0.434272026189584,0.383286582658653,0.2286794129294972,-0.1570207161345857,0.2644973067026407,10.6480349867943,-1.1559158034311017,0.129969605282919,-0.9933182684466736
1.46,0.2926661202742505,0.135261774677727,1.874983801759118,0.0169015798406356,0.1535633797256629,0.0152717461255787,-0.3508676671962381,-0.1479134920604163,-0.4048971522528592,0.2994934915827625,0.1381836727036468,1.881535558105736,-0.3210781212694459,-0.1496484608160035,-0.4326854544812624,0.4414887802043763,0.3286297198551724,-0.1237853879471881,0.2675668664185143,10.6480349867943,-1.1474473055210666,0.1320733087527528,-1.0044317183840128
1.48,0.2857403278808859,0.1322883269813738,1.8669491019211668,0.0141020046839505,0.1625966709261971,0.01543685045438,-0.3418307688173327,-0.1489883955474359,-0.3988574891898616,0.2929154669201347,0.1352335603705844,1.872850117581944,-0.3054318975455575,-0.1539341491417662,-0.4295123110646193,0.5461192171394591,0.4518449189452656,-0.0537451743509789,0.3019831531498818,10.691979917363824,-1.140484362680452,0.1351024225058344,-1.0146211226585276
1.5,0.2790160947579577,0.1293155098694172,1.8590384279213836,0.01124208992232,0.1710870857779616,0.0155678260532373,-0.330838128520739,-0.1482090328027272,-0.3925277300757502,0.2863374422575069,0.1322834480375219,1.8641646770581524,-0.2897856738216691,-0.158219837467529,-0.4263391676479761,0.635435672237585,0.5496320148296874,0.0389681372354358,0.3164879557055688,10.73484229917176,-1.134885893222099,0.1382741386753112,-1.024037559040506
1.52,0.2725309255803005,0.1263707403412951,1.851257470569748,0.0087757711006718,0.179037199064049,0.0157014118640516,-0.3180433050387096,-0.1463839082012435,-0.3859251237593886,0.2805417287810735,0.1291190512881714,1.8556378937051927,-0.2741394500977807,-0.1625055257932917,-0.423166024231333,0.7256600407837139,0.6397411741014686,0.0912562300741812,0.3301303158180779,10.769256357414632,-1.130796920409257,0.1410213236983083,-1.0323397142120454
1.54,0.2666219284956107,0.1236135116247673,1.8439856531707195,0.0069161481280028,0.1861079054790637,0.0158450146167717,-0.3044472590359802,-0.1440453426897553,-0.3798919461738967,0.2747460153046401,0.1259546545388208,1.8471111103522333,-0.2584932263738922,-0.1667912141190544,-0.4199928808146898,0.7528621841644394,0.6798023001364728,0.1169282755744113,0.3016588792745966,10.80252418721193,-1.1278236202137375,0.1435146924365909,-1.0404176233419145
1.56,0.2606958982949178,0.1207625862652198,1.8364536010977623,0.0054656978780139,0.1930699923096967,0.0160193587765909,-0.2887109763422765,-0.1411998519097966,-0.3736558077386476,0.269341457421304,0.1226831155813261,1.8386636555846896,-0.2428470026500039,-0.1710769024448172,-0.4168197373980467,0.8582203000666248,0.7868141346851848,0.1422745389979343,0.311806921762453,10.803887772380222,-1.1257710854194996,0.1455548763475196,-1.047882876165867
1.58,0.2550990122929675,0.1179746957883677,1.8290457729116287,0.0046417116935581,0.1995665375143592,0.0162299673530025,-0.2716206605187846,-0.137801899294184,-0.3674712339107801,0.264328055131065,0.1193044344156874,1.8302955294025625,-0.2272007789261155,-0.1753625907705799,-0.4136465939814036,0.9244916580978312,0.8545157911745954,0.169897630780634,0.3092286913933761,10.815311451287016,-1.1247876091434077,0.1469882926094692,-1.0546202620745362
1.6,0.2498578347713571,0.1152593135627701,1.821761848299692,0.0046085141391945,0.2056095730199955,0.0164930977037527,-0.2532252939639283,-0.1339960437900605,-0.3612602973402934,0.2415179792670283,0.1110846008236585,1.8106722112160905,-0.2262555504790735,-0.1274122118007405,-0.3443464589928199,0.9892544918882116,0.9197683277428148,0.1902927752061717,0.3105468285243357,10.828518408004127,-1.1247554750738251,0.1478138783678662,-1.0615144477656395
1.62,0.2452744549621159,0.1126779838048225,1.8149813258319676,0.0030339532986082,0.209799350765525,0.0166281756054208,-0.2304394688463384,-0.1369294682607102,-0.3527615766923194,0.2415179792670283,0.1110846008236585,1.8106722112160905,-0.2262555504790735,-0.1274122118007405,-0.3443464589928199,1.2247724871039258,1.1392912558794932,-0.1466712235324838,0.4249360323986983,10.846681566410552,-1.1221625241108613,0.149835713666405,-1.0675042178861338
1.64,0.2409202143559854,0.1099500983149821,1.808027535868676,-0.0007998270941985,0.2116963867472315,0.0166080263688819,-0.2063704477970408,-0.1352920327688985,-0.3430206311168116,0.2415179792670283,0.1110846008236585,1.8106722112160905,-0.2262555504790735,-0.1274122118007405,-0.3443464589928199,1.300850673565553,1.2034510524648794,0.0818717745905833,0.4870472787753932,11.064908313205706,-1.128412697859513,0.1544504888496141,-1.068869852795295
1.66,0.2370490022094551,0.1072900743534317,1.801275211863924,-0.0048781069897975,0.2112081411979948,0.0165790732148174,-0.1821526072062263,-0.1307537354185471,-0.3326750585537776,0.2392554237622376,0.1098104787056511,1.807228746626162,-0.2171825284711314,-0.1253342743020518,-0.3397215040092279,1.3361613089175546,1.2108920295407248,0.2269148675175705,0.5172786281516961,11.106995305517556,-1.1358129444920928,0.1590584702399144,-1.0686547381646176
1.68,0.2336609553363841,0.1047395641375581,1.7947359066785726,-0.0084621362775847,0.2082113208336221,0.0166142081610939,-0.1580825062876979,-0.1246222637052358,-0.321736430935043,0.2347303127526561,0.1072622344696363,1.8003418174463055,-0.199036484455247,-0.1211783993046744,-0.3304715940420438,1.357035627554252,1.2035050459264216,0.3065735856655669,0.5469313809367327,11.142965079280655,-1.1464329061938354,0.1635176976809043,-1.0664327447869866
1.7,0.2308786247163396,0.1024399916637327,1.7887327234489545,-0.0111871491711927,0.2029638968605513,0.0167378826268248,-0.1364577447002875,-0.1178961739330946,-0.3106513124304297,0.2302052017430746,0.1047139902336215,1.7934548882664492,-0.1808904404393626,-0.117022524307297,-0.3212216840748598,1.2607046140914222,1.081238079370518,0.3363044886070573,0.554255925230665,11.176022415984336,-1.1614678562425895,0.1673608889089421,-1.060420791480769
1.72,0.2283598482887874,0.1001618393142523,1.7826508209491645,-0.0133342248397149,0.1956659872593429,0.0169635294944532,-0.1169565360488096,-0.1103804233436196,-0.2980430518220881,0.2265873929342874,0.1023735397474756,1.787030454584952,-0.1627443964234781,-0.1128666493099196,-0.3119717741076757,1.2204014517357906,0.9750604325738966,0.375787529473752,0.6304130304170791,11.205361651879684,-1.1772773705947612,0.1704955111362621,-1.053859925653534
1.74,0.226195828738058,0.0980399292584113,1.776829312432332,-0.0147123030663473,0.1875438349235543,0.0172757223133583,-0.1007452870594377,-0.1023351221861986,-0.2846933299087861,0.2229695841255001,0.1000330892613296,1.7806060209034549,-0.1445983524075937,-0.1087107743125422,-0.3027218641404916,1.1244404604863525,0.8105624494685922,0.4022650578710499,0.6674860956650985,11.234950876668336,-1.1916410581299934,0.1727559157148634,-1.0477789148801109
1.76,0.2244115862926764,0.0961787358093986,1.7715503412218785,-0.0151658686783737,0.1797402643093442,0.0176460778994724,-0.0880986303772663,-0.094116625175536,-0.271626667516227,0.21980542641711,0.0977965356501181,1.7744128349711372,-0.1264523083917093,-0.1045548993151648,-0.2934719541733075,0.9977716227074472,0.6323328341085726,0.4109248505331273,0.6533331196279579,11.253534253238286,-1.2053806881109652,0.1742326322519216,-1.0419378042676946
1.78,0.2227653564506441,0.094390815360918,1.766264868960982,-0.0145269440740796,0.1719358112982414,0.0181099127276755,-0.0774019047951437,-0.0852162319287864,-0.2575902817564701,0.217094919809117,0.0956638789138411,1.7684508967879993,-0.108306264375825,-0.1003990243177874,-0.2842220442061235,0.9882523252220644,0.5348362791061274,0.4450196623374827,0.7018192879878427,11.258938615936133,-1.217206154591838,0.1746643966757355,-1.039393116737256
1.8,0.2213078429028222,0.0927806793464094,1.761260282414196,-0.0125686214527039,0.1649319076582029,0.0186438875640247,-0.06903329892822,-0.0763882915959915,-0.2435693000219802,0.2188952612108869,0.0901300037644787,1.7533853548731586,-0.1048203189259506,-0.0849332534644028,-0.244389630833516,0.9281083227110376,0.4184302933461885,0.4413970166397454,0.7010490867244964,11.262780395735716,-1.2271933372595656,0.1737979170293742,-1.0385170127833556
1.82,0.2200930163751824,0.0913582115008778,1.7564816842336872,-0.0087098481504577,0.1557160433853176,0.0193061929646425,-0.0534998929328421,-0.0671141716693,-0.2351357163284755,0.2188952612108869,0.0901300037644787,1.7533853548731586,-0.1048203189259506,-0.0849332534644028,-0.244389630833516,0.9980247193171689,0.7766702997688928,0.4637059963345756,0.4216791846752346,11.25240855001084,-1.233695952470704,0.1710171291823477,-1.0375589053610117
1.84,0.2191791289813257,0.0901405347380717,1.7520930291723105,-0.0040858883600773,0.1428940530449783,0.0199776749625777,-0.044240436059002,-0.0617613107432845,-0.2271354899763328,0.2188952612108869,0.0901300037644787,1.7533853548731586,-0.1048203189259506,-0.0849332534644028,-0.244389630833516,0.6678216142378252,0.4629728436920034,0.2676430463007712,0.4000113176071365,10.902188678246604,-1.2551817935061866,0.1675847490337202,-1.0253093968771485
1.86,0.2183352692049142,0.0889426902728103,1.7476457641272585,0.0006906965022605,0.1275048370096305,0.0206007279107932,-0.0412615056289352,-0.0583934114006314,-0.2179545229301876,0.2178470580216274,0.0892806712298346,1.7509414585648235,-0.110304001752112,-0.084876657771526,-0.2417495006489252,0.5111431511617496,0.1489465215033392,0.1683949671326578,0.4590483523072591,10.881043113981832,-1.2747867191991318,0.1640038233013266,-1.0111555649479251
1.88,0.2174817563419592,0.0877943859505461,1.743385741062544,0.0049465065752014,0.1121550649066723,0.0211010204998091,-0.0445995102245656,-0.0565702355806386,-0.2084903443654126,0.2157506516431084,0.0875820061605466,1.7460536659481531,-0.1212713674044348,-0.0847634663857726,-0.2364692402797436,0.509992452534844,-0.1669002297815202,0.0911587909996399,0.4732089282387483,10.89081005522712,-1.2904154728183637,0.1608717562576329,-0.99828160346821
1.9,0.2165041135745342,0.0866704494982199,1.739314555136417,0.0085572524779667,0.0982889991592044,0.021491046186561,-0.0531572476931822,-0.0558346509627639,-0.1991007674657471,0.2136542452645894,0.0858833410912585,1.7411658733314828,-0.1322387330567576,-0.0846502750000191,-0.2311889799105619,0.6362784564688457,-0.4278868734308286,0.0367792308937357,0.4694788449832773,10.89005664952856,-1.3026859313326786,0.1579412131471879,-0.9862400889211148
1.92,0.2153771251956598,0.0856083696414146,1.7356184412923543,0.0113771264939301,0.0873506199854151,0.0217874512772515,-0.0650289136755727,-0.0559012581967922,-0.190438307682079,0.2110094706034542,0.0841903355912581,1.7365420937332714,-0.1432060987090803,-0.0845370836142657,-0.2259087195413803,0.734811369034151,-0.5935832991195221,-0.0033303617014181,0.4331229891834015,10.883877255490006,-1.310260248879535,0.1554088475057927,-0.9765537191393228
1.94,0.2139187373288013,0.0844838047973157,1.7319010641492332,0.0137535283018986,0.0786710179015769,0.0220542122105859,-0.0802662236803162,-0.056492180575495,-0.1817824000731471,0.2083646959423191,0.0824973300912577,1.7319183141350605,-0.1541734643614031,-0.0844238922285122,-0.2206284591721987,0.8767119566492118,-0.7618655002371792,-0.0295461189351375,0.4327953804465947,10.872618059210254,-1.3139654379396466,0.1533216447429735,-0.9699927223075382
1.96,0.2121259034941172,0.0833425593294496,1.7283505477612504,0.0155762754244915,0.073495990859736,0.0223077548608097,-0.0983568381232597,-0.0575383269720425,-0.1737348443616843,0.2054457371398758,0.0808071543759012,1.7274265410460783,-0.1651408300137259,-0.0843107008427588,-0.2153481988030171,0.9913726672338478,-0.9045307221471726,-0.0523073198273753,0.4023777855731408,10.853786388944172,-1.3144848381244971,0.1517146592716123,-0.9672369382839816
1.98,0.2099532930620973,0.0821747757028478,1.7249546556546944,0.0168208621864239,0.0725905698641603,0.0225760496281078,-0.117385753033619,-0.0591073953838348,-0.1662496090861242,0.2022525941961245,0.0791198084451885,1.7230667744663264,-0.1761081956660486,-0.0841975094570053,-0.2100679384338354,1.025414947078827,-0.951445745517966,-0.0784534205896175,0.3742617637780054,10.841045779199703,-1.307171428406203,0.1503270632856977,-0.9690325115497314
2.0,0.2074220524870614,0.0809709509166337,1.7217039379092056,0.0173483914619248,0.0752459955299919,0.0228496786191108,-0.1343006187703261,-0.0611058969674162,-0.1591961823090286,0.2040840054104163,0.079219405933656,1.7166421752003882,-0.1262330138813067,-0.0665289010213018,-0.1554685817094724,0.9217612499588136,-0.8457432868353543,-0.0999250791790678,0.3526713388547806,10.80519323406952,-1.2968463906173215,0.1495190434629992,-0.975507731029484
2.02,0.2046940322755074,0.079802877613827,1.7187595552404968,0.0175468735619561,0.0812208610042175,0.0231458756090705,-0.1512604094654553,-0.0618561742929247,-0.1510892219540832,0.2040840054104163,0.079219405933656,1.7166421752003882,-0.1262330138813067,-0.0665289010213018,-0.1554685817094724,0.940638377226362,-0.8479895347564576,-0.037513866275423,0.4053480177472687,10.7708108111392,-1.2850458520331511,0.1491858391012766,-0.9863913949314712
2.04,0.2015285614025372,0.078554613047587,1.715821699001842,0.0176692084199828,0.0906300054928075,0.0235039247200478,-0.1638177142193781,-0.0629260789588919,-0.1431790019374098,0.2040840054104163,0.079219405933656,1.7166421752003882,-0.1262330138813067,-0.0665289010213018,-0.1554685817094724,0.7439794677767193,-0.6278652376961402,-0.0534952332983604,0.3955110008336732,10.882088423382813,-1.26770244982747,0.1487619991589203,-1.002270532543916
2.06,0.1981606170139611,0.0772842987400398,1.7130328801501398,0.0175522144948748,0.1014614167922177,0.0238665756857569,-0.1719047904747158,-0.0640278479133634,-0.1361570852763224,0.2028216752716032,0.078554116923443,1.7150874893832937,-0.1280024660508443,-0.0680132021487951,-0.1533123762341421,0.5383354223528789,-0.4043538127668888,-0.0550884477235773,0.3510958330543656,10.81813244098339,-1.2516526232653495,0.1487685017877574,-1.0187614617857907
2.08,0.1946760077966417,0.0759935567899097,1.7103753641107575,0.017159176772778,0.1125375052449188,0.0242075997561356,-0.1758349689949959,-0.064960578480439,-0.1299810424488965,0.2002970149939771,0.077223538903017,1.711978117749104,-0.1315413703899194,-0.0709818044037819,-0.1489999652834814,0.3689843984446606,-0.1965089260140037,-0.0466365283537786,0.3088021413712963,10.769672276092024,-1.2376471842835144,0.1491359668844769,-1.0339842965838373
2.1,0.1913310720594963,0.0747531225376644,1.7079581508083042,0.0165656780914965,0.1223746001266446,0.0244958726515351,-0.1759287702515784,-0.0655457103993899,-0.124804701220758,0.197772354716351,0.075892960882591,1.7088687461149146,-0.1350802747289945,-0.0739504066587687,-0.1446875543328207,0.2605076128851055,-0.0046900628291227,-0.0292565959475459,0.2588170614069268,10.735655437736568,-1.225024501238043,0.149864231061212,-1.0486733818246068
2.12,0.1878393320898128,0.0734395955676068,1.705514295163725,0.0157940523499288,0.1313054535285977,0.0247552933848565,-0.173112170742831,-0.0657556528166441,-0.1198965955207002,0.1950707492217711,0.0744139527494156,1.705974995028258,-0.1386191790680696,-0.0769190089137554,-0.14037514338216,0.2831378205670238,0.1408299754373662,-0.010497120862711,0.2454052850028878,10.712087542016889,-1.2153903162990247,0.1508609344784727,-1.0610594238228022
2.14,0.1844287294835543,0.0721268065250793,1.7031642299571133,0.0149955848419696,0.1383574220976905,0.0249732748166331,-0.1680605112908168,-0.065503172138511,-0.1153833500888485,0.1923691437271912,0.0729349446162402,1.7030812439416017,-0.1421580834071447,-0.0798876111687422,-0.1360627324314993,0.3389409758353411,0.2525829726007109,0.0126240339066559,0.2256622715925846,10.701460570465317,-1.2088082381219416,0.1519732495743775,-1.0709479448248695
2.16,0.1811344023668031,0.0708232755171346,1.7009016853871943,0.0142947335824013,0.1433733113995775,0.0251594912295282,-0.1616698383838846,-0.06486080551474,-0.1111123517042091,0.1895790656241344,0.0713817214266902,1.7002953031287118,-0.1456969877462197,-0.082856213423729,-0.1317503214808386,0.3856642396059178,0.3195336453466091,0.0321183311885485,0.2135499192319701,10.698863611833076,-1.2053140738200212,0.1530658741496532,-1.078413653804781
2.18,0.177976119675529,0.0695366725359998,1.6987232837910893,0.0138155452250464,0.1463939895987069,0.0253266981973293,-0.1546405883246878,-0.0638615195734081,-0.1069456116569919,0.1867005149126008,0.0697542831807654,1.6976171725895886,-0.1492358920852948,-0.0858248156787157,-0.1274379105301779,0.4116146602355952,0.3514625029598414,0.0499642970665965,0.2083370023608595,10.7005827614621,-1.20441266788908,0.153936296189006,-1.0833902964032127
2.2,0.1751061240126155,0.0683353442458345,1.696730916499143,0.0136626585820677,0.1476337123481707,0.0254799152830071,-0.1479703799813874,-0.0626821507431925,-0.1029834853372772,0.1702440902592946,0.0663435965573294,1.6933760032082397,-0.1310380467885951,-0.0687702293602404,-0.115704651111154,0.3923679241289177,0.3335104171650185,0.0589684415107823,0.1981063159857375,10.711452303175063,-1.2055307354745315,0.1545551292267455,-1.0867194024688056
2.22,0.1721624977871345,0.0670865922029346,1.694673509517864,0.0136169909194073,0.1490238450878712,0.0256464369528433,-0.1466816189133824,-0.0622101365144199,-0.1032025278650305,0.1702440902592946,0.0663435965573294,1.6933760032082397,-0.1310380467885951,-0.0687702293602404,-0.115704651111154,0.0694924843334488,0.0644380534002522,0.0236007114386292,-0.0109521263876664,10.711452303175063,-1.211996475824342,0.1554398848543483,-1.0887233083810723
2.24,0.169250140378505,0.0658512729229873,1.6926005397881527,0.0136004918660155,0.1518920780241815,0.0258311309008249,-0.1443798464377987,-0.0613447614910397,-0.1040787132873543,0.1702440902592946,0.0663435965573294,1.6933760032082397,-0.1310380467885951,-0.0687702293602404,-0.115704651111154,0.1305252021137822,0.1150886237791845,0.0432687511690066,-0.0438092711161873,10.42824494886372,-1.2087637275511296,0.155651734637287,-1.092006043212844
2.26,0.1664025316917476,0.0646356636684197,1.690509680280373,0.0137823178901457,0.1555617920005316,0.0260367142508535,-0.1403271224782303,-0.0602882222858274,-0.1049802773554733,0.1689337097914087,0.0656558942637269,1.6922189566971282,-0.1263175384813765,-0.0697519713176069,-0.1174564590019865,0.2142058843352253,0.202636197978423,0.0528269602606181,-0.0450782034059515,10.419983363173742,-1.205483818945612,0.1557125603143972,-1.0959092438696862
2.28,0.1637885619165802,0.0635010711490962,1.6885065934783028,0.01419612616331,0.1592540823810414,0.0262485650638417,-0.1349379198908675,-0.0592288895080919,-0.1058393005278715,0.1663129488556368,0.0642804896765221,1.689904863674905,-0.1168765218669394,-0.0717154552323398,-0.1209600747836513,0.2779550830275438,0.2694601293681389,0.0529666388867717,-0.0429511586199131,10.424449446253677,-1.2025507956712935,0.1555786821258029,-1.1002624163800008
2.3000000000000003,0.1611617743111059,0.062327784041401,1.686380427921614,0.0149059814380773,0.1629499465869088,0.0264852279220596,-0.1279406648267543,-0.0581880897450313,-0.1067389348581803,0.1636921879198649,0.0629050850893173,1.687590770652682,-0.1074355052525023,-0.0736789391470728,-0.1244636905653162,0.3565605997138315,0.3498627532056597,0.0520399881530308,-0.0449817165154381,10.431274703646524,-1.2005406627933,0.1552104529466794,-1.1044147489290166
2.32,0.158687862344129,0.0611734315521756,1.6842369324052553,0.0158837234513489,0.1661467872745923,0.0267304657215223,-0.1197915661372057,-0.0573408054567447,-0.1075743876943853,0.1615434778148148,0.0614315063063759,1.6851014968413758,-0.0979944886380652,-0.0756424230618057,-0.127967306346981,0.411775671812646,0.4074549344774275,0.0423642144143334,-0.0417726418102511,10.439481837111089,-1.1995619583400008,0.154634452258226,-1.1078540177111262
2.34,0.1564964850975772,0.0600894898664249,1.6821843213653704,0.0170069089169268,0.1685543457279025,0.0269641596163517,-0.1113126235174915,-0.0568321452168625,-0.1084514699616103,0.1593947677097648,0.0599579275234344,1.6826122230300693,-0.0885534720236281,-0.0776059069765386,-0.1314709221286459,0.4269674357943564,0.4239471309857093,0.0254330119941064,-0.0438541133612503,10.450852851934542,-1.1997506802400382,0.153847622369448,-1.1107143340439791
2.36,0.1543692041958638,0.058954329960137,1.6800051356361072,0.0182900883573251,0.1703386657699871,0.0272004779240542,-0.1018873589680241,-0.0567403812100112,-0.1094207754771673,0.1574820830200756,0.0584352616426246,1.6800353588242214,-0.079112455409191,-0.0795693908912716,-0.1349745379103107,0.4737710038691939,0.4712632274733702,0.0045882003425673,-0.0484652757778474,10.450852851934542,-1.2009782506631257,0.1529554449010833,-1.1126113742170909
2.38,0.1524336987815379,0.0578156371292933,1.6778067552914433,0.0195310077274167,0.1713178727349563,0.0274138061805556,-0.0921881159176649,-0.057152390382393,-0.1103622893975828,0.1558054237457475,0.0568635086639465,1.6773709042238318,-0.0696714387947539,-0.0815328748060045,-0.1384781536919755,0.4876769314064511,0.484962152517962,-0.0206004586190921,-0.0470756960207749,10.452767044078428,-1.2030061562502286,0.1521367618221887,-1.113481606610431
2.4,0.1507753705011237,0.0567212085455592,1.6757015693373012,0.0205162024600975,0.1715147098409138,0.0275826589641171,-0.0829501599016355,-0.0580163177231476,-0.1111810731520761,0.1478242929856547,0.0549580176101736,1.6722886408215645,-0.0909749145960034,-0.0526492459654349,-0.111096890974861,0.465716138438478,0.4618978008014696,-0.0431963670377275,-0.0409391877246666,10.457230352130864,-1.2061145166089553,0.1514766220194743,-1.1135011311440914
2.42,0.1492864182084164,0.055506003093675,1.6735022680381366,0.0198427841440709,0.1691220511508296,0.0275822622864678,-0.0662829227029225,-0.0630990028701678,-0.1084930800302994,0.1478242929856547,0.0549580176101736,1.6722886408215645,-0.0909749145960034,-0.0526492459654349,-0.111096890974861,0.8815551474023348,0.8333618599356496,-0.2541342573510099,0.134399656088837,10.4624305344214,-1.2017596909794122,0.1516301249678529,-1.11027682814575
2.44,0.1481726273452734,0.0542691300714451,1.6714704605835973,0.0167493024370442,0.1625319938251453,0.027335916229156,-0.0525723579141376,-0.0663517584744206,-0.105443196724986,0.1478242929856547,0.0549580176101736,1.6722886408215645,-0.0909749145960034,-0.0526492459654349,-0.111096890974861,0.72087064377823,0.685528239439246,-0.1626377802126398,0.1524941652656666,10.702107390015954,-1.21780318865583,0.1556691028161062,-1.1031338138212363
2.46,0.1472251815682632,0.0529392930690072,1.6693974763691035,0.0124498488842555,0.152869954115254,0.0269972468503984,-0.0434368352257159,-0.0662544121830106,-0.1019722080506984,0.1469145438396946,0.0544315251505193,1.6711776719118157,-0.0907322743316711,-0.0517486170820433,-0.1112438112903167,0.488658913425693,0.456776134421084,0.0048673145704961,0.1735494337143817,10.702107390015954,-1.2350147393615298,0.1606838638176405,-1.0938703040033757
2.48,0.1464055568814023,0.0516360295596952,1.6673940765098514,0.0083437750256627,0.1421849237460442,0.0267121304847716,-0.0393810396263868,-0.0640852077290874,-0.0985259496226118,0.1450950455477745,0.0533785402312106,1.6689557340923185,-0.0902469938030065,-0.0499473593152601,-0.111537651921228,0.2873657210751464,0.2027897799664543,0.1084602226961599,0.1723129214043314,10.67762249954194,-1.250575365792398,0.1651320124508054,-1.0839928002045245
2.5,0.1456189522202152,0.0503889866659738,1.6654574743873825,0.0048780797418695,0.13186673092598,0.026523791919776,-0.0397403264498324,-0.0608037482136119,-0.095309610063425,0.1432755472558545,0.0523255553119019,1.6667337962728213,-0.0897617132743419,-0.0481461015484768,-0.1118314925521392,0.2304446990776567,-0.0179643411722774,0.1640729757737782,0.1608169779593403,10.650754514865184,-1.2643262983853882,0.1690171892532642,-1.073614727390754
2.52,0.1448285694070409,0.0492721409478286,1.663673540191804,0.0022951476069015,0.1233468095389974,0.0264351893412155,-0.0434585824158355,-0.0570711650742871,-0.0926263007780324,0.1414803129903676,0.0513626332809323,1.6644971664217785,-0.0892764327456774,-0.0463448437816936,-0.1121253331830505,0.2956254092672175,-0.1859127983001557,0.186629156966241,0.134165464269631,10.62339294144931,-1.2745601411960052,0.1719836159355916,-1.0645209613029745
2.54,0.143893346370724,0.0481754325100401,1.6618485943473174,0.0002409599333342,0.1163235418956182,0.0264162852407616,-0.049994168843354,-0.0528892234397943,-0.0900184168897593,0.1396850787248808,0.0503997112499628,1.6622605365707357,-0.0887911522170128,-0.0445435860149104,-0.1124191738139618,0.4092785853198942,-0.3267793213759248,0.2090970817246358,0.1303941944136508,10.595328508040438,-1.2818558400094513,0.1742088450579887,-1.0575919193195666
2.56,0.142800084266815,0.0471659882907993,1.660073025806074,-0.0011700501622108,0.1119718477406105,0.0264560592594309,-0.0591153812932616,-0.0483227783242675,-0.0876828958397407,0.1379019764726106,0.0494818206631628,1.66001656070392,-0.0883058716883482,-0.0427423282481271,-0.1127130144448731,0.5232198298147458,-0.456060622495379,0.2283222557763437,0.1167760525009338,10.583144406426982,-1.2862002498045442,0.1758013451380783,-1.0539409011356358
2.58,0.141506048635314,0.0462531479569539,1.658340563465358,-0.001800444419721,0.1110286331870288,0.0265505881882999,-0.0693658613516041,-0.0432814698283373,-0.0856893652922737,0.1361310062335569,0.0486089615205325,1.6577652388213318,-0.0878205911596836,-0.0409410704813439,-0.1130068550757844,0.57978723860848,-0.5125240029171249,0.2520654247965065,0.0996765273733504,10.576218657025493,-1.2834442513532165,0.1763264061024958,-1.0542591372925985
