t,x,y,z,roll,pitch,yaw,v_x,v_y,v_z,ref_x,ref_y,ref_z,ref_v_x,ref_v_y,ref_v_z,a_com,a_x,a_y,a_z,thrust,wind_x,wind_y,wind_z
0.0,-0.466119949685823,0.7533094021671934,2.734742655266461,0.017092380038347,0.1366041258021012,0.0261064477461977,0.0067173148770597,-0.007585823242865,0.0252803036175796,-0.465922012820491,0.7531009289368226,2.735505478893566,-0.0068239066876548,-0.107161841024888,-0.0746114825399597,1.3617642824903398,0.3358657438529867,-0.3792911621432528,1.264015180878984,10.559173275190004,-1.2848337296766776,0.1588047229801965,-1.1801409633618134
0.02,-0.4660356602564975,0.753441842957987,2.735010136157128,0.0235311366350599,0.1366843127157811,0.0265520046819493,0.0023246144796861,0.0160426165904079,0.0029131668488989,-0.465922012820491,0.7531009289368226,2.735505478893566,-0.0068239066876548,-0.107161841024888,-0.0746114825399597,1.6415600757850402,-0.2196350198686778,1.181421991663649,-1.1183568384340343,10.558218892358129,-1.306340593868332,0.153828020561717,-1.1951266598778023
0.04,-0.466042055893835,0.7538039698979041,2.734776358732135,0.0380256644237116,0.1370808379994828,0.0275477590774097,-0.0026685739389739,0.0180788163763743,-0.025194776486679,-0.465922012820491,0.7531009289368226,2.735505478893566,-0.0068239066876548,-0.107161841024888,-0.0746114825399597,1.4310263089027004,-0.2496594209330071,0.1018099892983214,-1.4053971667788996,9.210882295046758,-1.3072037071003415,0.1381428174233007,-1.176574046238086
0.06,-0.4661457358406367,0.7541170499989757,2.733978034158204,0.0532403171921107,0.1379039667716721,0.0285896183056595,-0.0073572515088376,0.0127691440632514,-0.0531750841890335,-0.4659902518873676,0.7520293105265737,2.734759364068166,-0.0095148502044457,-0.1271618413229112,-0.0946114828379829,1.4431510112816734,-0.234433878493184,-0.2654836156561467,-1.399015385117726,9.007797399127412,-1.3040630428571591,0.1227469685256314,-1.1576572536900436
0.08,-0.4663376418453048,0.7542841927149638,2.732630130977728,0.067927538565198,0.1391598007539639,0.0296020142438775,-0.0114835384447254,0.0038934840082561,-0.0802031135787259,-0.4661267300211207,0.749886073706076,2.733267134417367,-0.0148967372380274,-0.1671618419189577,-0.1346114834340293,1.4372873390341898,-0.206314346794388,-0.4437830027497615,-1.3514014694846206,9.007797399127412,-1.299455432280218,0.1075233384290733,-1.1395968970336992
0.1,-0.4665896506763831,0.7542514294754099,2.7308565618706133,0.081231012132294,0.1406821305316952,0.0305301739469798,-0.0147420098529286,-0.0071577079013684,-0.105130588923786,-0.4662632081548738,0.7477428368855782,2.731774904766568,-0.0202786242716092,-0.2071618425150041,-0.1746114840300758,1.3730672831474882,-0.1629235704101637,-0.5525595954812325,-1.2463737672530042,9.046401619985772,-1.2943088172858697,0.0934472035320464,-1.1233491320601867
0.12,-0.4669141235503915,0.7539639681226723,2.728481497970016,0.0945519097188198,0.1425202724961316,0.0314700071055336,-0.0174393983382329,-0.0212939992696664,-0.131046486591195,-0.466668780640306,0.7435996000352781,2.728282675085967,-0.0256605113051909,-0.2471618431110506,-0.2146114846261222,1.4821811547493795,-0.1348694242652156,-0.7068145684148979,-1.2957948833704491,9.080471897771533,-1.2889160680714198,0.0805311763889096,-1.1070628817885346
0.14,-0.4672855511210695,0.7533687060541849,2.7255850097100294,0.1072006059479176,0.144485399442646,0.0323665463773047,-0.0194882114315359,-0.0377905674800911,-0.1573234275241085,-0.4670743531257382,0.739456363184978,2.724790445405365,-0.0310423983387726,-0.2871618437070971,-0.2546114852221687,1.554680049563507,-0.1024406546651486,-0.8248284105212378,-1.3138470466456789,9.091634616943338,-1.2840721598583325,0.0686931135323153,-1.0916712906902766
0.16,-0.4676700859260771,0.752476332427607,2.7223442168622887,0.1186227640938939,0.1463731638196708,0.0331702516473845,-0.0208261204613809,-0.0555392149730291,-0.1824983620447176,-0.4676144727870099,0.7343131263197767,2.7202982157098625,-0.0364242853723544,-0.3271618443031435,-0.2946114858182151,1.5415753440212283,-0.0668954514922503,-0.8874323746468997,-1.258746726030452,9.064927546671242,-1.2802296137926947,0.0582211189168498,-1.0795361386184832
0.18,-0.4680964008104858,0.7511512463306211,2.7184126491671243,0.1300496783788335,0.1482960126193127,0.033955559519007,-0.0216785084692468,-0.0762760960886008,-0.2093533312747806,-0.4682891396241212,0.7281698894396744,2.7148059859994587,-0.0418061724059361,-0.3671618448991899,-0.3346114864142616,1.6970077902479823,-0.0426194003932916,-1.036844055778582,-1.3427484615031502,9.054377708916036,-1.276925549832676,0.0480067197285997,-1.0676681255755422
0.2,-0.4685335009593871,0.7493799349178234,2.7139420619754766,0.1405688568333211,0.1500890860160709,0.0346456722112601,-0.0219422957955189,-0.0998720253138492,-0.2363426597936518,-0.4691803262339482,0.7473374415261911,2.707944982603385,-0.0136312118036379,-0.1762760975787169,-0.3093533327648967,1.792527066501359,-0.0131893663136066,-1.1797964612624194,-1.34946642594356,9.03599194590879,-1.2733227848339863,0.0389439950258805,-1.0547869502880889
0.22,-0.4689742683281255,0.7469482762005155,2.709083277088493,0.1453147625385015,0.1528247328230045,0.0350498388275077,-0.0217887506553899,-0.140112915331111,-0.2470284952834139,-0.4691803262339482,0.7473374415261911,2.707944982603385,-0.0136312118036379,-0.1762760975787169,-0.3093533327648967,2.081790026398964,0.00767725700645,-2.0120445008630914,-0.5342917744881048,9.038854437565533,-1.2580270097311057,0.0353017877347385,-1.0369571447263286
0.24,-0.4693751161540562,0.7439585550439022,2.7042878489734155,0.1436732491873805,0.1569988063378896,0.03521295015112,-0.0201602079172432,-0.1719125226710518,-0.2572263900726309,-0.4691803262339482,0.7473374415261911,2.707944982603385,-0.0136312118036379,-0.1762760975787169,-0.3093533327648967,1.6717238382552368,0.081427136907335,-1.5899803669970416,-0.5098947394608505,10.135661765445548,-1.250688125454328,0.0368809230371041,-1.0357332211214223
0.26,-0.4697444057720005,0.740220181715238,2.699005008438412,0.1389484303654008,0.1621820822066929,0.0352571972948039,-0.0166749007529306,-0.1995652648280848,-0.2705847400679749,-0.4693166383519846,0.7455746805504039,2.7048514492757363,-0.0120217524705161,-0.1962760978767401,-0.32935333306292,1.5453697206745225,0.1742653582156285,-1.3826371078516462,-0.6679174997671983,9.950282164908458,-1.2439451229791705,0.0413941078495542,-1.036313892365499
0.28,-0.4700272876390204,0.7359777888142576,2.6934245637934184,0.1335102309671724,0.1674117763186098,0.0352194024365286,-0.0116732005043174,-0.2231182248043336,-0.2867530746791572,-0.4695892625880573,0.7420491585988296,2.6986643826204384,-0.0088028338042725,-0.2362760984727866,-0.3693533336589664,1.4501499690712294,0.250085012430659,-1.1776479988124435,-0.8084167305591167,9.748993314861764,-1.238850032314646,0.0464026438802976,-1.0367721464409847
0.3,-0.470191829078151,0.7315367693340731,2.687801198673145,0.1286026420158343,0.1719595807987243,0.0351111023329518,-0.0058529408709818,-0.2431995675874792,-0.3043627445227627,-0.4698618868241301,0.7385236366472553,2.6924773159651405,-0.005583915138029,-0.276276099068833,-0.4093533342550128,1.366781092727014,0.2910129816667829,-1.0040671391572802,-0.8804834921802757,9.5832838096876,-1.2350779228871056,0.051587430551377,-1.0354652374089848
0.32,-0.4702382801781485,0.7264680151778334,2.681499568536765,0.1240989201418112,0.1760509508904713,0.0349235475434589,0.0009293323038951,-0.2626677060038166,-0.324969996622331,-0.4699735651268907,0.7329981146658786,2.68429024928004,-0.0023649964717854,-0.3162760996648794,-0.4493533348510592,1.4574519562506074,0.3391136587438504,-0.9734069208168702,-1.0303626049784131,9.4455034560915,-1.232824286544097,0.0562408966201274,-1.0320037061606135
0.34,-0.4701423880250723,0.7210204937532686,2.6747739757974456,0.1203808895609301,0.179316505217013,0.0346639735880791,0.0083273740720945,-0.2811885964411869,-0.3465922880160766,-0.4700852434296512,0.7274725926845019,2.67610318259494,0.000853922194458,-0.356276100260926,-0.4893533354471058,1.470780311359536,0.3699020884099678,-0.9260445218685104,-1.081114569687283,9.268209937551546,-1.2305011770447192,0.0599278650804955,-1.0283602460169947
0.36,-0.4698926081225627,0.7152007117669473,2.667607725540235,0.1171126609188635,0.1816844767078787,0.0343090096234286,0.0162282871612245,-0.2997958895138598,-0.3689180724597032,-0.4701164487657557,0.7209470706882242,2.6669161158949386,0.0040728408607016,-0.3962761008569724,-0.5293533360431522,1.50590208360106,0.3950456544565011,-0.9303646536336474,-1.116289222181327,9.268209937551546,-1.228987122371102,0.062963250378068,-1.0237694127804775
0.38,-0.4695071350646056,0.7093303427897861,2.660381064578176,0.1141110928807654,0.1831161617755109,0.0338698507332554,0.0238912543384347,-0.3171089583052017,-0.3906322888229968,-0.4700671811352041,0.7134215486770451,2.656729049180036,0.0072917595269451,-0.4362761014530188,-0.5693533366391986,1.4404605246280315,0.3831483588605106,-0.8656534395670934,-1.0857108181646813,9.233274057934068,-1.2284254100318504,0.0660060055590742,-1.017741004821951
0.4,-0.4689459929621422,0.7028029831745061,2.6523216974873374,0.1110122224405419,0.1838597140355069,0.033314642796631,0.0317617585594125,-0.3346287203927109,-0.4141701869387992,-0.4683125723476838,0.6934748948745261,2.6408494501370257,0.0441842479733739,-0.4171089597953178,-0.4906322903131129,1.51897954891207,0.3935252110488861,-0.8759881043754608,-1.1768949057901184,9.19821009827774,-1.228628156135395,0.0688854815807914,-1.0111948632949863
0.42,-0.4682097831717525,0.6959136909927759,2.644016821959775,0.1082078066887014,0.1847018924668116,0.0327833545940991,0.0417530435119572,-0.3535664219911511,-0.4139754315113755,-0.4683125723476838,0.6934748948745261,2.6408494501370257,0.0441842479733739,-0.4171089597953178,-0.4906322903131129,1.070630943078687,0.4995642476272374,-0.9468850799220108,0.0097377713711849,9.14812680047362,-1.2230488553989445,0.0715212981981545,-0.9969503805542036
0.44,-0.467268452257932,0.6886593430847501,2.63571969616452,0.1061106824539359,0.186311052513659,0.0323775729000393,0.0519304101844292,-0.3710441524950849,-0.416158381027503,-0.4683125723476838,0.6934748948745261,2.6408494501370257,0.0441842479733739,-0.4171089597953178,-0.4906322903131129,1.0171223187798528,0.5088683336236007,-0.8738865251966876,-0.1091474758063759,10.585815100012953,-1.2233294383762865,0.0728641346197568,-0.999667643689052
0.46,-0.466183922245712,0.6814477085875777,2.627742597027797,0.1047402990252134,0.1880992772557581,0.0320556180783985,0.0617684756231893,-0.3872415621154976,-0.4234042000954946,-0.4678707298679501,0.6893038052765729,2.6359431272338947,0.0482428467003618,-0.437108960093341,-0.5106322906111361,1.0144524433836657,0.4919032719380062,-0.8098704810206359,-0.3622909533995799,10.260364247030338,-1.2228889199636126,0.0737066751325629,-1.0020758131234746
0.48,-0.4648393131112997,0.6735315216261288,2.619157336938636,0.1038465348554207,0.1898542237589662,0.0317339090349683,0.0721732863028671,-0.40352759170307,-0.4349068009426519,-0.4669870449084826,0.6809616260806666,2.6261304814276323,0.0563600441543374,-0.4771089606893874,-0.5506322912071826,1.1245050814205395,0.5202405339838897,-0.8143014793786235,-0.5751300423578631,9.97642386507141,-1.2226382062827352,0.0741193271034747,-1.0031106026601986
0.5,-0.4632870069315593,0.6652958506584385,2.610304712129808,0.1035987290414946,0.1912385425465011,0.0314113855210644,0.0825171390166025,-0.4192772138378964,-0.4497547058273312,-0.4661033599490151,0.6726194468847602,2.61631783562137,0.0644772416083131,-0.5171089612854339,-0.5906322918032291,1.1994854790885834,0.5171926356867689,-0.7874811067413168,-0.7423952442339676,9.587413491593908,-1.222837727000939,0.0740359857127466,-1.0025861788991473
0.52,-0.4616223433394724,0.6571834121405988,2.6015963414129075,0.104002269352023,0.1921123586742812,0.0310972143581924,0.0921583312097164,-0.4339349183321567,-0.4661577553178072,-0.4648138151168489,0.6622772676590515,2.6045051897853053,0.0725944390622888,-0.5571089618814804,-0.6306322923992755,1.200896457373224,0.482059609655696,-0.7328852247130146,-0.8201524745237998,9.587413491593908,-1.2236515966309554,0.0734054979804053,-1.0004514840637442
0.54,-0.4596742930522928,0.6483448959542005,2.5920817230868045,0.1051921722602463,0.1925758018910471,0.030765022676367,0.1021012380852087,-0.4492184526026029,-0.4844761843282362,-0.4635242702846826,0.6519350884333428,2.5926925439492408,0.0807116365162645,-0.5971089624775269,-0.670632292995322,1.2922970424216922,0.497145343774611,-0.7641767135223132,-0.915921450521448,9.45641805199648,-1.2246443415069044,0.0721099333539052,-0.996575451021926
0.56,-0.4575270389205391,0.6391858555675874,2.582192098265095,0.1068159424528656,0.1925610264096971,0.0304037970648859,0.1120585542422948,-0.4658659022209066,-0.5035367282990157,-0.4620317955161669,0.640592909192733,2.579879898098275,0.0888288339702402,-0.6371089630735732,-0.7106322935913684,1.359770256613363,0.4978658078543072,-0.8323724809151833,-0.9530271985389775,9.396143745603696,-1.225581003317928,0.0705196705667001,-0.9915962519138904
0.58,-0.4551818770055107,0.6296809053972036,2.571914672503022,0.1082222463557776,0.1920396740555332,0.0299632005618791,0.1218942320757988,-0.4836824780730999,-0.5232164373843123,-0.4603363908113019,0.628250729937222,2.566067252232408,0.0969460314242158,-0.6771089636696197,-0.7506322941874148,1.4155051070407203,0.4917838916751987,-0.8908287926096659,-0.9839854542648296,9.329475183617433,-1.226882858935722,0.0690096909310119,-0.985539016762242
0.6,-0.452773539429249,0.6203112639835059,2.561780256928708,0.1088555038988517,0.1910421218512356,0.0294323625448907,0.1310717943425699,-0.5015526488890655,-0.5425416174024124,-0.4490871654017208,0.6054967814935486,2.545753850633807,0.1414253181630256,-0.5613038337259091,-0.6232164388744285,1.393765795322352,0.4588781133385545,-0.8935085407982768,-0.9662590009050008,9.329475183617433,-1.228483458265099,0.0681347185568295,-0.9786343284423804
0.62,-0.450015820841231,0.6099475647430384,2.5509628578095667,0.1050982470165553,0.1899340233804062,0.0285538906118267,0.1443611976759038,-0.53252179081342,-0.5366498855962855,-0.4490871654017208,0.6054967814935486,2.545753850633807,0.1414253181630256,-0.5613038337259091,-0.6232164388744285,1.7105616739554927,0.6644701666666974,-1.5484570962177258,0.2945865903063449,10.99166302341473,-1.2239420236425227,0.0711906248902112,-0.963396409371412
0.64,-0.4469951170194457,0.5990527230959474,2.540278669347237,0.0967154364968447,0.1892912664120144,0.0274143901845856,0.1569874597746783,-0.5544863603047897,-0.532406719064665,-0.4490871654017208,0.6054967814935486,2.545753850633807,0.1414253181630256,-0.5613038337259091,-0.6232164388744285,1.2843960348576515,0.6313131049387257,-1.0982284745684856,0.2121583265810245,10.99166302341473,-1.225867092752436,0.0776924059229424,-0.9646537320511606
0.66,-0.4437321135029224,0.5877867463028899,2.5296088951944102,0.0873126865980425,0.1887538578136667,0.0262356884303993,0.1686478798368264,-0.5706416720731221,-0.5347097093848137,-0.4476729122200905,0.5998837431562895,2.5395216862450627,0.145331535380471,-0.576828104856471,-0.6432164391724516,1.0028250829188283,0.5830210031074007,-0.8077655884166202,-0.1151495160074345,10.606991313755316,-1.2276010043884096,0.0847780967198571,-0.965511851630346
0.68,-0.4404258098163032,0.5768236750768367,2.519378403302441,0.0786491803120214,0.1880915578005814,0.0251444727132993,0.1787501107879948,-0.5824716967234388,-0.5420352544014411,-0.44484440585683,0.5886576664817713,2.527057357467574,0.1531439698153618,-0.6078766471175946,-0.6832164397684981,0.8597502009428089,0.5051115475584206,-0.5915012325158342,-0.3662772508313705,10.216972027202246,-1.2297870749249609,0.0921633067554077,-0.9639867401903084
0.7000000000000001,-0.4367493029391773,0.565069403371897,2.5084153100666837,0.0703477162722684,0.1871642015500504,0.0240610742942798,0.1882878114410513,-0.592292167450243,-0.5540734600272376,-0.4420158994935695,0.5774315898072531,2.514593028690085,0.1609564042502525,-0.6389251893787182,-0.7232164403645446,0.9114929699842632,0.4768850326528281,-0.4910235363402127,-0.6019102812898247,9.899792421810162,-1.2325302552635478,0.0989107726720021,-0.960728380242208
0.72,-0.4328932148465029,0.553140823285401,2.497167731174697,0.0631069897139461,0.1859910000616881,0.0230621886485109,0.1968038645149091,-0.6001760238847528,-0.5700495778594199,-0.4387967714085645,0.5646530860196787,2.5001286998827945,0.1687688386851432,-0.6699737316398419,-0.763216440960591,0.9873128850882296,0.4258026536928888,-0.3941928217254864,-0.7988058916091167,9.640785681861416,-1.235078396119305,0.1044643647068045,-0.9564092125328152
0.74,-0.4290790395644716,0.5416769613457738,2.4861685898298798,0.0572352996075757,0.1846562945979897,0.0221951607610674,0.2042239668176149,-0.606292914196402,-0.5869390663690585,-0.4355776433235594,0.5518745822321043,2.485664371075504,0.176581273120034,-0.7010222739009656,-0.8032164415566375,0.9717626862878884,0.3710051151352922,-0.3058445155824596,-0.8444744254819281,9.433583483843904,-1.2379550038022316,0.1094132539922131,-0.9502830642555736
0.76,-0.4249175983851719,0.5294885894687522,2.474229562469463,0.0518883880835262,0.183023743370239,0.0213538409671437,0.2114713912985281,-0.6122071182394394,-0.6061217739483001,-0.4321632043776821,0.5383198648880019,2.470200042253312,0.1843937075549248,-0.7320708161620892,-0.8432164421526839,1.067097981841307,0.36237122404566,-0.295710202151872,-0.9591353789620838,9.33210451915329,-1.2410699629609103,0.1136018522594449,-0.9433810823605966
0.78,-0.4206174113597452,0.5171893481896227,2.461893512021257,0.04714105641464,0.1811314882811482,0.0205674556943826,0.2181216884313807,-0.6173890737513704,-0.6265557260004646,-0.4285534545709325,0.5239889339873713,2.4537357134162185,0.1922061419898155,-0.7631193584232129,-0.8832164427487303,1.10524376423599,0.3325148566426295,-0.2590977755965507,-1.0216976026082236,9.245911030761818,-1.2444395225223954,0.1172580288113138,-0.935685377931082
0.8,-0.4161913648388526,0.5047945555129961,2.449136370940879,0.0428761196628223,0.1789770870154201,0.0198290441141983,0.2240785533014152,-0.6217992177100916,-0.6481656986491581,-0.4097113269381762,0.4863198945020541,2.4305657257212334,0.2391713853834853,-0.6533277762750788,-0.7265557274905807,1.1422833784724522,0.2978432435017247,-0.2205071979360595,-1.0804986324346733,9.170418050079206,-1.2479069490915482,0.1203311833228701,-0.9278471492997667
0.8200000000000001,-0.4118550764217483,0.492832737794864,2.43690558717789,0.0359938722548267,0.1776070307233829,0.0189845384731622,0.2320718578307578,-0.6348086350710838,-0.6380973822327614,-0.4097113269381762,0.4863198945020541,2.4305657257212334,0.2391713853834853,-0.6533277762750788,-0.7265557274905807,0.914479158909562,0.3996652264671288,-0.6504708680496074,0.5034158208198358,9.097163475538764,-1.246685657855276,0.1255657889275863,-0.9107413396417966
0.84,-0.4071332016349375,0.4800701101900184,2.424208738875968,0.0260408994835329,0.1777607849850351,0.0179951629755517,0.2397854986449788,-0.6401539717254496,-0.6325665365238475,-0.4097113269381762,0.4863198945020541,2.4305657257212334,0.2391713853834853,-0.6533277762750788,-0.7265557274905807,0.5446630444943314,0.3856820407110495,-0.2672668327182936,0.2765422854456911,11.002119438513546,-1.247346973841034,0.1333374450594297,-0.914884010565823
0.86,-0.4022597930770667,0.467258936423861,2.411535363301533,0.015887936588301,0.178890781922388,0.0170408596498256,0.2472742773241207,-0.6405107144028355,-0.6350169803628414,-0.4073196130843413,0.4797866167393033,2.423300168446328,0.2433813247739062,-0.6605155167798205,-0.7465557277886039,0.3943784554558659,0.3744389339570955,-0.0178371338692917,-0.1225221919496921,10.522897083795216,-1.2481845147205308,0.1410583605892144,-0.9182439162156067
0.88,-0.3974925883050401,0.4551142948780998,2.3993911452987025,0.0070132433590883,0.1803213189429152,0.0162094523622389,0.254211242599609,-0.6378997677419898,-0.6431868217715981,-0.4025361853766716,0.4667200612138018,2.408769053896516,0.2518012035547481,-0.6748909977893037,-0.7865557283846504,0.5515542546825007,0.3468482637744116,0.1305473330422857,-0.4084920704378381,10.09064211225359,-1.249426961648726,0.1486211729229245,-0.9198477084295272
0.9,-0.392334351511275,0.4424057844601179,2.3863921787080864,-0.0011769570290021,0.1818812222759053,0.0154299482970579,0.2612505734765146,-0.633133353485632,-0.6564826269393066,-0.3977527576690019,0.4536535056883002,2.3942379393467044,0.2602210823355899,-0.6892664787987871,-0.8265557289806968,0.7890648248328992,0.3519665438452807,0.2383207128178854,-0.6647902583854226,9.499229570055832,-1.2507600381693025,0.1552177995698793,-0.9198672462620388
0.92,-0.387038424979397,0.4298106730675456,2.373082008452226,-0.0080472117993213,0.1833161381825946,0.0147590907685382,0.2680058242905322,-0.6268168007999996,-0.6738396812575231,-0.3925483360222901,0.4398681761123245,2.3777068247670905,0.2686409611164317,-0.7036419598082705,-0.8665557295767433,0.9833610552540925,0.3377625407008838,0.3158276342816235,-0.8678527159108274,9.301109896187882,-1.2523564576258532,0.1604594039609526,-0.918547697451087
0.94,-0.381882240734488,0.4179735966482162,2.3600994525911543,-0.0133756931330572,0.1844765043317971,0.0142237910737852,0.2744132427586849,-0.6197256496022471,-0.6918580644660408,-0.3873439143755783,0.4260828465363487,2.3611757101874766,0.2770608398972736,-0.7180174408177538,-0.9065557301727898,1.0198058273323438,0.320370923407634,0.3545575598876249,-0.9009191604258836,9.221842018018831,-1.2543962545447354,0.1648984118532813,-0.9155251687346664
0.96,-0.3763223369771395,0.4056629620808391,2.346051896902297,-0.0179114625957043,0.1854126665795089,0.0137582642860121,0.281222865706497,-0.6118079631862557,-0.7119878711779983,-0.3819289957593454,0.4119381299351359,2.343644595592961,0.2854807186781154,-0.7323929218272371,-0.946555730768836,1.1338759203878002,0.3404811473906033,0.3958843207995666,-1.006490335597876,9.221842018018831,-1.256841518423248,0.1684129649085079,-0.9118445519376652
0.98,-0.3706261566891762,0.3935165552172764,2.3315908873796856,-0.0215244905282288,0.1859792606679405,0.0133846934907899,0.2880242473204337,-0.6033330194647113,-0.7331333733895694,-0.3763035801735916,0.397434026308686,2.3251134809835454,0.2939005974589572,-0.7467684028367204,-0.9865557313648826,1.1887133030311594,0.3400690806968365,0.4237471860772224,-1.0572751105785538,9.15670109675466,-1.2587592219219823,0.171033423308149,-0.9085326665996112
1.0,-0.3650898788981764,0.382139599490178,2.3174511076324062,-0.0241652369397607,0.1861340287826924,0.0131133782414054,0.294355559634706,-0.5948288034639361,-0.754184207928802,-0.3562249443231545,0.3633499042440409,2.2949342187102078,0.286799140553055,-0.5923786468798915,-0.8291207678416644,1.1784999365791728,0.3165656157136126,0.4252108000387611,-1.052541726961631,9.048331021107517,-1.260817346852246,0.1731403426507557,-0.905206901695259
1.02,-0.3590417612258036,0.3702187292951293,2.3024261750881845,-0.0304407215575704,0.1848407415384439,0.0126470296350252,0.3104041804520558,-0.595463995225496,-0.7457040932908157,-0.3562249443231545,0.3633499042440409,2.2949342187102078,0.286799140553055,-0.5923786468798915,-0.8291207678416644,0.9081217470504984,0.8024310408674934,-0.0317595880779952,0.4240057318993184,9.048331021107517,-1.2547189499353464,0.1772309060544098,-0.8961843272320779
1.04,-0.3526680249724167,0.3583816085543494,2.2875648782978986,-0.0405446225657446,0.1805743059875418,0.012067239145768,0.3258161505696103,-0.5873350828677512,-0.7409987924879201,-0.3562249443231545,0.3633499042440409,2.2949342187102078,0.286799140553055,-0.5923786468798915,-0.8291207678416644,0.9024243661798144,0.7705985058777204,0.4064456178872411,0.2352650401447775,10.939132894729482,-1.2639081803610217,0.1853832261524262,-0.8922468418481945
1.06,-0.3463611360543083,0.3473483930563137,2.2734656632518897,-0.0504481539591789,0.1739119670852398,0.0116967284294864,0.336805098028189,-0.5743697525659286,-0.743288114371345,-0.3533569529176239,0.3574261177752419,2.286643011031791,0.2865541191995792,-0.5901877723629275,-0.8483182467320834,0.8574639216443614,0.5494473729289379,0.6482665150911282,-0.1144660941712449,10.08222698206464,-1.2773554875090518,0.1942600799477753,-0.8829072642503542
1.08,-0.3395442667891052,0.3360327977527765,2.2585207153410303,-0.0599056567896451,0.1651827933752239,0.011583429941011,0.3438526522138222,-0.5578953726566193,-0.7512896648419142,-0.3476209701065628,0.3455785448376441,2.2700605956749573,0.2860640764926278,-0.5858060233289997,-0.8867132045129215,0.9811957288542849,0.3523777092816593,0.8237189954654667,-0.4000775235284581,10.08222698206464,-1.2909145703860885,0.2022216850625407,-0.8707158463723373
1.1,-0.332631939506659,0.3250676842402379,2.243363338382288,-0.0679376120385184,0.1556570416298857,0.0117423962009751,0.3466650657819008,-0.5395785320326796,-0.7641959287780726,-0.3418849872955017,0.3337309719000463,2.2534781803181243,0.2855740337856762,-0.5814242742950717,-0.9251081622937596,1.129145660787952,0.1406206784039326,0.915842031196984,-0.6453131968079229,9.474146520554314,-1.3034779420037603,0.2089409952699675,-0.8574423029641169
1.12,-0.3257046890727404,0.3144831585054022,2.227902257806212,-0.0743901018754415,0.1461276833385061,0.0121218078390173,0.3456956225779118,-0.5200923886990894,-0.7811903002466302,-0.3361735066197882,0.3221024864141448,2.234976017072249,0.2850839910787247,-0.5770425252611437,-0.9635031200745976,1.2936945773194553,-0.0484721601994531,0.9743071666795112,-0.8497185734278767,9.474146520554314,-1.3141015214220404,0.2140854638212685,-0.8447768312913738
1.14,-0.3191710322966049,0.3047968043699492,2.21288249619758,-0.0791355859367176,0.1376275393144102,0.0126201222852199,0.341988859110393,-0.5007950699949323,-0.7989368977507667,-0.3304620259440747,0.3104740009282434,2.2164738538263737,0.2845939483717732,-0.5726607762272159,-1.0018980778554356,1.3238847453118487,-0.1853381733759374,0.9648659352078536,-0.887329875206827,9.262439072165762,-1.322945567577939,0.2181905063200384,-0.8314920564353977
1.16,-0.312393430350494,0.2950005107628308,2.19669590703667,-0.0828141420287475,0.1296428187954949,0.0132259881033585,0.335838130579105,-0.4800697251041122,-0.8188114856053027,-0.324762796336035,0.2989550591681902,2.1970118166359773,0.2841039056648217,-0.5682790271932879,-1.0402930356362736,1.468307379856745,-0.3075364265644031,1.036267244541003,-0.9937293927267998,9.170452112671228,-1.3297192563620504,0.221185073526776,-0.8195465686660954
1.18,-0.3057593609249953,0.2856230887966391,2.18010065700749,-0.0852289380144101,0.1228762027145912,0.013867516607131,0.3278042395457761,-0.4589632016672837,-0.839729819460509,-0.319075817795669,0.2875456611339851,2.17658990550106,0.2836138629578703,-0.5638972781593601,-1.0786879934171116,1.5391600209226617,-0.4016945516664455,1.0553261718414224,-1.0459166927603123,9.097681828176974,-1.3347794337766723,0.2232031020207039,-0.8093141956472657
1.2,-0.2993054831897068,0.276673470532097,2.1630761266521747,-0.0863160909579727,0.117577354950343,0.0145083775294565,0.3179334534619225,-0.4373389830164982,-0.8616363121865382,-0.2893691489477065,0.2626749287132749,2.1381141660344647,0.2974598781064288,-0.4510773832975971,-0.8655567113447167,1.6162716926044285,-0.4935393041926778,1.0812109325392782,-1.0953246363014646,8.988003617022969,-1.3384940691655118,0.2242249021333286,-0.801437766649802
1.22,-0.2932642459275961,0.2686483295188663,2.146922923735071,-0.0848490807382533,0.1124897874826806,0.0153100093090271,0.3181660265039898,-0.4091800116746834,-0.8375300540837148,-0.2893691489477065,0.2626749287132749,2.1381141660344647,0.2974598781064288,-0.4510773832975971,-0.8655567113447167,1.8534383163252168,0.0116286521033626,1.4079485670907388,1.2053129051411704,8.988003617022969,-1.3290695685490168,0.2226161851519418,-0.7938203232694417
1.24,-0.2869231313686766,0.2607560238250531,2.130415363239012,-0.0801126384021331,0.1057019142983752,0.0164827525513115,0.3155207653711152,-0.3825425908913181,-0.8148064983684618,-0.2893691489477065,0.2626749287132749,2.1381141660344647,0.2974598781064288,-0.4510773832975971,-0.8655567113447167,1.7556406072964996,-0.1322630566437277,1.3318710391682642,1.1361777857626545,11.866836116661943,-1.3410912712085843,0.2208119881317373,-0.7907508856208291
1.26,-0.2806716987740763,0.2533543600061552,2.1143038653967205,-0.0736153465035565,0.0982367961014899,0.0177882480587033,0.3094488965862857,-0.3595571692165287,-0.797656100068074,-0.2863945501666422,0.2581641548802989,2.1294585989210177,0.2913910058185593,-0.4495002196236598,-0.8707220897215582,1.4657194154834097,-0.303593439241473,1.1492710837394726,0.8575199150193891,11.463535330303785,-1.3517407079068464,0.2176810095123956,-0.787351009269277
1.28,-0.2745753089491994,0.2463805776643038,2.098485390947928,-0.0661427205920713,0.0906931381298894,0.0191057647013067,0.3002507706930108,-0.3394660209209512,-0.7851951655893078,-0.2804453526045136,0.249142607214347,2.1121474646941234,0.2792532612428204,-0.4463458922757852,-0.8810528464752413,1.2683992351262323,-0.459906294663745,1.0045574147788754,0.6230467239383086,11.10076209399358,-1.3605061294628302,0.2139103285922393,-0.7836655663844003
1.3,-0.2689815822576773,0.2401027456445668,2.0836485059398258,-0.0585343875575076,0.0839266197357402,0.0203020705976716,0.2889170781830287,-0.3227842474372529,-0.777149499938406,-0.274496155042385,0.240121059548395,2.094836330467229,0.2671155166670815,-0.4431915649279105,-0.8913836032289244,1.085664414354576,-0.5666846254991087,0.834088674184913,0.4022832825450906,10.81285251432655,-1.3676670999445328,0.2093286998654776,-0.7793574142395872
1.32,-0.2633490118480194,0.2338099857079318,2.068167570113592,-0.0503610182128723,0.077594170197631,0.0214594841951217,0.2747943845239719,-0.3076995019608287,-0.771475863793545,-0.2691538447090434,0.2312572282498368,2.0770086584026504,0.2549777720913426,-0.4400372375800359,-0.9017143599826076,1.0714361499645404,-0.7061346829528387,0.7542372738212094,0.2836818072430469,10.586298500226803,-1.3728316260757858,0.204429571770982,-0.7752684449957137
1.34,-0.2580218928019359,0.2277950988670425,2.0527898396460937,-0.0422724039117984,0.0725165682956548,0.0224865145050538,0.2585352523165737,-0.2948199475027229,-0.7665559131369872,-0.2638115343757018,0.2223933969512786,2.059180986338072,0.2428400275156037,-0.4368829102321613,-0.9120451167362906,1.0658895553010277,-0.8129566103699082,0.6439777229052895,0.2459975328278907,10.385376511240793,-1.3757526560170268,0.1993850734862214,-0.7716991585204556
1.36,-0.2530428351649746,0.2220158587976312,2.037506628751718,-0.0344603273811113,0.0693716452399224,0.0233657671322393,0.2401444774531028,-0.283959770074097,-0.7620087128991045,-0.2587726676567536,0.2136084238364173,2.0410950453546515,0.2307022829398648,-0.4337285828842866,-0.9223758734899736,1.0918345614875768,-0.9195387431735438,0.5430088714312942,0.2273600118941343,10.385376511240793,-1.376682337352178,0.1946764515514548,-0.770216382619485
1.38,-0.2486657394222884,0.2167084217652649,2.02306699224735,-0.0274143092022676,0.0687827008778819,0.024066575909519,0.2218620341927474,-0.2753811295046067,-0.758177501641757,-0.2540372445521989,0.2049023089052528,2.022750835452389,0.2185645383641259,-0.430574255536412,-0.9327066302436569,1.0277633303526763,-0.9141221630177748,0.4289320284745157,0.1915605628673766,10.370904928647178,-1.373625385240613,0.1898358318996907,-0.7730134453344618
1.4,-0.2444208267493348,0.211280453645773,2.007940411756811,-0.0204870191398422,0.0703610867555241,0.0247022000049109,0.2038475635149107,-0.2679793566637762,-0.7547108098492171,-0.237572637712651,0.2029393652900346,1.985158117165262,0.2167697891317968,-0.2852273567481494,-0.7413518461664982,0.9890972487252652,-0.9007235338918312,0.3700886420415272,0.1733345896269944,10.337362877306989,-1.368735078112456,0.1852548806344656,-0.7787955451333272
1.42,-0.2405374841098939,0.2059761362518329,1.9931258222116968,-0.0145226359420653,0.0747361305420643,0.0252240001867789,0.1859224405680552,-0.2626722220378028,-0.7256549237995513,-0.237572637712651,0.2029393652900346,1.985158117165262,0.2167697891317968,-0.2852273567481494,-0.7413518461664982,1.727512825371533,-0.8962561473427749,0.2653567312986687,1.45279430248329,10.298917206606347,-1.3562408813473144,0.1807542531608303,-0.7826707626300616
1.44,-0.2369776619677452,0.2007754728161982,1.9789136951391373,-0.0094795633639143,0.0821183695587175,0.0256620762152888,0.1715024316594998,-0.2576638202638978,-0.6971759602303328,-0.237572637712651,0.2029393652900346,1.985158117165262,0.2167697891317968,-0.2852273567481494,-0.7413518461664982,1.6156052358393038,-0.7210004454277719,0.2504200886952495,1.4239481784609265,12.055858120796074,-1.3485513233433808,0.1776092555398439,-0.8002908621598253
1.46,-0.2338280688484947,0.1959219195710372,1.965906432283683,-0.005156499258365,0.0906589736772518,0.0260617668559403,0.1611364160610787,-0.2535334959690381,-0.6734525696382537,-0.235404939821333,0.2000870917225531,1.977744598703597,0.2157513401196067,-0.2871966021968579,-0.7379867150714464,1.3108328643955365,-0.5183007799210534,0.2065162147429855,1.1861695296039532,11.5902352559051,-1.3405746784404386,0.1747659374363328,-0.8191510781135373
1.48,-0.2306892678436454,0.190889291721673,1.9526748671747365,-0.000974387020012,0.1002536731537021,0.0264879827800431,0.1536355957441527,-0.250009708206958,-0.6510901095460371,-0.2310695440386971,0.1943825445875901,1.9629175617802672,0.2137144420952265,-0.291135093094275,-0.7312564528813429,1.1924334436300597,-0.3750410158462988,0.1761893881040033,1.1181230046108326,11.5902352559051,-1.3323622416402667,0.1720904607770506,-0.8376854830445954
1.5,-0.2276664948663029,0.1859179518303627,1.9398647061036225,0.0028425194921502,0.1096737825669412,0.0269214515792912,0.1492783326189584,-0.2473427961803004,-0.6311660149803497,-0.2267341482560611,0.1886779974526271,1.948090524856937,0.2116775440708463,-0.2950735839916921,-0.7245261906912394,1.0284304861809583,-0.2178631562597177,0.1333456013328793,0.9962047282843668,11.43442607471934,-1.3247413142493294,0.1696184027028247,-0.8550505706463841
1.52,-0.2247007326834225,0.1809913038432675,1.9274297023497544,0.0062688197436608,0.1182973369046101,0.0273522135611364,0.1476592509619676,-0.2454564281933317,-0.6133583471283488,-0.2225005973746442,0.1827765257727933,1.933600001043112,0.2096406460464661,-0.2990120748891091,-0.7177959285011358,0.8990173022826821,-0.0809540828495394,0.0943183993484392,0.8903833926000471,11.303832807439903,-1.318435575590789,0.167491958692442,-0.8698176502289979
1.54,-0.2218896934578638,0.1763391725884936,1.915939786359754,0.009147892664168,0.1253598308714837,0.0277463066465244,0.1483657123762506,-0.2443142210707574,-0.5970218202110026,-0.2182670464932273,0.1768750540929594,1.9191094772292876,0.2076037480220859,-0.3029505657865262,-0.7110656663110323,0.8195819613710206,0.0353230707141494,0.0571103561287145,0.8168263458673108,11.202888155421531,-1.3128515625201846,0.165493374655963,-0.883144279540036
1.56,-0.2188980587699157,0.1714590974020636,1.9041761220548097,0.0117547074447196,0.1313681984085768,0.0281302111167561,0.150807955393014,-0.2437315004569066,-0.5802372853775553,-0.2140844180624199,0.1708751201406902,1.9047872099702152,0.2055668499977057,-0.3068890566839433,-0.7043354041209288,0.848564558301169,0.1221121508381717,0.0291360306925392,0.8392267416723664,11.190577135680542,-1.3091138855253863,0.1638349140719199,-0.8942968512585413
1.58,-0.2158438691107331,0.1665850550520016,1.892741631843789,0.0139005308361526,0.135807953176621,0.0284686865763167,0.1544714874614741,-0.2436592883946085,-0.5640881407906224,-0.2099527120822219,0.1647767239159855,1.890633199265896,0.2035299519733255,-0.3108275475813604,-0.6976051419308252,0.8279818124334605,0.1831766034230061,0.0036106031149021,0.807457229346642,11.160917321229135,-1.307176582373632,0.16253782925531,-0.9031957005979416
1.6,-0.2127077708878575,0.1617075219498731,1.8816224059157844,0.0155611195130867,0.1386424866318785,0.0287505256043067,0.1588319873669765,-0.2440244389204984,-0.5486489071957075,-0.2081202947376594,0.1544020906322712,1.864537224804258,0.1619720004525747,-0.2409460791436667,-0.5450556941230704,0.8023671670918406,0.2180249952751192,-0.0182575262944933,0.7719616797457474,11.160917321229135,-1.3066428853418368,0.1616387593794292,-0.9096434368348976
1.62,-0.2096360733140241,0.1570069179332738,1.8714180787728147,0.0148738125216462,0.1400564538025365,0.0288370135336766,0.1641733764231735,-0.2499622120248471,-0.5262583131331208,-0.2081202947376594,0.1544020906322712,1.864537224804258,0.1619720004525747,-0.2409460791436667,-0.5450556941230704,1.1886192503951063,0.2670694528098483,-0.2968886552174338,1.119529703129335,11.131775871412174,-1.304092788934899,0.162199199626915,-0.9107052440774132
1.64,-0.2062956913615087,0.1519629803303413,1.861127603116632,0.0108656178130398,0.1404469330623737,0.0286808339040134,0.1694529191231536,-0.2533331840801915,-0.504072489495499,-0.2081202947376594,0.1544020906322712,1.864537224804258,0.1619720004525747,-0.2409460791436667,-0.5450556941230704,1.152657575126373,0.2639771349990064,-0.1685486027672225,1.109291181881089,11.684968832578306,-1.3061302493065927,0.1659168412437094,-0.9150619253741512
1.66,-0.2028565283535841,0.1469018140501136,1.8512564619640972,0.0054941798809679,0.1398132896033203,0.0284240311054429,0.1740608590362305,-0.2522962836633973,-0.4841383246183379,-0.2065005747331336,0.1519926298408345,1.8590866678630276,0.1634721030507948,-0.2404034372934783,-0.5412492047895601,1.0243036684337263,0.230396995653842,0.0518450208397136,0.996708243858052,11.417133586786804,-1.3094851706574344,0.1705788289420887,-0.9176332958601195
1.68,-0.1995113928259206,0.1421411906463117,1.842230233351697,0.0004401635684211,0.1383503443606858,0.0281905660762823,0.1777303755388388,-0.2488362408937415,-0.4669816278742649,-0.2032611347240821,0.1471737082579612,1.8481855539805656,0.166472308247235,-0.2393181535931015,-0.5336362261225392,0.8941329466288098,0.1834758251304177,0.173002138482789,0.8578348372036498,11.417133586786804,-1.313847034097176,0.1754882583743962,-0.9187898844305604
1.7,-0.1959235691895339,0.1372184801799835,1.83306724848348,-0.004339186383763,0.1359641571091976,0.0279992663630679,0.1807470723781268,-0.2436155969903154,-0.4502809920350008,-0.2000216947150306,0.1423547866750878,1.8372844400981043,0.1694725134436752,-0.2382328698927248,-0.5260232474555184,0.8877877280384414,0.1508348419643979,0.261032195171304,0.8350317919632061,11.303104306806745,-1.3182732676493203,0.1799856717506555,-0.920561760934244
1.72,-0.1922865391305213,0.1324133698245194,1.824223844323136,-0.0083768685182247,0.1327971652920037,0.0278825647770413,0.1826755394855638,-0.2372158449361333,-0.4349463100848382,-0.1966322444461571,0.1375901292772333,1.826763975148994,0.1724727186401155,-0.237147586192348,-0.5184102687884976,0.8364034347312849,0.0964233553718524,0.3199876027091042,0.7667340975081288,11.219293057909454,-1.323267752341948,0.183907339438503,-0.9214772046748
1.74,-0.188624710992008,0.1277461595220367,1.815677398552363,-0.0115905852663934,0.1290195317797982,0.0278473718306327,0.1832761871927602,-0.2299827182796582,-0.4204529625014823,-0.1932427941772836,0.1328254718793788,1.816243510199884,0.1754729238365557,-0.2360623024919713,-0.5107972901214768,0.8104566969751381,0.0300323853598197,0.3616563328237579,0.7246673791677954,11.139256827340432,-1.328062624116464,0.1869591913253271,-0.920887957488102
1.76,-0.1851495220496559,0.1234516316587491,1.8078205251721269,-0.0139141327972423,0.125122088615074,0.0278834914694286,0.1823838924459225,-0.2225933309740503,-0.4073035861100407,-0.1897783387784991,0.1280879465740338,1.8059133697174488,0.1784731290329959,-0.2349770187915945,-0.5031843114544561,0.7554888055942911,-0.0446147373418845,0.3694693652803921,0.6574688195720824,11.056826366868336,-1.333355159867109,0.1895534697613464,-0.9197541067139068
1.78,-0.1815269507427974,0.119085269560423,1.799815195741273,-0.0156648412045555,0.1210617073019044,0.0279814569193335,0.17976460121801,-0.2145284115730491,-0.3939389274213314,-0.1862388782498036,0.1233775533611981,1.7957735537016897,0.1814733342294361,-0.2338917350912178,-0.4955713327874352,0.7913875683679855,-0.1309645613956245,0.403245970050059,0.6682329344354643,11.056826366868336,-1.3382787229080495,0.1915282081093188,-0.918405105515123
1.8,-0.1779761729016729,0.1148850496675592,1.7920709345816377,-0.0166638073155671,0.1175243054362673,0.0281313039824074,0.1753059222254506,-0.2059574317430164,-0.3811804458933894,-0.1725387206818969,0.1083588489817706,1.780118249370206,0.1782472528772976,-0.2016740496664014,-0.3770301383677721,0.8001880474369076,-0.2229339496279708,0.4285489915016371,0.6379240763971006,11.02851547820228,-1.3424227968972076,0.1928644189863138,-0.9177367217217084
1.82,-0.1745172820165593,0.1108437454938949,1.7846330116984417,-0.01729833324966,0.1148172902957079,0.0282959269424847,0.170714427918429,-0.1984800824384087,-0.3632564783311941,-0.1725387206818969,0.1083588489817706,1.780118249370206,0.1782472528772976,-0.2016740496664014,-0.3770301383677721,0.9978241149686116,-0.2295747153510788,0.3738674652303847,0.8961983781097638,10.995416013512113,-1.342362746593852,0.1934387052853463,-0.9152215725370204
1.84,-0.1713295752183518,0.1071501759050459,1.7778886563000815,-0.0177084135810192,0.1132238776624564,0.0284503709226692,0.1650884380643423,-0.190720821627926,-0.3475960990855317,-0.1725387206818969,0.1083588489817706,1.780118249370206,0.1782472528772976,-0.2016740496664014,-0.3770301383677721,0.9180214707202572,-0.2812994927043372,0.3879630405241321,0.7830189622831218,11.326893654047126,-1.3435207236713866,0.1943368904788494,-0.9195947899194334
1.86,-0.1680915975337601,0.103425400535671,1.7710967892203828,-0.0176565965241775,0.1126706253243622,0.0286266028962063,0.1591013086225546,-0.1822035100323823,-0.3324846388469588,-0.1707562481531239,0.1063421084851065,1.7763479479865285,0.1779437832091551,-0.1991031772850719,-0.3736483805570602,0.9175327600558402,-0.2993564720893876,0.4258655797771862,0.7555730119286452,11.222710315782932,-1.3424586375144478,0.1947242713066067,-0.9254033300244934
1.88,-0.1649704376072964,0.0998730042125883,1.7645933011724384,-0.0169322004284868,0.1129918912615914,0.028832626854111,0.1533993220005425,-0.1735294989090868,-0.3186808810430148,-0.167191303095578,0.1023086274917785,1.768807345219173,0.1773368438728701,-0.1939614325224128,-0.3668848649356365,0.8635607244348847,-0.2850993311006009,0.4337005561647747,0.690187890197197,11.141852937234944,-1.3410364400714347,0.1945831663287427,-0.9318044960048248
1.9,-0.1621071805170562,0.0966581284648228,1.758659799516247,-0.0155162733041695,0.1138809254540871,0.0290669347238327,0.1483708130896359,-0.1654119684679696,-0.3065968496110519,-0.163626358038032,0.0982751464984505,1.7612667424518176,0.1767299045365851,-0.1888196877597538,-0.3601213493142128,0.7700714544414078,-0.2514254455453335,0.4058765220558633,0.604201571598148,11.070544801526012,-1.3390151105933163,0.1937869223699008,-0.9395408500169096
1.92,-0.1591904346008111,0.0934349459703107,1.7526550462271395,-0.0132962136229803,0.1152046892805056,0.0293559114698222,0.1436469949753415,-0.1574997176362341,-0.2945525441972743,-0.1600917599473003,0.0944987527432554,1.754064315465533,0.1761229652003001,-0.1836779429970947,-0.353357833692789,0.7582602846344815,-0.2361909057147171,0.395612541586772,0.60221527068888,11.016759616785748,-1.3366487136142031,0.1923122713905575,-0.9475326945125252
1.94,-0.1563615522331904,0.0903546938758874,1.746886150688564,-0.0107319258957495,0.1167313845946715,0.0296637154391303,0.1395433318663178,-0.1510331418602041,-0.2829677495905024,-0.1565571618565686,0.0907223589880603,1.746861888479249,0.1755160258640151,-0.1785361982344356,-0.3465943180713653,0.6943776336774348,-0.2051831554511871,0.3233287888014996,0.5792397303385904,10.982761650270731,-1.3341841637824627,0.1905086201742515,-0.9557367776571488
1.96,-0.1536085889234914,0.0873928517062488,1.7413441603258162,-0.0082544827275782,0.1183042451701695,0.0299624574844753,0.1360074216522913,-0.1455048189283952,-0.2718277185930609,-0.1530377372492441,0.0870745088519317,1.7398285493835004,0.1749090865277301,-0.1733944534717766,-0.3398308024499416,0.6464621143268581,-0.1767955107013219,0.2764161465904469,0.5570015498720798,10.964246714261208,-1.3318904416453323,0.1888220894551606,-0.9633587691845914
1.98,-0.1510538726969722,0.0846749211510894,1.7362816468048206,-0.0061126032480985,0.1197336628989246,0.0302293757313379,0.1331149743675069,-0.1408650818047914,-0.2616404879866773,-0.1495334861253266,0.0835552023348696,1.7329642981782871,0.1743021471914451,-0.1682527087091175,-0.3330672868285179,0.5780853728019832,-0.1446223642392219,0.2319868561801913,0.5093615303191801,10.947245535755428,-1.3296388638426,0.1871970509109737,-0.9710060178677932
2.0,-0.1484196932965039,0.0819041204231613,1.7311584289353152,-0.0041243522823433,0.1210915345700611,0.0304893221323942,0.1304820345754121,-0.1364592963852399,-0.251242255075258,-0.1443981239785968,0.0776316670608498,1.7231996224054866,0.138210565670468,-0.1359482564730438,-0.2605365743423485,0.5797985960487708,-0.1316469896047403,0.2202892709775722,0.5199116455709613,10.93104983592184,-1.3275288902127158,0.1857680970588509,-0.978205263375302
2.02,-0.1458417507159291,0.0792328240448937,1.726236841260815,-0.0019064758808388,0.1224462097526281,0.0307614057187553,0.1274968999934338,-0.1311593452475389,-0.2414729410856404,-0.1443981239785968,0.0776316670608498,1.7231996224054866,0.138210565670468,-0.1359482564730438,-0.2605365743423485,0.5754129090537486,-0.1492567290989163,0.2649975568850507,0.4884656994808792,10.919945523468414,-1.326444394362561,0.1842892588094035,-0.985483045032875
2.04,-0.1434450994159469,0.0767784557391912,1.7217314811434306,0.0004156171540964,0.1238606841263679,0.0310307084134335,0.1249882764815138,-0.1275102083075176,-0.2332754447265734,-0.1443981239785968,0.0776316670608498,1.7231996224054866,0.138210565670468,-0.1359482564730438,-0.2605365743423485,0.4658549637185997,-0.125431175595999,0.1824568470010668,0.4098748179533512,10.830526392440332,-1.3246168311771669,0.1824098420430229,-0.9925319282596782
2.06,-0.140969203434418,0.074259959194425,1.7171486836567282,0.002680146276513,0.1253773264623876,0.0312974616335523,0.1227783931141495,-0.1245370696057098,-0.2254810951202489,-0.1430160183218921,0.0762721844961194,1.7205942566620631,0.1392296839310602,-0.1349648914066943,-0.2603157916134828,0.4314945655021361,-0.1104941683682164,0.1486569350903868,0.3897174803162234,10.830526392440332,-1.3226275835885462,0.1806261772761064,-0.9990328277575532
2.08,-0.1385332820343514,0.0717945631907813,1.712713458615115,0.0046266854866636,0.1268327844590236,0.031537282276291,0.1209577971258391,-0.1221291471029453,-0.218470991249051,-0.1402518070084828,0.0735532193666585,1.7153835251752163,0.1412679204522447,-0.1329981612739953,-0.2598742261557513,0.3816222504550654,-0.0910297994155151,0.1203961251382244,0.3505051935598968,10.78766166967307,-1.320841584633612,0.1791002461072023,-1.0051023363773728
2.1,-0.136130199294537,0.069372412122056,1.708410696430318,0.0062020689882673,0.1281613307461054,0.0317456480258412,0.1194634886499835,-0.1201644064651114,-0.2121652180689195,-0.1374875956950734,0.0708342542371976,1.7101727936883693,0.1433061569734291,-0.1310314311412963,-0.2594326606980198,0.3385850668378489,-0.0747154237927837,0.0982370318916951,0.3152886590065767,10.717458641882333,-1.3193718494087123,0.1779384312817914,-1.010343823300309
2.12,-0.1338723004586414,0.0671035474000129,1.7044345863074777,0.0072950974908953,0.1292726776001221,0.0319096263925334,0.1182965908087712,-0.1187308020234104,-0.2066962198987424,-0.1346214725556049,0.0682136256143717,1.7049841404744088,0.1453443934946136,-0.1290647010085973,-0.2589910952402883,0.2886469004358557,-0.0583448920606154,0.071680222085052,0.2734499085088521,10.717458641882333,-1.3179515774586363,0.1770627343294468,-1.0151452695784706
2.14,-0.1315173584584053,0.0647410251279091,1.7003571575434484,0.0079063516130504,0.1302712530051162,0.0320381740849561,0.1172710394439607,-0.1175764221737017,-0.2013583236914275,-0.1317553494161363,0.0655929969915458,1.6997954872604484,0.147382630015798,-0.1270979708758983,-0.2585495297825568,0.2778375620724498,-0.0512775682405215,0.057718992485433,0.2668948103657462,10.672494523318164,-1.3166888812878188,0.1766669721268099,-1.019306437866258
2.16,-0.1291809553103353,0.0623994141892397,1.6963815174979169,0.0078625129519854,0.1310837389514648,0.032114536841058,0.1164199117309845,-0.1165866425787702,-0.1964787507442927,-0.1288382703636381,0.0630215366220373,1.6946178731829311,0.1494208665369825,-0.1251312407431993,-0.2581079643248254,0.2525584792515829,-0.0425563856488127,0.0494889797465751,0.2439786473567406,10.651711651041296,-1.3156793047242747,0.1768639867072092,-1.0229225266307544
2.18,-0.1268604936568876,0.0600785334881702,1.6924992075938945,0.0071446744246361,0.1317098428753238,0.0321381170443526,0.115663459429194,-0.1154918817668628,-0.1920017807640974,-0.1258702353981103,0.0604992445058463,1.6894512982418577,0.1514591030581669,-0.1231645106105003,-0.2576663988670939,0.2335272014334835,-0.0378226150895256,0.0547380405953722,0.2238484990097627,10.651711651041296,-1.314982274429133,0.1776277125679825,-1.025895768207014
2.2,-0.1246697541770423,0.0578974160976538,1.688890455687857,0.0058884043373389,0.1321458550091304,0.0321163006978222,0.1149713674293094,-0.1141053916252836,-0.1880946262327475,-0.1210773206854279,0.054303939399827,1.6828991185556894,0.1188722684957578,-0.1034676374732923,-0.2024725017034356,0.2101618589376329,-0.0346045999942298,0.0693245070789591,0.1953577265674952,10.632593511903906,-1.3145206482552487,0.1790002185141038,-1.0286438709281371
2.22,-0.1223684347878446,0.0556197475722048,1.685190082343245,0.003559242468281,0.1322766090086178,0.0320198151583182,0.1151679689886411,-0.1133946453268461,-0.182052866893404,-0.1210773206854279,0.054303939399827,1.6828991185556894,0.1188722684957578,-0.1034676374732923,-0.2024725017034356,0.3043298719663395,0.0098300779665862,0.0355373149218754,0.302087966967178,10.614927794987125,-1.3120176601003046,0.1811066598656798,-1.0301903655722426
2.24,-0.1200680490609295,0.0533806586843331,1.6816014424137036,0.0005099516334696,0.131998586759206,0.0318732398389708,0.1148040289997297,-0.1103870301039146,-0.1771290828344346,-0.1210773206854279,0.054303939399827,1.6828991185556894,0.1188722684957578,-0.1034676374732923,-0.2024725017034356,0.2890581736610268,-0.0181969994455674,0.1503807611465756,0.2461892029484699,10.664739760073644,-1.3138491942922517,0.1842998188175439,-1.033335669363716
2.26,-0.1178955349596064,0.0513258241220078,1.6782716418715102,-0.0022618600400458,0.1315438855395257,0.031745814315177,0.1138762147213818,-0.1060920700973035,-0.1736222309074697,-0.1198885980004703,0.0532692630250941,1.680874393538655,0.1195140303090706,-0.1010627886145782,-0.2045666458913033,0.2810939844213686,-0.046390713917397,0.2147480003305543,0.1753425963482435,10.597196908574915,-1.3157414241490566,0.1872139476619549,-1.0354914292839164
2.28,-0.1156331423569255,0.0492596685640029,1.674828978925474,-0.0047659587387836,0.1310201149699105,0.0316442047931367,0.112388015416315,-0.1007866223523668,-0.1708707718530859,-0.1175111526305551,0.0511999102756282,1.6768249435045863,0.1207975539356961,-0.0962530908971499,-0.2087549342670386,0.3079490212429862,-0.0744099652533421,0.2652723872468322,0.1375729527191893,10.597196908574915,-1.3175090081465963,0.1898672305224124,-1.0371703785325557
2.3000000000000003,-0.1134052726424628,0.0473057759458832,1.6714324082305236,-0.0067642132449453,0.1305743032255118,0.0315804739852355,0.1104659547880263,-0.0949340168066263,-0.1689573717946057,-0.11513370726064,0.0491305575261624,1.6727754934705177,0.1220810775623217,-0.0914433931797217,-0.2129432226427738,0.3225229004142283,-0.0961030314144316,0.292630277287028,0.0956700029240101,10.544113648369605,-1.319030964330742,0.1920285768171387,-1.0386044031844406
2.32,-0.1112196770922054,0.0454741355097291,1.66806614432314,-0.0082057413539248,0.1303009734993542,0.0315562541743432,0.1082127570605953,-0.0886090499638692,-0.1677634719676479,-0.1126920857093935,0.047301689662568,1.6685166290176623,0.1233646011889472,-0.0866336954622935,-0.2171315110185091,0.340982046293083,-0.1126598863715522,0.3162483421378557,0.0596949913478916,10.49931085402477,-1.3202107658419908,0.1935865696330652,-1.0400211121972809
2.34,-0.1091869687790594,0.043855665993884,1.6648859254728263,-0.0089697822246312,0.1302462109796083,0.0315742992970293,0.105898199355863,-0.0821435119154818,-0.1670573685564257,-0.1102504641581471,0.0454728217989735,1.664257764564807,0.1246481248155727,-0.0818239977448653,-0.2213197993942444,0.3451772792747938,-0.1157278852366147,0.3232769024193671,0.0353051705611076,10.463120819431424,-1.3210268755644796,0.1946119233558774,-1.041665879968534
2.36,-0.107095118372203,0.0422884266264836,1.6615492519273007,-0.0089713581535478,0.130408765933966,0.0316464303337873,0.1034329470551512,-0.0749811578665007,-0.1666641299417217,-0.107776754516235,0.0437641963783148,1.659894192902558,0.1259316484421983,-0.0770143000274371,-0.2255080877699797,0.379247350146363,-0.1232626150355881,0.358117702449056,0.0196619307352027,10.440304748020935,-1.3215383253861852,0.1948515291995426,-1.043601155598817
2.38,-0.1050522708864627,0.0408661928359096,1.6582169182171222,-0.0079854716609673,0.1307747014247134,0.0317832187684101,0.1010046476027682,-0.0676908619988433,-0.166603322474898,-0.1052709567836573,0.0421758134005918,1.6554259140309158,0.1272151720688238,-0.0722046023100089,-0.229696376145715,0.3842159211187396,-0.1214149726191528,0.3645147933828724,0.0030403733411829,10.422041299173545,-1.3218417140393597,0.1941482681430739,-1.0458097982948291
2.4,-0.103057024458399,0.0395875205676862,1.6548825068170534,-0.0059248286049004,0.1313148468172872,0.0319897135761912,0.098683153692489,-0.0606797339150459,-0.1668414123343173,-0.1000020385063243,0.0374816497359674,1.649886752093377,0.0917131524062469,-0.0686679252011424,-0.1589945031876277,0.3694656200650958,-0.1160746955139596,0.3505564041898702,-0.0119044929709627,10.390968991947377,-1.3219451017811925,0.192516783315837,-1.0480610224365488
2.42,-0.1011498264252223,0.0385276900077836,1.651809191884473,-0.0020753702914412,0.1307354338627131,0.0323158325005648,0.1020280277487786,-0.0523090899511091,-0.1566445713678045,-0.1000020385063243,0.0374816497359674,1.649886752093377,0.0917131524062469,-0.0686679252011424,-0.1589945031876277,0.6804987665671847,0.1672437028144804,0.418532198196838,0.50984204832564,10.390968991947377,-1.311303727798946,0.1878997798287596,-1.0486027278183976
2.44,-0.0990767571155078,0.0375323668670684,1.6487837264218164,0.0030701409473398,0.1277646310193724,0.0327186547282488,0.1049209821752626,-0.0478949879052607,-0.1465278031999408,-0.1000020385063243,0.0374816497359674,1.649886752093377,0.0917131524062469,-0.0686679252011424,-0.1589945031876277,0.5705315073402527,0.1446477213242022,0.2207051022924174,0.5058384083931846,10.989448832339804,-1.3170932925892338,0.1835290973127885,-1.0522774308278258
2.46,-0.0969627029977601,0.0365966571667746,1.6459448109402164,0.0080349633144284,0.1226831471054115,0.0330666514780158,0.1059915368011427,-0.0459158341739255,-0.1378507152332913,-0.0990849069822618,0.036794970483956,1.648296807061501,0.0898548533669426,-0.0688633378416023,-0.1574727393301736,0.4482047307877953,0.0535277312940028,0.0989576865667602,0.4338543983324727,10.906021528761812,-1.3256645835245704,0.1793095625516287,-1.0531535915184922
2.48,-0.094965595791912,0.0357283340791653,1.6433975551940343,0.0121619072299022,0.1167042424293277,0.0333081859387855,0.103930632918906,-0.0455066089548294,-0.13070427975913,-0.0972506439341369,0.0354216119799332,1.6451169169977484,0.0861382552883341,-0.0692541631225219,-0.1544292116152655,0.3724457345644925,-0.1030451941118365,0.0204612609548075,0.357321773708065,10.906021528761812,-1.334216953569086,0.1757379135311181,-1.052279755546342
2.5,-0.0929372976716933,0.0348124379180378,1.6408538856549333,0.0157790204527909,0.1102267269202412,0.0334704806698041,0.0988001796979332,-0.0460486949767436,-0.1240739579015931,-0.0954163808860119,0.0340482534759103,1.641937026933996,0.0824216572097256,-0.0696449884034416,-0.1513856839003574,0.4200493287766221,-0.2565226610486394,-0.0271043010957084,0.3315160928768448,10.78323116091542,-1.3411919490899913,0.1724040768504976,-1.0493517156636836
2.52,-0.0910407215544048,0.0338773269018456,1.6384334810964891,0.0186508553964747,0.1043807074835889,0.0335576759019659,0.0909451133962174,-0.0473538121824594,-0.1183305734356743,-0.0937679477418174,0.0326553537078415,1.6389093132559889,0.0787050591311171,-0.0700358136843613,-0.1483421561854493,0.4908967881550159,-0.3927533150857885,-0.0652558602857934,0.2871692232959424,10.735084922854185,-1.3462803960963865,0.169624460969133,-1.045830945748894
2.54,-0.0893292877366496,0.032909604662461,1.6361234154256492,0.0208061670486041,0.100022874963438,0.03359855657597,0.0805122321835326,-0.0492056804820055,-0.1129574469160191,-0.0921195145976229,0.0312624539397726,1.6358815995779816,0.0749884610525086,-0.070426638965281,-0.1452986284705411,0.5940221275194153,-0.5216440606342395,-0.0925934149773051,0.2686563259827599,10.735084922854185,-1.3485416469786855,0.1674852678783578,-1.0429814160731503
