t,x,y,z,roll,pitch,yaw,v_x,v_y,v_z,ref_x,ref_y,ref_z,ref_v_x,ref_v_y,ref_v_z,a_com,a_x,a_y,a_z,thrust,wind_x,wind_y,wind_z
0.0,-2.151140542995565,1.3184039668044285,2.019310585735132,0.0230498496406101,0.1386871826692821,0.0267042390641862,-0.0046037782380361,0.0236950864693503,-0.0135236923123739,-2.150948280489097,1.3181614624509157,2.019622435333693,0.0974510392866982,-0.0965067771593747,-0.091204240203861,1.3834216192242024,-0.2301889119018052,1.1847543234675149,-0.676184615618699,9.212182124689662,-1.3113641456773524,0.1550579343383752,-1.187996466656785
0.02,-2.1513155751361697,1.3188986286712847,2.018772302719224,0.0380780885066394,0.1446384297218185,0.0279208871133203,-0.011797928578068,0.0241672430488499,-0.0391253642042817,-2.150948280489097,1.3181614624509157,2.019622435333693,0.0974510392866982,-0.0965067771593747,-0.091204240203861,1.3298724888231246,-0.3597075170015975,0.0236078289749842,-1.280083594595386,9.12536054413158,-1.298129420312129,0.1382896828831424,-1.1742385678716802
0.04,-2.1515913972599203,1.3193292667022265,2.017722006939019,0.0534385922668091,0.152298193653295,0.0293103644737943,-0.0150601683422341,0.0185246917929562,-0.0646104245377458,-2.150948280489097,1.3181614624509157,2.019622435333693,0.0974510392866982,-0.0965067771593747,-0.091204240203861,1.315265080843594,-0.163111988208304,-0.2821275627946892,-1.2742530166732071,9.12536054413158,-1.2844880723567067,0.1217929687648433,-1.16331309000702
0.06,-2.151898346283696,1.31961013214735,2.016170762016916,0.0682292959728126,0.1606061560253618,0.0307957771014713,-0.0151736967663167,0.0095261923357662,-0.0892137396134479,-2.14997377009623,1.317196394679322,2.0187103929316543,0.1156073263607872,-0.1165067774573979,-0.1112042405018842,1.3098749882129896,-0.0056764212041328,-0.4499249728594968,-1.2301657537851045,9.133276511277472,-1.2720293568662873,0.1064097070871723,-1.1564148054998926
0.08,-2.1521793230825588,1.319681106482062,2.014137501597296,0.082327674520836,0.1689881776202489,0.0323379627757302,-0.0126640179857208,-0.0022800202660401,-0.1128586476328889,-2.148024749310496,1.3152662591361346,2.016886308127577,0.1519199005089654,-0.1565067780534444,-0.1512042410979306,1.3273722338031724,0.1254839390297957,-0.5903106300903188,-1.182245400972049,9.18539798065558,-1.2608141603274214,0.0921891089222015,-1.1497369179648227
0.1,-2.1523857606946013,1.3194881666653715,2.0116410237469564,0.0957389443868967,0.1771436955120548,0.0339046105701263,-0.0078916360302447,-0.0167066107316863,-0.1356371424850369,-2.146075728524762,1.313336123592947,2.0150622233235,0.1882324746571435,-0.1965067786494909,-0.1912042416939771,1.369089085598307,0.2386190977738072,-0.7213295232823138,-1.1389247426074,9.243426204508069,-1.2513289688434883,0.0796938969642063,-1.1432390982927445
0.12,-2.1524759858106446,1.3190147127870169,2.008846515488599,0.1078662338972875,0.1845501503848795,0.0353909154872843,-0.0016808380908713,-0.0326420616872258,-0.1574140692811787,-2.1423110790316198,1.3094059880199571,2.0112381384896207,0.2245450488053215,-0.2365067792455373,-0.2312042422900236,1.3845099754828838,0.3105398969686691,-0.7967725477769704,-1.0888463398070911,9.295333763616329,-1.243740754156424,0.0674519387851928,-1.1387998105743031
0.14,-2.1524276293466422,1.3181663856975452,2.005453181499558,0.1200127449784681,0.1919315604360143,0.0369324042348012,0.0063617693614761,-0.0516071966073813,-0.1808154780979983,-2.1385464295384766,1.3054758524469674,2.007414053655741,0.2608576229534997,-0.2765067798415838,-0.2712042428860701,1.558834349589609,0.402130372617375,-0.94825674600778,-1.1700704408409812,9.296644137516523,-1.2375362593442027,0.0560977569218024,-1.1343158531637667
0.16,-2.1522020084870137,1.3169154808624293,2.0015933041075207,0.1315511441646756,0.1988689742038432,0.038432438533352,0.0159544253538326,-0.0727756840774201,-0.204033846539675,-2.133873965691629,1.3005457168590764,2.0025899688069604,0.2971701971016778,-0.3165067804376302,-0.3112042434821165,1.6425715691030978,0.479632799617825,-1.0584243735019367,-1.1609184220838311,9.28396336143669,-1.232368133782698,0.0460648994400223,-1.129596674673625
0.18,-2.1517686127769715,1.315195727199305,1.9972697864803268,0.1417549354892305,0.2053708062875355,0.0398222929545529,0.0270414146856257,-0.0978473236905167,-0.2271306337099884,-2.128293687491077,1.2946155812562845,1.9967658839432787,0.3334827712498558,-0.3565067810336766,-0.3512042440781629,1.7923239264451076,0.5543494665896564,-1.2535819806548285,-1.1548393585156718,9.31070688482032,-1.227205414014903,0.0369791602191448,-1.123528366014353
0.2,-2.151138209313741,1.313071643472162,1.9927373810551952,0.1495537832410864,0.2111662701494753,0.0409774953226807,0.0388693709428825,-0.1240329161157601,-0.2487571640625507,-2.15041654204269,1.3103033610147792,1.9859132547948275,0.1147435027436206,-0.1978473251806328,-0.3271306352001045,1.7981188885713613,0.5913978128628378,-1.3092796212621722,-1.081326517628113,9.345776999759437,-1.2225829740976508,0.03003748579453,-1.1173296989981112
0.22,-2.150189653489138,1.3101581653241523,1.9876218758801076,0.1520173663497921,0.2168730457618397,0.0417292083644513,0.0556167759853427,-0.1643360629721847,-0.2608179010652065,-2.15041654204269,1.3103033610147792,1.9859132547948275,0.1147435027436206,-0.1978473251806328,-0.3271306352001045,2.264001214241052,0.8373702521230083,-2.015157342821232,-0.6030368501327917,9.384517884340312,-1.2093709656527334,0.0287644218596317,-1.1053516165201362
0.24,-2.1488934488276725,1.3065081995327428,1.982285661780014,0.1481258708473539,0.2221861774674928,0.0419371811025518,0.0732528732902122,-0.1973834024047915,-0.2720879131821098,-2.15041654204269,1.3103033610147792,1.9859132547948275,0.1147435027436206,-0.1978473251806328,-0.3271306352001045,1.9558704870440051,0.8818048652434768,-1.6523669716303395,-0.5635006058451658,10.154780892109557,-1.206143192769418,0.0328801506914873,-1.1064701651695366
0.26,-2.1473319827107367,1.3024956748356855,1.9769965852104807,0.1423622441417275,0.2269013609431334,0.0418942422362876,0.0903194994282272,-0.2229457228143578,-0.2840417219129442,-2.149269107015254,1.308324887762973,1.9826419484428264,0.1322839203552195,-0.217847325478656,-0.3471306354981278,1.6489356382447693,0.8533313069007481,-1.2781160204783106,-0.5976904365417202,10.05163668928344,-1.204511726018182,0.0395109081482391,-1.106974847874302
0.28,-2.1453347743909426,1.2977898821539735,1.971167841292847,0.1361247524437198,0.2315463438100138,0.0417445176279023,0.1085788207547173,-0.2461762444201604,-0.2982959969316629,-2.1469742369603817,1.3043679412593605,1.9760993357388243,0.1673647555784175,-0.2578473260747024,-0.3871306360941742,1.6403081308788812,0.9129660663245048,-1.161526080290133,-0.7127137509359338,9.809769507051897,-1.2027648934201374,0.0460751272162953,-1.1086647873385944
0.3,-2.142968890747428,1.2926433196478764,1.965036458866085,0.130458834070875,0.2358947736357767,0.0415513268901537,0.1271693104439704,-0.2673084235153039,-0.3142093044989751,-2.144679366905509,1.3004109947557476,1.9695567230348223,0.2024455908016154,-0.2978473266707489,-0.4271306366902206,1.6166389964424013,0.929524484462655,-1.056608954757171,-0.7956653783656092,9.809769507051897,-1.2018286594417158,0.0520696324496501,-1.109802416449846
0.32,-2.140227820845049,1.2870909634954,1.958570649989778,0.1256013706230787,0.2399710211047966,0.041341911247388,0.1460956910338746,-0.2869792646312564,-0.3315893673689397,-2.1406304550894766,1.2944540482223326,1.961014110301018,0.2375264260248134,-0.3378473272667953,-0.4671306372862671,1.6180362000020851,0.9463190294952114,-0.9835420557976288,-0.8690031434982287,9.634972960080631,-1.201572612628197,0.0570269610015293,-1.1101274385275928
0.34,-2.1372683861236523,1.2814614763159562,1.9520998940268597,0.1217519771006197,0.2436059762007342,0.0411368407396387,0.1645463704767352,-0.3047358851891728,-0.3486906263045522,-2.1365815432734445,1.2884971016889175,1.9524714975672133,0.2726072612480114,-0.3778473278628418,-0.5071306378823136,1.539625118920094,0.9225339721430303,-0.887831027895819,-0.855062946780627,9.601307424481092,-1.20167513616782,0.0614500097876721,-1.1094775902384506
0.36,-2.133769159369834,1.2751704379749662,1.9449319738517568,0.1182088932268628,0.2471959906246127,0.0409001911263818,0.1844729946100878,-0.3233773347166775,-0.3672191794977774,-2.131655610576832,1.2815401551406016,1.942928884818508,0.3076880964712092,-0.4178473284588883,-0.54713063847836,1.6491522619762786,0.9963312066676292,-0.9320724763752342,-0.9264276596612608,9.574155969585265,-1.2014846143173603,0.0652959620391611,-1.1076293240603516
0.38,-2.129865833031056,1.268509746732816,1.9373902547249051,0.114856432418554,0.2505573862495064,0.0406240191985768,0.2049271174626526,-0.341656964433146,-0.3860271687320606,-2.12585265699964,1.2735832085773842,1.9323862720549008,0.3427689316944072,-0.4578473290549347,-0.5871306390744064,1.6630216950448389,1.0227061426282391,-0.9139814858234258,-0.9403994617141588,9.574155969585265,-1.2013305852846556,0.0688645769188193,-1.1055829791549756
0.4,-2.1255482998988096,1.2614892144300556,1.929469639148513,0.1115497397692811,0.2537025959296362,0.0403024687511925,0.2258614690863928,-0.3593636263983016,-0.405095637231785,-2.119619477157922,1.2514268985111587,1.9180888962883025,0.2969010108070549,-0.4416569659232621,-0.4797268400601284,1.6698648499052735,1.0467175811870109,-0.885333098257779,-0.9534234249862216,9.55962833841022,-1.2012691460734597,0.0722960990659623,-1.103571923411791
0.42,-2.1207238565246613,1.2541043762785251,1.9213881027359296,0.1084102383030799,0.255923946358748,0.0398681566295772,0.255798471703888,-0.3783277505437941,-0.4009278226429656,-2.119619477157922,1.2514268985111587,1.9180888962883025,0.2969010108070549,-0.4416569659232621,-0.4797268400601284,1.7841193967699724,1.4968501308747575,-0.9482062072746268,0.2083907294409687,11.052398507798898,-1.1961326544046762,0.0753297398170383,-1.092299035537344
0.44,-2.1155854222764487,1.2467521691039207,1.9137952487649812,0.1059789138128424,0.256667821249797,0.039329914884596,0.2834248961456911,-0.3948292970168783,-0.3986583256679889,-2.119619477157922,1.2514268985111587,1.9180888962883025,0.2969010108070549,-0.4416569659232621,-0.4797268400601284,1.6129716209231972,1.3813212220901565,-0.825077323654208,0.1134748487488374,10.763153727360075,-1.2009483899765558,0.0775445378933483,-1.0961065089586068
0.46,-2.1096226980104174,1.238677824873843,1.9058072661214391,0.1040149937615468,0.2562787586497896,0.0386689246700149,0.3112689495360791,-0.4117798726248303,-0.4004336190363458,-2.116650467049852,1.247010328851926,1.913291627887701,0.3152957894759353,-0.4616569662212853,-0.4984667743257419,1.632302812893037,1.3922026695194016,-0.8475287803975995,-0.0887646684178455,10.505062362649369,-1.2059953186685697,0.0789984239688894,-1.0986775208113708
0.48,-2.10311435945465,1.2302697709860606,1.8977450207246616,0.1024819030229924,0.254608377752849,0.0378950454282329,0.3380573419964884,-0.4281668218035043,-0.4058205171942081,-2.1107124468337117,1.238177189533461,1.9036970910864983,0.3520853468136963,-0.5016569668173317,-0.5359466428569691,1.5930856425193656,1.339419623020463,-0.8193474589337002,-0.2693449078931126,10.505062362649369,-1.2114087888213885,0.0799693916146437,-1.0981437252477393
0.5,-2.096082378363158,1.2215412339085585,1.8895413327201291,0.1014049961903253,0.2514855308768088,0.0369961708620723,0.363664595950261,-0.443901134256671,-0.4142257903242974,-2.10477442661757,1.2293440502149957,1.894102554285296,0.3888749041514572,-0.5416569674133782,-0.5734265113881962,1.5604075267524538,1.280362697688633,-0.786715622658335,-0.4202636565044659,10.295206299537313,-1.2185074432787706,0.0805353838230011,-1.0950093914310757
0.52,-2.0889422158608437,1.212962831836281,1.8815703894671023,0.1008956779427683,0.2471306629734486,0.036030314828428,0.3864866187351815,-0.4583502264774711,-0.4243520013343901,-2.096996928534541,1.2185109108667282,1.882634024057532,0.4256644614892181,-0.5816569680094247,-0.6109063799194233,1.4423601660313037,1.1411011392460229,-0.7224546110400076,-0.5063105505046378,10.124453773592904,-1.227619461855324,0.080594447788349,-1.0889660186718428
0.54,-2.080983130990937,1.2036401134442831,1.872963208308788,0.1010636854529994,0.2414506031423869,0.0349434560769161,0.4079187843468118,-0.4732215606015077,-0.435826801912765,-2.089219430451512,1.2076777715184606,1.871165493829768,0.4624540188269791,-0.6216569686054711,-0.6483862484506505,1.424925743456965,1.0716082805815124,-0.7435667062018286,-0.5737400289187455,9.980944498078316,-1.2380922703565873,0.0799937152821872,-1.0801462704468685
0.56,-2.072619424600796,1.1940083545802715,1.8641176140172493,0.1017060474613967,0.2352709422205794,0.0338268331961637,0.4271517969499777,-0.4891936440885077,-0.4481485327024678,-2.0805221934350384,1.1958446321552918,1.8587599668887236,0.4992435761647399,-0.6616569692015175,-0.6858661169818776,1.3935936229431674,0.961650630158295,-0.7986041743500011,-0.6160865394851361,9.90636417137921,-1.247900166594647,0.0788494116867756,-1.070052159562035
0.58,-2.063893872555571,1.184046036673028,1.8550149785636385,0.1022055856263098,0.2289362472378424,0.0326718191347229,0.4442498422750337,-0.5061184676349947,-0.4614291848288453,-2.070905217485121,1.183011492777222,1.8454174432343984,0.5360331335025009,-0.701656969797564,-0.7233459855131047,1.3740164909119956,0.8549022662528022,-0.8462411773243472,-0.6640326063188762,9.771276136626511,-1.2567498619871913,0.0778669405876399,-1.0596484968754525
0.6,-2.0553073775542656,1.1742605915919522,1.846112094817946,0.1021124354024802,0.2230473033294177,0.0315405805917292,0.4586059487875027,-0.5229295494162026,-0.4749960338684222,-2.0416813804418195,1.1587401132912782,1.831943519322196,0.5194020531662805,-0.6061184691251108,-0.5329909013257897,1.2968901820455805,0.7178053256234523,-0.8405540890603969,-0.6783424519788472,9.697866176157731,-1.26490720482684,0.0773251594586408,-1.0485296401805089
0.62,-2.0458843449046134,1.1635416833835863,1.8367717556750287,0.0997705332083649,0.2161888930446424,0.0301286269793246,0.4829979248542616,-0.5477594971920137,-0.4565594454546587,-2.0416813804418195,1.1587401132912782,1.831943519322196,0.5194020531662805,-0.6061184691251108,-0.5329909013257897,1.9693924160317575,1.2195988033379428,-1.2414973887905525,0.9218294206881776,9.697866176157731,-1.2627859064794793,0.0787355754011681,-1.0243578537802795
0.64,-2.036002977085181,1.1523641848549828,1.827815020221785,0.0949793708398894,0.2082050803609595,0.0284677043872318,0.5035166638883058,-0.5681444519291005,-0.4401100893911803,-2.0416813804418195,1.1587401132912782,1.831943519322196,0.5194020531662805,-0.6061184691251108,-0.5329909013257897,1.663690435510299,1.025936951702211,-1.0192477368543396,0.822467803173918,11.897959332997743,-1.273375850795803,0.0817079572832886,-1.023406334783587
0.66,-2.0262794795213863,1.141405775475846,1.8195497056099272,0.0899961606225419,0.2003509741727099,0.0268859240208133,0.5187581131715879,-0.58420569236685,-0.4306799656112665,-2.0364873599101565,1.1526789286000272,1.826613610308938,0.5344324953445299,-0.626118469423134,-0.5473032446251787,1.203320879024542,0.7620724641641041,-0.8030620218874795,0.4715061889956906,11.45099459650919,-1.284244665104772,0.0853378522715608,-1.0207401128453546
0.68,-2.015772847525624,1.129567005375588,1.8109893635270584,0.0850400703213345,0.1923802443609026,0.025325254279143,0.530841255036045,-0.5987665127540569,-0.4260703597659847,-2.026099318846831,1.1405565592175249,1.8159537922824225,0.5644933797010286,-0.6661184700191805,-0.5759279312239564,0.9737405631300732,0.6041570932228513,-0.7280410193603426,0.2304802922640902,11.006271004307564,-1.2940248282666973,0.0888678178918138,-1.0149786194241808
0.7000000000000001,-2.005062258333369,1.1174545502130888,1.8024680915620608,0.0806762750406819,0.1852214544651536,0.0239276608386348,0.5394433335997554,-0.6117460978033501,-0.4264763652169721,-2.0157112777835056,1.1284341898350227,1.8052939742559064,0.5945542640575273,-0.7061184706152269,-0.6045526178227342,0.778829609244399,0.4301039281855212,-0.6489792524646598,-0.0203002725493672,10.646206645219536,-1.3025818605869128,0.0919529402273964,-1.0083428433670203
0.72,-1.9942134823322435,1.1050962967121505,1.7938903923261778,0.0769974351286621,0.1793314239897254,0.0227229171609906,0.5449367595720342,-0.623522028726045,-0.431236441664203,-2.003820192502355,1.1143118204227185,1.793202921899452,0.624615148414026,-0.7461184712112734,-0.6331773044215119,0.6919331719762984,0.2746712986139432,-0.5887965461347455,-0.238003822361546,10.338017816943648,-1.309531381441689,0.0944101390298871,-1.0018619088266878
0.74,-1.9838297014124204,1.093145892728411,1.785634934847325,0.0741477884029191,0.1754284270658192,0.0217833483756448,0.5477751797532148,-0.6339385387798601,-0.4375076912184122,-1.9919291072212044,1.1001894510104138,1.781111869542997,0.6546760327705248,-0.7861184718073199,-0.6618019910202897,0.6242773458114048,0.1419210090590261,-0.5208255026907527,-0.3135624777104634,10.093615830328416,-1.3142798052837426,0.0964561155315983,-0.9950444764154324
0.76,-1.9728572324478424,1.0803507306904592,1.77680231609495,0.0715680783552003,0.1736331405634076,0.0210162606786539,0.5493573542497108,-0.6449774122173426,-0.4454816095935761,-1.9792864998311412,1.085067081583208,1.7683052000215729,0.6847369171270234,-0.8261184724033662,-0.6904266776190675,0.6854622111391268,0.0791087248248001,-0.5519436718741277,-0.3986959187581934,9.985889563276942,-1.3152421213622911,0.0980692141373317,-0.9904938923372222
0.78,-1.961849075491911,1.0673371755164631,1.7677963239828267,0.0691218974618439,0.1740764316960225,0.0204332507300194,0.5516106457813673,-0.6557319032975287,-0.4547754136910618,-1.965892370332166,1.068944712141101,1.754782913335179,0.7147978014835221,-0.8661184729994127,-0.7190513642178452,0.7195679184810818,0.1126645765828271,-0.5377245540093056,-0.4646902048742823,9.89855795265794,-1.3129177493586746,0.0995333028346564,-0.9884970117373758
0.8,-1.950782349701496,1.0541135718429755,1.7585914788795842,0.0666883521982817,0.1759692208257136,0.0199608598968899,0.5551398936343573,-0.665979925887586,-0.4652421709400896,-1.9342685432028424,1.0345505803515869,1.7450575532982735,0.6278255478843145,-0.7557319047876448,-0.5061670636823357,0.7533766732588628,0.1764623926495012,-0.5124011295028652,-0.5233378624513924,9.821834468454654,-1.3099713104007735,0.10098075455232,-0.9884340091738454
0.8200000000000001,-1.9401118007798583,1.0413298099626584,1.7499611476254608,0.0638209653209076,0.1778679762046623,0.0194869027793497,0.5678185182535276,-0.6786773166543965,-0.4426780836961377,-1.9342685432028424,1.0345505803515869,1.7450575532982735,0.6278255478843145,-0.7557319047876448,-0.5061670636823357,1.4414483061070782,0.6339312309585121,-0.6348695383405212,1.128204362197596,9.760703172656576,-1.2967642978513518,0.1026195643407887,-0.9774415071047174
0.84,-1.9286211403637048,1.0276443159688269,1.7413216838136534,0.0605878092117926,0.1792033012697752,0.0189386159209832,0.5804795122936153,-0.6891571224662746,-0.422860579752859,-1.9342685432028424,1.0345505803515869,1.7450575532982735,0.6278255478843145,-0.7557319047876448,-0.5061670636823357,1.2873039292254151,0.6330497020043846,-0.5239902905939064,0.9908751971639346,11.920856834051849,-1.2978708932218044,0.1047787779177675,-0.9892033070793806
0.86,-1.9168880715196768,1.0137666979847355,1.7330120000612868,0.0577984543756117,0.1799885575635363,0.0183987450124222,0.592118641879819,-0.698117699121534,-0.4093590069362537,-1.9279902877239992,1.0269932613037105,1.7399958826614503,0.643068528304904,-0.775731905085668,-0.5164453936805904,0.9975642085115576,0.5819564793101861,-0.44802883276297,0.6750786408302623,11.507549155392551,-1.2993160636374623,0.1066419571195819,-0.9987760416106348
0.88,-1.9049338018437023,0.9997217840173472,1.724911913360279,0.0556348097755816,0.1802738920363415,0.0178859893720306,0.6026810664762374,-0.7060760906372555,-0.4013054101662409,-1.915433776766313,1.0118786232079575,1.7298725413878038,0.6735544891460828,-0.8157319056817145,-0.5370020536771,0.7742112596160291,0.5281212298209215,-0.3979195757860765,0.4026798385006441,11.12633894258488,-1.3006316050347797,0.1079696126622915,-1.0043088543237384
0.9,-1.89339120802525,0.986238968531594,1.7173269843836974,0.0542157809542801,0.1802020013475652,0.0174360896531952,0.6117675871972452,-0.7128836092054907,-0.3975047484918447,-1.9028772658086264,0.9967639851122048,1.719749200114157,0.7040404499872618,-0.855731906277761,-0.5575587136736095,0.59864888923599,0.4543260360503898,-0.3403759284117569,0.1900330837198066,10.825827423630471,-1.302068785286042,0.1088194633639081,-1.0078175304166237
0.92,-1.8810644677292632,0.9719149523954684,1.7093897568041874,0.0535982385721688,0.1799347885142053,0.0170251609892118,0.6203789154899751,-0.7192296747923932,-0.3965545438611834,-1.8887964568088813,0.9796493469866494,1.7085980258406848,0.7345264108284407,-0.8957319068738074,-0.5781153736701191,0.536959989753822,0.4305664146364962,-0.3173032793451269,0.0475102315330683,10.591822173824768,-1.3035171932267828,0.1088918357702624,-1.0097867650523518
0.94,-1.8685715348146807,0.9574691265572386,1.7014554422025192,0.054155276022246,0.1796245076328854,0.0167042016389205,0.6284657214172015,-0.7251421732414182,-0.3969667291081215,-1.874715647809136,0.9625347088610942,1.6974468515672123,0.7650123716696196,-0.935731907469854,-0.5986720336666287,0.5013082003422121,0.4043402963613163,-0.2956249224512486,-0.0206092623469072,10.341323382367593,-1.30442724353835,0.1078982449427832,-1.0105246940511667
0.96,-1.85591685333904,0.9428954880460342,1.6935020668575342,0.0557395012586916,0.1792369754733408,0.0164583077795014,0.636562633992882,-0.7319722736523554,-0.3983420291744628,-1.8598726897883613,0.9444200707206378,1.6857817607938277,0.7954983325107985,-0.9757319080659004,-0.6192286936631382,0.5340920219264127,0.4048456287840285,-0.3415050205468617,-0.0687650033170644,10.341323382367593,-1.3051469339790465,0.106086318070608,-1.0108898087850238
0.98,-1.843745737329343,0.9289143824446092,1.6859139854040566,0.0577989275855481,0.1786895048002262,0.01625814703049,0.6441660149742215,-0.7394491237401,-0.400364920319188,-1.844267582746557,0.9253054325652804,1.67360275352053,0.8259842933519773,-1.0157319086619467,-0.6397853536596477,0.5426941545783612,0.3801690490669751,-0.3738425043872284,-0.1011445572362601,10.293810308393404,-1.3061210079867889,0.1036554295901672,-1.010743747449594
1.0,-1.830780747852474,0.9140289604427628,1.6778759399496186,0.0599988179058959,0.1778799568850097,0.0160394967951427,0.6518794740448405,-0.7487140817501993,-0.4033600994532481,-1.811537436580632,0.8919419262576044,1.665895739388097,0.713015861694917,-0.8394491252302161,-0.4270990880291346,0.6211038476135159,0.3856729535309466,-0.463247900504965,-0.1497589567030027,10.205242084272868,-1.3071820157670373,0.1011895207792001,-1.0099109559359902
1.02,-1.8175659375027151,0.898871449017444,1.6700520550287905,0.0598157687011591,0.1754291103436503,0.0155599867788263,0.6695475413506328,-0.7660817967810433,-0.3773679111415278,-1.811537436580632,0.8919419262576044,1.665895739388097,0.713015861694917,-0.8394491252302161,-0.4270990880291346,1.7954052334685753,0.8834033652896145,-0.8683857515422,1.2996094155860145,12.240867729538875,-1.296973090996934,0.1000908626764668,-1.0015267481453607
1.04,-1.8046833610903228,0.8841706734853508,1.663114359717342,0.0563785090729726,0.1699583206975352,0.0147106438557201,0.6850786633217406,-0.7798940908766835,-0.3542903322547918,-1.811537436580632,0.8919419262576044,1.665895739388097,0.713015861694917,-0.8394491252302161,-0.4270990880291346,1.5528762548408437,0.7765560985553921,-0.690614704782011,1.1538789443368005,12.240867729538875,-1.3048281842911833,0.1026823157962711,-1.003783605070241
1.06,-1.7908564374746074,0.8684667109290668,1.6562335757659723,0.05148751262876,0.1619148951757326,0.0136505067581069,0.6962829247727657,-0.7895292468810701,-0.3352080070526733,-1.8044072779636828,0.8835474350053022,1.6616247485078055,0.7267858310390561,-0.8594491255282393,-0.432445921571124,1.2067589247766095,0.5602130725512522,-0.481757800219329,0.954116260105925,11.86743519272204,-1.3159127885818505,0.1066288248335873,-1.0011442696325
1.08,-1.776861126254224,0.8526036097261396,1.6496759410270423,0.0468901941988831,0.152977091959787,0.0126303804412593,0.7023102069068853,-0.7963172757047489,-0.321722443217251,-1.7901469607297846,0.8667584525006979,1.6530827667472232,0.7543257697273343,-0.8994491261242857,-0.4431395886551026,0.8128128585268269,0.3013641067059813,-0.3394014411839396,0.6742781917711133,11.102460057250028,-1.3265783779393228,0.1101702098125159,-0.995720865600436
1.1,-1.76279596631862,0.8366244925752819,1.6433307974487434,0.0431699227915329,0.144344635676326,0.0117466982671959,0.703753864028643,-0.8014630994753551,-0.3134282008638512,-1.7758866434958862,0.8499694699960936,1.6445407849866405,0.7818657084156125,-0.9394491267203322,-0.4538332557390813,0.4933510524471125,0.0721828560878878,-0.2572911885303119,0.4147121176699908,11.102460057250028,-1.3365439845785958,0.1131545764227076,-0.9877982428745732
1.12,-1.7494429350774694,0.8213584397611949,1.6374186399453927,0.0405643729010181,0.1372217154364449,0.0110632499410703,0.7017351655830419,-0.805462673781013,-0.3093093040124767,-1.760249329327574,0.8311804874616869,1.635464119871859,0.8094056471038907,-0.9794491273163788,-0.4645269228230599,0.3042903601538073,-0.1009349222800548,-0.1999787152828946,0.2059448425687227,10.795983550246092,-1.3446071652438965,0.1152578713884528,-0.9797053285398518
1.14,-1.735456903940544,0.8052124965440864,1.631262002098652,0.0388236281205918,0.1315073768319761,0.0105193470539829,0.6968042273652819,-0.8090683426015641,-0.3066375148379497,-1.7446120151592617,0.8123915049272802,1.6263874547570774,0.8369455857921689,-1.0194491279124251,-0.4752205899070386,0.3333671277435007,-0.2465469108880014,-0.1802834410275566,0.1335894587263492,10.46132242245585,-1.350330945522047,0.1164687992970528,-0.9720849911935656
1.16,-1.721596189024274,0.7889906171606463,1.6251435307366489,0.0379300322652024,0.1284242279843946,0.0101591108852041,0.6895078632930866,-0.8129871272398493,-0.3053341123656274,-1.7282862025237424,0.7926025223779725,1.6170434479651965,0.8644855244804471,-1.0594491285084715,-0.4859142569910172,0.419203589321881,-0.364818203609768,-0.1959392319142605,0.065170123616115,10.46132242245585,-1.3529129196269938,0.1169345925328365,-0.9675225217577206
1.18,-1.7085694954205688,0.773506291816142,1.619346738069065,0.0376329193779223,0.1282654772530937,0.0099752281690474,0.6824582499720829,-0.8167599740251716,-0.3049310801212556,-1.7112718914210163,0.7718135398137635,1.6074320994962157,0.8920254631687253,-1.099449129104518,-0.4966079240749959,0.4002931920205237,-0.3524806660501811,-0.1886423392661151,0.0201516122185912,10.391882115789484,-1.350496898898418,0.1168019403025517,-0.967446617736332
1.2,-1.6949844665383342,0.7571295964350427,1.6132473858917682,0.0378382674992072,0.1302927779656748,0.0099135577091522,0.67667110932903,-0.8207298947167563,-0.3050577011006711,-1.6744465829219646,0.7326682931148835,1.6041001840630025,0.7634063792683857,-0.9167599755152878,-0.3041693155897662,0.3509533444504251,-0.2893570321526484,-0.1984960345792319,-0.0063310489707729,10.332506864988318,-1.346301819342978,0.1162680322318465,-0.9701255225601872
1.22,-1.6814552011925652,0.7406145024155631,1.6073841932708175,0.0369746169174945,0.1335461118816858,0.0098363785281669,0.67692766486538,-0.8302522601632173,-0.2799975391537564,-1.6744465829219646,0.7326682931148835,1.6041001840630025,0.7634063792683857,-0.9167599755152878,-0.3041693155897662,1.3404784418676574,0.0128277768175033,-0.4761182723230506,1.253008097345734,12.017362285590025,-1.3328915609964225,0.1162152056803812,-0.9695532578451708
1.24,-1.6679021702875798,0.7239332357804079,1.6020400476076933,0.034343649455255,0.13726600165757,0.0096619932154906,0.6785077776545659,-0.8370490363540433,-0.2558315655920282,-1.6744465829219646,0.7326682931148835,1.6041001840630025,0.7634063792683857,-0.9167599755152878,-0.3041693155897662,1.257663708231333,0.0790056394592952,-0.3398388095412985,1.2082986780864111,11.769899023129256,-1.3278562001662355,0.1180878151435849,-0.9817259529299036
1.26,-1.6549898777007923,0.7079924151048895,1.5973723274892986,0.0317011153499278,0.1409659315392614,0.0094975932565322,0.6807211198935664,-0.8406814785882601,-0.2367356105228401,-1.6668125191292806,0.7235006933597306,1.6010584909071046,0.7795960051276463,-0.9367599758133108,-0.3040169626834683,0.9781986256076968,0.1106671119500246,-0.181622111710844,0.954797753459402,11.769899023129256,-1.3234658442181968,0.1203699583976818,-0.9938276787329924
1.28,-1.6413448938854056,0.6911547406733429,1.5928191910966032,0.0295995867142162,0.1448285988765546,0.0093773636989957,0.6837598510930631,-0.8430605481862302,-0.2197408168968297,-1.651544391543913,0.7051654938494248,1.5949751045953091,0.8119752568461674,-0.9767599764093574,-0.3037122568708725,0.8713737284389883,0.1519365599748356,-0.1189534798985036,0.8497396813005222,11.520193896100864,-1.319550743018519,0.1221365700511094,-1.0047598765355827
1.3,-1.62763128896237,0.6742791457518943,1.5885764823809456,0.028518923499321,0.1485008322414032,0.0093315349879368,0.6875278540528706,-0.844485381568214,-0.2055049831278731,-1.6362762639585453,0.6868302943391191,1.588891718283514,0.8443545085646885,-1.016759977005404,-0.3034075510582767,0.7397414405873458,0.1884001479903752,-0.0712416690991868,0.711791688447827,11.18138407620063,-1.3159091536387435,0.1230354130947698,-1.0146985234621362
1.32,-1.6138351583016777,0.6573856040983527,1.584594319605527,0.0288955684681283,0.1518425345947045,0.0093895305743536,0.69195711757271,-0.8450444323058265,-0.1934376260877803,-1.6193891737872517,0.666495094799011,1.5828235672623483,0.8767337602832096,-1.0567599776014502,-0.3031028452456809,0.6433350973413506,0.2214631759919649,-0.0279525368806266,0.6033678520046409,11.18138407620063,-1.312916609221433,0.1226911978928921,-1.0231833649929427
1.34,-1.6006391885165103,0.6413289662361822,1.581030386792554,0.0309122103070189,0.1546278244603151,0.0095620447560179,0.6969016471143774,-0.8453505068381572,-0.1823330915631325,-1.6025020836159578,0.6461598952589029,1.576755416241183,0.9091130120017308,-1.0967599781974968,-0.3027981394330851,0.6079735623710498,0.2472264770833732,-0.0153037266165334,0.5552267262323884,11.07189264295539,-1.3099736405997904,0.1207196500227538,-1.0309047555185902
1.36,-1.5866370100219531,0.624398286010314,1.5775059090259025,0.0343999534882026,0.1569976217851132,0.0098355978484699,0.7030751878851769,-0.848123675460476,-0.1707180842511872,-1.584805512151701,0.6248246957038938,1.5706948828653324,0.941492263720252,-1.1367599787935432,-0.3024934336204893,0.6721448220307159,0.3086770385399728,-0.13865843111594,0.5807503655972684,11.065126999411405,-1.3078214718814012,0.1174264631453161,-1.0377789022206776
1.38,-1.572502377008328,0.6073811264846851,1.5742126675537218,0.0379473661685869,0.1585714593432798,0.01009778503289,0.7100107621273553,-0.853430543465496,-0.1591960393677803,-1.5662994593944812,0.6024894961339833,1.5646419671347969,0.973871515438773,-1.1767599793895895,-0.3021887278078936,0.7228806201350205,0.3467787121089194,-0.2653434002510002,0.5761022441703456,11.074707957819555,-1.3059779229897237,0.1141776395394656,-1.0431905352581636
1.4,-1.5589426064037364,0.5911024421278624,1.5712953882526883,0.0407954701883032,0.1592486071834268,0.0102867516265183,0.7168991168890987,-0.8597187661892068,-0.1484614950263545,-1.5370018389019602,0.5647095993114103,1.5662528655853327,0.7913322325667893,-0.9166162278484116,-0.1773748413513751,0.7110232390095694,0.3444177380871716,-0.3144111361855439,0.5367272170712895,11.079199352252544,-1.3050363984986242,0.1112439892497778,-1.0478306451721349
1.42,-1.5444910258742266,0.5736437117326805,1.568491751296014,0.0371007455720302,0.1582635820348507,0.0099598713265008,0.7279551026912221,-0.8832989712606811,-0.1320382981656344,-1.5370018389019602,0.5647095993114103,1.5662528655853327,0.7913322325667893,-0.9166162278484116,-0.1773748413513751,1.5394660506125983,0.5527992901061707,-1.1790102535737146,0.8211598430360012,11.079199352252544,-1.301833937225784,0.1144178560535118,-1.0466595861318206
1.44,-1.52982881044765,0.555863234505345,1.5660102935386422,0.0263727992980882,0.1547704431164157,0.0090974979948643,0.7374651367269249,-0.8924042140215435,-0.117041836312586,-1.5370018389019602,0.5647095993114103,1.5662528655853327,0.7913322325667893,-0.9166162278484116,-0.1773748413513751,0.9977976513356772,0.4755017017851415,-0.4552621380431165,0.7498230926524192,11.506078975570745,-1.3049588869074726,0.1245022324504723,-1.0467180815078314
1.46,-1.5150084568450766,0.5380040386881787,1.563780113640859,0.014821320414542,0.1494709528499913,0.0082183624735321,0.7437681634321903,-0.8929490531236078,-0.1066907591528387,-1.5290885165762922,0.5555434370329262,1.5644791171718189,0.8075965266546761,-0.9292533647249944,-0.1810106017480941,0.6065677902375611,0.3151513352632695,-0.0272419551032188,0.5175538579873697,11.287240701571136,-1.3125977864266098,0.1351223367907804,-1.0450457215551436
1.48,-1.5008522949571166,0.5210776826010176,1.5618124259990465,0.0051586836679314,0.143816628980623,0.00755875407819,0.7458883716006005,-0.8890583333761743,-0.1009396331299938,-1.5132618719249564,0.5372111124759579,1.5609316203447914,0.8401251148304497,-0.9545276384781608,-0.1882821225415321,0.3630028696894313,0.1060104084205093,0.1945359873716745,0.2875563011422402,10.984998369628556,-1.3215468333946765,0.1451227041580218,-1.041151301849872
1.5,-1.485944310743207,0.5033660331022912,1.5598262191126393,-0.0029832286505842,0.1383614600498773,0.0070949981008006,0.7445849841069716,-0.8825950293659922,-0.0981246439602374,-1.4974352272736209,0.5188787879189897,1.557384123517764,0.8726537030062234,-0.979801912231327,-0.19555364333497,0.3584594876427145,-0.0651693746814452,0.3231652005091068,0.1407494584878238,10.530072036408455,-1.3297598133085369,0.1531688343576339,-1.0363533408963788
1.52,-1.4710981533161382,0.4857995862609247,1.557866862108351,-0.008965680813381,0.1345441528039023,0.0068412890680393,0.7399252450262459,-0.8747203175968062,-0.0980546542803636,-1.4799821532134962,0.4992827496743631,1.5534730506510646,0.905182291181997,-1.0050761859844932,-0.202825164128408,0.4575181753315579,-0.232986954036285,0.3937355884592985,0.0034994839936866,10.530072036408455,-1.3361585983829287,0.1591784353273674,-1.0324737382971574
1.54,-1.45637393565836,0.4684000590617385,1.5558902901690357,-0.0129009389713575,0.1335279598170904,0.0067436043164,0.7330556905509304,-0.8661427607279489,-0.0996010121740466,-1.4625290791533716,0.4796867114297365,1.549561977784365,0.9377108793577706,-1.0303504597376594,-0.210096684921846,0.5548794537175695,-0.3434777237657727,0.4288778434428653,-0.0773178946841486,10.38385249950079,-1.3379915328336622,0.1629880701702251,-1.031094106570013
1.56,-1.442502244133668,0.4520254324177718,1.5539775718543527,-0.0152232382400264,0.135045291143868,0.0067369950467107,0.7277633205710181,-0.8582329848343612,-0.1016653221914379,-1.4442627903888527,0.4594588163412809,1.5454691168978296,0.9702394675335442,-1.0556247334908258,-0.2173682057152839,0.4869166010184947,-0.2646184989956168,0.3954887946793883,-0.1032155008695655,10.302663569435936,-1.336152081344092,0.1655432194668858,-1.0325654803460105
1.58,-1.4279886396724897,0.43495003651121,1.5519206147545077,-0.0165678130883524,0.1383518567997241,0.0067939278543411,0.7241210804269815,-0.8498334816339604,-0.1039322347376974,-1.4251832869199397,0.438599064408996,1.5411944679914584,1.002768055709318,-1.080899007243992,-0.2246397265087219,0.4715836611163559,-0.1821120072018289,0.4199751600200363,-0.1133456273129752,10.265857485577726,-1.3325954049247968,0.1670637304446469,-1.036390652500918
1.6,-1.4135258596690812,0.4180469520361115,1.549819718385696,-0.0167423164615645,0.142604124888482,0.0069297084985543,0.7225381232644666,-0.8409984121432101,-0.1060456451245151,-1.3917825856511403,0.392458362429512,1.5467240030176228,0.8127606154368425,-0.8707971243801705,-0.1093610700216623,0.4610604888402737,-0.0791478581257443,0.4417534745375151,-0.1056705193408842,10.263042391983618,-1.3284316630634163,0.1675477292022788,-1.0418576938621311
1.62,-1.3990263923502937,0.401178260051824,1.5478272334156589,-0.020317132921388,0.1463386719778485,0.0068492984853829,0.7276362118964134,-0.844338809195042,-0.0923554117418773,-1.3917825856511403,0.392458362429512,1.5467240030176228,0.8127606154368425,-0.8707971243801705,-0.1093610700216623,0.7492850763130172,0.2549044315973359,-0.1670198525915933,0.6845116691318897,10.278422581687664,-1.32052930478828,0.1704360797807759,-1.0411998393071278
1.64,-1.385152897869492,0.3851862393590462,1.5461971943252737,-0.0273876307377018,0.1486057492002054,0.0065480674019422,0.7323943861197819,-0.8383442345949674,-0.0800273766744036,-1.3917825856511403,0.392458362429512,1.5467240030176228,0.8127606154368425,-0.8707971243801705,-0.1093610700216623,0.725526696959955,0.2379087111684275,0.2997287300037288,0.616401753373684,11.307495406095768,-1.3191634366627072,0.1782666887227367,-1.0506899519628177
1.66,-1.3704601266104637,0.3685380319894423,1.5447027674978009,-0.0348548770110238,0.1501647119129404,0.0062636794304544,0.7365814421035514,-0.8267951701282711,-0.0702171123310869,-1.383654979496772,0.3837503911857103,1.5456303923174062,0.8304885224388148,-0.8749898529294126,-0.1104468370784553,0.7860560004746485,0.2093527991884725,0.5774532233348173,0.4905132171658388,11.16310651716958,-1.320234545953649,0.186434403808761,-1.0591624991276247
1.68,-1.3556924611075498,0.3521547853134632,1.5433700646042572,-0.0409412023400518,0.1512660512208403,0.0061094683184478,0.7399758691925054,-0.8124855896399507,-0.0635324146618934,-1.3673997671880354,0.3663344486981069,1.543443170916973,0.8659443364427591,-0.8833753100278966,-0.1126183711920412,0.8077304809502764,0.1697213544476994,0.7154790244160214,0.3342348834596734,10.981785419501648,-1.3221635895391608,0.1930622499274537,-1.065818173912625
1.7,-1.3416062512579852,0.3368694394658979,1.542206985122912,-0.0451164399010353,0.1521624169136763,0.0060996835609289,0.742637996867211,-0.7976358256651052,-0.0592198724923696,-1.3511445548792984,0.3489185062105035,1.5412559495165397,0.9014001504467036,-0.8917607671263806,-0.1147899053056272,0.7845387718732795,0.1331063837352819,0.7424881987422749,0.2156271084761872,10.824464380832978,-1.3243693957964546,0.1984460124739812,-1.0716989162813813
1.72,-1.3267280452559145,0.3210874112504595,1.5410577855847216,-0.0479165502333378,0.1531676539148648,0.0062168065083805,0.7450683042980368,-0.781653642572591,-0.0559746653730338,-1.3331165518703645,0.3310832908679759,1.5389601514104272,0.936855964450648,-0.9001462242248647,-0.1169614394192131,0.8244209177634357,0.121515371541292,0.7991091546257101,0.1622603559667933,10.646108261413248,-1.326397888773195,0.2022310326693185,-1.0770497410843145
1.74,-1.3118017038626668,0.30562982390526,1.539968951720745,-0.0491699158928704,0.154372253372622,0.0064503066117014,0.7474939186434169,-0.7651094882039223,-0.0530744947820395,-1.3150885488614303,0.3132480755254483,1.5366643533043145,0.9723117784545924,-0.9085316813233488,-0.1191329735327991,0.8485334969577196,0.1212807172690011,0.8272077184334314,0.145008529549712,10.646108261413248,-1.3279619772540507,0.2045312178236618,-1.0827768434653364
1.76,-1.2968204725855308,0.2905087079814147,1.5389379159800285,-0.0486726358887215,0.1556777149089942,0.0068175880170482,0.7505339713061945,-0.7481119048324659,-0.0501735115556736,-1.2961741505023976,0.2952032237554586,1.5343142668453624,1.0077675924585368,-0.9169171384218328,-0.121304507646385,0.8754648255951367,0.1520026331388813,0.8498791685728202,0.1450491613182981,10.6416239877326,-1.3293627580342122,0.205184890517401,-1.0890058139644627
1.78,-1.2825265328804494,0.2764590537926193,1.538013968256026,-0.0464136542227966,0.1568016461157513,0.0073107345321303,0.7539355076006213,-0.7319088377891833,-0.0472257656784529,-1.2763733567932665,0.2769487355580068,1.5319098920335703,1.043223406462481,-0.9253025955203168,-0.123476041759971,0.8408314880641778,0.1700768147213427,0.8101533521641335,0.1473872938610353,10.652198770542782,-1.3311796483216352,0.2040515197416325,-1.095747716341845
1.8,-1.2674066826172383,0.2619825038367812,1.5371056718826648,-0.0424832265986868,0.157733272846739,0.0079619728238807,0.7578715406320649,-0.7170870653849638,-0.0437284371946378,-1.2448297575004184,0.2398636119031602,1.5356526799721035,0.8330989099195758,-0.6993113965629393,-0.0709704568417543,0.786461378185222,0.196801651572176,0.7410886202109723,0.1748664241907511,10.671859742996276,-1.33354591980043,0.2012764951323195,-1.1017830452827089
1.82,-1.2521550377401722,0.2475790061729854,1.5362922795879057,-0.0444588545150234,0.1568822212616789,0.0082895256098023,0.7671472354411931,-0.721630552747493,-0.0377781569975816,-1.2448297575004184,0.2398636119031602,1.5356526799721035,0.8330989099195758,-0.6993113965629393,-0.0709704568417543,0.5960025713640658,0.4637847404564132,-0.2271743681264593,0.2975140098528128,10.694383235795613,-1.333082079065151,0.2035154904661918,-1.101420535644596
1.84,-1.237504456733321,0.233925689617484,1.5356126730453816,-0.0532804007396913,0.153097823283711,0.0082923787457925,0.7742759270902342,-0.7140224179640395,-0.0340956654476197,-1.2448297575004184,0.2398636119031602,1.5356526799721035,0.8330989099195758,-0.6993113965629393,-0.0709704568417543,0.5528623326060537,0.3564345824520532,0.3804067391726728,0.1841245774980932,10.839864187173587,-1.3398643935345895,0.2140451560511559,-1.1009325246945705
1.86,-1.221977081583128,0.2198104565084489,1.534942968731549,-0.0637913518986224,0.1471522475562998,0.0084022741026013,0.7776693705804336,-0.6976818315369046,-0.0331937299558185,-1.2364987684012223,0.2328704979375308,1.534942975403686,0.8489315903833667,-0.6927919083176904,-0.0757193950744146,0.8356789322688705,0.1696721745099716,0.8170293213567492,0.0450967745900622,10.694556502093292,-1.3524897053711835,0.2264144308167618,-1.0988510724163676
1.88,-1.206428737157125,0.2060736065535705,1.5342596292517825,-0.073180922401728,0.1407621207117024,0.0087212993246202,0.7767612578470398,-0.6769759263460393,-0.0352878737777692,-1.219836790202831,0.218884270006272,1.533523566266851,0.8805969513109485,-0.6797529318271929,-0.0852172715397352,1.0415668687807165,-0.0454056366696931,1.0352952595432618,-0.1047071910975361,10.522309969385788,-1.365083729362283,0.2371731053239504,-1.0953743189235
1.9,-1.1909402951843202,0.192779079258859,1.5335072516137431,-0.0805663425865781,0.1352596050675202,0.0092024630195095,0.7720436124859309,-0.6539869901529729,-0.039798271690406,-1.2031748120044397,0.2048980420750132,1.5321041571300158,0.9122623122385304,-0.6667139553366953,-0.0947151480050558,1.194875573409622,-0.2358822680554428,1.1494468096533206,-0.2255198956318392,10.3644661984099,-1.3777772255073115,0.2464174208088251,-1.0906646139567473
1.92,-1.1763459428057406,0.1805859998381094,1.5326955218964424,-0.0856975178667578,0.1319687098094247,0.0096911516889314,0.7644019516068528,-0.6310998588531849,-0.0453830413030973,-1.184929565759669,0.1915637629682793,1.5302098541699147,0.943927673166112,-0.6536749788461977,-0.1042130244703764,1.2383511333133776,-0.3820830439539069,1.1443565649894016,-0.2792384806345662,10.251029609724355,-1.3880226203235058,0.2534467342142303,-1.0870445122891996
1.94,-1.161160683973108,0.168222352585574,1.5317214514900204,-0.089399822404161,0.1315581843475835,0.0100958145618343,0.754871589127923,-0.6067537347978524,-0.0517377234334078,-1.1666843195148984,0.1782294838615454,1.5283155512098134,0.975593034093694,-0.6406360023557001,-0.113710900935697,1.3453099554328702,-0.4765181239464899,1.2173062027666215,-0.3177341065155235,10.163249560820075,-1.39195056064015,0.2584100556147025,-1.0867407900190988
1.96,-1.1461505797247395,0.1563540121794602,1.5306203194311896,-0.0914593006550791,0.1339472310868859,0.0103830409996504,0.746981051313904,-0.5817465980438176,-0.0580356559374571,-1.1476474392469382,0.1652211791670739,1.5261838013380793,1.0072583950212757,-0.6275970258652025,-0.1232087774010176,1.3484077920412525,-0.3945268907009469,1.2503568377017438,-0.3148966252024675,10.163249560820075,-1.392108508834894,0.2615847413908106,-1.09045334766783
1.98,-1.132015602951405,0.1455482575341812,1.5294626994517264,-0.0918554124218424,0.1378957877466405,0.0106231123600631,0.7415543022745895,-0.5572402232014808,-0.0634996932884689,-1.1278189249557884,0.1525388488848649,1.5238146045547123,1.038923755948857,-0.6145580493747049,-0.1327066538663381,1.2843945239120145,-0.2713374519657252,1.2253187421168377,-0.2732018675505865,10.171557490525627,-1.3904485621200184,0.2633979393338189,-1.0976417189958496
2.0,-1.1172244132359055,0.1346805876504039,1.5281386848579015,-0.0903288799431773,0.1429883740039653,0.010941191372485,0.7380728044100271,-0.5310222569383533,-0.0685799519936325,-1.0949378878376756,0.1176862463741071,1.526287714787303,0.8145574378961372,-0.5245793663584861,-0.0641035233810554,1.346580494128404,-0.174074893228121,1.3108983131563778,-0.2540129352581833,10.2106210558386,-1.3883297432418702,0.2633718989963119,-1.107435667265838
2.02,-1.1024045010190295,0.1243702872537787,1.5268337751817684,-0.0858088345159567,0.146557636960128,0.011626106539642,0.7441521157552697,-0.5024064185833943,-0.060938511227017,-1.0949378878376756,0.1176862463741071,1.526287714787303,0.8145574378961372,-0.5245793663584861,-0.0641035233810554,1.5118001258261866,0.3039655672621322,1.4307919177479478,0.3820720383307753,10.260777922961095,-1.3805432918282152,0.2597927413759399,-1.1150947438955023
2.04,-1.087460187764412,0.1145781328344526,1.5257133597311086,-0.0794472269457517,0.1468117567886819,0.0127373187260289,0.7497050505305226,-0.47868939718938,-0.0515366331172515,-1.0949378878376756,0.1176862463741071,1.526287714787303,0.8145574378961372,-0.5245793663584861,-0.0641035233810554,1.3054955959454966,0.2776467387626435,1.1858510697007163,0.4700939054882783,11.109243316830543,-1.3873182493098632,0.2565399068278249,-1.1290756635916468
2.06,-1.0731761855211108,0.105684180396454,1.5248167263126715,-0.0731704656487718,0.1448052151912585,0.0139806418192336,0.7534238193735727,-0.458880031246101,-0.0433086334514973,-1.0867923134587143,0.1124404527105223,1.5256466795534924,0.8291580650204468,-0.5180471949898872,-0.0642242893995728,1.0885083822396948,0.1859384421525056,0.9904682971639488,0.4113999832877055,11.113228650735437,-1.3947320157544156,0.2524781910758479,-1.1396362296564442
2.08,-1.0580864181620029,0.0967056741908683,1.5240330249469245,-0.0668775359988794,0.1410696592442973,0.0153625485008715,0.7551328710112855,-0.4401238357902741,-0.0355334487995951,-1.0705011647007914,0.1019488653833525,1.5243646090858711,0.8583593192690658,-0.5049828522526894,-0.0644658214366074,1.0187850875537048,0.0854525818856366,0.9378097727913426,0.3887592325951101,11.059949659294944,-1.4035787949118064,0.2484448146251964,-1.1462612135911687
2.1,-1.0429910968457985,0.0880848401142198,1.5233932366088123,-0.0611254889085552,0.1365575073940345,0.0167269273480478,0.7540828707887133,-0.4229674018990395,-0.0288803689158328,-1.054210015942869,0.0914572780561828,1.5230825386182505,0.8875605735176849,-0.4919185095154914,-0.064707353473642,0.9215600852242763,-0.0525000111286089,0.8578216945617334,0.332653994188117,10.998365671863212,-1.4131453228726991,0.244765330592996,-1.1505443484753397
2.12,-1.0279505493573025,0.079791996380427,1.522873295207834,-0.0559884270338465,0.132367431445124,0.0179975099277742,0.749886253462904,-0.407177196992495,-0.023449621878848,-1.036458804472515,0.081618907865873,1.5217883915487775,0.916761827766304,-0.4788541667782935,-0.0649488855106767,0.8608646545039216,-0.2098308662904613,0.789510245327224,0.2715373518492388,10.862024719411238,-1.4219345847877922,0.2418545836766226,-1.1555732179357514
2.14,-1.013767904930369,0.0721954190863547,1.5224747078154997,-0.051679398734655,0.1297717817636317,0.0190648445100511,0.7431729696698192,-0.3932307787669868,-0.0187870941384402,-1.0187075930021612,0.0717805376755632,1.5204942444793046,0.9459630820149232,-0.4657898240410956,-0.0651904175477113,0.8082541765084701,-0.3356641896542445,0.6973209112754064,0.2331263870203914,10.862024719411238,-1.4290162456384414,0.2391157470996134,-1.160701715286127
2.16,-0.9989902782830216,0.0644779285920825,1.5221480047264817,-0.0476654689814592,0.1293278874409286,0.0200208548268632,0.7352167671472297,-0.3792788352999309,-0.0141559070437733,-1.000226350175592,0.0622687760536833,1.519194059108906,0.9751643362635422,-0.4527254813038978,-0.0654319495847459,0.835771767581009,-0.397810126129472,0.6975971733527986,0.2315593547333453,10.843785800627302,-1.430270490650695,0.2364293389874683,-1.1664785499379868
2.18,-0.9843597315578844,0.0570326277083886,1.521912376288688,-0.0440801175863364,0.1308837820379049,0.0208477387241147,0.7284562453335126,-0.3659812050284822,-0.0096572552436971,-0.9810150759928074,0.0530836230002333,1.517887835437581,1.0043655905121611,-0.4396611385666999,-0.0656734816217805,0.7790531016051169,-0.3380260906858556,0.6648815135724323,0.2249325900038092,10.826079105318968,-1.4290790186423863,0.2341893378487474,-1.1741187618980529
2.2,-0.9705712581064416,0.0502001370808233,1.5217722990604647,-0.0410038392401524,0.1335946950982986,0.0215576362339702,0.72347118987156,-0.3539203766517169,-0.0053227654376932,-0.9479369192912088,0.0387335674569645,1.521429513526503,0.7911459445660909,-0.3250644343318422,-0.0234020537326121,0.6875721070747468,-0.2492527730976301,0.6030414188382655,0.2167244903001969,10.821776586206395,-1.4263025679763708,0.2321411175284529,-1.1839140160859618
2.22,-0.9560969377483084,0.0432029866666605,1.521722223068519,-0.0396207309876028,0.1357936098007213,0.0222038987475395,0.7241851713720054,-0.3459022105885775,8.459612991773666e-05,-0.9479369192912088,0.0387335674569645,1.521429513526503,0.7911459445660909,-0.3250644343318422,-0.0234020537326121,0.484871930827964,0.0356990750222718,0.4009083031569715,0.2703680783805476,10.831771994696282,-1.4213350570415078,0.2316850788825608,-1.190225656324371
2.24,-0.941616011228831,0.0363788379877283,1.5217730014498865,-0.0408694234446868,0.1361440919554527,0.0227400586747479,0.723701087760114,-0.3366109790661236,0.0046980327682867,-0.9479369192912088,0.0387335674569645,1.521429513526503,0.7911459445660909,-0.3250644343318422,-0.0234020537326121,0.519242519838726,-0.0242041805945725,0.4645615761226934,0.2306718319184509,10.885237216085445,-1.4237363922031876,0.234583154622899,-1.1972140463227987
2.26,-0.9278834657199772,0.0300850226410679,1.5218946692143014,-0.0436971544424435,0.1356422841599271,0.0231721507830377,0.7217679115198748,-0.3260056597286592,0.0078603821048518,-0.940025459845548,0.0354829231136461,1.521195492989177,0.8036838844126065,-0.3168810801925142,-0.0261510134303951,0.5617170594522991,-0.0966588120119571,0.5302659668732196,0.1581174668282552,10.774834177660525,-1.4262545588803903,0.2394385429538797,-1.2023072007540203
2.28,-0.9134832920310844,0.023709184400946,1.5220753439550951,-0.0471559658247995,0.1349340889432202,0.0236084231437677,0.7183114755163695,-0.3120497292892895,0.0099816223996524,-0.924202540954226,0.0289816344270092,1.5207274519145246,0.8287597641056379,-0.3005143719138582,-0.0316489328259611,0.7266612083067661,-0.1728218001752657,0.6977965219684856,0.1060620147400308,10.713615066485543,-1.4291070101398953,0.2448510150079289,-1.2061360144796212
2.3000000000000003,-0.8991633756480456,0.0176318110314565,1.5222866195482243,-0.0501793730031737,0.1345379821145753,0.0240676846122257,0.7138667213390675,-0.2964673960114932,0.0109932200908244,-0.9083796220629042,0.0224803457403724,1.5202594108398724,0.8538356437986692,-0.2841476636352022,-0.037146852221527,0.8117701028704924,-0.2222377088651028,0.7791166638898173,0.0505798845585987,10.713615066485543,-1.432040311642781,0.2498700376495871,-1.2105815418257058
2.32,-0.884939762102286,0.0118761679650955,1.522508637618669,-0.0524204490380625,0.134769618688486,0.0245546504234417,0.7088248218540207,-0.2800815829412658,0.0111567130627206,-0.8913029091869309,0.0167973924676683,1.519516473795442,0.8789115234917004,-0.2677809553565462,-0.042644771617093,0.8572373509443131,-0.252094974252337,0.8192906535113703,0.0081746485948116,10.660230509265602,-1.4343766953352917,0.2538898892356587,-1.2158133356630854
2.34,-0.8715223151782976,0.0067166713248504,1.5227180166140348,-0.0537736597516833,0.1356898186499429,0.0250363583405325,0.7039100121623818,-0.2639990683530724,0.0108685339909578,-0.8742261963109574,0.0111144391949643,1.5187735367510111,0.9039874031847318,-0.2514142470778902,-0.048142691012659,0.8409602799209408,-0.2457404845819466,0.8041257294096688,-0.0144089535881439,10.624096941541213,-1.435488025987803,0.2571834479246875,-1.2221688170773206
2.36,-0.8574937627203351,0.001622369796025,1.5229296647962691,-0.0541916205332063,0.1372987615289014,0.0255791317931975,0.6993044989951257,-0.2463741310461881,0.0102937256539109,-0.8565225864426583,0.0058406536292266,1.5178931517216916,0.9290632828777632,-0.2350475387992342,-0.053640610408225,0.9112897058972356,-0.2302756583628051,0.8812468653442124,-0.028740416852341,10.606786300977546,-1.4351070317617414,0.2592970161916302,-1.2298230144232472
2.38,-0.8435498885117367,-0.0031125456619145,1.5231282104612494,-0.0532036234968157,0.1393249414165718,0.0261967037790688,0.6954045266089579,-0.2281474413539762,0.0095811915567709,-0.8381920795820335,0.0009760357704554,1.5168753187074826,0.9541391625707945,-0.2186808305205782,-0.059138529803791,0.9326436974920292,-0.1949986193083897,0.9113344846105944,-0.0356267048569995,10.605691044072046,-1.4343522226666383,0.259859111098191,-1.2385952168266026
2.4,-0.8296760455692082,-0.0074815761612179,1.5233125017631364,-0.0504904068881354,0.1415464739779875,0.0269238747779899,0.6922564238466878,-0.2100256162782636,0.0088829883406437,-0.8087796621812888,-0.0145199177296133,1.523607270039088,0.733063881116881,-0.1959719972874517,0.0092435116863443,0.9203241043343796,-0.1574051381135033,0.9060912537856332,-0.0349101608063626,10.605691044072046,-1.4339295898158262,0.258605680527144,-1.2476265134684674
2.42,-0.8164509618353619,-0.0112752281159205,1.5235551100409317,-0.0456260477626553,0.1410458858186352,0.0278975725057407,0.7002914601575423,-0.1910860402693192,0.0172063700064665,-0.8087796621812888,-0.0145199177296133,1.523607270039088,0.733063881116881,-0.1959719972874517,0.0092435116863443,1.1096711565485151,0.4017518155427224,0.9469788004472208,0.4161690832911416,10.614959071044725,-1.4236991825019245,0.2533410430376797,-1.2518569647727205
2.44,-0.8023760989700253,-0.0149373047546325,1.5239977520482653,-0.0391309438009766,0.1348873902845405,0.0292372531230006,0.7058541051209459,-0.1764324915465063,0.0265675274878079,-0.8087796621812888,-0.0145199177296133,1.523607270039088,0.733063881116881,-0.1959719972874517,0.0092435116863443,0.9128263506154964,0.278132248170182,0.7326774361406413,0.4680578740670666,11.29617152672563,-1.4407670537251651,0.2489460632328701,-1.2607176721767248
2.46,-0.7882583958343786,-0.0183423847152997,1.524610613982341,-0.0328695878758593,0.125533389602676,0.0306140733644016,0.705081316260179,-0.1648879856705162,0.034182505515721,-0.80144902337012,-0.0164796377024879,1.523699705155951,0.7405957520184656,-0.1895369084741468,0.009175975712259,0.6925689657169447,-0.0386394430383463,0.5772252937995062,0.3807489013956557,11.218404332684258,-1.458286295983915,0.2441243200396667,-1.261104736503385
2.48,-0.7742213753991323,-0.0215405326045459,1.5253517213807195,-0.0274093903391495,0.1153158485082544,0.0318826966985154,0.6983727801842421,-0.1554099257396969,0.0395657111908581,-0.7867877457477823,-0.0203990776482369,1.5238845753896784,0.7556594938216349,-0.176666730847537,0.0090409037640883,0.6399550368486417,-0.3354268037968455,0.473902996540966,0.2691602837568574,11.083568419420772,-1.4746091290177,0.2400106465536403,-1.2570734618173285
2.5,-0.7610590506236412,-0.0244171933168048,1.5261363200875582,-0.0230943965852413,0.1064089849296696,0.032938967846893,0.6874152478366622,-0.1477325889109806,0.0427587855609937,-0.7721264681254447,-0.0243185175939859,1.5240694456234052,0.7707232356248042,-0.1637965532209272,0.0089058318159176,0.6877585693087354,-0.5478766173789951,0.383866841435812,0.1596537185067792,10.948187936924114,-1.4891108637858013,0.2363301912851635,-1.25037211517467
2.52,-0.747466647015652,-0.0272970458782265,1.5270123877078747,-0.0194461087468261,0.0990243134314542,0.0338896303121921,0.6722599477413199,-0.1405684080477637,0.0446113757761527,-0.7567120034129486,-0.0275944486584045,1.5242475622597236,0.7857869774279734,-0.1509263755943174,0.008770759867747,0.843268490645282,-0.7577650047671136,0.3582090431608495,0.0926295107579484,10.829673409486531,-1.5000645728739788,0.2334353776652114,-1.243725644952094
2.54,-0.7342146045857837,-0.0300417712756429,1.5279147387398446,-0.0166592988914898,0.0948650447389915,0.034681207541267,0.6537243833842082,-0.1340972667143946,0.0455340209996786,-0.7412975387004526,-0.030870379722823,1.524425678896042,0.8008507192311427,-0.1380561979677076,0.0086356879195763,0.9827182841506018,-0.926778217855584,0.323557066668452,0.0461322611762939,10.717814457848364,-1.506729265544182,0.2314621920514671,-1.2395384502217868
2.56,-0.7219799800018477,-0.0325308513338958,1.5287859544525269,-0.0146162844479926,0.0946520729906773,0.0353089452425259,0.6355663427564953,-0.1281302121475984,0.0461324269922546,-0.7255064804428772,-0.0338245563465763,1.524600418733656,0.8159144610343119,-0.1251860203410978,0.0085006159714057,0.9561358028187588,-0.907902031385649,0.2983527283398082,0.0299202996288008,10.717814457848364,-1.5039511149142957,0.229535136786639,-1.2387706392681728
2.58,-0.7094519085531131,-0.035029669078968,1.5297172166256228,-0.0129405329119066,0.0976039538954048,0.0358787302375619,0.6185636823700601,-0.1220257600170687,0.0469762795809047,-0.7093388286402227,-0.0364569785296644,1.524771781772566,0.8309782028374811,-0.112315842714488,0.008365544023235,0.9042495275389308,-0.8501330193217582,0.3052226065264854,0.0421926294325074,10.690106575802927,-1.4969115352413047,0.228044941760352,-1.2413237095582097
2.6,-0.6972363656558561,-0.037408821529628,1.5306699299827458,-0.0117246993448675,0.1027505391284155,0.0363802859495222,0.6041948327034615,-0.1161785271694283,0.048266154017907,-0.6785237244346102,-0.0411309570798214,1.532066030604668,0.6503436980472738,-0.0839709994715766,0.0260207467916744,0.7783279334237382,-0.7184424833299285,0.2923616423820211,0.0644937218501114,10.692261302300722,-1.4875531164812812,0.2270808921527913,-1.247032954164933
2.62,-0.6852517359745746,-0.0396890136396615,1.5316383252686203,-0.0115534078033603,0.1082711303608944,0.036796113130995,0.5951391823990902,-0.1119793462099964,0.0484318894990431,-0.6785237244346102,-0.0411309570798214,1.532066030604668,0.6503436980472738,-0.0839709994715766,0.0260207467916744,0.499162777595702,-0.4527825152185638,0.2099590479715953,0.0082867740568079,10.712199658694772,-1.477151988253435,0.2271345525039084,-1.2527797087204338
2.64,-0.6740217770950709,-0.0417796181093567,1.5325549581960944,-0.0129162238917184,0.1127018666507688,0.0370816516695858,0.5874463487071255,-0.1080871896015738,0.0480426640044567,-0.6785237244346102,-0.0411309570798214,1.532066030604668,0.6503436980472738,-0.0839709994715766,0.0260207467916744,0.4315091822961339,-0.3846416845982359,0.1946078304211299,-0.0194612747293206,10.629382320331388,-1.4713226214041288,0.2294081870077154,-1.2581342567060994
