t,x,y,z,roll,pitch,yaw,v_x,v_y,v_z,ref_x,ref_y,ref_z,ref_v_x,ref_v_y,ref_v_z,a_com,a_x,a_y,a_z,thrust,wind_x,wind_y,wind_z
0.0,1.003026880069977,-0.666458782417459,2.404334205545936,0.0121100465094961,0.1363254651143992,0.0257630098768349,0.0024669180823694,-0.0040796086796511,0.0033234363819336,1.0030539840203638,-0.6665847526050044,2.4043700051429058,-0.0975192781566926,0.0931811934317141,-0.0966933202988135,0.2905775334956513,0.1233459041184731,-0.2039804339825588,0.16617181909668,10.54585641997528,-1.2848013044834536,0.1639887915805626,-1.1643705440319445
0.02,1.0032033190839715,-0.6667683968263411,2.404173090608497,0.0028151845332489,0.1315330256162528,0.0250982807855137,0.0145566915091725,-0.0226200145769916,-0.020406818962721,1.0030539840203638,-0.6665847526050044,2.4043700051429058,-0.0975192781566926,0.0931811934317141,-0.0966933202988135,1.6225244921665136,0.604488671340155,-0.9270202948670216,-1.1865127672327327,10.545049314953758,-1.286902519754406,0.1732326355468226,-1.1445745663144111
0.04,1.0035765160901022,-0.6672216907768119,2.4034556324362786,-0.0132230572850699,0.1176427460106296,0.0241228103329662,0.0206496706401164,-0.0210383319418624,-0.0498580394785393,1.0030539840203638,-0.6665847526050044,2.4043700051429058,-0.0975192781566926,0.0931811934317141,-0.0966933202988135,1.5058224534450797,0.304648956547196,0.0790841317564603,-1.4725610257909143,9.160422105212549,-1.3148429438109248,0.1897366390671739,-1.1168623227570451
0.06,1.003942786837633,-0.6675506557234442,2.40223491803014,-0.0287897899975878,0.0994134852230685,0.0235470552862794,0.0167777909258595,-0.0133719619811992,-0.0770767281593225,1.002078791238797,-0.6656529406706873,2.403403071939917,-0.1175192784547158,0.1131811937297373,-0.1166933205968367,1.4270789172263985,-0.1935939857128457,0.3833184980331555,-1.3609344340391605,8.891269288680633,-1.345019686938271,0.2063627103826321,-1.0757729348722782
0.08,1.00415387010395,-0.6677034811582258,2.40040038984876,-0.0445182926474723,0.0785180382086694,0.0234192610169378,0.0038566709357189,-0.0019881939070514,-0.1048913718194785,1.000128405675663,-0.6637893168020529,2.401469205533941,-0.1575192790507623,0.1531811943257837,-0.1566933211928832,1.6356955090320555,-0.6460559995070307,0.5691884037073933,-1.3907321830077986,8.877049762480965,-1.3702253234446378,0.2211514483877979,-1.0319295147574878
0.1,1.0040237284652842,-0.6675991656940432,2.398018087891788,-0.0594628588640998,0.058525667926375,0.0236899249918408,-0.0166234064997697,0.012156297360086,-0.1319149759063677,0.9981780201125292,-0.6619256929334186,2.399535339127965,-0.1975192796468088,0.1931811949218302,-0.1966933217889296,1.8369644680931343,-1.0240038717744346,0.7072245633568759,-1.3511802043444598,8.889251782015435,-1.3886250563915177,0.2340765724247539,-0.9886864814259412
0.12,1.0034184185353274,-0.667184772584783,2.39510268965327,-0.073659758396241,0.0413223963743175,0.0241841455450093,-0.0428810463172693,0.0288736387570404,-0.1582732198457029,0.9942276345195932,-0.658062069034982,2.3956014726921864,-0.2375192802428552,0.2331811955178766,-0.2366933223849761,2.03941791679229,-1.3128819908749791,0.8358670698477155,-1.3179121969667584,8.925594735455434,-1.39901945731731,0.2447596580122233,-0.950513071306353
0.14,1.0023182356018838,-0.666454010022584,2.3918408625027143,-0.0863493609726012,0.0284274567950323,0.0247077947642586,-0.0714528724938534,0.0473574506256183,-0.1837436483642702,0.9902772489266568,-0.6541984451365455,2.391667606256408,-0.2775192808389017,0.2731811961139231,-0.2766933229810226,2.125290145590341,-1.4285913088292042,0.9241905934288964,-1.2735214259283658,8.966884171263246,-1.403654291992567,0.2545128374240307,-0.915341263075066
0.16,1.0005457982304566,-0.6652615165577201,2.387876522713106,-0.098126731774508,0.0189266057436329,0.0252073254688043,-0.1042589740973458,0.0707312642636904,-0.2113360579635272,0.9853268633188196,-0.6493348212232076,2.386733739805728,-0.3175192814349482,0.3131811967099696,-0.316693323577069,2.4412683864638733,-1.6403050801746242,1.1686906819036051,-1.3796204799628522,8.954428729197389,-1.404326654688071,0.2625689946575088,-0.8870735711323612
0.18,0.9980895526343214,-0.6635739592357479,2.383356250353921,-0.1076285412467796,0.0142559070377543,0.0255046041415236,-0.1396961937106373,0.0965177949612742,-0.2392611839471827,0.979376477696081,-0.6434711972949687,2.380799873340147,-0.3575192820309946,0.353181197306016,-0.3566933241731154,2.5983429145039287,-1.7718609806645704,1.2893265348791891,-1.3962562991827756,8.938178980876728,-1.4020811016121244,0.2685878598402795,-0.8689057079191783
0.2,0.9949207089182752,-0.6613538340744718,2.3782772821124585,-0.1147379563397905,0.0148521278679492,0.0254446943831068,-0.17466918002425,0.1236752037116763,-0.2670993586294191,0.9911047429487896,-0.6587480694876842,2.371393191156562,-0.2396961952007534,0.1965177964513903,-0.3392611854372989,2.615147506053562,-1.7486493156806393,1.3578704375201047,-1.3919087341118157,8.950007800909589,-1.3909407051477345,0.2727521550767967,-0.8587213413483716
0.22,0.9912508603936746,-0.658599615342898,2.3730899279368898,-0.1157954460340521,0.0204718820585151,0.0252103282214772,-0.2088951089089795,0.1625495129761041,-0.2771909420214398,0.9911047429487896,-0.6587480694876842,2.371393191156562,-0.2396961952007534,0.1965177964513903,-0.3392611854372989,2.638402065724181,-1.7112964442364735,1.943715463221393,-0.5045791696010382,8.947349418246631,-1.369824261224842,0.2735851045056362,-0.8691519872564651
0.24,0.9867483479124286,-0.6549982617883987,2.367428676846716,-0.1110005161589117,0.0309370375734205,0.024876977474409,-0.2388036550588523,0.1943678075867672,-0.2884272142232948,0.9911047429487896,-0.6587480694876842,2.371393191156562,-0.2396961952007534,0.1965177964513903,-0.3392611854372989,2.254539208865195,-1.4954273074936395,1.5909147305331537,-0.5618136100927484,10.032949780722902,-1.3505002267603017,0.26991928220445,-0.8861250623272856
0.26,0.9817090967066078,-0.650834115762772,2.3615123924568344,-0.1044238168883884,0.0437851706849161,0.0244740684784353,-0.2630605136868451,0.2201209707775769,-0.3027590919152776,0.988707780996782,-0.6567828915231703,2.368000579302189,-0.2596961954987766,0.2165177967494135,-0.3592611857353221,1.908548743816132,-1.2128429313996367,1.2876581595404837,-0.7165938845991399,9.569657998074035,-1.3322105140156677,0.2648885787182823,-0.9057623549896042
0.28,0.9765219587081908,-0.6464371083091626,2.355591560019481,-0.0981529068543556,0.0566508491457548,0.0241066608404303,-0.2814034106403897,0.2413982066934558,-0.3197589068947944,0.983913857092767,-0.6528525355941425,2.361215355593443,-0.299696196094823,0.25651779734546,-0.3992611863313685,1.641779785938212,-0.9171448476772316,1.0638617957939438,-0.8499907489758429,9.36655786637766,-1.3165924892382752,0.2600379390900809,-0.9240712145613958
0.3,0.9707297083125264,-0.6413957958785748,2.34897885653081,-0.0922199710360612,0.0696832974063746,0.0238061903178417,-0.2965629412655199,0.2616398726103964,-0.3407882233562167,0.979119933188752,-0.6489221796651147,2.354430131884697,-0.3396961966908695,0.2965177979415064,-0.439261186927415,1.6445125103673903,-0.7579765312565101,1.0120832958470327,-1.0514658230711127,9.36655786637766,-1.3018710690888484,0.2553420817313653,-0.9410936532079284
0.32,0.964670730458572,-0.6359643052721025,2.3419147241029514,-0.0871758349328872,0.081360515704763,0.0236373294538821,-0.3084068010774482,0.2805590865660929,-0.3647149720810026,0.9723260092549344,-0.6429918237062845,2.345644908146149,-0.3796961972869159,0.3365177985375528,-0.4792611875234614,1.6360799006199815,-0.5921929905964157,0.9459606977848256,-1.196337436239295,9.188466512010564,-1.2906637295830112,0.2515936738526242,-0.95482505855018
0.34,0.9584037047536512,-0.6301648350231934,2.334351716254203,-0.0830182689598694,0.091160708150245,0.0236197132918425,-0.3176968161708,0.298586065105468,-0.3904116842666006,0.9655320853211172,-0.6370614677474544,2.3368596844076004,-0.4196961978829625,0.3765177991335994,-0.5192611881195079,1.636763080628389,-0.4645007546675878,0.9013489269687508,-1.2848356092799025,8.971674771840298,-1.2810549215325135,0.2482717218325606,-0.9655479165655648
0.36,0.9522902429890052,-0.624319073580742,2.3266800840881414,-0.0795332545068168,0.0987073345718055,0.0237482480812478,-0.3253237370528158,0.3157940400794509,-0.4158897196626737,0.9577381613723986,-0.6301311117737232,2.327074460654151,-0.4596961984790089,0.4165177997296458,-0.5592611887155543,1.5838360177819075,-0.3813460441007915,0.8603987486991455,-1.2739017698036508,8.971674771840298,-1.2741380151614683,0.2453861946728447,-0.972953206764292
0.38,0.9457077769194334,-0.617817507505327,2.3180694346883786,-0.0760745483444059,0.1049685710100857,0.024025515230581,-0.3325136802552569,0.3333775478855282,-0.4438789316111258,0.9489442374087788,-0.6222007557850907,2.316289236885801,-0.4996961990750553,0.4565178003256922,-0.5992611893116008,1.6913537592089427,-0.3594971601220575,0.8791753903038657,-1.3994605974226082,8.921195618740057,-1.269399855352548,0.2426689512260368,-0.9774605336816408
0.4,0.9389873547565276,-0.6109691493714962,2.308889264618151,-0.0727125282243076,0.1097439699147892,0.0244250669540964,-0.3392005512396027,0.350462853848707,-0.4727225924903332,0.9290820929066704,-0.6011486301110507,2.2958754881078223,-0.4325136817453731,0.4333775493756443,-0.5354216747575453,1.7092240171576671,-0.3343435492172864,0.8542652981589433,-1.4421830439603682,8.86366236305912,-1.26625962557099,0.2401469798802883,-0.9796514671012044
0.42,0.9321702006433196,-0.603776429882794,2.299368068298475,-0.0696798104125439,0.1131576049523762,0.024910163292248,-0.3420602403299479,0.3680872138648581,-0.4767337351621094,0.9290820929066704,-0.6011486301110507,2.2958754881078223,-0.4325136817453731,0.4333775493756443,-0.5354216747575453,0.914993378672338,-0.1429844545172615,0.8812180008075543,-0.2005571335888079,8.824003003211146,-1.2514281216506016,0.2371937520122237,-0.9844394235899988
0.44,0.9256518601125018,-0.5966303682663667,2.2902523233589096,-0.067547928978345,0.114959247819777,0.02542225177648,-0.3441196917207398,0.3834974239088829,-0.4827771037488647,0.9290820929066704,-0.6011486301110507,2.2958754881078223,-0.4325136817453731,0.4333775493756443,-0.5354216747575453,0.8340237069582885,-0.1029725695395972,0.7705105022012382,-0.302168429337768,10.301848590051122,-1.2529637565430327,0.2362557450548924,-0.988604337438404
0.46,0.9187425985377292,-0.5887923176930383,2.280484749822642,-0.0660319860458106,0.1153036989919113,0.0260140379996901,-0.3468074529464715,0.3995199421230913,-0.4938665429109035,0.9247569560892168,-0.5968148546172942,2.2905212713602467,-0.4525136820433963,0.4533775496736675,-0.5537302233868292,0.9835151387494562,-0.1343880612865805,0.8011259107104179,-0.5544719581019403,10.002498007044778,-1.2562175967149745,0.2358724986717037,-0.9892151477399338
0.48,0.911773799140673,-0.5806377836428325,2.2704540281239067,-0.0651254324064941,0.1140690754674092,0.0266641199879712,-0.3500331062561634,0.4151385762044742,-0.5087857204249853,0.9161066824543094,-0.5881473036297814,2.279812837865096,-0.4925136826394427,0.4933775502697139,-0.5903473206453971,1.0919345533720717,-0.1612826654845967,0.7809317040691488,-0.7459588757040864,9.73522859669447,-1.260306209629939,0.2359113318033058,-0.9869217998288544
0.5,0.9047341273437092,-0.5721757342672097,2.260091128046613,-0.0648535180136526,0.1111682422030347,0.0273748953790994,-0.353910313193447,0.4303333562185647,-0.5267233441688604,0.907456408819402,-0.5794797526422685,2.269104404369945,-0.5325136832354892,0.5333775508657604,-0.6269644179039648,1.191293854269335,-0.193860346864183,0.7597390007045235,-0.8968811871937543,9.53320738990351,-1.2652234686704362,0.236367727181535,-0.9818497482498
0.52,0.8979652382127586,-0.5638577624966481,2.2498943159378357,-0.0652373520153122,0.1068440355414466,0.0281059861980564,-0.358622279564146,0.444535429133321,-0.5457036491835687,0.8968061351546921,-0.5688122016249533,2.256565116011866,-0.5725136838315357,0.5733775514618069,-0.6635815151625326,1.2084633637454794,-0.2355983185349464,0.710103645737814,-0.9490152507354188,9.37911138160689,-1.271555723950116,0.2374166008296274,-0.9742274309200952
0.54,0.8907219181029776,-0.5548122068789126,2.2387643740021117,-0.0664135655368043,0.101020622320563,0.0289085868502748,-0.3657540889342047,0.4593385753565122,-0.566302609155657,0.8861558614899824,-0.5581446506076381,2.2440258276537866,-0.6125136844275821,0.6133775520578534,-0.7001986124211005,1.3174909818740042,-0.3565904685029347,0.7401573111595589,-1.0299479986044136,9.225231548836746,-1.2778293529724285,0.2391051518350004,-0.9652471742913096
0.56,0.8833064471373077,-0.54545705467873,2.227220746029593,-0.0680733527136158,0.0947491275446643,0.0297173686289139,-0.3756316181084497,0.4754293392285686,-0.5870171995347655,0.8745055878103714,-0.5464770995754217,2.230571111864243,-0.6525136850236285,0.6533775526538997,-0.7368157096796683,1.401403331618519,-0.4938764587122501,0.8045381936028245,-1.035729518955425,9.225231548836746,-1.2833205344660428,0.2410575927597879,-0.9563485803577384
0.58,0.8756676884203303,-0.5357668161011565,2.2152613384602478,-0.0695560834464798,0.0888469049116377,0.0305242191050892,-0.3878148347654196,0.4926748839419514,-0.6078699434475534,0.8618553141158593,-0.5338095485283041,2.216200968643236,-0.692513685619675,0.6933775532499462,-0.773432806938236,1.4838097159543977,-0.609160832848496,0.8622772356691399,-1.0426371956393954,9.212106956368189,-1.2877816455938145,0.2429362865675548,-0.9479385194796628
0.6,0.8681656134410194,-0.5262320762337317,2.203510827215925,-0.0703270618949794,0.084118164969652,0.0312796249385648,-0.4013351866935619,0.5099707476306319,-0.6279686500435512,0.8562769466820593,-0.511133071904059,2.1848678412878697,-0.4878148362555357,0.5926748854320676,-0.6691050993578069,1.4882076668179074,-0.6760175964071163,0.8647931844340206,-1.0049353297998886,9.212106956368189,-1.2908303723957542,0.2442412053977773,-0.941404862239644
0.62,0.8599528152102008,-0.5157825316106694,2.191008455156496,-0.0689894930589825,0.0820630437394933,0.0320162428216754,-0.4191915051864529,0.5337821826124586,-0.6197220661683123,0.8562769466820593,-0.511133071904059,2.1848678412878697,-0.4878148362555357,0.5926748854320676,-0.6691050993578069,1.5442139518414144,-0.8928159246445494,1.1905717490913348,0.4123291937619455,9.199135486459454,-1.277695517875865,0.2424897500559436,-0.9389141054754804
0.64,0.8513948281131146,-0.5048796738710648,2.1786875944490154,-0.0649895413958442,0.0843539873294931,0.0326310660490476,-0.4351259695913346,0.5545947935762844,-0.6129026855427248,0.8562769466820593,-0.511133071904059,2.1848678412878697,-0.4878148362555357,0.5926748854320676,-0.6691050993578069,1.3542303008707948,-0.7967232202440833,1.0406305481912903,0.3409690312793756,11.087784607637332,-1.273554842868355,0.2405262100212764,-0.9507544396680476
0.66,0.842999382015388,-0.4941749191033625,2.167057806117194,-0.0604036234561336,0.0889447852344882,0.0331158557536631,-0.4474765394075911,0.5709956516149454,-0.6116150904642713,0.8513987983195039,-0.5052063230497383,2.1781767902942915,-0.507814836553559,0.6126748857300908,-0.6813521305398577,1.0285701486488357,-0.617528490812827,0.8200429019330491,0.064379753922672,10.41689948655312,-1.2680715188430964,0.2374954296310192,-0.964121765340653
0.68,0.8339381167631252,-0.4825953472838745,2.154795985024877,-0.0556976505922191,0.0949804369165989,0.0335576655222993,-0.4577409599369805,0.5860380901179324,-0.6148489327068988,0.8416425015943932,-0.493352825341097,2.1647946883071354,-0.5478148371496053,0.6526748863261372,-0.705846192903959,0.9247851379786798,-0.5132210264694681,0.7521219251493516,-0.161692112131373,10.41689948655312,-1.261847287050416,0.2342787822525422,-0.9765531164048666
0.7000000000000001,0.8246966044551376,-0.4707299614026535,2.1424252286817462,-0.0514587288125139,0.1012568959168819,0.0339681321720883,-0.4657240800116173,0.599737514234814,-0.6222381694332086,0.8318862048692826,-0.4814993276324556,2.15141258631998,-0.5878148377456518,0.6926748869221837,-0.7303402552680605,0.8746502824811107,-0.3991560037318431,0.6849712058440816,-0.3694618363154933,9.920494353207689,-1.255881944041736,0.2312847122643151,-0.9873105517920376
0.72,0.8153158960785065,-0.4586019870464933,2.129867741193984,-0.0477847446682278,0.1070788528583007,0.0343737986401722,-0.4718734567284091,0.6124384398439869,-0.6331387772896057,0.8201299081143695,-0.4676458298940119,2.136805781214618,-0.6278148383416983,0.7326748875182302,-0.7548343176321619,0.8915598647506917,-0.307468835839586,0.6350462804586454,-0.5450303928198508,9.920494353207689,-1.2509233277744058,0.2287825613124909,-0.9955906124730868
0.74,0.8063058354824453,-0.4468522747325296,2.117722181105412,-0.0448320101408067,0.1117850895938618,0.0347663924989073,-0.4762479167660057,0.6238210395658678,-0.6448013176012949,0.8083736113594564,-0.4537923321555683,2.122198976109257,-0.6678148389377447,0.7726748881142766,-0.7793283799962633,0.8436739944594536,-0.2187230018798336,0.5691299860940413,-0.5831270155844615,9.747738060899792,-1.246091725990562,0.2265015854908886,-1.0021173660291156
0.76,0.7967387844838404,-0.4342484636384375,2.10468801296948,-0.0420409163476052,0.1157513105913675,0.0352020459574271,-0.4802078757097565,0.6358895418857431,-0.658042860512027,0.7956173145896422,-0.4389388344022235,2.106979819444793,-0.7078148395337911,0.812674888710323,-0.8038224423603647,0.9174264026855062,-0.1979979471875392,0.6034251159937665,-0.6620771455366048,9.683761341722857,-1.2427056602391966,0.2245112601050695,-1.00695749765987
0.78,0.7870976185919418,-0.4214052007905657,2.0913796249588046,-0.0392862189565425,0.1187904987004133,0.0356705480965711,-0.4837253430249555,0.6476989300419125,-0.6721267647084005,0.7818610178049269,-0.4230853366339774,2.0911483112212266,-0.7478148401298376,0.8526748893063695,-0.828316504724466,0.9356689884104236,-0.1758733657599487,0.5904694078084693,-0.7041952098186754,9.635979268245135,-1.2403663807373062,0.2225352930730802,-1.010521209206389
0.8,0.7773887619329599,-0.4083308705653194,2.077781634405489,-0.0364756937475666,0.1210284002480181,0.0361678090553402,-0.4870059529200696,0.6590014593797963,-0.6869616062206673,0.762911351440694,-0.3890202542884701,2.0577732867233847,-0.5833822527291639,0.679434733973864,-0.684357711390794,0.9468131988567194,-0.1640304947557042,0.5651264668941891,-0.7417420756133386,9.558001040318231,-1.2391474644882288,0.2206333151170942,-1.0132635353820263
0.8200000000000001,0.768137856883763,-0.3954902225142288,2.0648738556384814,-0.0271544524904757,0.1224791257532859,0.0371182164368396,-0.4864595075298827,0.6872593168117253,-0.6708142027214176,0.762911351440694,-0.3890202542884701,2.0577732867233847,-0.5833822527291639,0.679434733973864,-0.684357711390794,1.6275316809322502,0.0273222695093444,1.4128928715964495,0.8073701749624851,9.558001040318231,-1.225001572690578,0.2113123206155482,-1.0176400128074543
0.84,0.7584251037378973,-0.3815900305878476,2.0516193964663514,-0.0113052302131813,0.1231303742832403,0.0385405104547411,-0.4849112196066877,0.7001310334225527,-0.655769915386987,0.762911351440694,-0.3890202542884701,2.0577732867233847,-0.5833822527291639,0.679434733973864,-0.684357711390794,0.992986487072544,0.0774143961597473,0.6435858305413711,0.7522143667215264,11.539419602107955,-1.228077580622545,0.1977690147087049,-1.0289064407525716
0.86,0.7487448633639191,-0.3675344437021863,2.0386093288205345,0.0054130260918463,0.1225811990416285,0.0399923237748423,-0.4832768731535736,0.7043105354513935,-0.646229697593749,0.7570775289134024,-0.3822259069487314,2.0509297096094765,-0.6033136346700055,0.6857818947602543,-0.6868039007272727,0.5271505503181858,0.0817173226557055,0.2089751014420438,0.4770108896618996,11.225128011259583,-1.2319540410865375,0.183720159714962,-1.0356985429979957
0.88,0.7395792171449667,-0.3541619218524047,2.026376081371366,0.0202941982045495,0.1205845858533823,0.0412289083136988,-0.481728716963528,0.703080753087816,-0.6419343630762462,0.7454098838588191,-0.3686372122692541,2.0372425553816607,-0.643176398551689,0.6984762163330349,-0.6916962794002302,0.2364267902956141,0.0774078095022834,-0.0614891181788757,0.2147667258751429,10.883679502892846,-1.236236260719776,0.1695063460392922,-1.038356090299424
0.9,0.7299606818094425,-0.3401510438262567,2.01355335144715,0.0342106901711657,0.1165247765600169,0.0422746229769851,-0.480345895122674,0.698069019145576,-0.6406937677582497,0.7337422388042358,-0.3550485175897769,2.023555401153845,-0.6830391624333723,0.7111705379058155,-0.6965886580731876,0.2672487141895114,0.0691410920426988,-0.2505866971120041,0.0620297658998236,10.615498109475084,-1.241350966738846,0.1567324740498201,-1.0364144816828058
0.92,0.7203557138333893,-0.3262732705168962,2.0007284467791977,0.0460733629419526,0.1102959974854411,0.0429865132489805,-0.4806905390520504,0.690062327409581,-0.6419211554721226,0.7200814555555684,-0.3408251068316606,2.009623627992381,-0.7229019263150556,0.7238648594785961,-0.701481036746145,0.4053775172400188,-0.0172321964688221,-0.4003345867997498,-0.0613693856936437,10.429158227007065,-1.2486455357363115,0.1464000158355429,-1.0300496324327253
0.94,0.7107152247214591,-0.312584416881919,1.9878735076264764,0.055748263387397,0.1025830013005302,0.0433539651508009,-0.4837303835062493,0.6795744842639113,-0.6434608323708652,0.706420672306901,-0.3266016960735443,1.9956918548309173,-0.762764690196739,0.7365591810513767,-0.7063734154191025,0.5513758090141766,-0.1519922227099457,-0.524392157283482,-0.0769838449371285,10.296577893943322,-1.2550647309595813,0.1372751591892264,-1.0203627775919617
0.96,0.7014703005778864,-0.2997892756980022,1.975636095246977,0.0631040231868353,0.094702305767628,0.0434376958378797,-0.4895049329294633,0.6681030797401699,-0.6445791902254314,0.6917633199611914,-0.3120609272761084,1.9816377722026297,-0.8026274540784223,0.7492535026241574,-0.7112657940920598,0.644572081072639,-0.2887274711606963,-0.5735702261870701,-0.0559178927283132,10.290475606827384,-1.2607208279346576,0.1298879830388102,-1.0094909414502575
0.98,0.6915928052096381,-0.2865675397966607,1.962734983683222,0.0691766514134836,0.0865816955825681,0.0433247303614765,-0.4981557964441739,0.6548618767921119,-0.6454365321125861,0.6761093985184398,-0.2972028004393531,1.967461380107518,-0.8424902179601056,0.761947824196938,-0.7161581727650173,0.7919942079543282,-0.4325431757355336,-0.6620601474028986,-0.0428670943577347,10.31068407298062,-1.2647576906065665,0.1239639068514146,-0.9987502017531104
1.0,0.6815174291302759,-0.2736226227060345,1.949819531678727,0.0736807806779451,0.0791834758208736,0.0430742785127169,-0.5090905403773841,0.6405232956654769,-0.6460310025582816,0.6666850153874294,-0.2538244459570551,1.9304631570775928,-0.5658789142129385,0.6384754628453642,-0.6203982450690146,0.9021043852026976,-0.5467371966605072,-0.7169290563317499,-0.0297235222847747,10.328642013375427,-1.2669396372216262,0.1193643913149813,-0.988793575802013
1.02,0.6716165936458781,-0.2615118226393581,1.937694935374604,0.0798831960395308,0.0768962274621165,0.0432706693308388,-0.5317233183460133,0.6330443895750273,-0.6303678935824548,0.6666850153874294,-0.2538244459570551,1.9304631570775928,-0.5658789142129385,0.6384754628453642,-0.6203982450690146,1.4261045348042134,-1.1316388984314585,-0.3739453045224827,0.7831554487913395,11.51803886862308,-1.2588508095328383,0.1127389633345733,-0.9861173968239618
1.04,0.6607892356847037,-0.2490110592892148,1.9252521223477477,0.0882150750383854,0.0816484647471506,0.0441515048709227,-0.5489553748154777,0.6172000337409227,-0.6148687773891158,0.6666850153874294,-0.2538244459570551,1.9304631570775928,-0.5658789142129385,0.6384754628453642,-0.6203982450690146,1.403753882220063,-0.8616028234732231,-0.7922177917052298,0.7749558096669495,11.51803886862308,-1.244603435330212,0.1039742991619209,-0.997391806058448
1.06,0.6496841701162104,-0.2368724526857697,1.913090746200309,0.0958527503429798,0.0902061942452465,0.0453405220629225,-0.5601244281833464,0.5975834388025537,-0.6021584875896827,0.6610262262453,-0.2474396913286014,1.9242591746269029,-0.5794235377666913,0.6351981800560146,-0.6153905876603003,1.2952895592259626,-0.5584526683934332,-0.980829746918449,0.6355144899716558,11.334448573878037,-1.2301084177390849,0.0964594676988661,-1.0104794045522982
1.08,0.6384058340405483,-0.2251500898372227,1.901155945231851,0.1018919777502746,0.1005237735762463,0.0466217671641374,-0.5666968777808978,0.576054581020999,-0.59193395655682,0.6497086479610412,-0.2346701820716941,1.9118512097255225,-0.6065127848741971,0.6286436144773155,-0.6053752728428717,1.2361531518512716,-0.3286224798775716,-1.0764428890777331,0.5112265516431347,11.152422195705183,-1.2147643960769887,0.0901573120348478,-1.024085670937428
1.1,0.6276060086675008,-0.2144222824396387,1.8899908680016035,0.1059990895386878,0.1109247473004372,0.0478111557782815,-0.5694711172773868,0.5547063462551184,-0.5838282079290783,0.6383910696767825,-0.2219006728147869,1.899443244824142,-0.633602031981703,0.6220890488986164,-0.5953599580254432,1.1501594380988789,-0.1387119748244458,-1.067411738294033,0.4052874313870858,11.023637961680834,-1.1999461912160128,0.0856297267228912,-1.0367900944094768
1.12,0.6162252059408959,-0.2035682799477839,1.8783938058578875,0.1087307166983986,0.1215510475079629,0.04892727734276,-0.5681871472031822,0.5321429289683731,-0.5763358953653461,0.6257190290371484,-0.2094588918368145,1.8875360456636328,-0.6606912790892088,0.6155344833199172,-0.5853446432080146,1.190473777913553,0.0641985037102277,-1.1281708643372634,0.3746156281866086,10.941638893606068,-1.186114145408068,0.0827228409596257,-1.048050525447054
1.14,0.6049136507261249,-0.1931727561818684,1.866941992712374,0.1097515540751075,0.13076211575531,0.0497605528840418,-0.5630057787343202,0.5088921305133614,-0.5692089655925722,0.6130469883975144,-0.1970171108588422,1.8756288465031243,-0.6877805261967146,0.6089799177412182,-0.575329328390586,1.24322095380482,0.2590684234430984,-1.1625399227505884,0.356346488638698,10.904481122098332,-1.1743502310927276,0.0814565179686706,-1.0573687472078876
1.16,0.5937339092471725,-0.1832504886575567,1.8556332334216652,0.108623207868411,0.1379582759652459,0.0501949371481589,-0.5552980963488997,0.4848790338303999,-0.5619997153289539,0.5996977165801927,-0.1847391940203374,1.8639720302130511,-0.7148697733042203,0.602425352162519,-0.5653140135731574,1.3114976833979328,0.3853841192710261,-1.2006548341480738,0.3604625131809147,10.934740228469307,-1.1659436559951637,0.082254152895908,-1.0630860955515498
1.18,0.5832732972657277,-0.1742684141937428,1.8450280634636065,0.1051874010857646,0.142726578616372,0.0501813029265274,-0.5463642042513294,0.4625754151232222,-0.5546160302042757,0.5856712135851833,-0.1726251413213,1.8525655967934136,-0.7419590204117261,0.59587078658382,-0.5552986987557288,1.256766328187731,0.446694604878517,-1.1151809353588835,0.3691842562339065,10.934740228469307,-1.160188492343723,0.0854765420751935,-1.0669086395314529
1.2,0.5724534486880145,-0.1652363340696349,1.834027252055692,0.1000382818841066,0.1455433753881992,0.0497908321842015,-0.5362245467645502,0.4422284820615624,-0.5457693194057239,0.5559550870531613,-0.1511396434375817,1.8172972619533925,-0.553927775231312,0.431792974445937,-0.5059283933520113,1.2197075786003708,0.5069828743389571,-1.017346653082987,0.4423355399275908,10.976252874173042,-1.1576147659445568,0.0902608639436556,-1.0682213249803998
1.22,0.5617544636320707,-0.1565154742847942,1.8232405837456167,0.0967759153605257,0.1488317573669564,0.0495457876787025,-0.533896434754455,0.4299289185163588,-0.5333453733763145,0.5559550870531613,-0.1511396434375817,1.8172972619533925,-0.553927775231312,0.431792974445937,-0.5059283933520113,0.8818358745760619,0.1164056005047597,-0.6149781772601837,0.6211973014704719,11.22500082101942,-1.15793805001102,0.0934198393249674,-1.0703610301021107
1.24,0.551659202781293,-0.1484939656898059,1.813234196166628,0.0959897766133703,0.1543316048076642,0.0496798047370137,-0.528492051638441,0.4149541411940926,-0.5206372831893116,0.5559550870531613,-0.1511396434375817,1.8172972619533925,-0.553927775231312,0.431792974445937,-0.5059283933520113,1.018512234729062,0.2702191558006994,-0.7487388661133104,0.6354045093501459,11.22500082101942,-1.1491463577357877,0.093564593091714,-1.0777264954804726
1.26,0.5411790174981166,-0.1403735373911935,1.8029676368867555,0.0959392563521204,0.1612795564930811,0.049962667963752,-0.5194904109259068,0.3978962632440687,-0.5066814739263515,0.5504158093008482,-0.1468217136931223,1.8122379780198723,-0.5554404894273085,0.4256364863104799,-0.4961908659815585,1.1903417028941594,0.4500820356267143,-0.8528938975011946,0.6977904631480014,11.288491931825774,-1.140902522560983,0.0931238377288747,-1.0860342476528488
1.28,0.5309129099573023,-0.1326044192182686,1.7929847315205951,0.0959855907778842,0.1685119036058509,0.0502571755097951,-0.507363037162572,0.379991974475629,-0.4923372524563234,0.539337253796222,-0.1381858542042036,1.802119410152832,-0.5584659178193015,0.4133235100395659,-0.4767158112406527,1.297491271917186,0.6063686881667363,-0.8952144384219846,0.7172110735014059,11.345810424532829,-1.13386503113109,0.0927337584628074,-1.0937822114791922
1.3,0.521419544559126,-0.125561277226692,1.7837688573896318,0.0956618919942272,0.1747489377072432,0.0504285466667289,-0.4925307849745867,0.3624345243567367,-0.4784796919734972,0.5282586982915958,-0.1295499947152849,1.7920008422857918,-0.5614913462112946,0.4010105337686518,-0.4572407564997469,1.341912573698986,0.741612609399267,-0.8778725059446157,0.6928780241413107,11.38881678472262,-1.1278978884666513,0.0927567874960313,-1.1008822159225085
1.32,0.511757335856425,-0.1185099098817237,1.7743570778585045,0.0945896114428892,0.1798090219918202,0.0503881055731364,-0.4744696388179606,0.3437449467319224,-0.4633920171477635,0.5170288713673699,-0.1215297840399118,1.782856027155797,-0.5645167746032876,0.3886975574977377,-0.4377657017588411,1.5026170868954318,0.9030573078313036,-0.9344788812407134,0.754383741286685,11.430124175797571,-1.1247955824227749,0.0936339199496364,-1.1056621402390965
1.34,0.50247757570751,-0.1118343132152035,1.765254974305288,0.0924546430935171,0.1827601837591065,0.0500467719217012,-0.4546500738283899,0.3250357191238785,-0.4475365424735867,0.505799044443144,-0.1135095733645388,1.773711212025802,-0.5675422029952807,0.3763845812268236,-0.4182906470179354,1.576583673016492,0.9909782494785356,-0.9354613804021944,0.7927737337088375,11.547636138569032,-1.124804770939657,0.0956023952566036,-1.1080185883927005
1.36,0.49360347765384,-0.1055215560001736,1.7564802727810254,0.0893766922093862,0.1833487943248709,0.0493986199092502,-0.4339851567428258,0.3075333025123368,-0.4306751839340469,0.4944935818091183,-0.1057971870959386,1.7650532732643296,-0.5705676313872737,0.3640716049559095,-0.3988155922770297,1.595053915386658,1.0332458542782057,-0.8751208305770836,0.8430679269769925,11.547636138569032,-1.1272768951121186,0.0982841258397074,-1.1082399327344732
1.38,0.4855613319701692,-0.0998361567880324,1.7484673839541294,0.0859918625863237,0.1814356585647255,0.048518416205352,-0.4137875747219536,0.2920270138364139,-0.4135868522889296,0.4831124834652928,-0.0983926252341113,1.75688221087138,-0.5735930597792668,0.3517586286849955,-0.3793405375361239,1.5332957855583746,1.0098791010436063,-0.7753144337961482,0.8544165822558625,11.61099675243986,-1.1325709301644264,0.1014733518421686,-1.1063259467111244
1.4,0.4775083590286469,-0.0941579566842273,1.7403962494468832,0.0822030166763916,0.1764532956892491,0.0473231405603984,-0.3929874737111624,0.2767601276785751,-0.394306565395809,0.4648719532340715,-0.0852348060962117,1.727788041339683,-0.426106514623842,0.2776443618293705,-0.3640066433317344,1.6104746797889804,1.0400050505395608,-0.7633443078919389,0.9640143446560334,11.748980913721423,-1.1421001717720671,0.1048950125815643,-1.1013933986883473
1.42,0.4697994697849471,-0.0887969517407309,1.7326169083888692,0.0774402140944709,0.1695992041955237,0.0459245094966565,-0.3792612246920374,0.260890764474284,-0.3844877112867227,0.4648719532340715,-0.0852348060962117,1.727788041339683,-0.426106514623842,0.2776443618293705,-0.3640066433317344,1.1582923817631936,0.6863124509562529,-0.7934681602145555,0.4909427054543142,11.748980913721423,-1.1598869765861055,0.109788348886992,-1.0913376331369076
1.44,0.4627093944538488,-0.0839685489217738,1.7254281592394505,0.0722687572748983,0.1625878528758592,0.044546784238907,-0.3680157697791065,0.2483713357549099,-0.3726364664535712,0.4648719532340715,-0.0852348060962117,1.727788041339683,-0.426106514623842,0.2776443618293705,-0.3640066433317344,1.029135991686168,0.5622727456465415,-0.625971435968703,0.5925622416575765,11.25300313468415,-1.16867193238515,0.1144534104031366,-1.0826447299016115
1.46,0.4554561989273741,-0.0791237173649888,1.7181320966028977,0.0668955223518412,0.1549847390420065,0.0431288734826582,-0.3581495644717389,0.2368870550527426,-0.3574560691012066,0.4606108880878331,-0.082458362477918,1.7241479749063655,-0.4285703026042197,0.2747678314279618,-0.3540906015402953,1.072001835573264,0.4933102653683824,-0.5742140351083669,0.7590198676182269,11.25300313468415,-1.177291261469432,0.1189545651229359,-1.0748241620784424
1.48,0.4483787367026576,-0.0744951131418784,1.711163014870584,0.0618738344218697,0.1474847536031372,0.0417868750680686,-0.3503115483638733,0.2266210423251621,-0.3401175139804166,0.4520887577953563,-0.0769054752413306,1.716867842039731,-0.433497878564975,0.2690147706251445,-0.3342585179574172,1.081030766799307,0.3919008053932804,-0.5133006363790243,0.8669277560395011,11.402437477607236,-1.18528691298909,0.1230239661990644,-1.0681956967404165
1.5,0.4414370498050655,-0.070060838911266,1.7045588412606762,0.057299642833397,0.1403713855630757,0.0405407796226623,-0.3444295821302051,0.2173542728364245,-0.3211611906577369,0.4435666275028794,-0.0713525880047432,1.7095877091730962,-0.4384254545257304,0.2632617098223271,-0.3144264343745391,1.0952314109874002,0.2940983116834078,-0.4633384744368779,0.9478161661339856,11.51565429973016,-1.1920191563207838,0.1264249636615658,-1.063161918093232
1.52,0.4349338170109194,-0.0660113414971807,1.698646613599272,0.0533846597324852,0.1341699754985769,0.0394517362801075,-0.3405356024556204,0.2093808647043234,-0.3021240752597117,0.4347981184123648,-0.0660873538082966,1.7032991804856057,-0.4433530304864857,0.2575086490195098,-0.2945943507916609,1.0501786486413438,0.1946989837292356,-0.3986704066050547,0.9518557699012608,11.655920469702323,-1.1980004799415709,0.1295248221399095,-1.0592488813014964
1.54,0.4281499715082176,-0.0619043672231598,1.6928188351928064,0.0497127983592116,0.1284255165933109,0.0384071068698211,-0.3382321069305115,0.2017571653582961,-0.2816388766450375,0.4260296093218502,-0.0608221196118501,1.6970106517981147,-0.4482806064472411,0.2517555882166924,-0.2747622672087828,1.0989429530638308,0.1151747762554472,-0.3811849673013665,1.0242599307337064,11.67958992554304,-1.203197564018219,0.1322019992055799,-1.05659307986212
1.56,0.4213904912916573,-0.057943240677712,1.6874021826141057,0.0464640776182271,0.123876395419279,0.0374742880361155,-0.337987978452854,0.1947591274057355,-0.2610535725319992,0.4171379108323167,-0.055700711935474,1.691217925200196,-0.4532081824079964,0.2460025274138751,-0.2549301836259047,1.0871831484682732,0.0122064238828739,-0.3499018976280313,1.0292652056519165,11.685698968519318,-1.2070708341436396,0.1344919382464786,-1.055462099713972
1.58,0.4146155297383455,-0.0541156859694759,1.682396807208577,0.0435962145260107,0.1210957510405194,0.0366661557901429,-0.3395779003371997,0.188348464675487,-0.2405237801602281,0.4081230229437643,-0.0507231307791683,1.685921000691849,-0.4581357583687518,0.2402494666110577,-0.2350981000430266,1.0783051783555373,-0.0794960942172878,-0.3205331365124228,1.0264896185885524,11.685698968519318,-1.2086972684255286,0.1363231804055972,-1.0566337651403412
1.6,0.4081435601925192,-0.0505927978176087,1.6780202959764705,0.0411917088909432,0.1203841334596739,0.0360135292013446,-0.3413523962825421,0.1828046195650926,-0.2212097607017222,0.3976366347214855,-0.0446982627357016,1.6703706182005658,-0.3582637534459634,0.1783392848523864,-0.215651527442614,1.0086059712687925,-0.0887247972671173,-0.2771922555197204,0.9657009729252958,11.68848567119312,-1.2063142349032403,0.1377808200986305,-1.0615055650713154
1.62,0.4012748873210485,-0.0469798103168157,1.673687096853695,0.0392606486123982,0.1216195590696347,0.0354533278948557,-0.3452660135887097,0.1786801960786287,-0.2137881723402501,0.3976366347214855,-0.0446982627357016,1.6703706182005658,-0.3582637534459634,0.1783392848523864,-0.215651527442614,0.4674592049632986,-0.1956808653083813,-0.2062211743231928,0.3710794180736054,11.671426993081695,-1.210073591176761,0.1394556940124609,-1.0652139605551711
1.64,0.3943471648719481,-0.0434483294457227,1.6694815263736569,0.0379961224257026,0.1244964221002361,0.0350039956467604,-0.347068996487381,0.1746332673437688,-0.2070883358269575,0.3976366347214855,-0.0446982627357016,1.6703706182005658,-0.3582637534459634,0.1783392848523864,-0.215651527442614,0.4016098505477204,-0.0901491449335656,-0.202346436742995,0.3349918256646308,10.83909860624226,-1.203732262252822,0.1397303168153767,-1.0704062556153895
1.66,0.3877533383416984,-0.0401662696051053,1.665617940521355,0.0373122125890513,0.1278758895764032,0.0346369877437209,-0.3467998867521547,0.1710227868999387,-0.1999589391250965,0.3940539971870259,-0.0429148698871777,1.6682141029261397,-0.3620009240677161,0.1763374488877663,-0.2106770768990911,0.3998008454761567,0.0134554867613156,-0.1805240221915069,0.3564698350930498,10.83909860624226,-1.1976102419117047,0.1396243309865932,-1.076536048183342
1.68,0.3808371667491182,-0.0367839236521726,1.661703683370972,0.0371599077656466,0.1314831904640092,0.0342922297042466,-0.344717584259584,0.1673804222592152,-0.1918258220921526,0.3868887221181066,-0.03934808419013,1.6639010723772871,-0.3694752653112216,0.1723337769585261,-0.2007281758120455,0.4575762136467571,0.1041151246285371,-0.1821182320361741,0.4066558516471946,10.892238586331588,-1.1923941923184198,0.1390418787314432,-1.0827216408825524
1.7,0.3739798335157356,-0.0334745363585632,1.6579575572594605,0.0376008200002817,0.134653510075401,0.0339740623655159,-0.3411080786295991,0.163697995985422,-0.1832116116518647,0.3797234470491873,-0.0357812984930823,1.659588041828435,-0.3769496065547271,0.1683301050292859,-0.1907792747249998,0.5019796202645579,0.1804752814992427,-0.1841213136896599,0.430710522014395,10.939178067363173,-1.1886280476136637,0.1380122442885004,-1.0881112994738638
1.72,0.3675431899119202,-0.0304015699724392,1.6545615474105,0.0385102711686187,0.1369789311897334,0.0336822085650456,-0.3366508394447817,0.1599223148650207,-0.1747033979625678,0.3721844549180928,-0.0324146963924966,1.655772456333935,-0.3844239477982326,0.1643264331000457,-0.1808303736379541,0.5160243435545592,0.2228619592408692,-0.1887840560200665,0.4254106844648442,10.973821914576549,-1.1860712485673046,0.1364627218513018,-1.0928806475106871
1.74,0.3608652412476122,-0.0272491375349337,1.6511604041536627,0.0398678293442787,0.1385657216644425,0.0333714264772045,-0.3314147555169907,0.155478795455029,-0.1658683085139921,0.3646454627869983,-0.0290480942919108,1.651956870839435,-0.3918982890417381,0.1603227611708054,-0.1708814725509085,0.5595092608933713,0.2618041963895534,-0.2221759704995829,0.4417544724287861,11.002625777430694,-1.1851063782863664,0.1345449484169832,-1.0964735325840582
1.76,0.3542937769684053,-0.0241935821382248,1.6479341218278414,0.0414251761470223,0.1392755420873639,0.0330400845520823,-0.3260560525935372,0.1502737151002496,-0.1572080535028243,0.3569196121248161,-0.0257815839895561,1.6483900078721112,-0.3993726302852435,0.1563190892415652,-0.1609325714638628,0.5718578830880906,0.2679351461726709,-0.2602540177389742,0.4330127505583911,11.000734926196856,-1.1853291299117186,0.132434936282907,-1.0988005601772974
1.78,0.3478287572147913,-0.0212517272407287,1.644880245304575,0.0428714456776045,0.1392059041023988,0.032667820104121,-0.3208145744967297,0.144204704726377,-0.1486085031282601,0.3490069029315462,-0.0226151654854324,1.645071867431963,-0.406846971528749,0.152315417312325,-0.1509836703768171,0.5879163337630472,0.2620739048403792,-0.3034505186936279,0.4299775187282084,10.995535023078446,-1.1862111742012795,0.1305107670651298,-1.0999993849316054
1.8,0.3417810409178438,-0.0185772701076468,1.6421388703933573,0.0438642793086467,0.1385580701825495,0.0322613677386086,-0.3161355760741197,0.1376809158328734,-0.1403816684567018,0.3317880284899548,-0.0140414920044098,1.637449820148162,-0.3302597137036756,0.1287711147985248,-0.1349801497634945,0.5747470236524546,0.2339499211304996,-0.3261894446751789,0.4113417335779176,10.9967720910563,-1.1876205144647032,0.1288552511951439,-1.1004036183867725
1.82,0.335474630111494,-0.0158877406832601,1.6393722105877857,0.044659043450207,0.1381545049389377,0.0318278404891206,-0.3147521050205045,0.1315726562118151,-0.1369929250333893,0.3317880284899548,-0.0140414920044098,1.637449820148162,-0.3302597137036756,0.1287711147985248,-0.1349801497634945,0.3560491881169141,0.0691735526807568,-0.3054129810529146,0.169437171165622,11.003448860588833,-1.1930901087153942,0.1278520226178461,-1.0994803180556811
1.84,0.3291994293163201,-0.0133262645100143,1.6366668884088391,0.0452843336702692,0.1386272356955499,0.0314220841844377,-0.3127320731571293,0.1248935286899553,-0.1336846022181032,0.3317880284899548,-0.0140414920044098,1.637449820148162,-0.3302597137036756,0.1287711147985248,-0.1349801497634945,0.3861226263522344,0.1010015931687591,-0.3339563760929892,0.1654161407643087,10.6857198229618,-1.1912480583442269,0.1264793075687998,-1.100240017910581
1.86,0.3229739306821001,-0.0109033694798257,1.634033310775479,0.0454961367890013,0.1395293709968427,0.0310084610382375,-0.3098645339232347,0.1177812712963155,-0.1298429509829209,0.3284854313529181,-0.0127537808564246,1.636100018650527,-0.3321487415450647,0.1256843968129544,-0.1322544790905414,0.4288509959883706,0.14337696169473,-0.3556128696819933,0.1920825617591118,10.6857198229618,-1.1895121725626212,0.1256040880446522,-1.1012525681100602
1.88,0.317120190988194,-0.0087353867310562,1.6316067475784717,0.0451761480940311,0.1404954631374761,0.0305862653455195,-0.3064434533501556,0.1108449809436426,-0.1257785571861516,0.3218802370788446,-0.0101783585604541,1.6334004156552573,-0.3359267972278431,0.1195109608418135,-0.1268031377446351,0.4368501261282249,0.1710540286539552,-0.3468145176336409,0.2032196898384672,10.719371882491942,-1.1879410809446591,0.1252688687674726,-1.102363413992146
1.9,0.31103458918822,-0.0065944632883022,1.6291397296548653,0.0442421607426579,0.1414066471053893,0.0300984336418954,-0.3022819726563936,0.1036670511936825,-0.1211188248347304,0.3152750428047711,-0.0076029362644836,1.6307008126599871,-0.3397048529106214,0.1133375248706727,-0.1213517963987288,0.4757985462535556,0.2080740346881021,-0.3588964874980088,0.2329866175710591,10.747025391235184,-1.1868288984332396,0.1255857270512046,-1.103297572842536
1.92,0.3050368718709655,-0.004594008197079,1.626769410389599,0.0427135202085232,0.1420556379001766,0.0295617453993131,-0.2977068897839466,0.0968031698000937,-0.1161307333990275,0.3084809457465586,-0.0053361857670701,1.6282737767320128,-0.3434829085933998,0.1071640888995318,-0.1159004550528226,0.4819888672104996,0.2287541436223478,-0.3431940696794394,0.2494045717851438,10.771952944850456,-1.1862877170684023,0.1264693257363141,-1.103894132001998
1.94,0.2994261323948116,-0.0028152651896751,1.6246111538034294,0.0407932318623702,0.1423377441903152,0.0290104096682694,-0.2931700027316711,0.0908507832693002,-0.1113000788443069,0.3016868486883462,-0.0030694352696567,1.6258467408040382,-0.3472609642761782,0.1009906529283909,-0.1104491137069163,0.4453916056801025,0.2268443526137753,-0.2976193265396734,0.2415327277360324,10.794573504957045,-1.1864916047100975,0.1279375277669216,-1.104176945578203
1.96,0.2936124137095592,-0.001054001972474,1.6224396431325934,0.0385611680139552,0.1422840858799468,0.0284086575537601,-0.2884793411685496,0.0856813592494983,-0.1060966643847596,0.2947983002380643,-0.0009570206715217,1.6235559884097113,-0.3510390199589565,0.0948172169572501,-0.1049977723610101,0.4353181957892316,0.2345330781560767,-0.2584712009900978,0.2601707229773632,10.794573504957045,-1.1873159947660914,0.129655829323587,-1.1041749716731568
1.98,0.2878907674018521,0.0006135121531068,1.6203732180850612,0.0364647029630391,0.1419236954410124,0.0278137068539536,-0.283961102757974,0.0813398143171135,-0.1008015476263948,0.2878153003957129,0.0010010580273346,1.621401519549032,-0.3548170756417349,0.0886437809861092,-0.0995464310151038,0.4101882257556626,0.225911920528779,-0.217077246619237,0.2647558379182374,10.799578326154917,-1.1884812875236068,0.1311769144396881,-1.1039726116655255
2.0,0.2825367287999222,0.0021227677985819,1.6185090330251692,0.0347241984095963,0.1413539762338259,0.0272669192919431,-0.2798910798948732,0.077714374744272,-0.0956926291119742,0.2736927122639534,0.0046805028689625,1.6153331407037417,-0.2793542825806872,0.0674695406003658,-0.099427462309029,0.3735302751768554,0.2035011431550409,-0.1812719786420759,0.2554459257210331,10.802997559255346,-1.1901041788178874,0.1325345397289489,-1.10381924544651
2.02,0.2769406607845579,0.0036421033620674,1.616606530759256,0.0332058826298657,0.1416330484320749,0.0267525346158431,-0.279840586416788,0.0744212840445917,-0.0950803124668685,0.2736927122639534,0.0046805028689625,1.6153331407037417,-0.2793542825806872,0.0674695406003658,-0.099427462309029,0.1674957284643654,0.0025246739042583,-0.1646545349840142,0.0306158322552832,10.806559342197032,-1.195035041207503,0.1339235922303696,-1.104801784462864
2.04,0.2713537232328666,0.0051024030770306,1.6147078421707142,0.0321568925788298,0.1435544748128281,0.0263327917991623,-0.2786329359488442,0.0717609307362484,-0.0947922642983396,0.2736927122639534,0.0046805028689625,1.6153331407037417,-0.2793542825806872,0.0674695406003658,-0.099427462309029,0.1467895698383474,0.0603825233971899,-0.1330176654171642,0.0144024084264476,10.49839134526701,-1.191468448935403,0.1343263310257569,-1.1068011617129714
2.06,0.2658084508671847,0.0065142548298846,1.612817657132788,0.0317582204302597,0.1463869488676593,0.0259938854615803,-0.2757956108989072,0.0694997012438726,-0.0942578129778137,0.2708991694381465,0.0053551982749662,1.6143388660806512,-0.2784329185452298,0.0646954858570162,-0.0991526452455558,0.1833658260841004,0.14186625249685,-0.1130614746187891,0.0267225660262909,10.511062211128774,-1.187959040368938,0.1341810625507508,-1.1098004827401695
2.08,0.2606081330829406,0.0078150740252236,1.6110332871655142,0.032060050317165,0.1493789322136502,0.0257351654237477,-0.2716621891101456,0.0674808172741632,-0.0936105037893821,0.2653120837865328,0.0067045890869735,1.6123503168344706,-0.276590190474315,0.0591473763703171,-0.0986030111186095,0.232271809268727,0.2066710894380818,-0.1009441984854711,0.0323654594215822,10.527210345606363,-1.1846892993200453,0.1333776267906677,-1.113449199804199
2.1,0.2552323780528296,0.0091413479787094,1.6091692744647763,0.0331105153561478,0.1524211836692494,0.0255180681720016,-0.2660551000729982,0.0651933540710617,-0.0928273963255656,0.259724998134919,0.0080539798989808,1.61036176758829,-0.2747474624034003,0.053599266883618,-0.0980533769916632,0.3053080111785765,0.2803544518573703,-0.1143731601550755,0.0391553731908238,10.540467368604368,-1.182238833880611,0.1318679436828658,-1.1170497208828591
2.12,0.2499809170982783,0.0104169286750147,1.6073221119857823,0.0348368839902354,0.1550325482457907,0.0253421239289545,-0.2593702425900379,0.0624130206273867,-0.09193684934523,0.2542300488868511,0.0091259652366532,1.6084007000484566,-0.2729047343324856,0.0480511573969189,-0.0975037428647169,0.3647281437923749,0.3342428741480135,-0.1390166721837497,0.0445273490167819,10.565098569407382,-1.1807776579705798,0.129824798769275,-1.1200414544279464
2.14,0.244871118886779,0.0116275036504587,1.6054919122876323,0.0370125341693541,0.1570225002377254,0.0251834651093579,-0.2519756514787229,0.0586375540128636,-0.0911345167194737,0.248735099638783,0.0101979505743255,1.6064396325086234,-0.2710620062615708,0.0425030479102198,-0.0969541087377705,0.4170667317806312,0.3697295555657509,-0.1887733307261562,0.0401166312878155,10.565098569407382,-1.1803325497199448,0.127240497294899,-1.1222754857405275
2.16,0.2401583144717149,0.0126929848536534,1.603767652481258,0.0389831695801844,0.158259423708544,0.0250073202472047,-0.2445353309017502,0.053761931685537,-0.0904035517776715,0.2432862185924879,0.0111312331748304,1.6044923058219638,-0.269219278190656,0.0369549384235207,-0.0964044746108242,0.4462745038454253,0.3720160288486318,-0.2437811163663313,0.0365482470901096,10.565617496301456,-1.1807449494857436,0.1247401355292752,-1.1236035811889822
2.18,0.2353513606360954,0.0137071519063064,1.6019682608552188,0.0406453178798265,0.1588846327773557,0.0247708171468027,-0.2366017891301553,0.0479631850516805,-0.0895643651934243,0.2378834057479656,0.0119258130381678,1.602558719988478,-0.2673765501197413,0.0314068289368216,-0.0958548404838779,0.4931297539402901,0.3966770885797485,-0.2899373316928234,0.0419593292123592,10.569552300740725,-1.1819914058184804,0.1226746697012919,-1.1240547303850643
2.2,0.2307031185117085,0.0145978260960731,1.6001870244109773,0.04169076309614,0.1588685014186918,0.0244686124321348,-0.2287070322623962,0.0414815484939038,-0.0885917843782948,0.2235212711795876,0.0161053111588904,1.5974900425955476,-0.2248914480416815,0.0404016941806683,-0.0825765490049399,0.5130416939930273,0.3947378433879517,-0.324081827888836,0.0486290407564746,10.576819803468425,-1.1837136200882443,0.1212891916836083,-1.123616478639558
2.22,0.2264270041236809,0.0152847281862646,1.598522576198047,0.0408289770231331,0.1585554412232674,0.024044224251865,-0.2218233794906833,0.0317016912557148,-0.0866384670356588,0.2235212711795876,0.0161053111588904,1.5974900425955476,-0.2248914480416815,0.0404016941806683,-0.0825765490049399,0.6058996033211935,0.344182638585648,-0.4889928619094499,0.0976658671317999,10.660092720935609,-1.1853537188226604,0.1217410712410742,-1.1214320279620604
2.24,0.2220657070522497,0.0158252836374844,1.5968154882150811,0.0374028209766876,0.1581674340444463,0.0234298882683097,-0.2146952286658176,0.023389506972491,-0.0841387432194617,0.2235212711795876,0.0161053111588904,1.5974900425955476,-0.2248914480416815,0.0404016941806683,-0.0825765490049399,0.5615860595170795,0.3564075412432838,-0.4156092141611885,0.1249861908098531,10.674573003140722,-1.186619601500414,0.124826364570242,-1.1209989769022437
2.26,0.2178457244724808,0.0162396197408066,1.5951625455595602,0.0328990235267851,0.1577063427079812,0.0227537355260268,-0.2076875073724949,0.018682624568297,-0.0812638413014037,0.2212723566991708,0.0165093281006971,1.5966642771054982,-0.2225493798239867,0.0388893960064658,-0.081178985767243,0.4458922536057727,0.3503860646661375,-0.2353441202096982,0.1437450959029043,10.674573003140722,-1.1883680079758134,0.1290659871217507,-1.1207652081541557
2.28,0.2137643193863635,0.0165859537223742,1.5935697184574522,0.0285741454956828,0.1571582343335702,0.022105479391539,-0.200837536795592,0.016164309186765,-0.0781641627219667,0.2167745277383372,0.0173173619843105,1.5950127461253996,-0.2178652433885972,0.035864799658061,-0.0783838592918492,0.3964593817817801,0.3424985288451448,-0.1259157690766024,0.1549839289718468,10.69510579960206,-1.1903941373195073,0.1329718589823212,-1.1206742953675628
2.3000000000000003,0.210011999350044,0.0168814894878594,1.5921151527173818,0.0250358523807556,0.1565659850367222,0.0215444456366093,-0.1945143325168933,0.0149674277565702,-0.0751058835459731,0.2122766987775035,0.0181253958679238,1.5933612151453007,-0.2131811069532077,0.0328402033096561,-0.0755887328164554,0.3562601192472111,0.3161602139349337,-0.05984407150974,0.152913958799683,10.69510579960206,-1.1927658811572437,0.1365144397458176,-1.1207278869846231
2.32,0.2061895419897832,0.0171753916841189,1.5906477144424835,0.0219987832751564,0.1558929620695633,0.0210178288451261,-0.1880921374343831,0.0144122469769805,-0.0717972849157878,0.2080130766384394,0.018782199934117,1.5918494404889716,-0.2084969705178182,0.0298156069612512,-0.0727936063410617,0.3622831774713934,0.3211097541255092,-0.0277590389794862,0.165429931509263,10.700559963577687,-1.1952640988694605,0.1393614694663712,-1.1209229625709365
2.34,0.2024932018226467,0.0174637207557583,1.5892473097797186,0.0196438067496521,0.1551961184406719,0.0205548196787229,-0.181888888423738,0.0143614444938039,-0.0684074539972908,0.2037494544993752,0.0194390040003101,1.5903376658326425,-0.2038128340824286,0.0267910106128463,-0.0699984798656679,0.3534608635915879,0.3101624505322559,-0.00254012415883,0.1694915459248477,10.70555689990033,-1.1977712488193752,0.1415319953699515,-1.1212849100096716
2.36,0.1989190095086183,0.0177541182502664,1.5879153127652363,0.0178923682801901,0.1544821169358855,0.020148905662682,-0.1758674025885257,0.0146181941854477,-0.0649608203426692,0.1996029357711958,0.0200201931577931,1.5888957693381982,-0.1991286976470391,0.0237664142644414,-0.0672033533902741,0.3471436864505546,0.3010742917606154,0.0128374845821924,0.1723316827310833,10.710178812579215,-1.2001300526104564,0.1430365281902708,-1.121785567382079
2.38,0.1956332318345517,0.0180388208997731,1.5867142500614273,0.0167904679503276,0.1537847482670785,0.019815232804129,-0.1703322210981399,0.0152752301606943,-0.061640762086971,0.1955735204539011,0.020525767406566,1.5875237510056388,-0.1944445612116496,0.0207418179160365,-0.0644082269148803,0.3243945022095291,0.276759074519288,0.0328517987623316,0.1660029127849106,10.71353638888104,-1.2027530813869525,0.144050555686307,-1.1226285664836952
2.4,0.192285765853492,0.0183552281626426,1.5855185922295332,0.0163107947134449,0.1530414755338223,0.0195235797356641,-0.1647340608265788,0.016293372543059,-0.0580992411544354,0.1871166207796447,0.0188025824078078,1.5836322119570787,-0.1777272515631169,0.0150423987748928,-0.0524296176768972,0.3351058894306402,0.2799080135780563,0.050907119118232,0.1770760466267791,10.716355102922536,-1.2055775705139151,0.1443845418447678,-1.1238791930170655
2.42,0.1890869467788212,0.0186756266279144,1.584385591671685,0.0160194441454309,0.1510698153433309,0.0192364091894995,-0.1553750911881034,0.0157969607966896,-0.0554037158952688,0.1871166207796447,0.0188025824078078,1.5836322119570787,-0.1777272515631169,0.0150423987748928,-0.0524296176768972,0.487602793620595,0.4679484819237717,-0.0248205873184692,0.1347762629583276,10.719877616701524,-1.204467938778955,0.1441467914934478,-1.1229529318426617
2.44,0.1862220825590416,0.0189757049837204,1.583360296797064,0.0156027479882938,0.1466323286446064,0.0189244661933328,-0.1469172429690793,0.0158347335215925,-0.052614790261059,0.1871166207796447,0.0188025824078078,1.5836322119570787,-0.1777272515631169,0.0150423987748928,-0.0524296176768972,0.445294086722323,0.4228924109512019,0.0018886362451448,0.1394462817104889,10.674085502739215,-1.2135535479066752,0.1445920429833532,-1.119286514428996
2.46,0.1833497584223713,0.0192955311882073,1.5823439807016584,0.0152621013890972,0.1398721417084987,0.0185836906832787,-0.1411909726750401,0.0161389684478242,-0.0491161311030385,0.1853393482640135,0.0189530063955568,1.5831079157803096,-0.1792062576561123,0.0149958324977325,-0.0505873887948825,0.3358695664790727,0.2863135147019607,0.0152117463115835,0.1749329579010267,10.686414197285558,-1.2260892296683776,0.1450367607041901,-1.1138486306730635
2.48,0.1805526160233571,0.0196227375546644,1.5814026283600016,0.0151300945708256,0.1322786200659573,0.018257611863955,-0.1390981883807111,0.0165503274961231,-0.0451663174630167,0.1817848032327512,0.0192538543710546,1.5820593234267717,-0.1821642698421031,0.0149026999434119,-0.0469029310308529,0.2244437020730927,0.1046392147164496,0.0205679524149477,0.1974906820010918,10.704203918801795,-1.2375054495511468,0.1451466109506893,-1.107919871822289
2.5,0.1777619288818591,0.0199582326074905,1.580543152449076,0.0152607851743248,0.1249402577821563,0.0179643241945005,-0.1402049425682104,0.0169507241313378,-0.0409703470580008,0.1782302582014888,0.0195547023465525,1.5810107310732338,-0.185122282028094,0.0148095673890912,-0.0432184732668234,0.2178955594821011,-0.0553377093749626,0.020019831760736,0.2097985202507916,10.71711736085399,-1.2467052449237577,0.1449320097332713,-1.1032563164692175
2.52,0.1750641260665593,0.0202831290819027,1.5798052717063518,0.0156280914952493,0.1189205365076146,0.0177247134000499,-0.1437862274652188,0.0172060775946826,-0.0369078171908621,0.174527812560927,0.0198508936943343,1.5801463616078972,-0.1880802942140848,0.0147164348347706,-0.0395340155027939,0.2710855760925723,-0.1790642448504201,0.0127676731672398,0.2031264933569355,10.72427649637848,-1.2540384951405066,0.144363500599038,-1.0988801908950427
2.54,0.1721270374473338,0.0206279196831695,1.5791118103008492,0.0162322233513288,0.1142578643980282,0.0175201873279997,-0.1498802435334996,0.0172359658953874,-0.0326548425300614,0.1708253669203651,0.0201470850421161,1.579281992142561,-0.1910383064000756,0.01462330228045,-0.0358495577387644,0.3715700425774287,-0.3047008034140416,0.0014944150352367,0.2126487330400352,10.727848010901653,-1.2588987065088308,0.1435364712688874,-1.096130377202058
2.56,0.1690447619319081,0.0209698216666015,1.5785019616543547,0.0169844805881024,0.112113762445787,0.0173733672837155,-0.1580166079894271,0.0169350718961958,-0.0285540413364863,0.1670489709751534,0.02044094807604,1.5785097341213252,-0.1939963185860664,0.0145301697261294,-0.0321650999747349,0.4558166687048023,-0.4068182227963762,-0.0150446999595776,0.2050400596787559,10.731295387556202,-1.258951855088943,0.1424175296319949,-1.0955387443585896
2.58,0.1658010782097945,0.0213016664928915,1.5779716053137935,0.0177709365681356,0.1127259237321653,0.017283662772516,-0.1655699889513504,0.0162709024090398,-0.0246944266109395,0.163198624725292,0.0207324827961057,1.57782958754419,-0.1969543307720572,0.0144370371718088,-0.0284806422107054,0.4254154172490432,-0.3776690480961617,-0.0332084743578013,0.1929807362773391,10.726438977554608,-1.2537153831608268,0.1411460924983649,-1.097093956335826
2.6,0.1625964942708689,0.0216012030362624,1.5775368575049518,0.0184339725300219,0.1151412568580628,0.0172340571487343,-0.1711250595284397,0.0153099269887306,-0.0212705523514034,0.1575225787622269,0.0221152116133435,1.5767368839832463,-0.1538810384797703,0.0015490226734508,-0.0135924021451402,0.3297923506541499,-0.2777535288544672,-0.0480487710154609,0.1711937129768036,10.706641894702445,-1.2467562863270314,0.1399515692558325,-1.1008166159022668
2.62,0.1590977162969263,0.0219386173982726,1.5771473890565588,0.0203790225542664,0.1198124931290132,0.0173202931833264,-0.1780813090756529,0.0180242715423697,-0.0178848729064415,0.1575225787622269,0.0221152116133435,1.5767368839832463,-0.1538810384797703,0.0015490226734508,-0.0135924021451402,0.4099387131725047,-0.347812477360658,0.1357172276819587,0.1692839722480962,10.689679676165724,-1.2419736523256186,0.1378629109532601,-1.109530422653375
2.64,0.1554925483463613,0.022298530645939,1.5768232002497344,0.0238604758020611,0.1266173519112445,0.0175795891703521,-0.1816769653792068,0.017527768928178,-0.0147312993844934,0.1575225787622269,0.0221152116133435,1.5767368839832463,-0.1538810384797703,0.0015490226734508,-0.0135924021451402,0.2404177877025647,-0.1797828151776953,-0.0248251307095874,0.1576786760974039,10.686197993869428,-1.2304912478140313,0.1340393164859395,-1.1172181112284276
