t,x,y,z,roll,pitch,yaw,v_x,v_y,v_z,ref_x,ref_y,ref_z,ref_v_x,ref_v_y,ref_v_z,a_com,a_x,a_y,a_z,thrust,wind_x,wind_y,wind_z
0.0,0.8102163858212275,2.493709357855356,2.829113744988879,0.011748928965161,0.1363563426283829,0.0255512358838067,0.0051582220601434,0.0042859491051232,0.0193453118360881,0.8103773577672391,2.493732586263917,2.8297011871475206,-0.0946883999806754,-0.0982936423043662,-0.080479138233172,1.0237403291227585,0.2579111030071724,0.2142974552561641,0.9672655918044069,10.552340491680296,-1.287545793070756,0.164700743666192,-1.1794504532603045
0.02,0.8104450544886869,2.4940386520117444,2.829255309986438,0.0202684415770553,0.1310565268176738,0.0260680409186239,0.0176693016438083,0.0250135727285533,-0.0042941914947118,0.8103773577672391,2.493732586263917,2.8297011871475206,-0.0946883999806754,-0.0982936423043662,-0.080479138233172,1.691883278443192,0.6255539791832437,1.0363811811715016,-1.1819751665399982,9.188154083304653,-1.2984551139552862,0.1559652038195879,-1.1836262577361465
0.04,0.8108833878136504,2.49457408635367,2.828857026542793,0.035208063283248,0.1159184189822935,0.0266506470955575,0.0241419604416103,0.0267242767069474,-0.0343001769633784,0.8103773577672391,2.493732586263917,2.8297011871475206,-0.0946883999806754,-0.0982936423043662,-0.080479138233172,1.5371897930641871,0.3236329398900996,0.0855351989197058,-1.5002992734333296,8.88274167736472,-1.3306046295548588,0.1410185505410568,-1.1528696025682803
0.06,0.8113361820102195,2.4950634702752,2.827862619409993,0.0504648711306266,0.0949589169648716,0.0267167537856728,0.0198235753177684,0.0217521776098224,-0.0635065150046655,0.8094304737674323,2.492749649840873,2.828896395765189,-0.1146884002786986,-0.1182936426023894,-0.1004791385311952,1.496980628875492,-0.2159192561920944,-0.2486049548562484,-1.4603169020643565,8.880921050375946,-1.360341312558995,0.1266236550478716,-1.111983856559276
0.08,0.8115904613007611,2.4954000817095445,2.8263918355237245,0.0643805715498311,0.0734264106980312,0.026294508446755,0.0066687001244674,0.0136411845239536,-0.0898075332886442,0.8075367057678188,2.490783776994786,2.827286813000525,-0.154688400874745,-0.1582936431984358,-0.1404791391272417,1.525272527259079,-0.6577437596650504,-0.405549654293442,-1.3150509141989342,8.880921050375946,-1.384241122582258,0.1123335459268462,-1.062611504305963
0.1,0.8115081022564088,2.49555744355682,2.824312629981177,0.0783303217238388,0.0518009435825066,0.0254953098160321,-0.0146302566340444,0.0022065663676218,-0.1166942465023013,0.8056429377682053,2.488817904148698,2.825677230235862,-0.1946884014707915,-0.1982936437944823,-0.1804791397232881,1.8078242439570225,-1.064947837925591,-0.5717309078165896,-1.3443356606828545,8.924332206732288,-1.3997465934054476,0.0991105589068377,-1.0150098121850404
0.12,0.810934233912028,2.49545711461908,2.8217028383880085,0.0915974927312512,0.0330652898828899,0.0245383946966116,-0.0418526435809516,-0.0119598200730056,-0.1429079987159374,0.8017491697387895,2.484852031272809,2.822067647441396,-0.2346884020668379,-0.2382936443905287,-0.2204791403193345,2.017985171520256,-1.361119347345361,-0.7083193220313756,-1.3106876106818086,8.999499410906992,-1.4062229607717234,0.0869897362090969,-0.9702844430250808
0.14,0.8097688131452327,2.4950470513204706,2.81856695947895,0.1042215235020567,0.0183544016877705,0.0236343647074443,-0.0731091374908352,-0.0286069326562167,-0.169346974693029,0.7978554017093736,2.4808861583969195,2.8184580646469306,-0.2746884026628844,-0.2782936449865753,-0.260479140915381,2.2097025928922647,-1.5628246954941798,-0.8323556291605516,-1.3219487988545788,8.999499410906992,-1.4046244385536468,0.0765308646434491,-0.9316155931204612
0.16,0.8080541854604314,2.49432686618899,2.815096856426964,0.1156454422092273,0.0085987693723741,0.0229906238887187,-0.1055803078188377,-0.0465904647380527,-0.1945930159193527,0.7929616336650567,2.4759202855061284,2.813848481837564,-0.3146884032589309,-0.3182936455826217,-0.3004791415114274,2.244519395221288,-1.623558516400128,-0.8991766040917992,-1.2623020613161853,8.992816514598417,-1.3996356369927938,0.0663639944794892,-0.9017411747317724
0.18,0.8055638419594641,2.4931775146972157,2.8109222932939466,0.1270949658485131,0.003269978751914,0.0227229702286073,-0.1417196737417423,-0.0676428237407258,-0.2215502535810666,0.7870678656058385,2.4699544126004365,2.808238899013296,-0.3546884038549773,-0.3582936461786681,-0.3404791421074739,2.487945061309208,-1.806968296145227,-1.0526179501336566,-1.3478618830856923,8.999749093476112,-1.3901153781780609,0.0569462711334848,-0.8809495210132917
0.2,0.8023504567745285,2.4915661196220067,2.806206567651891,0.137367559520127,0.0032700662031956,0.0229960158273119,-0.1771902396323825,-0.0923405171738561,-0.2485765914312622,0.7811740975466204,2.4639885396947445,2.8026293161890274,-0.3946884044510237,-0.3982936467747145,-0.3804791427035203,2.548803662069741,-1.7735282945320106,-1.2348846716565136,-1.3513168925097796,8.996670918471409,-1.3703318480532871,0.0484168562109116,-0.8665907041375781
0.22,0.7986340687976385,2.4893966900425637,2.801368864930214,0.1411444838956977,0.0085063116731121,0.023556225758786,-0.2113405755230739,-0.1318356803821494,-0.2588516602422027,0.7984778582723769,2.4897953735101788,2.7998447806148934,-0.2417196752318584,-0.1676428252308419,-0.3215502550711827,2.6606814904110263,-1.707516794534572,-1.9747581604146665,-0.513753440547024,10.050119617391374,-1.3383533631824025,0.0439215597060723,-0.8635943066107351
0.24,0.7940837954561191,2.486400225989206,2.796075882985684,0.1387744078847544,0.0186608697189356,0.0243509470309455,-0.2411734045947922,-0.1650143857848343,-0.2699431833125104,0.7984778582723769,2.4897953735101788,2.7998447806148934,-0.2417196752318584,-0.1676428252308419,-0.3215502550711827,2.298829085991215,-1.4916414535859124,-1.6589352701342472,-0.5545761535153876,10.050119617391374,-1.3133880287695172,0.0438937362906884,-0.8766074012397851
0.26,0.7889980309288293,2.4828060361997126,2.7905350080791558,0.133535783661521,0.031149609500294,0.0252207590712891,-0.2653703880859327,-0.1921449452925263,-0.2836415102024022,0.7984778582723769,2.4897953735101788,2.7998447806148934,-0.2417196752318584,-0.1676428252308419,-0.3215502550711827,1.942424663180835,-1.2098491745570248,-1.3565279753845985,-0.6849163444945877,9.837142215536003,-1.2902813192423364,0.0467961834872464,-0.889711162810586
0.28,0.7834831810010386,2.4787178975332105,2.7846866719289,0.1277051896931127,0.0442041871373913,0.0260506626102584,-0.2845391285340721,-0.2151432579597362,-0.3004711987352313,0.7960606615200584,2.4881189452578703,2.7966292780641817,-0.2617196755298817,-0.1876428255288651,-0.3415502553692059,1.7172662956126827,-0.9584370224069716,-1.1499156333604932,-0.8414844266414562,9.616439726026329,-1.2705778013128328,0.0503325465631958,-0.9023016306435248
0.3,0.7779301728331527,2.474434997620794,2.778791325699003,0.1225017164811397,0.0559712542435127,0.0267120638461398,-0.2988500726061685,-0.2345627209653295,-0.319257492582866,0.7912262680154212,2.4847660887532537,2.790198272962758,-0.3017196761259281,-0.2276428261249116,-0.3815502559652524,1.5287605275107337,-0.7155472036048188,-0.9709731502796678,-0.9393146923817376,9.419832798101195,-1.252650298151358,0.054120120358658,-0.9136305773727992
0.32,0.7718247642517002,2.4695476300229404,2.772172971613375,0.1177478445511756,0.0668978769606483,0.0272196459443925,-0.3107777483463116,-0.2531993039707387,-0.3417337213521592,0.7863918745107841,2.4814132322486366,2.783767267861334,-0.3417196767219745,-0.267642826720958,-0.4215502565612988,1.5770007406221351,-0.596383787007157,-0.9318291502704592,-1.1238114384646558,9.249886012621571,-1.237824698731564,0.0576208501487642,-0.9214191097239376
0.34,0.765507453079254,2.4642997169937475,2.765086083873556,0.1138365294115295,0.0758577847420722,0.0275096098474948,-0.3202953576741513,-0.2707419193625579,-0.3659065102379507,0.7795574809763446,2.476060375714217,2.775336262730108,-0.381719677318021,-0.3076428273170045,-0.4615502571573452,1.5673640009740235,-0.4758804663919841,-0.8771307695909586,-1.2086394442895776,9.09750998117488,-1.2256594999301205,0.0605908558554772,-0.9255238159814048
0.36,0.7590140272535473,2.458700898081364,2.75750137163244,0.1104561812645402,0.0827819297876529,0.0275750425987745,-0.3286151165004353,-0.2882239954944257,-0.391344449817107,0.7727230874419051,2.4707075191797983,2.766905257598882,-0.4217196779140675,-0.347642827913051,-0.5015502577533918,1.5983821061003791,-0.415987941314197,-0.8741038065933876,-1.271896978957812,9.01607908277856,-1.2177865787108133,0.0631688852655805,-0.9265988835550482
0.38,0.7526974046295011,2.4530618258405994,2.749815817245433,0.1074340054021661,0.0877271382174636,0.027451296074952,-0.3359232705205067,-0.3044175431305342,-0.4163735510132533,0.7648886938925644,2.464354662630478,2.757474252452755,-0.4617196785101139,-0.3876428285090974,-0.5415502583494382,1.5346791251845897,-0.36540770100357,-0.8096773818054265,-1.251455059807316,8.959224838328737,-1.2114249556440215,0.0657236258264278,-0.9253439474334698
0.4,0.7459010574808511,2.4468008948707904,2.741202498117038,0.1043951198237749,0.091503542167091,0.0271644860536946,-0.3433548926047646,-0.3207572811951205,-0.4436723923286294,0.7359012411034758,2.4378409486840726,2.72899713969477,-0.4359232720106228,-0.4044175446206503,-0.5163735525033695,1.6335871448935677,-0.371581104212898,-0.8169869032293137,-1.3649420657688065,8.910876614723747,-1.206746942209229,0.0681530180841419,-0.922115815226233
0.42,0.7389845317920467,2.4402017640477536,2.732263674972069,0.1016700664490431,0.093979117649464,0.0267559738239785,-0.3478426834287565,-0.3384811274789552,-0.4476855765860328,0.7359012411034758,2.4378409486840726,2.72899713969477,-0.4359232720106228,-0.4044175446206503,-0.5163735525033695,0.935922862014784,-0.2243895411995933,-0.886192314191736,-0.2006592128701689,8.853006814990295,-1.1914805995574798,0.0690174546729852,-0.921513236956446
0.44,0.7319883623935796,2.4332651003346903,2.7232432140267444,0.099720146721689,0.0949916982059979,0.0262498701973783,-0.3517284835814285,-0.354568532619544,-0.4543109114546192,0.7359012411034758,2.4378409486840726,2.72899713969477,-0.4359232720106228,-0.4044175446206503,-0.5163735525033695,0.8913460454627837,-0.1942900076336018,-0.8043702570294409,-0.3312667434293231,10.236601770178822,-1.1904321916288767,0.0701153430638745,-0.9208576812829156
0.46,0.7252655370503428,2.426378814933721,2.714503096282641,0.0985625277013153,0.094508617961398,0.0256735867848779,-0.3558346365173929,-0.3695566196170586,-0.4653500806799294,0.7315420083833696,2.4337967732378663,2.7238334041697363,-0.455923272308646,-0.4244175449186735,-0.5363735528013927,0.9531087306331208,-0.2053076467982195,-0.7494043498757319,-0.5519584612655087,9.9257659074201,-1.1908550082084477,0.0707481880099869,-0.9170752717259107
0.48,0.7180998706913588,2.4188292145354517,2.7050381237392416,0.0980195171152691,0.0924176325925743,0.0249593159316202,-0.3606096468516559,-0.3846414425733007,-0.4807194360199467,0.7228235429431571,2.425708422345453,2.713505933119669,-0.4959232729046924,-0.46441754551472,-0.5763735533974391,1.1029162376187074,-0.2387505167131487,-0.7542411478121014,-0.7684677670008633,9.653257726650736,-1.192421923640054,0.0708105996911709,-0.9106956447220862
0.5,0.7108313767348945,2.4109822028250525,2.695233928386197,0.0982584947381746,0.0885954492064344,0.0241293702970838,-0.3661321158093105,-0.3993499112999859,-0.4990267290426854,0.7141050775029446,2.4176200714530403,2.7031784620696016,-0.5359232735007389,-0.5044175461107665,-0.6163735539934856,1.2062272728351775,-0.2761234478827312,-0.7354234363342621,-0.915364651136938,9.437954662898846,-1.194995393447216,0.0702830585626196,-0.9020699653589862
0.52,0.7034362864122761,2.402843153235676,2.685038252391956,0.0993373547114385,0.0831656941343492,0.0231947247393412,-0.3734540262428127,-0.4139203324030105,-0.51959050819732,0.7033866120329298,2.407531720530825,2.690850990989732,-0.5759232740967853,-0.544417546706813,-0.6563735545895321,1.312227644728874,-0.3660955216751083,-0.7285210551512322,-1.0281889577317265,9.278693102334728,-1.1992450676534157,0.0691580353825818,-0.8899839097220673
0.54,0.6962516611392205,2.394838608436588,2.674965647983254,0.1011545071033691,0.0771857408499569,0.0222689579020805,-0.3826553806565697,-0.4280313494634771,-0.5396368697753712,0.6926681465629151,2.397443369608609,2.678523519909862,-0.6159232746928318,-0.5844175473028594,-0.6963735551855785,1.309238650940223,-0.4600677206878484,-0.705550853023329,-1.0023180789025588,9.126826908563087,-1.2026840547264908,0.0672293370569985,-0.8771330051051687
0.56,0.6884744531950441,2.3861053009562707,2.663946405138184,0.1034709342810741,0.0707838472347614,0.0212935329038797,-0.3947473734784611,-0.444665015039931,-0.5612487733341683,0.6809496810779991,2.386355018671493,2.6651960488150914,-0.6559232752888782,-0.6244175478989058,-0.7363735557816249,1.491617826680758,-0.604599641094572,-0.8316832788226952,-1.0805951779398582,9.126826908563087,-1.2053612234122988,0.0648657388395364,-0.8651698423968461
0.58,0.6804317826013278,2.377020970661848,2.6524908967335223,0.1053454153334415,0.0649894048941808,0.0203330678564772,-0.4089695732808419,-0.4627375439612134,-0.5831867772600335,0.6682312155781821,2.3742666677194757,2.650868577705419,-0.6959232758849246,-0.6644175484949523,-0.7763735563776714,1.589153300566614,-0.711109990119041,-0.903626446064118,-1.09690019629326,9.100135220248376,-1.2063419276056793,0.0627950056133407,-0.8557360237530278
0.6,0.6720841111924872,2.36756590726253,2.6405925251536884,0.1063846917578844,0.0603982741373398,0.0194318515713854,-0.42515353426515,-0.4816935197476319,-0.6055272575586842,0.6599833039372857,2.3538840934637872,2.6233315578705207,-0.508969574770958,-0.5627375454513295,-0.6831867787501497,1.6735790025655262,-0.8091980492154038,-0.947798789320925,-1.1170240149325328,9.08884004967922,-1.2060070739068194,0.0612308032459773,-0.8471536146619365
0.62,0.6638084632378823,2.3581695870035864,2.629107374586541,0.1052857176360863,0.0592094106082093,0.0187683473396548,-0.4447907338633998,-0.5058507418602052,-0.6022557409192008,0.6599833039372857,2.3538840934637872,2.6233315578705207,-0.508969574770958,-0.5627375454513295,-0.6831867787501497,1.5651627785793694,-0.9818599799124887,-1.207861105628663,0.163575831974172,9.072231206015203,-1.1930800233313736,0.0606002941202114,-0.8425051532277998
0.64,0.65471852367643,2.3478142374765483,2.61706448952512,0.1016902510193814,0.0622254095670356,0.0183531944030969,-0.4626747440049249,-0.5278312614096204,-0.6024862514304958,0.6599833039372857,2.3538840934637872,2.6233315578705207,-0.508969574770958,-0.5627375454513295,-0.6831867787501497,1.4168928977698154,-0.8942005070762565,-1.0990259774707634,-0.0115255255647539,10.63138479850022,-1.1846398754000764,0.0620290896392103,-0.8495408227546611
0.66,0.6453031979310518,2.337060010322469,2.6049500562578096,0.0971533090069446,0.0677937429117802,0.018124736279363,-0.4775703277948362,-0.5462130660709755,-0.6088859032015461,0.6548936081895761,2.348256718009274,2.6164996900830197,-0.5289695750689812,-0.5827375457493527,-0.7031867790481728,1.2254842939030188,-0.7447791894955674,-0.9190902330677542,-0.3199825885525142,10.25258990594648,-1.1766448860888783,0.0644209300487323,-0.857197433169712
0.68,0.6361099332479538,2.326528270048214,2.593273837466483,0.0928050104108716,0.0742343123707356,0.0180009293633801,-0.4891488160718908,-0.5613937267916386,-0.6198524053355391,0.6447142166941568,2.3370019671002478,2.602835954508016,-0.5689695756650277,-0.6227375463453991,-0.7431867796442193,1.1008837583421829,-0.5789244138527272,-0.7590330360331521,-0.5483251066996486,9.605036866299995,-1.1677013074326683,0.0671774348587604,-0.8653538994344793
0.7000000000000001,0.6262207500963373,2.315150256459307,2.580714995777424,0.0885887868232204,0.0812849956859072,0.0179015215764037,-0.4989570857088741,-0.5755786269131796,-0.635651083933903,0.6345348251987377,2.3257472161912207,2.589172218933013,-0.6089695762610742,-0.6627375469414456,-0.7831867802402658,1.169414159081661,-0.4904134818491668,-0.7092450060770528,-0.7899339299181962,9.3635350896202,-1.1589447751315232,0.0698442526854432,-0.8721757429114299
0.72,0.6161569157068482,2.3035028248658715,2.567796960655568,0.0849138046374173,0.0879313555064543,0.0177872093205565,-0.506825967286286,-0.5885136197877513,-0.6553537322589292,0.6223554336735162,2.312492465252392,2.573508483328208,-0.6489695768571206,-0.7027375475374921,-0.8231867808363122,1.2424046130027555,-0.3934440788705945,-0.6467496437285836,-0.9851324162513108,9.3635350896202,-1.151220286402218,0.072107900735632,-0.8769770108611766
0.74,0.6064667023670921,2.2922070548812794,2.555141109766435,0.0819525650366353,0.093479819980908,0.0176399978689745,-0.5127676061505972,-0.5999542117845574,-0.67585991478104,0.6101760421482948,2.299237714313563,2.5578447477234025,-0.6889695774531671,-0.7427375481335385,-0.8631867814323587,1.2110880843908505,-0.2970819432155602,-0.5720295998403069,-1.0253091261055391,9.171487068383612,-1.1438363429143583,0.0741022090024651,-0.8806147435511299
0.76,0.596153051649206,2.2800811901500424,2.54138303716422,0.0791636986647462,0.0984013419018901,0.0174268319217386,-0.5182365539598115,-0.6119641427683913,-0.6989270746194102,0.5969966506081721,2.284982963359833,2.541181012103696,-0.7289695780492135,-0.7827375487295849,-0.9031867820284052,1.328760414244493,-0.2734473904607126,-0.6004965491916925,-1.1533579919185075,9.078112457683346,-1.1376504337470603,0.0758886748296815,-0.8825561594632925
0.78,0.5857365240579122,2.2677182574643826,2.5271506504927808,0.0764502903481627,0.102478255777152,0.0171497381382202,-0.5231084711074006,-0.6236283388432514,-0.7231947103942045,0.5828172590531483,2.2697282123912017,2.5235172764690885,-0.7689695786452599,-0.8227375493256314,-0.9431867826244515,1.3681257186967783,-0.2435958573794527,-0.5832098037430067,-1.2133817887397147,9.001420001450242,-1.1323180371175987,0.0776375712686836,-0.8832629396130782
0.8,0.5752273848820144,2.2551272034770977,2.51242060821275,0.0737100709471963,0.1058162770555857,0.0168146585800827,-0.5275474877649607,-0.6347704962140145,-0.7485762836698097,0.5595811005025422,2.23653684052222,2.4909909149730707,-0.6231084725975167,-0.7236283403333675,-0.8231947118843206,1.4036352817825066,-0.2219508328780095,-0.5571078685381536,-1.2690786637802598,8.94095737805037,-1.1282727615926116,0.0793603993144108,-0.8828669834166215
0.8200000000000001,0.5651854051570733,2.242944515008571,2.4982171204109425,0.0710448155209319,0.1087103916563329,0.0164734104294418,-0.529167663645774,-0.6469197026887947,-0.745257533308419,0.5595811005025422,2.23653684052222,2.4909909149730707,-0.6231084725975167,-0.7236283403333675,-0.8231947118843206,0.6349060793000042,-0.08100879404066,-0.6074603237390119,0.165937518069531,8.884626514449337,-1.1177074616394858,0.0805617973390393,-0.8842692594811767
0.84,0.5551256304565764,2.230553641205741,2.4840473662927427,0.0687809056646652,0.1112932966549738,0.0161412638354373,-0.5296949335558979,-0.6569432318171149,-0.7465697155930391,0.5595811005025422,2.23653684052222,2.4909909149730707,-0.6231084725975167,-0.7236283403333675,-0.8231947118843206,0.5061397338988404,-0.0263634955061986,-0.5011764564160082,-0.0656091142310022,10.538062900195657,-1.1162551945066643,0.082103521197595,-0.8875130956452044
0.86,0.5445292776967862,2.217310005328731,2.469044965059303,0.0670242235657963,0.1131827927817754,0.0157839071324055,-0.5299696729986969,-0.6669437666640253,-0.7538622828331989,0.553350015776567,2.2293005571188864,2.4827589678542274,-0.6431084728955399,-0.7436283406313907,-0.8431947121823438,0.6190066961228116,-0.0137369721399494,-0.5000267423455218,-0.3646283620079904,9.807581319311794,-1.1150207031453083,0.0831636040830358,-0.8881873035300518
0.88,0.533926769238403,2.2038728882491454,2.4538435424382,0.065838420214729,0.1140243097411516,0.0154039405126001,-0.5303639794942604,-0.6762816059124026,-0.7660968407237719,0.5408878463246166,2.214827990312219,2.466295073616541,-0.6831084734915863,-0.7836283412274372,-0.8831947127783902,0.769797256131057,-0.0197153247781745,-0.4668919624188639,-0.611727894528652,9.546667238903863,-1.1145250125702428,0.0837884026225078,-0.8868176575879075
0.9,0.5233135204612313,2.1902563531103643,2.4383569607667006,0.0653422990972314,0.1137491002213136,0.0150072760999747,-0.5310085324442223,-0.6849403547642027,-0.7820847578387019,0.5284256768726663,2.200355423505552,2.4498311793788545,-0.7231084740876328,-0.8236283418234837,-0.9231947133744368,0.9096742189621024,-0.0322276474980953,-0.4329374425900034,-0.7993958557464986,9.546667238903863,-1.11461205460495,0.0838570378292389,-0.884129723664968
0.92,0.5132177827347122,2.177166321916378,2.4233183931581377,0.065704254863055,0.1122926967410941,0.0146175481545462,-0.5317507486665108,-0.692633228878757,-0.8000964527062902,0.5139635073909137,2.183882856669082,2.431367285111366,-0.7631084746836793,-0.8636283424195301,-0.9631947139704832,0.9799902411071666,-0.0371108111144269,-0.3846437057277163,-0.9005847433794123,9.349144041485488,-1.115582177273949,0.0832321753534309,-0.8796645166218305
0.94,0.5025741711810577,2.1632323587891404,2.4071076166760603,0.0671713347656856,0.1092679726814725,0.0141881916158237,-0.5326603703555007,-0.7004739395871687,-0.8200610686888312,0.4995013379091609,2.167410289832612,2.4129033908438773,-0.8031084752797257,-0.9036283430155766,-1.0031947145665296,1.0734174949203334,-0.0454810844494946,-0.3920355354205873,-0.9982307991270534,9.1989199223799,-1.1178708016730867,0.081738061840508,-0.8733446872776044
0.96,0.4919033825171434,2.1491282898309594,2.390493977668016,0.0695549582246802,0.1046328767906538,0.0137097010510494,-0.534589739777759,-0.7097115520725408,-0.8402953377088326,0.4840391684125071,2.149937722981241,2.393439496561488,-0.8431084758757721,-0.943628343611623,-1.043194715162576,1.1163350679469328,-0.0964684711129149,-0.4618806242686013,-1.011713451000068,9.140758410209855,-1.1212569870756912,0.0795469059605686,-0.8645579321488318
0.98,0.481172131922479,2.13481841819626,2.373474582692332,0.0720144065901872,0.0988897843312313,0.0131481404213289,-0.5386937186561102,-0.7207795924383548,-0.8606015417000449,0.4675769989009521,2.1314651561149693,2.372975602264196,-0.8831084764718186,-0.9836283442076692,-1.0831947157586224,1.1743999326315189,-0.2051989439175561,-0.5534020182906996,-1.015310199560615,9.125342615510815,-1.124840701042228,0.0774145535774489,-0.8546735510123155
1.0,0.4708801957729564,2.1210086433724578,2.35692939293204,0.0739208330530709,0.0930972199402832,0.0125500249395339,-0.5446097421472128,-0.7321948580602446,-0.879953694504693,0.4542374459896735,2.098779438574342,2.3304445056073297,-0.5941769667408937,-0.8207795939284709,-0.960601543190161,1.1616942813623858,-0.2958011745551325,-0.570763281094494,-0.967607640232404,9.108208780779025,-1.128008975874803,0.0754593698254838,-0.8444490303052676
1.02,0.4598121469121183,2.1061805851813062,2.339376425612934,0.0743135113387197,0.0909253837339965,0.0120962227387261,-0.561768006084474,-0.7497835472386954,-0.8729434527381412,0.4542374459896735,2.098779438574342,2.3304445056073297,-0.5941769667408937,-0.8207795939284709,-0.960601543190161,1.277606647194644,-0.8579131968630582,-0.87943445892254,0.3505120883275869,9.108208780779025,-1.1257174591882395,0.074721119341503,-0.836969653029483
1.04,0.448435060353853,2.0910167300520097,2.3219672880361424,0.0726184228438204,0.0956178412609529,0.0120121774379592,-0.5742872688655614,-0.7655421534451365,-0.8687655089378981,0.4542374459896735,2.098779438574342,2.3304445056073297,-0.5941769667408937,-0.8207795939284709,-0.960601543190161,1.0277655673226191,-0.6259631390543696,-0.7879303103220547,0.2088971900121583,10.899249173817225,-1.1163089658359204,0.0750162174256925,-0.8457708626396614
1.06,0.4374424576392288,2.076333471167448,2.305433141339853,0.0695950607115407,0.1034295810034491,0.0120725234487583,-0.5817433516110719,-0.7788311452124349,-0.8718237505218923,0.4482956763222646,2.0905716426350573,2.320838490175428,-0.6052736163578504,-0.8407795942264941,-0.9806015434881842,0.7770831900210168,-0.3728041372755286,-0.6644495883649182,-0.1529120791997129,10.44473361895325,-1.1069104115554316,0.0769117527721256,-0.8555541399232965
1.08,0.4257560749074185,2.0606380713872063,2.2879083433256784,0.0658979426116572,0.1133339747297816,0.0121973369920687,-0.5861068517381219,-0.7898607616990208,-0.8807585994305251,0.4364121369874467,2.074156050756488,2.301626459311625,-0.6274669155917638,-0.8807795948225405,-1.0206015440842306,0.7425026906012344,-0.2181750063525001,-0.5514808243292924,-0.4467424454316415,10.01832669455689,-1.0967472721227056,0.079414304011879,-0.8655457542244019
1.1,0.4140126586009314,2.0447415508746976,2.2701498219232343,0.0623582094027491,0.1239056283218229,0.0123512595444034,-0.5876955894813768,-0.7991885107787102,-0.894863343287619,0.4245285976526288,2.0577404588779187,2.282414428447822,-0.6496602148256773,-0.920779595418587,-1.060601544680277,0.8492272808040202,-0.0794368871627426,-0.4663874539844737,-0.7052371928546908,9.68271404951065,-1.0864795980497657,0.081920916916663,-0.875124744760851
1.12,0.4022615893955207,2.028672413399136,2.252060509420549,0.0592226081276931,0.1345516390463646,0.0125134760994113,-0.5870304665439289,-0.8073047311904819,-0.9133700779201284,0.4115353933561153,2.039324866969547,2.261202397554216,-0.6718535140595907,-0.9607795960146334,-1.1006015452763234,1.0109582694806158,0.0332561468723957,-0.4058110205885812,-0.9253367316254646,9.414160016997812,-1.0769512851198435,0.0840715252895809,-0.8841623680299188
1.14,0.3911311678028445,2.013264900659477,2.234511305802116,0.0567137818133259,0.1444342065481457,0.0126681986459199,-0.5843968274773575,-0.8142183425294783,-0.9330108030862028,0.3985421890596017,2.0209092750611752,2.2399903666606105,-0.6940468132935042,-1.0007795966106798,-1.14060154587237,1.049395256241599,0.1316819533285662,-0.3456805669498242,-0.9820362583037312,9.107725996626868,-1.0667546940461312,0.0859474856019642,-0.8938180690657994
1.16,0.3794890641928293,1.9969029622148644,2.215618200901208,0.0543608809521631,0.1544251191443345,0.0128132961025449,-0.5797267058854992,-0.8215483989427725,-0.9553538932308908,0.3849941522822404,2.001493683137902,2.217778335752104,-0.7162401125274175,-1.0407795972067262,-1.1806015464684163,1.1987007966111405,0.2335060795929155,-0.3665028206647103,-1.1171545072344025,9.107725996626868,-1.0573062251714265,0.0876365102195491,-0.9031052109837016
1.18,0.3679589178298825,1.9803968841443285,2.1962625146029477,0.0520511053331146,0.1639125728299412,0.0129215201299184,-0.5733197631130106,-0.8285967737810614,-0.9791682568432464,0.3708912830240312,1.981078091199728,2.194566304828696,-0.7384334117613309,-1.0807795978027726,-1.2206015470644629,1.282431691955222,0.3203471386244327,-0.3524187419144453,-1.190718180617778,9.03183484829151,-1.0491777801808877,0.0892682989616318,-0.911276770195242
1.2,0.3565732658024317,1.9637546184778092,2.17641529982039,0.0496992181722752,0.1728664582537956,0.0129875692113831,-0.565375248831969,-0.8351639404176453,-1.004377066954395,0.3392929296742319,1.9389670454552757,2.147304101760785,-0.5935152882525808,-0.9285967752711776,-1.0683233869315758,1.361733354969207,0.3972257140520796,-0.3283583318291927,-1.2604405055574253,8.969621158023983,-1.0421518921190347,0.0911246368006111,-0.9187610818604844
1.22,0.3459748419506743,1.9478064463588711,2.1573743598344524,0.0471819137597578,0.1807335920195402,0.0129885283671561,-0.5505083701876577,-0.8429827265336988,-0.9986876336049996,0.3392929296742319,1.9389670454552757,2.147304101760785,-0.5935152882525808,-0.9285967752711776,-1.0683233869315758,0.8867456636354111,0.7433439322155622,-0.3909393058026733,0.2844716674697767,10.742038978873095,-1.03360651663595,0.093137922691839,-0.922911668686222
1.24,0.3351330077790168,1.930883754615652,2.137423323283953,0.0446528798320936,0.1883114688668492,0.0129542843878327,-0.5343714186402099,-0.8489224412764559,-0.9971412581398454,0.3392929296742319,1.9389670454552757,2.147304101760785,-0.5935152882525808,-0.9285967752711776,-1.0683233869315758,0.8632390942682637,0.8068475773723938,-0.2969857371378559,0.0773187732577007,10.354429282423553,-1.0297026321448148,0.0952757015126743,-0.9309331155986816
1.26,0.3246155149521947,1.9138517922920264,2.1174398675373887,0.0426600464678912,0.1953384280385324,0.0129266516832397,-0.5180768928318397,-0.8540401195253147,-1.0015325075256043,0.3333577767917061,1.929681077702564,2.136620867891469,-0.5975543932804949,-0.9485967755692007,-1.0861544129492418,0.8817387270989272,0.8147262904185104,-0.255883912442939,-0.2195624692879538,10.354429282423553,-1.0270690354108771,0.096951674425342,-0.9376970260922536
1.28,0.3149278602621819,1.8975842748451617,2.0983255149900204,0.0413283077963176,0.2015950564693903,0.0129201751493918,-0.5023596827196032,-0.8581690028572356,-1.010284173708596,0.3214874710266545,1.91110914219714,2.1152544001528373,-0.605632603336323,-0.9885967761652472,-1.1218164649845734,0.922862438637691,0.785860505611824,-0.2064441665960481,-0.4375833091495806,10.03898022001431,-1.0248990628520578,0.0982540866110613,-0.943733793429444
1.3,0.3050576622219497,1.8803840354092152,2.0779902066078235,0.0407211788515553,0.2077911440124779,0.0129554984454955,-0.4853851960105803,-0.8616979589350225,-1.0229534199103574,0.3096171652616029,1.8925372066917163,2.093887932414206,-0.6137108133921511,-1.0285967767612938,-1.1574785170199051,1.073657917302555,0.8487243354511426,-0.1764478038893457,-0.6334623100880621,9.802076652463256,-1.0235573905491335,0.0989032715318078,-0.9488257221251336
1.32,0.2955322613799178,1.8631199234310056,2.057371672250792,0.0412375361623741,0.2136186570470365,0.0130622476443483,-0.4679039427892743,-0.8646363588052968,-1.038386558935529,0.2973429489937599,1.8719652711564907,2.070738362073808,-0.6217890234479792,-1.0685967773573402,-1.1931405690552368,1.175170400575302,0.874062661065303,-0.1469199935137111,-0.7716569512585814,9.616888332547203,-1.0227704554703096,0.0986044844384425,-0.953350118125046
1.34,0.2863650196930316,1.845801368398626,2.0364331050578195,0.0431933704734304,0.2190921144481555,0.0132686147699436,-0.4495798735901791,-0.8672883703145321,-1.054712124933752,0.2850687327259169,1.8513933356212648,2.0475887917334097,-0.6298672335038072,-1.1085967779533867,-1.2288026210905687,1.2342292961811043,0.9162034599547564,-0.1326005754617665,-0.8162782999111551,9.481328393059812,-1.0224624635677575,0.0971772479738078,-0.957146799457766
1.36,0.2780093668231434,1.829284147583669,2.0162358117337345,0.046129474948476,0.223812635727928,0.0135359398312761,-0.4308396059179485,-0.871545948001263,-1.0705229359311903,0.2725925612066782,1.8298214000711377,2.023547670092128,-0.6379454435596353,-1.148596778549433,-1.2644646731259004,1.2442933180947666,0.937013383611532,-0.2128788843365425,-0.7905405498719098,9.453814688313289,-1.0226252208037427,0.0946723528871344,-0.9609640729376476
1.38,0.2696148882372331,1.8117886239660432,1.994646044102961,0.0493783750452346,0.2278798593313323,0.0138029821363487,-0.409584724013962,-0.8778411919882548,-1.087634687293568,0.2599144344360438,1.8072494645061092,1.998614997149964,-0.6460236536154634,-1.1885967791454797,-1.300126725161232,1.4001893945963206,1.062744095199322,-0.3147621993495941,-0.8555875681188874,9.452629209278712,-1.023266521669582,0.0919882306275763,-0.9630030793561372
1.4,0.2616600601455641,1.794154256855114,1.9727115628977487,0.0522917752225544,0.2305486577345301,0.0139885393092095,-0.3871092775339945,-0.8852260606498115,-1.1049306185140375,0.2472363076654093,1.7846775289410812,1.973682324207799,-0.6541018636712915,-1.228596779741526,-1.3357887771965635,1.4652911113542726,1.123772323998376,-0.3692434330778316,-0.8647965610234731,9.445630110985803,-1.02539865537772,0.0897269160742942,-0.9632307515421414
1.42,0.2546414486181537,1.777168772268813,1.9520254628313731,0.0524802773458853,0.2315070664452297,0.0139059190453029,-0.3530238284274377,-0.9013064971226858,-1.0716165532514887,0.249135652036535,1.7678965643666305,1.9402643097382823,-0.414954756056227,-0.977841193478371,-1.070273493398228,2.515067206990293,1.7042724553278403,-0.8040218236437191,1.6657032631274382,12.90279081477911,-1.0217653509639466,0.0893145753169999,-0.9498070123775968
1.44,0.2479629871335987,1.7589863144739164,1.930954854392744,0.0489904146110414,0.2305423053415908,0.0134642149469411,-0.3167950794029547,-0.915400442758523,-1.0374831549600596,0.249135652036535,1.7678965643666305,1.9402643097382823,-0.414954756056227,-0.977841193478371,-1.070273493398228,2.586624459786464,1.811437451224149,-0.7046972817918551,1.706669914571457,12.583013338122328,-1.0300299861319118,0.0925912633643568,-0.9495430457120928
1.46,0.2420167377455226,1.7405762698207954,1.9105101430450824,0.043698765242522,0.2264074041487397,0.012767943377755,-0.2799710543231903,-0.924498157301393,-1.0085828755187216,0.249135652036535,1.7678965643666305,1.9402643097382823,-0.414954756056227,-0.977841193478371,-1.070273493398228,2.384325578002139,1.8412012539882228,-0.4548857271435003,1.4450139720668995,12.227812684711353,-1.0414545546881455,0.0974114254491038,-0.9458731324674202
1.48,0.2367869502694388,1.7220206112104897,1.8906024065571647,0.0383080612589533,0.2181435351503692,0.0119373808895456,-0.2457256383177449,-0.9305375028565234,-0.9834578345091686,0.2449861044759727,1.7581181524318468,1.9295615748043,-0.41602876246468,-0.997841193776394,-1.06680125461916,2.145046560014497,1.7122708002722695,-0.3019672777565207,1.256252050477652,12.227812684711353,-1.057408835325098,0.1021422264266605,-0.9367179867506984
1.5,0.2324110376439516,1.7043005287810375,1.872130019174936,0.0336726710604741,0.206995136770848,0.0111245211218113,-0.2173384311531096,-0.9344868009178076,-0.9621144761176292,0.2366870093548481,1.7385613285622792,1.908156104936336,-0.418176775281586,-1.0378411943724406,-1.059856777061024,1.7867354541275,1.4193603582317638,-0.197464903064215,1.0671679195769723,11.935745468072128,-1.076149339941156,0.1065724074789984,-0.9228078822547028
1.52,0.2283345043148599,1.6855810523877888,1.8531071520949864,0.0295582434699647,0.1926048537034819,0.0103139148312535,-0.1925485899990829,-0.9373248416803148,-0.941277999430701,0.2283879142337236,1.7190045046927118,1.8867506350683712,-0.4203247880984919,-1.077841194968487,-1.052912299502888,1.6253841550049242,1.239492057701337,-0.1419020381253521,1.041823834346406,11.5311108656133,-1.0959591155743154,0.1102216639282115,-0.9055827963730816
1.54,0.2247003374096718,1.6668154401103656,1.834502817099364,0.0263575395739773,0.176317458662963,0.0095901125920904,-0.1728616321151135,-0.9392863621355876,-0.92006609047227,0.2199814184717538,1.697447680793342,1.8656923890783133,-0.4224728009153979,-1.117841195564533,-1.045967821944752,1.450318029676943,0.984347894198466,-0.098076022763649,1.060595447921553,11.5311108656133,-1.114348626474056,0.1128474437366866,-0.886845418287247
1.56,0.2215605046505844,1.648949363575831,1.817227433974281,0.0238875869150505,0.1599076000785213,0.0089818008884112,-0.1592126306912592,-0.9412700636240288,-0.8993714573286756,0.2115749227097839,1.6758908568939723,1.844634143088256,-0.4246208137323038,-1.15784119616058,-1.039023344386616,1.2434811542717206,0.6824500711927153,-0.0991850744220479,1.034731657179716,11.510070243458358,-1.133165926058605,0.1150369090923812,-0.8661360815538315
1.58,0.2184795221546343,1.6301051970388163,1.7994714280759057,0.0216440410369362,0.1424654094500741,0.0084226440150145,-0.1501836000245558,-0.9430359492844652,-0.8772681617902642,0.2031147266273914,1.6533340329797015,1.8237495090371512,-0.4267688265492099,-1.1978411967566265,-1.0320788668284802,1.1970770867036535,0.4514515333351704,-0.0882942830218225,1.1051647769205697,11.495061594719118,-1.150723498346066,0.116867453811052,-0.8459903677839534
1.6,0.215522700922056,1.611229347557258,1.782155081477169,0.0196867367290892,0.1255840868748832,0.0079503713933105,-0.1464366427866834,-0.944449331065638,-0.8554653204617746,0.2109703421534065,1.582953399574593,1.7556080199863924,-0.2036524793368327,-1.0430359507745812,-0.858133562074793,1.1083785754392457,0.1873478618936219,-0.0706690890586503,1.090142066424482,11.47189274995344,-1.165846102221514,0.1183573257979758,-0.8281451487716452
1.62,0.2126025609007518,1.5922974645517012,1.765364713410832,0.0170093820341667,0.109847979085064,0.0075049559392359,-0.1461441948739661,-0.9479836643202512,-0.824617913939394,0.2109703421534065,1.582953399574593,1.7556080199863924,-0.2036524793368327,-1.0430359507745812,-0.858133562074793,1.5525298117051778,0.0146223956358645,-0.1767166627306526,1.5423703261190302,11.420056580840535,-1.175828863088757,0.1200857730643782,-0.8085383196159348
1.64,0.2097946111013648,1.5742852031122982,1.7499659781920365,0.0142893144354489,0.096189919629255,0.0071521683859154,-0.1497181762944138,-0.9480106373251316,-0.7978564275150559,0.2109703421534065,1.582953399574593,1.7556080199863924,-0.2036524793368327,-1.0430359507745812,-0.858133562074793,1.3499548384823177,-0.178699071022384,-0.0013486502440263,1.3380743212169033,12.015522334759224,-1.1879583811145074,0.122271627090249,-0.7949965818285227
1.66,0.2067271953653636,1.5553394263954998,1.734279363508501,0.0121794039954538,0.0832768090211862,0.0069070561738207,-0.1571277911458751,-0.9467469979378352,-0.7723282061829952,0.2089338173600382,1.5725230400668473,1.7470266843656443,-0.214346255199288,-1.0630359510726044,-0.8543066421316987,1.3305912794006285,-0.3704807425730663,0.0631819693648172,1.2764110666030335,11.781896793199849,-1.197948199222704,0.1238715677077393,-0.7830174601915629
1.68,0.2034742028415099,1.5364300252390677,1.7190744291264484,0.0112074686837515,0.0720594656517708,0.0067972298264603,-0.1679403531824638,-0.9444863274705352,-0.7494300146678945,0.2048607677733015,1.5516623210513556,1.7298640131241485,-0.2357338069241988,-1.103035951668651,-0.8466528022455102,1.2711700352618387,-0.5406281018294337,0.1130335233650081,1.1449095757550376,11.600013762555136,-1.2051213115566688,0.1246192327812416,-0.7742005509612749
1.7,0.2001565733899298,1.5185165074164646,1.7050356343698925,0.0117325586185158,0.0631247072236763,0.0068267648763663,-0.1807876437514318,-0.941513095579234,-0.7294831958053893,0.2007877181865648,1.530801602035864,1.7127013418826529,-0.2571213586491095,-1.1430359522646971,-0.8389989623593217,1.1955841308504145,-0.6423645284484011,0.1486615945650582,0.9973409431252578,11.444359699053166,-1.2103195975253531,0.1243362509700609,-0.7675336999821457
1.72,0.1963787671659589,1.499724616855304,1.6906551939700671,0.0142486337755295,0.0556357042741146,0.0070115128188767,-0.1964475953309546,-0.938124382059556,-0.7096667809853444,0.1956452910135827,1.5079408829905698,1.695921362635466,-0.2785089103740203,-1.1830359528607437,-0.8313451224731332,1.2741740060834954,-0.7829975789761425,0.1694356759839033,0.9908207410022464,11.331532350133784,-1.2137288347133248,0.1226740851115205,-0.7631702356052251
1.74,0.1922639935356232,1.4809788895392726,1.6766639712424267,0.0185097675387339,0.0504424869072608,0.0073303115747115,-0.2143721768655323,-0.9371404018982166,-0.6904806936027059,0.1905028638406005,1.485080163945276,1.6791413833882798,-0.299896462098931,-1.2230359534567905,-0.8236912825869447,1.3137396899708411,-0.8962290767288841,0.049199008066969,0.9593043691319249,11.264934184464437,-1.2147172845475005,0.1197826300596555,-0.7615306943460827
1.76,0.1877659747940508,1.4622178677175728,1.6630520824659123,0.0231791660386757,0.0483061073129857,0.0077165818655664,-0.2342723200327525,-0.939132451643292,-0.6716731548243037,0.1848257478744955,1.4612194448850808,1.662552750138248,-0.3212840138238417,-1.2630359540528366,-0.8160374427007562,1.3726866677831275,-0.9950071583610082,-0.0996024872537693,0.9403769389201122,11.247487894574078,-1.2119068027233777,0.1166508366952594,-0.7636315773505398
1.78,0.1831294590160159,1.44433934607072,1.6504661037397454,0.0272952251258948,0.049146336284437,0.0081240280620392,-0.2524231242188258,-0.9426889429442108,-0.654106272241376,0.1786139431152678,1.4363587258099846,1.646155462885371,-0.3426715655487525,-1.303035954648883,-0.8083836028145677,1.275436872856763,-0.907540209303663,-0.1778245650459475,0.8783441291463856,11.24155728148162,-1.205970146730988,0.1134916493400727,-0.7699567833269324
1.8,0.1778946993164791,1.4254356550965972,1.6375745167505906,0.0310696589629552,0.052335642517661,0.0085855889461278,-0.2697784756879805,-0.9474714825533368,-0.6359967041994572,0.1705083028050746,1.3972048989235095,1.6177607901276767,-0.259771332441364,-1.042688944434327,-0.5854263956158381,1.276751115522945,-0.8677675734577367,-0.239126980456289,0.9054784020959384,11.19497619377944,-1.1984561207634654,0.11069123632178,-0.7789534427560202
1.82,0.1722940190661195,1.4063241950298644,1.62526521688683,0.0311521341940578,0.0589865541057152,0.0089099201213026,-0.2884876581999198,-0.9618644415221324,-0.5957769586923599,0.1705083028050746,1.3972048989235095,1.6177607901276767,-0.259771332441364,-1.042688944434327,-0.5854263956158381,2.3317475778898986,-0.9354591255969658,-0.7196479484397833,2.010987275354864,11.19497619377944,-1.178525720622399,0.1097025967808502,-0.7905107922627437
1.84,0.1663787667290058,1.386980921123013,1.613758973840942,0.0269938246115015,0.0690309535888235,0.0090303439143153,-0.301480902855549,-0.970769500476614,-0.5569011222935469,0.1705083028050746,1.3972048989235095,1.6177607901276767,-0.259771332441364,-1.042688944434327,-0.5854263956158381,2.097292979873759,-0.6496622327814588,-0.4452529477240785,1.943791819940649,12.810419580999223,-1.1670815633709408,0.1124830094594292,-0.8090242045608486
1.86,0.1605640021579213,1.3685020340582406,1.6035146007876853,0.0220233690637586,0.0799805971348861,0.0090712000711301,-0.3095096727901361,-0.9738482062513988,-0.5234206497573687,0.167910589480661,1.3867780094791662,1.6119065261715184,-0.2612409740858716,-1.0626889447323502,-0.5716904202907305,1.728352985616661,-0.401438496729356,-0.1539352887392486,1.6740236268089126,12.56205344940463,-1.1562627107083472,0.1164074524870205,-0.8278880652690318
1.88,0.1543187101784228,1.349021320579216,1.5933885737726246,0.017379464597298,0.0919846771239271,0.0091167818408792,-0.3141673091948964,-0.9741621441531344,-0.4911086213147367,0.1627151628318337,1.3659242305904795,1.6001979982592016,-0.264180257374887,-1.1026889453283968,-0.5442184696405153,1.6323750457252073,-0.232881820238015,-0.0156968950867808,1.6156014221315962,12.107086286354388,-1.1458795953463163,0.1200959724996723,-0.8463445864720504
1.9,0.1480158757856888,1.3295521197841251,1.5838779107196248,0.0139009194085637,0.1039203881816511,0.0092018249153721,-0.3155105348245196,-0.972948517631594,-0.4617276737872734,0.1575197361830064,1.345070451701793,1.5884894703468848,-0.2671195406639022,-1.1426889459244431,-0.5167465189903002,1.4718332293753742,-0.0671612814811567,0.0606813260770278,1.469047376373167,11.938857096231004,-1.1358524556590264,0.1230353773643883,-0.8644747356311998
1.92,0.1417200803922017,1.3101177942692306,1.5749289148154817,0.0117544475689145,0.1154058355276671,0.0093483666941509,-0.3136808993533819,-0.9709141352560776,-0.4346854042558084,0.1521773453697284,1.3222166727833042,1.5781545399670789,-0.2700588239529175,-1.1826889465204895,-0.4892745683400851,1.3590167576408472,0.091481773556884,0.101719118775817,1.3521134765732494,11.938857096231004,-1.1269609697453382,0.1249488221745793,-0.8804953391357723
1.94,0.1358118599590864,1.2916996798984102,1.5669206894558394,0.0110065433437083,0.1253095769834327,0.0095571560934175,-0.3082048576956582,-0.9681779643459268,-0.409686367998443,0.1468349545564503,1.2993628938648154,1.5678196095872727,-0.2729981072419328,-1.222688947116536,-0.4618026176898699,1.2868813827270105,0.2738020828861848,0.136808545507544,1.2499518128682718,11.823894002917768,-1.1175376106993096,0.1259142956672179,-0.897737016507435
1.96,0.1297369318461758,1.2723654741244022,1.5590013326673688,0.0116451081161104,0.1340301497889174,0.0098627891760695,-0.2994589470427861,-0.9655024783117214,-0.3836020598571061,0.1414190816609469,1.2755091149314255,1.558171477973722,-0.2759373905309481,-1.2626889477125824,-0.4343306670396548,1.382063954634028,0.4372955326436029,0.1337743017102655,1.3042154070668417,11.810282777967586,-1.1099576187827036,0.1257297280823963,-0.9132429601727604
1.98,0.1238626644644007,1.2530807121496077,1.5516016522368927,0.0136563346771994,0.1406299158393708,0.0102537389446021,-0.2883962609485161,-0.9632367163166426,-0.3576985297715819,0.1359297266832181,1.2506553359831345,1.5492101451264269,-0.2788766738199634,-1.3026889483086288,-0.4068587163894396,1.4128955834830463,0.5531343047135012,0.1132880997539387,1.2951765042762131,11.84761916212301,-1.1048653589860151,0.1245131419190178,-0.9259833488873774
2.0,0.1182281092120443,1.233827461938649,1.5447211694158776,0.0167529764714444,0.1448832347700314,0.0107042197806337,-0.2757872913723206,-0.9625889270658822,-0.3316727956890707,0.1094428514169749,1.2049188763337757,1.5337167257483135,-0.2752378157019984,-1.0632367178067588,-0.3154183810568011,1.4463268814659471,0.6304484788097725,0.0323894625380238,1.3012867041255565,11.879954010768415,-1.101580060766258,0.1222874194329015,-0.937146916985017
2.02,0.1130855564060253,1.2154664044257852,1.5385625285022306,0.017853180362167,0.1472591884647124,0.0109861062138858,-0.2662346647524996,-0.9691592152788564,-0.3178939388317942,0.1094428514169749,1.2049188763337757,1.5337167257483135,-0.2752378157019984,-1.0632367178067588,-0.3154183810568011,0.9003863876589033,0.4776313309910518,-0.3285144106487114,0.6889428428638295,11.879954010768415,-1.1031677504177462,0.1217880742533664,-0.9479742371872132
2.04,0.1078699683648435,1.196050940793305,1.5323624689147386,0.0167331976340107,0.1485584832716717,0.0111074771455439,-0.2558848303429135,-0.9719677240403868,-0.3027488337642554,0.1094428514169749,1.2049188763337757,1.5337167257483135,-0.2752378157019984,-1.0632367178067588,-0.3154183810568011,0.9278752627323263,0.5174917204793045,-0.1404254380765246,0.7572552533769372,11.145087604717446,-1.1026360552476204,0.1230662647297161,-0.9523141855589506
2.06,0.1028626750689686,1.1766006222554748,1.5264738214914997,0.0149016040191341,0.1487022647293399,0.0111658967716036,-0.2455038833014297,-0.972980315356727,-0.2868853242485999,0.106690473259955,1.194286509155708,1.5305625419377455,-0.2726061266526949,-1.083236718104782,-0.3069623513138449,0.9492633154258504,0.5190473520741923,-0.0506295658170063,0.793175475782773,11.27220480678352,-1.1030699934331687,0.1248884629667061,-0.9564232192768354
2.08,0.0982954551821665,1.1581201398948464,1.521177631449755,0.0132121080647913,0.1479171325521211,0.0112188759310348,-0.2358758345573053,-0.9724075445993128,-0.2714090461781165,0.101185716945915,1.1730217747995728,1.5242541743166094,-0.2673427485540878,-1.1232367187008283,-0.2900502918279326,0.91178749151695,0.4814024372062173,0.0286385378707121,0.7738139035241703,11.301032742919231,-1.1044165591521764,0.1268059919355737,-0.9600888593207076
2.1,0.0936812529717458,1.138693295273849,1.5159250765157084,0.0121736819664068,0.1462237047759381,0.0113234240357851,-0.2261356208519179,-0.970410867379942,-0.2546440520054763,0.095680960631875,1.1517570404434376,1.5179458066954734,-0.2620793704554808,-1.1632367192968749,-0.2731382323420203,0.9745813364640652,0.4870106852693706,0.09983386096854,0.8382497086320134,11.301032742919231,-1.1065716350292776,0.1280881956372578,-0.963147203758873
2.12,0.0892564410317358,1.1193178128266754,1.511012235101984,0.012531530488707,0.1437009972035839,0.0115206949360099,-0.2169326065588127,-0.9674040380343404,-0.2374651909920065,0.0904393732227654,1.1284923060575,1.512483042048633,-0.2568159923568737,-1.2032367198929212,-0.2562261728561079,0.9859636916651392,0.460150714655258,0.150341467280074,0.8589430506734885,11.334729775402591,-1.1095149787805034,0.1281590895093419,-0.9657614437654488
2.14,0.085007400989549,1.1000086949011492,1.5064450813525536,0.0148226628357302,0.1404171719230423,0.0118400538310894,-0.2085619949197451,-0.9639900185656742,-0.2201116970299424,0.0851977858136558,1.1052275716715627,1.507020277401793,-0.2515526142582667,-1.2432367204889678,-0.2393141133701956,0.9783486352470704,0.4185305819533802,0.1707009734333131,0.867674698103206,11.3617268311491,-1.113073060462061,0.1266516112958741,-0.9678751825962448
2.16,0.0811161565257185,1.0817037383820625,1.5024312335319678,0.0183646848423201,0.1367259884530881,0.0122161381656163,-0.2015839220683003,-0.9633942038701632,-0.2032699552502846,0.0800877828570113,1.080962837270724,1.5019803142421,-0.2462892361596596,-1.2832367210850142,-0.2224020538842833,0.9119933690056758,0.3489036425722402,0.0297907347755532,0.8420870889828902,11.37078129364727,-1.1165781583132537,0.1236994480902464,-0.9699809511571847
2.18,0.0771504869629157,1.0624189626588585,1.4985585126543055,0.0222271089185455,0.1324706311667328,0.0125930310231597,-0.1955069566362487,-0.9651852431772376,-0.1848542778492271,0.0751093643528321,1.055698102854984,1.4973631525695552,-0.2410258580610525,-1.3232367216810603,-0.205489994398371,0.9737485620036292,0.3038482716025817,-0.089551965353718,0.9207838700528728,11.394769856355197,-1.120553106190509,0.1205660699190825,-0.9710944237921014
2.2,0.0732901692911843,1.0430809918041068,1.4950600451682723,0.0256367642642606,0.1281836081946493,0.0129154726053274,-0.1909895992890798,-0.9684846166172796,-0.1658910839691866,0.0673751391311032,1.0141597004999967,1.4893157987618442,-0.1856475418650495,-1.0651852446673535,-0.1644308450371324,0.988553368097647,0.2258678673584466,-0.164968672002097,0.948159694002025,11.44337073305178,-1.1245313858006245,0.1177961509114136,-0.972039721899726
2.22,0.0694793981906892,1.0235834240550554,1.4918477634653484,0.0256179119184926,0.1246831857784692,0.0130070943015686,-0.1904122223922923,-0.9796988027781146,-0.1562419045390558,0.0673751391311032,1.0141597004999967,1.4893157987618442,-0.1856475418650495,-1.0651852446673535,-0.1644308450371324,0.7402668421009904,0.028868844839372,-0.5607093080417569,0.4824589715065386,11.47950156963816,-1.1298875825585697,0.118084143629431,-0.9737812652593872
2.24,0.0658527588303848,1.0049087849927985,1.488972503013247,0.0222495089476406,0.1229088973954898,0.0129097346148936,-0.1913351283996477,-0.9850272536536928,-0.1468648029565088,0.0673751391311032,1.0141597004999967,1.4893157987618442,-0.1856475418650495,-1.0651852446673535,-0.1644308450371324,0.5412351113916912,-0.0461453003677669,-0.2664225437789158,0.4688550791273532,10.933426747011254,-1.1316931807467994,0.1214058340587812,-0.9725810870617994
2.26,0.0620161637268283,0.9851949102395086,1.4861371697500383,0.0180280370736178,0.1227828085305915,0.0128121301534106,-0.1920967914779679,-0.9860352491886232,-0.1371940128356705,0.0655186637124527,1.0035078480533233,1.487671490311473,-0.1836756589108096,-1.0851852449653767,-0.1603461584747135,0.4876483548742322,-0.0380831539160103,-0.0503997767465125,0.483539506041912,10.933426747011254,-1.1308355463359825,0.1253619362603385,-0.974854100088456
2.28,0.0581731170502462,0.9654882483878788,1.4834890096648992,0.0145937126855806,0.1239565109098349,0.0128002576709063,-0.1920221574367766,-0.9847736214233892,-0.1281521193643263,0.0618057128751517,0.9822041431599762,1.4843828734107305,-0.1797318930023299,-1.1251852455614233,-0.1521767853498756,0.4564896285931685,0.0037317020595645,0.0630813882616931,0.4520946735672132,10.908097760951025,-1.1291263136443102,0.128532926582562,-0.9786590514824604
2.3000000000000003,0.0545330937952761,0.9468024792863946,1.4811356550974395,0.0125240286238435,0.1258453635614584,0.0128861851204572,-0.1910144162572901,-0.9825724977688576,-0.120040951071427,0.0580927620378507,0.9609004382666292,1.4810942565099876,-0.1757881270938502,-1.1651852461574697,-0.1440074122250377,0.4232361595584238,0.0503870589743216,0.1100561827265811,0.4055584146449624,10.847031961803625,-1.1266254943035987,0.1308022625710417,-0.9836499844746582
2.32,0.0507336860155777,0.9271844496349964,1.4788235723395056,0.0117302339673971,0.1282405582124601,0.0130799296927319,-0.1888705816571042,-0.9795024040075964,-0.1116109079533029,0.0545769994959737,0.9375967333434796,1.478214108265487,-0.1718443611853705,-1.205185246753516,-0.1358380391001999,0.4612134252960414,0.1071917300092969,0.1535046880630719,0.4215021559062066,10.847031961803625,-1.124077840062884,0.1318328428060077,-0.9889805880956352
2.34,0.0469880493847366,0.9076354144217752,1.4766773659041614,0.0127653810461091,0.1307123333996074,0.0134044908867874,-0.1857224817417157,-0.9757573797832964,-0.1034561959046133,0.0510612369540967,0.9142930284203302,1.4753339600209865,-0.1679005952768908,-1.2451852473495626,-0.127668665975362,0.4754867719372046,0.1574049957694251,0.1872512112149948,0.4077356024344794,10.83840349896036,-1.121789983642081,0.1312401512753335,-0.9946614581468142
2.36,0.0433160132040965,0.8881519895337927,1.4746941916915282,0.015655797316532,0.1329732799208644,0.0138590920875943,-0.1816088153010924,-0.9731262555565172,-0.0952847874516161,0.0476440685599317,0.8899893234822798,1.4726580461046064,-0.1639568293684112,-1.285185247945609,-0.1194992928505241,0.475964763367962,0.2056833220311638,0.1315562113389512,0.4085704226498607,10.83840349896036,-1.119463477049916,0.1290736692142213,-1.0002903536418617
2.38,0.0399120260662156,0.8696634367589221,1.4729648277609455,0.0191944505535778,0.1347402995873633,0.0143429070536738,-0.1769178669981632,-0.9733292474154648,-0.0871749080469794,0.0443254943134787,0.864685618529328,1.4701863665163477,-0.1600130634599315,-1.325185248541655,-0.1113299197256862,0.4685518798204326,0.2345474151464632,-0.0101495929473782,0.405493970231835,10.847255974637848,-1.1173353035007314,0.1259683457154732,-1.0056210318506724
2.4,0.0364310766362935,0.8501770940453451,1.471315684641192,0.0227616870343123,0.1360951847610095,0.0148319471985952,-0.171428186329804,-0.9753100129007968,-0.0781476994554282,0.0310661327163074,0.8209969743881489,1.468606082358597,-0.1468950521282825,-1.053111338496607,-0.06378060278799,0.5374721404496583,0.2744840334179599,-0.099038274266594,0.4513604295775609,10.878967525275584,-1.1159241175170511,0.1229762522639505,-1.0100815031467425
2.42,0.0330479154912867,0.8304877969019375,1.4698506648321783,0.0209495170911752,0.1374918874077823,0.0149466597335324,-0.1670514666209597,-0.9910465316147016,-0.0687463356092233,0.0310661327163074,0.8209969743881489,1.468606082358597,-0.1468950521282825,-1.053111338496607,-0.06378060278799,0.9423101119212212,0.2188359854422145,-0.7868259356952456,0.470068192310244,10.98250982916852,-1.1133314415367428,0.1245872175464586,-1.0135525703116337
2.44,0.0299201467946759,0.8116018094067685,1.4686367777081732,0.0142475490664629,0.1392087782972496,0.0147167221144273,-0.1623346081827008,-0.9953781006261128,-0.0594943072448703,0.0310661327163074,0.8209969743881489,1.468606082358597,-0.1468950521282825,-1.053111338496607,-0.06378060278799,0.5626083728535869,0.2358429219129432,-0.2165784505705592,0.4626014182176508,10.98250982916852,-1.1123240407887,0.1314075790297194,-1.0159582572470125
2.46,0.0267296870909435,0.7917102285984616,1.467539607771561,0.0067297829547548,0.1411827695250752,0.0144436710076725,-0.1568952463418147,-0.9935191900305982,-0.0507834995712958,0.0295971821950246,0.8104658610031829,1.4679682763307167,-0.1408904891543063,-1.0690677567128355,-0.0591017417361922,0.5218246261058614,0.2719680920443057,0.0929455297757342,0.4355403836787241,10.968044875214218,-1.1110448501597925,0.138805233612804,-1.020000635520509
2.48,0.0236529537439695,0.7718938185776182,1.4666029343177378,0.000461691133041,0.1431527052234427,0.014257011502814,-0.1509985002339273,-0.9884472767386164,-0.043390218985235,0.026659281152459,0.7894036342332507,1.466692664274957,-0.1288813632063541,-1.1009805931452927,-0.0497440196325964,0.5365550226362836,0.2948373053943715,0.2535956645990822,0.3696640293030399,10.898021322985189,-1.1098779642678465,0.1451111820299666,-1.024284047523994
2.5,0.02069903593279,0.7521989203026406,1.465803413278961,-0.0039702110583501,0.1449769530216353,0.0141993645299361,-0.1446505661609596,-0.9817961450324788,-0.0369441596941838,0.0237213801098933,0.7683414074633186,1.4654170522191972,-0.1168722372584018,-1.1328934295777495,-0.0403862975290007,0.5614390001391075,0.3173967036483816,0.3325565853068812,0.3223029645525607,10.827756369712915,-1.1089457913701153,0.1495450258073425,-1.0282332629048587
2.52,0.0180147169571175,0.7336178480686667,1.4651597195055674,-0.0065326278350678,0.1464879410847763,0.0142629754122989,-0.1382101268544435,-0.9748939513760846,-0.031144534712676,0.0213839353647253,0.7456835388717635,1.464609326268617,-0.1048631113104495,-1.1648062660102068,-0.031028575425405,0.5539746963025863,0.3220219653258055,0.3451096828197164,0.2899812490753897,10.775698475500576,-1.108298042749288,0.1526283521538411,-1.0321589612900788
2.54,0.0153250494153488,0.7142027826017306,1.4646023178742449,-0.007612344980243,0.1477978240032313,0.0144481893213632,-0.1310806445567298,-0.9671768044540794,-0.0248973578247357,0.0190464906195572,0.7230256702802086,1.4638016003180372,-0.0928539853624973,-1.1967191024426638,-0.0216708533218092,0.6111691531778316,0.3564741148856881,0.3858573461002601,0.3123588443970124,10.775698475500576,-1.1081496692111648,0.1541599753081979,-1.035761685235167
2.56,0.0127827335392249,0.6949405673604704,1.4641730821349257,-0.007023812774422,0.1487582875382112,0.0147557423899879,-0.1235109897197732,-0.9595783637845492,-0.0183269994694237,0.017009274023088,0.6995699807778422,1.463227817420047,-0.080844859414545,-1.2286319388751206,-0.0123131312182135,0.6288990059545474,0.3784827418478298,0.3799220334765041,0.3285179177655991,10.819193148035993,-1.1082087062582553,0.1541154114000111,-1.0394338084243648
2.58,0.0103957385441082,0.6758275068762899,1.463881525556707,-0.0048141032349908,0.1492852346235309,0.0151807962610402,-0.115613120042714,-0.9523136539234656,-0.0111614112450748,0.0152722855753176,0.6753164703646644,1.4628879775746468,-0.0688357334665927,-1.2605447753075776,-0.0029554091146178,0.6451705383122871,0.3948934838529587,0.363235493054187,0.3582794112174477,10.819193148035993,-1.108670806363912,0.1526390709205187,-1.0427957723231245
2.6,0.0082763337539241,0.6577884764650695,1.463744101290691,-0.0015756569098299,0.1493672639164582,0.0156641833076317,-0.1079252279653244,-0.9472673886538792,-0.003666035844585,0.0046150825419725,0.6282118241801167,1.4633234549944534,-0.0859886486018027,-0.9786473641021984,0.0159232578531831,0.5931886929107998,0.3843946038694784,0.2523132634793146,0.3747687700244883,10.857939744440046,-1.109167924088194,0.1498937846857546,-1.046463741195437
2.62,0.0062224575063399,0.6386600801257625,1.4637319244025062,-0.0050455399193834,0.1484438494117801,0.0156963507049721,-0.0979504481168155,-0.9628740927659356,0.0019832861196513,0.0046150825419725,0.6282118241801167,1.4633234549944534,-0.0859886486018027,-0.9786473641021984,0.0159232578531831,0.9682203841624836,0.4987389924254445,-0.7803352056028168,0.2824660982118191,10.903100824655668,-1.1072354664986408,0.1535367998979532,-1.0495977208607954
2.64,0.0043606022335788,0.6193861441731804,1.4638370298808343,-0.0161353758611808,0.1459361452187529,0.0152413568830815,-0.0889080943999759,-0.9624598746220776,0.00827346313473,0.0046150825419725,0.6282118241801167,1.4633234549944534,-0.0859886486018027,-0.9786473641021984,0.0159232578531831,0.5511398740160431,0.4521176858419795,0.0207109071928945,0.314508850753934,10.781067612034349,-1.1119540935575432,0.1641060198639728,-1.0454392356736408
