t,x,y,z,roll,pitch,yaw,v_x,v_y,v_z,ref_x,ref_y,ref_z,ref_v_x,ref_v_y,ref_v_z,a_com,a_x,a_y,a_z,thrust,wind_x,wind_y,wind_z
0.0,-0.4485303829085113,1.7038761592908274,1.723943164527675,0.0120546227714764,0.1363383390852666,0.0258007549930845,0.0038605329515107,-0.0064800722619635,0.0018935353792616,-0.4484135489685403,1.703614852616326,1.7239996461339138,-0.0148486654630861,-0.1081289105894197,-0.0981136823189009,0.3888461373811167,0.1930266475755377,-0.3240036130981786,0.0946767689630839,10.543648416906764,-1.28482635026333,0.1640777879075798,-1.1627990017729437
0.02,-0.4484811821449771,1.7040448399641828,1.7237255925968815,0.0198135009689647,0.1357093368559933,0.0263333746493767,0.00110974222465,0.0174852441592558,-0.0235717212359357,-0.4484135489685403,1.703614852616326,1.7239996461339138,-0.0148486654630861,-0.1081289105894197,-0.0981136823189009,1.7538404540251138,-0.1375395363430362,1.1982658210609698,-1.273262830759871,10.543648416906764,-1.3053582009292386,0.1582949814714547,-1.1757849964867553
0.04,-0.4484935924839632,1.7044341585288136,1.7229442783799735,0.0347073345715542,0.1340278607613174,0.0273012030963912,-0.0022569823105552,0.0195350592061755,-0.0531759824235433,-0.4484135489685403,1.703614852616326,1.7239996461339138,-0.0148486654630861,-0.1081289105894197,-0.0981136823189009,1.4932756412386023,-0.1683362267602661,0.1024907523459853,-1.4802130593803815,9.093951196291982,-1.3093267146857437,0.1425650867624999,-1.154800963671368
0.06,-0.4485758424419059,1.704766842922616,1.7216589113249234,0.0493417272057444,0.1317851836094943,0.0281721364203636,-0.0062860720107785,0.0150788793451493,-0.0806056765744432,-0.4485620356231711,1.7025335635104315,1.7230185093107249,-0.0185957174173555,-0.1281289108874429,-0.1181136826169241,1.4039936110771427,-0.2014544850111649,-0.2228089930513107,-1.3714847075449956,8.935986622244855,-1.311084669245134,0.1265333418812511,-1.132118171753426
0.08,-0.4487559261332264,1.70498795691208,1.7197513798981094,0.0641866641482154,0.1292550891992603,0.0289697486981882,-0.0115933552061664,0.0069369546197433,-0.1086524206711133,-0.4488590089324329,1.7003709852986435,1.7210562356643468,-0.0260898213258943,-0.1681289114834893,-0.1581136832129706,1.4841479437494765,-0.2653641597693947,-0.4070962362702978,-1.4023372048335023,8.935986622244855,-1.3122289918875023,0.1115510591013608,-1.1115298097379285
0.1,-0.4490550694349369,1.7050154589854016,1.7172939244592371,0.078310128210277,0.1271490431869207,0.0296736140803498,-0.0180857846624045,-0.0040826324291882,-0.1356707056775925,-0.4491559822416946,1.698208407086855,1.7190939620179688,-0.0335839252344332,-0.2081289120795358,-0.198113683809017,1.4946326167862674,-0.3246214728119011,-0.5509793524465805,-1.350914250323959,9.007064104750043,-1.3118284073715962,0.0984057701144954,-1.0917779818835898
0.12,-0.4494947406717835,1.7047945474069428,1.714304490156875,0.0917266551808886,0.12606185066214,0.0303495926661966,-0.0254944850779156,-0.0177434248618502,-0.1619061549926367,-0.4498276607463832,1.6940458288452644,1.7151316883417884,-0.041078029142972,-0.2481289126755822,-0.2381136844050635,1.5246351141316754,-0.3704350207755573,-0.6830396216330976,-1.3117724657522103,9.0372450963373,-1.3086343444418087,0.0856345493376295,-1.0714070251385013
0.14,-0.4500494881139081,1.7043089235702265,1.7109753061601305,0.1038525778167639,0.1261847395552428,0.0310155971445545,-0.03236113157114,-0.0329242112337196,-0.1872228464970111,-0.4504993392510719,1.6898832506036736,1.7111694146656082,-0.0485721330515108,-0.2881289132716287,-0.27811368500111,1.5153728729745966,-0.3433323246612199,-0.7590393185934707,-1.265834575218723,9.0372450963373,-1.3039629315911796,0.0737626468497198,-1.055504000482922
0.16,-0.4507672600004284,1.703463496349106,1.7069460871198308,0.1159972721024873,0.12728311450334,0.0317486047214868,-0.0389212775265006,-0.051073563993096,-0.2143941799270659,-0.451358370353474,1.6847206723471817,1.7062071409745267,-0.0560662369600496,-0.3281289138676752,-0.3181136855971564,1.6663702176490736,-0.3280072977680303,-0.9074676379688226,-1.3585666715027354,8.97509462380458,-1.2992723241694983,0.0627653207203169,-1.0428878607669143
0.18,-0.4516077499183271,1.7022324378653095,1.70237144996976,0.1275376187240201,0.1291192201830293,0.0325093108427975,-0.0446482236526577,-0.0713650939529496,-0.2417127711765425,-0.4524047540535896,1.6785580940757887,1.700244867268544,-0.0635603408685884,-0.3681289144637216,-0.3581136861932028,1.7254343858138483,-0.286347306307853,-1.01457649799268,-1.3659295624738332,8.97509462380458,-1.293953267330168,0.0531338508800881,-1.0311858766648605
0.2,-0.4525523017913267,1.7005665280071487,1.6972497164571525,0.1382633844921366,0.131431259985665,0.033264411607037,-0.0493959202176286,-0.0942726980452772,-0.2690831056523484,-0.4534511377537052,1.6723955158043955,1.6942825935625614,-0.0710544447771273,-0.408128915059768,-0.3981136867892493,1.8003014728381916,-0.2373848282485439,-1.1453802046163788,-1.3685167237902918,8.97355772165065,-1.2881217514749228,0.0439950542021988,-1.0193675494712244
0.22,-0.4535301582446401,1.6983295698354484,1.692111421435624,0.1419092771571662,0.1352467812231145,0.0337431708399343,-0.0528092352663613,-0.1366727048852219,-0.2700174126777502,-0.45384016110096,1.698664183167662,1.690285811410933,-0.037934582310882,-0.1713650954430657,-0.3009983411125796,2.127371752460636,-0.1706657524366377,-2.120000341997233,-0.0467153512700935,8.97355772165065,-1.263920128342093,0.0403062138191733,-1.0033548739734826
0.24,-0.4545976216856471,1.6952183841180006,1.6867042342864291,0.13843834457027,0.1414828797336187,0.0340283253704751,-0.0534042201015085,-0.1710236704300362,-0.2707072519906487,-0.45384016110096,1.698664183167662,1.690285811410933,-0.037934582310882,-0.1713650954430657,-0.3009983411125796,1.7181521462698623,-0.0297492417573617,-1.7175482772407145,-0.0344919656449227,10.661492808474575,-1.251915769629183,0.042769498512166,-1.0093436706547867
0.26,-0.4556456329911174,1.6915024480264838,1.6812587310121252,0.1322028537751835,0.148663066038721,0.034204952153674,-0.0511130257938338,-0.1983213531323696,-0.2738933757314743,-0.45384016110096,1.698664183167662,1.690285811410933,-0.037934582310882,-0.1713650954430657,-0.3009983411125796,1.3789166370421453,0.1145597153837392,-1.3648841351166716,-0.1593061870412804,10.469807802736796,-1.2427825157035652,0.0478681011739579,-1.0151156166783035
0.28,-0.4565747155691738,1.68751112499056,1.6759985725382431,0.1258246650093868,0.1553867956766084,0.0342764384832489,-0.046681931616766,-0.2203095158561006,-0.279630348840733,-0.4542195069240688,1.6969505322132314,1.687275827999807,-0.0365918540425269,-0.1913650957410889,-0.312855455099787,1.1576125820278518,0.2215547088533883,-1.0994081361865513,-0.2868486554629346,10.273990199957552,-1.2344311604202356,0.0537579747029682,-1.021536424462439
0.3,-0.457442995432777,1.6828885424588933,1.6703203715688464,0.1195698939955515,0.1617216626755066,0.0342399811149015,-0.0402901843231937,-0.2407571549916129,-0.288005553949282,-0.4549781985702864,1.69352323030437,1.6812558611775554,-0.0339063975058166,-0.2313650963371354,-0.3365696830742019,1.1501135164531455,0.3195873646786161,-1.0223819567756145,-0.41876025542745,10.10564998314021,-1.2280384254458998,0.0594309205724344,-1.0257471544913617
0.32,-0.4581690768744585,1.6778766516680124,1.664452287884091,0.1141244255911837,0.1669099445132805,0.0340818537519329,-0.0326165457076314,-0.2594428751815259,-0.2984738925302332,-0.4557368902165041,1.6900959283955088,1.6752358943553038,-0.0312209409691064,-0.2713650969331819,-0.3602839110486167,1.1375708563243447,0.3836819307781118,-0.9342860094956495,-0.5234169290475599,9.965585999826544,-1.223891234956172,0.0644875505347478,-1.02759451460273
0.34,-0.4587301584170331,1.6725045459908796,1.6583664193344538,0.1095732533094783,0.1707276314724776,0.0338004365871508,-0.0239485481566512,-0.2769751526916406,-0.309585918776143,-0.4563613090358862,1.6846686264568451,1.6680302161343314,-0.0285354844323961,-0.3113650975292283,-0.3839981390230315,1.1247133674021828,0.4333998775490124,-0.8766138755057357,-0.5556013122954923,9.85271515596014,-1.221448604786795,0.0685476282709069,-1.0269480112900788
0.36,-0.4590968784931421,1.6670760032395484,1.6523758453662734,0.1057695530555244,0.1730544045337831,0.0334088135124532,-0.0151887204452867,-0.2935312299895289,-0.3204231895001902,-0.4569857278552683,1.6792413245181814,1.660824537913359,-0.0258500278956858,-0.3513650981252748,-0.4077123669974463,1.0819943550831606,0.4379913855682229,-0.8278038648944136,-0.5418635362023583,9.826628639218145,-1.2206059746611435,0.0722931386629477,-1.0242934523230376
0.38,-0.459303179267316,1.6610278244991432,1.645844383658882,0.1020520055345719,0.1742306969363156,0.0328703092019808,-0.0059948109280054,-0.3103487893573308,-0.332146701850663,-0.4575430102612327,1.6728140225646166,1.6530260039930265,-0.0231645713589756,-0.3913650987213212,-0.4314265949718611,1.1233866399565926,0.4596954758640639,-0.8408779683900969,-0.5861756175236377,9.811893388407952,-1.2215166209821808,0.0757375392471277,-1.019958861076382
0.4,-0.4593275855393707,1.6546494218455368,1.6390753199779606,0.0985280926444386,0.1742468019219298,0.032221107698346,0.0030172690223203,-0.3265665729011713,-0.3441620840099692,-0.4580331562537794,1.6653867205961508,1.6446346143733332,-0.0204791148222653,-0.4313650993173676,-0.4551408229462759,1.1052188658135795,0.450603997516291,-0.8108891771920229,-0.6007691079653127,9.786323273628112,-1.2234117380819138,0.0789139815108946,-1.0143449500293045
0.42,-0.4591740645436731,1.6479534588018032,1.632062014085803,0.0951304429185754,0.1731463911310903,0.0314704396946317,0.0117866705058605,-0.3421274175149054,-0.3565303095998464,-0.4596029198137163,1.645510385031277,1.629237048566349,-0.000153291244406,-0.4103487908474469,-0.3445934257290466,1.0862956454326658,0.4384700741770133,-0.7780422306867041,-0.6184112794938607,9.76130890267268,-1.225982326980624,0.0817312819966415,-1.0079689301001171
0.44,-0.4587880914251633,1.6412648719135845,1.6254358994130689,0.0912934577688598,0.1701270713863012,0.030534247396863,0.0281975139071155,-0.3605779571419428,-0.3402630844684501,-0.4596029198137163,1.645510385031277,1.629237048566349,-0.000153291244406,-0.4103487908474469,-0.3445934257290466,1.4784796305199177,0.8205421700627463,-0.9225269813518732,0.8133612565698167,9.732008371056509,-1.2108647875294023,0.0834483650496835,-1.0002510090827916
0.46,-0.4580573921641566,1.633880347074261,1.618800497382668,0.0869668073099779,0.1639112022599526,0.0292746602419464,0.0433720939278184,-0.3768405049771492,-0.324313124434212,-0.4596029198137163,1.645510385031277,1.629237048566349,-0.000153291244406,-0.4103487908474469,-0.3445934257290466,1.3685207031598785,0.7587290010351448,-0.813127391760321,0.7974980017119021,11.575524695763306,-1.2213400044240754,0.0868771293205903,-0.9957527577629788
0.48,-0.4570700984280824,1.6261899789761145,1.6124465209314671,0.0831151185515933,0.1555956770820474,0.0279016737270706,0.0541423965959187,-0.3914613784705206,-0.3118173109095127,-0.4596044527261603,1.6414068971228022,1.6257911143090584,0.0010150126923138,-0.4303487911454702,-0.3470827705047233,1.1021736670276998,0.538515133405015,-0.7310436746685661,0.6247906762349653,11.34193433735254,-1.232419406620921,0.0896475437677973,-0.9890605533167568
0.5,-0.4559743377778109,1.6186239797758313,1.6066151764249357,0.0800538881297355,0.1468075437066092,0.0266010325130148,0.0603657514049979,-0.4043407363545156,-0.3025996368870043,-0.4596075185510485,1.6331999213058532,1.6188992457944775,0.0033516205657536,-0.4703487917415166,-0.3520614600560768,0.8508429922273266,0.3111677404539607,-0.6439678941997512,0.4608837011254196,10.917892420980934,-1.2434409448145232,0.0919029382018914,-0.9801731770542528
0.52,-0.454732979326737,1.6104031941440518,1.600644181802382,0.077515603335439,0.1375338215439416,0.0253112209057381,0.0631528981524046,-0.4171521684798289,-0.2950761868371903,-0.4596105843759366,1.6249929454889045,1.6120073772798966,0.0056882284391934,-0.5103487923375631,-0.3570401496074302,0.7558162487422745,0.1393573373703341,-0.6405716062656663,0.3761725024907042,10.917892420980934,-1.2529549894329255,0.0934464499882194,-0.9705766206637
0.54,-0.4534722055509951,1.6019310886900482,1.5948015887570306,0.0756564878303041,0.1289607308933751,0.0241494358193557,0.0625945971443034,-0.4294904528135967,-0.2896407250245931,-0.4594968198071527,1.614785969642153,1.604866574287748,0.0080248363126332,-0.5503487929336096,-0.3620188391587837,0.6747021665756447,-0.0279150504050577,-0.6169142166883884,0.2717730906298565,10.764842150170807,-1.260508554614494,0.0943309496036441,-0.96135036079931
0.56,-0.452251420430732,1.593217708002185,1.58905883089478,0.0745152952941955,0.121641319156749,0.0231503262866053,0.0594746467675656,-0.4413222735028487,-0.2848969529002057,-0.4593830552383688,1.6045789937954016,1.5977257712955997,0.010361444186073,-0.5903487935296561,-0.3669975287101371,0.6561810823698611,-0.1559975188368915,-0.5915910344625991,0.2371886062193712,10.631497682092231,-1.2648288849123197,0.0944981052077192,-0.9536362610244492
0.58,-0.4511702943515099,1.5847153049436662,1.583686463094373,0.0739220947772609,0.1162231097692373,0.0223591357596088,0.054416990750548,-0.4530407816067101,-0.2808459936542666,-0.459210875472749,1.5933720179337492,1.590460501064667,0.0126980520595128,-0.6303487941257024,-0.3719762182614906,0.669540117130781,-0.2528828008508791,-0.5859254051930718,0.2025479622969561,10.593624034350796,-1.26755494953431,0.0942454514113814,-0.947058327322172
0.6,-0.4501564307860898,1.5755227362539663,1.578109950352221,0.0735449782789762,0.112691971313354,0.0217101828473054,0.0471361613097312,-0.4655686097512908,-0.2770384475559309,-0.4589802805102931,1.5811650420571957,1.5830707635949508,0.0150346599329526,-0.6703487947217489,-0.3769549078128441,0.7490900524258791,-0.3640414720408394,-0.6263914072290322,0.1903773049167834,10.567583290538096,-1.267714945373502,0.0937693837843767,-0.9432246496846384
0.62,-0.4493004850593551,1.566076053733833,1.5726033385702018,0.0732024013227778,0.1118895360551759,0.0212690129308454,0.0391320102240601,-0.4784160913535061,-0.2738472977446288,-0.4484494448139825,1.5620632658633309,1.5696441634116596,0.0621165487962631,-0.5530407830968262,-0.3031335021270668,0.7734785957602281,-0.4002075542835579,-0.6423740801107664,0.159557490565107,10.544524732227728,-1.2637048025139392,0.0931294891591135,-0.9440056317759308
0.64,-0.448606883250451,1.5563224362209505,1.5672060000428951,0.0712557811047151,0.1140972250443462,0.0209395859774729,0.0310284547789096,-0.4957940225827678,-0.2657609347748994,-0.4484494448139825,1.5620632658633309,1.5696441634116596,0.0621165487962631,-0.5530407830968262,-0.3031335021270668,1.040491915802072,-0.405177772257523,-0.8688965614630839,0.4043181484864683,10.503985251215454,-1.253847611985074,0.0936081939507833,-0.946196128566958
0.66,-0.4480753626269244,1.5467775583776302,1.5622213737736663,0.0679369408020324,0.1187565169903444,0.0207041830703508,0.0257053039013131,-0.5078958246716616,-0.2593830442671531,-0.4484494448139825,1.5620632658633309,1.5696441634116596,0.0621165487962631,-0.5530407830968262,-0.3031335021270668,0.7339397734031234,-0.2661575438798231,-0.6050901044446916,0.3188945253873143,10.854720826598168,-1.2445140677702622,0.0956290861983579,-0.9562925200664846
0.68,-0.4475944085376661,1.5365099754511902,1.5570848527128385,0.0646554919379437,0.1251092246430081,0.020559272327875,0.022978403665945,-0.5182638810339498,-0.2547237352569685,-0.4478282793260199,1.5565328580323623,1.5666128283903888,0.0636564604054061,-0.5730407833948494,-0.3075910038216269,0.58446928507327,-0.1363450117684078,-0.5184028181144107,0.2329654505092315,10.70849566302786,-1.2354999240508326,0.0977394144144204,-0.9668771438651216
0.7000000000000001,-0.447138727314618,1.5260487546018064,1.5520209668491125,0.062063409195944,0.1319270532456765,0.0204812862614016,0.0229521442808392,-0.5274495173175332,-0.2519993107795997,-0.4465859483500946,1.5454720423704258,1.5605501583478476,0.0667362836236921,-0.6130407839908959,-0.316506007210747,0.4790592140395482,-0.0013129692552866,-0.4592818141791688,0.1362212238684407,10.580858202704803,-1.227326163805594,0.0994454052013961,-0.9768082299179188
0.72,-0.4466577306847618,1.5154126041329534,1.5469937907419673,0.0603027602438827,0.1384167535680583,0.0204336842105566,0.0252641761276741,-0.5359034235173167,-0.2508802737931601,-0.4453436173741694,1.5344112267084893,1.554487488305306,0.0698161068419782,-0.6530407845869424,-0.3254210105998671,0.4417755795438903,0.1156015923417436,-0.4226953099891739,0.0559518493219807,10.478964658228506,-1.2207821042408895,0.1005129391178471,-0.9850785205409518
0.74,-0.4461395898437573,1.5051577953641035,1.5422277318098498,0.0594823531562918,0.1437983509637772,0.0203989062571385,0.0291898413648397,-0.5432640153018401,-0.2508840313217824,-0.4439472952373298,1.5213504110167504,1.5479790680933088,0.0728959300602642,-0.6930407851829888,-0.3343360139889872,0.4171006266229574,0.1962832618582804,-0.3680295892261709,-0.000187876431118,10.404663598676962,-1.2153202380000463,0.1009337561415212,-0.992073525659424
0.76,-0.4454999798186069,1.4942183467862782,1.5372047017833796,0.0597893131349427,0.1483606987217633,0.0203815636299559,0.0345912448576607,-0.550407977651783,-0.2514523487903927,-0.4425509731004903,1.5082895953250115,1.5414706478813114,0.0759757532785503,-0.7330407857790353,-0.3432510173781073,0.448704642540021,0.2700701746410484,-0.3571981174971428,-0.0284158734305151,10.352628700666171,-1.211605598127093,0.1003460803511372,-0.997123966684224
0.78,-0.4447415493645576,1.483127675751056,1.5321657516088214,0.0612288990082275,0.1516537357532985,0.0203737988326076,0.0409566038938035,-0.5583693695106567,-0.2524283137657399,-0.4410776553831935,1.4942287796183715,1.534739352584586,0.0790555764968363,-0.7730407863750817,-0.3521660207672274,0.5119913661934442,0.3182679518071427,-0.3980695929436895,-0.0487982487673593,10.329751004496757,-1.2093912702785388,0.0987576315160486,-1.0003521012405487
0.8,-0.4438491932779597,1.4718670156550029,1.5271045579341906,0.0633763614369995,0.1536227919077062,0.0203402164932633,0.04784682489521,-0.5673341752983694,-0.2536358702322329,-0.4395273420854397,1.4791679638968305,1.5277851822031323,0.0821353997151223,-0.8130407869711281,-0.3610810241563475,0.5685531656744983,0.3445110500703219,-0.4482402893856319,-0.0603778233246504,10.312920861761086,-1.2086510640989996,0.0966583262924504,-1.0017324121016613
0.8200000000000001,-0.4428728012311905,1.4609880015150447,1.5222724232413642,0.0655622532432983,0.154355948587861,0.0202491287872835,0.0544711580254806,-0.5773815433812267,-0.2549396191370756,-0.4426937191698674,1.455209207275523,1.5195443359205345,0.0577595611752738,-0.6583693710007729,-0.2431099461876507,0.6052502705908105,0.3312166565135315,-0.5023684041428667,-0.0651874452421319,10.312920861761086,-1.20901058768747,0.0942863085111058,-1.0015320438939437
0.84,-0.4416655157660961,1.4492422688122382,1.51732432513085,0.0653311367286885,0.1535703453466205,0.0198757257302221,0.0660120117844148,-0.596084643033071,-0.2388666575595834,-0.4426937191698674,1.455209207275523,1.5195443359205345,0.0577595611752738,-0.6583693710007729,-0.2431099461876507,1.3613755322682468,0.5770426879467109,-0.9351549825922124,0.8036480788746067,10.310149243897284,-1.1977792795756357,0.0932390740793134,-0.9994380328383432
0.86,-0.4402252749557832,1.4371526313646288,1.5127222407408447,0.0615209987678065,0.1506359362849966,0.0191259368241217,0.0772485076398308,-0.6112535156620851,-0.2222724217549945,-0.4426937191698674,1.455209207275523,1.5195443359205345,0.0577595611752738,-0.6583693710007729,-0.2431099461876507,1.2567042192599795,0.5618247927707972,-0.7584436314507059,0.8297117902294454,11.508743828824665,-1.200519034144243,0.0960961646408563,-1.000651341269179
0.88,-0.4385756631214378,1.42481462931419,1.5084300696765778,0.0565972548679824,0.1456036464434205,0.0182030092568998,0.0868405004696202,-0.6216156207336653,-0.2078486785163435,-0.4421161235581147,1.4486255135655153,1.517113236458658,0.0611201526315679,-0.678369371298796,-0.2412462726720328,1.0092372329830714,0.4795996414894719,-0.5181052535790098,0.7211871619325502,11.382898586623014,-1.2072040879989991,0.10012941378688,-0.9987956345298892
0.9,-0.4367682217417633,1.4123017542504566,1.504402076073732,0.052153727215143,0.1390676470781296,0.017273174154991,0.0930832696650065,-0.6293138689791069,-0.1956408291247996,-0.4409609323346092,1.4354581261454995,1.512251037534905,0.067841335544156,-0.7183693718948425,-0.2375189256407971,0.7862359379377301,0.3121384597693156,-0.3849124122720815,0.6103924695771964,11.219814728043277,-1.215330254762299,0.1036278565503212,-0.9944661808812042
0.92,-0.4349688829819639,1.400286361340872,1.5007844528019634,0.048851170821889,0.1324143841077113,0.0164713477833472,0.0958252882567758,-0.6353202465108582,-0.1857650920896407,-0.4398057411111037,1.4222907387254844,1.507388838611152,0.0745625184567441,-0.758369372490889,-0.2337915786095614,0.59398110028675,0.1371009295884635,-0.300318876587563,0.4937868517579435,11.07396275119754,-1.2232415875333738,0.1063987493711122,-0.9890453586816408
0.94,-0.4330483480583592,1.3875221776205928,1.4971655934620391,0.046438786057943,0.1257232551011731,0.0157511696525566,0.0959106953936026,-0.6409823584795479,-0.1767061837303959,-0.4383144907419689,1.407123351275667,1.5027130070389607,0.0812837013693323,-0.7983693730869355,-0.2300642315783257,0.5341596834893947,0.004270356841339,-0.2831055984344854,0.4529454179622416,10.953102833083904,-1.2297005982724138,0.1081349340143326,-0.9837886806570022
0.96,-0.4311526992200257,1.3746495356303583,1.4937212329410778,0.04512748575465,0.1199785441245991,0.0151761572745747,0.0934793609997899,-0.6461165605297562,-0.1682021127499413,-0.436823240372834,1.391955963825849,1.4980371754667696,0.0880048842819204,-0.8383693736829819,-0.22633688454709,0.5113478289469656,-0.1215667196906356,-0.2567101025104157,0.4252035490227304,10.86334908758272,-1.234376024080981,0.1088649733850119,-0.979146383686054
0.98,-0.4293316342187013,1.361670836279698,1.4904426608063863,0.0448197107815956,0.1159176663392921,0.0147613197320145,0.0886787229707671,-0.6515669215481121,-0.1600830968785023,-0.4351639604308844,1.37578857636113,1.4934545275703592,0.0947260671945085,-0.8783693742790283,-0.2226095375158543,0.5446810521690462,-0.2400319014511404,-0.2725180509177971,0.4059507935719478,10.834538187884393,-1.236848280620331,0.1087260497648587,-0.9764528135977592
1.0,-0.4277079817122316,1.349236853171685,1.4874756230033372,0.0452336323859211,0.1142759149089834,0.0145234904053677,0.0826113196336471,-0.6570319221456817,-0.1526538912031079,-0.4333366509161201,1.3586211888815098,1.4889650633497298,0.1014472501070966,-0.9183693748750748,-0.2188821904846186,0.5519798722644759,-0.3033701668559977,-0.2732500298784801,0.37146028376972,10.802775693218791,-1.235597309038282,0.1078265516989086,-0.977122328754214
1.02,-0.4261161225026931,1.3360327682163655,1.4845024460250968,0.0462784163174329,0.1148362526072788,0.0144256554767165,0.0771463948104433,-0.6631254415451913,-0.1450778688562913,-0.424897698070163,1.3290924902022925,1.4824385059624612,0.1040185417538715,-0.7515669230382283,-0.1603856381519155,0.5576569209534948,-0.2732462411601924,-0.3046759699754764,0.3788011173408295,10.802775693218791,-1.231143831659497,0.1063200166456509,-0.9813118089339594
1.04,-0.4246210418837496,1.3226462051983747,1.4816835431425048,0.0460402745915209,0.1171617569558611,0.0143275069190632,0.0728726601916235,-0.6748117697780541,-0.1371519032689594,-0.424897698070163,1.3290924902022925,1.4824385059624612,0.1040185417538715,-0.7515669230382283,-0.1603856381519155,0.737658467127362,-0.2136867309409901,-0.5843164116431432,0.3962982793665942,10.786893373969178,-1.225583454994721,0.1059622523122826,-0.9862304415267354
1.06,-0.4232640423270968,1.3097401642469169,1.4791469086573306,0.04395352264122,0.1205171798229767,0.0141626545972484,0.0703826243031495,-0.6830745905504066,-0.1302760732903942,-0.424897698070163,1.3290924902022925,1.4824385059624612,0.1040185417538715,-0.7515669230382283,-0.1603856381519155,0.5517053646105962,-0.124501794423696,-0.4131410386176259,0.34379149892826,10.83447887546481,-1.219082678470754,0.1074339890519701,-0.9929246325408018
1.08,-0.4218686025399,1.2960116640394084,1.4766085643536058,0.0412465425468076,0.1246101860533708,0.0139801863589211,0.0694591650745346,-0.6892200441736075,-0.1239756238648373,-0.4238575126526243,1.32157682097191,1.480834649580942,0.1070865055104924,-0.7715669233362514,-0.1604461464065982,0.4424789264638113,-0.0461729614307487,-0.3072726811600423,0.3150224712778447,10.779553810644757,-1.2131096204900986,0.1095174769154722,-0.9999156620175256
1.1,-0.4204747559644632,1.28218133993842,1.4741857926447424,0.0390500374863001,0.12875039101812,0.0138367356490991,0.0700903433884295,-0.6936487548549906,-0.118676983173763,-0.4217771418175468,1.3065454825111456,1.4776269368179038,0.1132224330237341,-0.8115669239322979,-0.1605671629159634,0.346725603094278,0.031558915694746,-0.2214355340691531,0.2649320345537165,10.7209175770613,-1.2081083589849213,0.1112511429222499,-1.0066484886011244
1.12,-0.4190536693247436,1.268274313986371,1.471859605115186,0.0378283382865396,0.1325314225060657,0.0137510619614988,0.072037327786398,-0.6970465390900854,-0.114225569625117,-0.4196967709824694,1.291514144050381,1.4744192240548657,0.1193583605369759,-0.8515669245283444,-0.1606881794253288,0.2964404178551788,0.0973492198984238,-0.1698892117547423,0.2225706774323016,10.667659446664402,-1.2041822450341078,0.1121374171748413,-1.0123100182958047
1.14,-0.417657439318658,1.255007323020443,1.469727105052313,0.0378968847087971,0.1355589465028954,0.0137403694028421,0.0748419792949901,-0.6995152568451064,-0.1104857395044284,-0.4173096037717299,1.274482805559814,1.471205460466359,0.1254942880502177,-0.8915669251243908,-0.1608091959346941,0.2643244538924354,0.140232575429608,-0.1234358877510499,0.1869915060344285,10.628977342273174,-1.2009962382366537,0.1119371467163706,-1.017343504582178
1.16,-0.4161229231738365,1.2409947592505393,1.4675570330667425,0.0396105748361832,0.1380345240574856,0.0138252835048911,0.078469456074023,-0.7017938846625872,-0.1067343997122984,-0.4149224365609903,1.2574514670692472,1.4679916968778524,0.1316302155634595,-0.9315669257204372,-0.1609302124440593,0.2847072301024247,0.1813738389516463,-0.1139313908740391,0.1875669896064982,10.606777887814133,-1.198765130242172,0.1102003315890165,-1.0214503917815554
1.18,-0.4145090645126853,1.226919367974225,1.4654612997841523,0.0427811365820461,0.1397066114485033,0.0139884363631183,0.0826796970085424,-0.706043150212791,-0.1030442152724169,-0.4123818711624197,1.2394201285637791,1.4647749078766117,0.1377661430767012,-0.9715669263164836,-0.1610512289534246,0.3514251258916847,0.2105120467259684,-0.2124632775101886,0.1845092219940745,10.60279255407113,-1.197520439268699,0.1072801346867721,-1.0245933261050355
1.2,-0.4128076503758695,1.2127277821189504,1.4634403716208997,0.046131686764205,0.1405746629941218,0.0141352510061543,0.0871753531307348,-0.7128910758828861,-0.0992328284814971,-0.4096879075760181,1.2203887900434098,1.461555093462637,0.143902070589943,-1.01156692691253,-0.1611722454627899,0.4517512568387412,0.2247828061096198,-0.3423962835047589,0.1905693395459935,10.60773469934611,-1.196544946037886,0.1039713999907983,-1.0266228184580228
1.22,-0.4110911286515369,1.199040992018659,1.4616603770400756,0.0468859904050069,0.1405569278800986,0.0140698026617252,0.0931538728848175,-0.7264024237939851,-0.0882773478560678,-0.4103750796622582,1.1916172104635854,1.4603090890205317,0.1064778907911104,-0.8060431517029071,-0.0908392487645649,0.9196762698891252,0.2989259877041322,-0.675567395554949,0.5477740312714606,10.624863127554818,-1.1909524390338233,0.1025699676161633,-1.0272194509019257
1.24,-0.409167469307032,1.1843992862814892,1.4600161484822332,0.0447475274165496,0.1397076819319578,0.0137659297571663,0.098805123534509,-0.7368745451091833,-0.0767654127561823,-0.4103750796622582,1.1916172104635854,1.4603090890205317,0.1064778907911104,-0.8060431517029071,-0.0908392487645649,0.8278384632430467,0.2825625324845773,-0.5236060657599073,0.575596754994278,11.092726600364584,-1.191439734153696,0.1043431282428332,-1.0288890017764991
1.26,-0.4071394623084533,1.1695808130381364,1.4585890609416126,0.0413256892279825,0.1382582201480905,0.0133612950482345,0.1036288027329887,-0.7441458907694305,-0.0665003461349457,-0.4103750796622582,1.1916172104635854,1.4603090890205317,0.1064778907911104,-0.8060431517029071,-0.0908392487645649,0.673631838356584,0.2411839599239858,-0.3635672830123615,0.513253331061831,11.00735074860313,-1.192941730363375,0.1072146480337537,-1.0297559407899024
1.28,-0.4050252198135362,1.1546499268334274,1.4573543882616231,0.03817450148478,0.1364261146218127,0.0129788514707129,0.10747799034729,-0.7487561613487698,-0.0574836344518853,-0.4093103007543471,1.1835567789465562,1.459400696532886,0.111237529547624,-0.8260431520009303,-0.0883982554629944,0.5416916320201195,0.192459380715064,-0.2305135289669635,0.4508355841530163,10.92669852353447,-1.1954124554292465,0.1100835827051957,-1.0301065116959514
1.3,-0.4029554390985608,1.1403930661418806,1.4563381599415726,0.0360144545465998,0.1345657802142853,0.0126857372892862,0.1101422716220235,-0.7520035705741965,-0.0499451051159181,-0.4071807429385249,1.167435915912498,1.4575839115575946,0.1207568070606512,-0.8660431525969767,-0.0835162688598536,0.431490109786772,0.1332140637366731,-0.1623704612713383,0.3769264667983596,10.92669852353447,-1.1980496348497762,0.1121548609243051,-1.030130896953101
1.32,-0.4007325814013079,1.125326315376739,1.4554161973227158,0.0348330200921312,0.132769368302491,0.01247317470456,0.111925194544367,-0.7546303246572589,-0.0426822061433502,-0.4050511851227027,1.15131505287844,1.4557671265823031,0.1302760845736784,-0.9060431531930232,-0.0786342822567128,0.396321689557965,0.0891461461171791,-0.1313377041531171,0.3631449486283994,10.86103939395798,-1.2001897443837375,0.1131739831773706,-1.0300972289567447
1.34,-0.3984833992584103,1.1102155033887522,1.4546361293465575,0.0351518439967445,0.1314383823839804,0.0123907331562582,0.1129431526077305,-0.7565674250210611,-0.0356978737662999,-0.4024456634312292,1.1331941898145794,1.454194440937169,0.1397953620867056,-0.9460431537890696,-0.0737522956535719,0.3659559235458616,0.0508979031681705,-0.0968550181901117,0.3492166188525127,10.82010094006364,-1.201094052798743,0.1128082027699848,-1.0308187139866831
1.36,-0.3963288256290473,1.0958160521379592,1.45402370051925,0.0367740189978859,0.1306335450094016,0.0124245330227173,0.1138320766039567,-0.7591727181908127,-0.0291245748088622,-0.3998401417397556,1.1150733267507191,1.4526217552920349,0.1493146395997328,-0.986043154385116,-0.0688703090504311,0.3563214754799109,0.0444461998113113,-0.1302646584875777,0.3286649478718843,10.805216100202417,-1.2011953988221222,0.1110982897960622,-1.032377279814548
1.38,-0.3940416750507506,1.0805934558845454,1.453515260993471,0.0395013887260694,0.1301635953099039,0.0125462792196372,0.1148603280942973,-0.763227738504479,-0.0220701938950225,-0.3969966381104563,1.0959524636719575,1.4511711193119792,0.1588339171127599,-1.0260431549811624,-0.0639883224472903,0.4100755447145677,0.0514125745170304,-0.2027510156833167,0.3527190456919836,10.805216100202417,-1.200752040501497,0.1083852784687007,-1.0344826960329498
1.4,-0.391732115630094,1.0652643674672757,1.4531491879797191,0.0423884595377381,0.1299697625059966,0.0126901121151026,0.1160657479106324,-0.7694962553493594,-0.0148866662743183,-0.3939151525433314,1.0758316005782946,1.449842532997002,0.1683531946257871,-1.0660431555772087,-0.0591063358441494,0.480495602075564,0.0602709908167554,-0.3134258422440195,0.3591763810352127,10.81777698359383,-1.199660792235634,0.1054889965473743,-1.0367778839362989
1.42,-0.3893962485412922,1.049795109489853,1.4529282261036982,0.0447669786539431,0.1299444415084444,0.0128062554905201,0.1174749021171004,-0.7769676946555097,-0.0075704543507449,-0.3882986586460358,1.0424320689593214,1.4524117512987198,0.1335856394779023,-0.8632277399945951,-0.0413583146863386,0.527577192915247,0.0704577103234009,-0.3735719653075176,0.3658105961786705,10.832764887914893,-1.19831621727464,0.103163972862308,-1.0390195910911242
1.44,-0.3871540168634191,1.0348800273539993,1.4527823998846316,0.0438877088953087,0.1298571011546978,0.0126980527582243,0.1184355072478182,-0.7914712220777667,-0.0080821400107441,-0.3882986586460358,1.0424320689593214,1.4524117512987198,0.1335856394779023,-0.8632277399945951,-0.0413583146863386,0.727215394707731,0.0480302565358872,-0.7251763711128456,-0.0255842829999628,10.845594020614044,-1.201047029958837,0.1039782407652054,-1.0410967964011393
1.46,-0.3847797766535766,1.0189483418146,1.4526107281399627,0.0393945316031383,0.1296478806081568,0.0123418913096546,0.1189209979772763,-0.8002028433187758,-0.0090169131161166,-0.3882986586460358,1.0424320689593214,1.4524117512987198,0.1335856394779023,-0.8632277399945951,-0.0413583146863386,0.4397462663382123,0.0242745364729082,-0.4365810620504562,-0.0467386552686219,10.397166114106769,-1.2003653186565444,0.1081430578018127,-1.0389371428597138
1.48,-0.3824009032050777,1.0029007348796133,1.4524123173298868,0.0345362633900486,0.1295127118081366,0.01197918058496,0.1189619884432066,-0.8042088868375449,-0.0107808368472034,-0.3869628022512568,1.0337997915593755,1.4519981681518563,0.1373307017546233,-0.8832277402926183,-0.0452159388446018,0.2188692065004821,0.0020495232965149,-0.2003021759384549,-0.0881961865543402,10.367948612909458,-1.2006152767343248,0.1127215834214071,-1.0373955668203687
1.5,-0.3801432919728743,0.9876056003750956,1.4521828771946927,0.0308050612004807,0.1295528364473635,0.0117161131968773,0.1187119232015281,-0.8059073638465596,-0.0132931274992771,-0.3842910894616987,1.0165352367594835,1.4511710018581296,0.1448208263080653,-0.9232277408886648,-0.0529311871611282,0.1521427051795806,-0.0125032620839259,-0.0849238504507354,-0.1256145326036862,10.307253499314356,-1.200937308900888,0.1162630264751255,-1.0362253850543377
1.52,-0.3777733139579067,0.9714802047444906,1.4518832418306116,0.0281556069691199,0.1298303398174293,0.0115478636673878,0.1183284290613153,-0.8068124595182252,-0.0165764938993285,-0.3816193766721407,0.9992706819595916,1.450343835564403,0.1523109508615073,-0.9632277414847112,-0.0606464354776546,0.1713677394335911,-0.0191747070106426,-0.0452547835832817,-0.1641683200025679,10.253410967080526,-1.2009879860293344,0.1187938018060554,-1.0352935884241732
1.54,-0.3754108488585105,0.955342596195011,1.4515133008778134,0.026894057056282,0.1303634302229748,0.0114936927364182,0.1179763409719103,-0.8070809446109493,-0.0202746274923419,-0.3785731576549105,0.9800061271298974,1.44913090685485,0.1598010754149493,-1.0032277420807576,-0.068361683794181,0.1862272961966823,-0.0176044044702498,-0.0134242546362017,-0.1849066796506744,10.215265140833251,-1.2006885675286751,0.1200222704976996,-1.034635426647
1.56,-0.3730543413692305,0.9392078607424584,1.4510648755364195,0.0273267655529857,0.1311322853485106,0.0115718418830686,0.1177477859930174,-0.8066672817749443,-0.0243896331175191,-0.3755269386376804,0.9607415723002032,1.4479179781452969,0.1672911999683913,-1.0432277426768042,-0.0760769321107074,0.2071027861685362,-0.0114277489446444,0.0206831418002484,-0.2057502812588585,10.192864891325373,-1.200314299177491,0.119729902570957,-1.0343831737336764
1.58,-0.370816390519233,0.9238792556177652,1.4505614747104143,0.0292456326782935,0.1320020238526519,0.0117604909199797,0.1178728716898533,-0.8070284944881753,-0.0283954622193874,-0.3722934665066142,0.940477017455608,1.4465121682278304,0.1747813245218333,-1.0832277432728503,-0.0837921804272339,0.201201316155782,0.006254284841798,-0.0180606356615486,-0.2002914550934148,10.169841047742011,-1.1995870727317277,0.1179218152384253,-1.0343509452612276
1.6,-0.3684541045860062,0.9077208691671704,1.4499500758532902,0.0323918749856922,0.1329566881511443,0.0120430297351843,0.1183836311515619,-0.8091648303773897,-0.0325377810369963,-0.3688727412617119,0.9192124625961112,1.444913477102451,0.1822714490752753,-1.123227743868897,-0.0915074287437603,0.2344334204309804,0.0255379730854266,-0.1068167944607234,-0.207115940880446,10.17168418278652,-1.1987806539525792,0.1150206225224339,-1.034442096494909
1.62,-0.3660771595158072,0.8914926345731726,1.4492583959418306,0.0356229149603257,0.1338592289633673,0.0123330272378245,0.1193006914334202,-0.8135360059111366,-0.0364226615615863,-0.3649227469347403,0.8835278308933563,1.449141701599445,0.1543820986974808,-0.9070284959782914,-0.0122519483759702,0.2959749643032645,0.0458530140929162,-0.2185587766873442,-0.194244026229496,10.17168418278652,-1.1976571469790338,0.1120212546538471,-1.034230662496873
1.64,-0.3637801709460493,0.8759083280837106,1.4486851201806816,0.0360420183246914,0.1347526767422769,0.0124282479500999,0.1224910141072082,-0.8255389489457369,-0.0237047228492325,-0.3649227469347403,0.8835278308933563,1.449141701599445,0.1543820986974808,-0.9070284959782914,-0.0122519483759702,0.8888120798936213,0.1595161336894017,-0.6001471517300128,0.6358969356176858,10.189862517391704,-1.1861856750065285,0.1109960175038733,-1.0331477026154388
1.66,-0.3612919153029766,0.8593021802533085,1.4483512864844217,0.0331409997880585,0.1357945750559199,0.0123049342684485,0.1261924896787638,-0.8340673098373355,-0.0104511965977968,-0.3649227469347403,0.8835278308933563,1.449141701599445,0.1543820986974808,-0.9070284959782914,-0.0122519483759702,0.8094594168358079,0.1850737785777774,-0.4264180445799292,0.662676312571786,11.282463958164954,-1.184071326770256,0.1137117354708718,-1.038297383694589
1.68,-0.3587288263053465,0.8425758262363833,1.4482610818120982,0.0291371520742142,0.1368344498252925,0.0121122796781987,0.1299574070576179,-0.8380371558794373,0.0007646792452723,-0.3633789259477655,0.8744575459335734,1.4490191821156853,0.1616839440990063,-0.9270284962763146,-0.0090232456072868,0.6239594365716671,0.1882458689427074,-0.198492302105091,0.5607937921534604,11.198139183285091,-1.183303401465751,0.117605399450505,-1.043123900885016
1.7,-0.356090274719273,0.8258022363147653,1.448375517340427,0.0257568051526349,0.1377992924153651,0.0119690937866888,0.1337283187239382,-0.839398018291524,0.0101038488200921,-0.3602912839738159,0.8563169760140075,1.448774143148166,0.1762876349020573,-0.967028496872361,-0.0025658400699199,0.508162891322905,0.1885455833160146,-0.0680431206043385,0.4669584787409924,11.071619326316068,-1.183321943563993,0.1208429580827942,-1.0467160886311926
1.72,-0.3535136897292699,0.8098541734222524,1.448643085386038,0.023631826201443,0.1386154307611391,0.0119137002285229,0.1373140487476377,-0.8396227433320016,0.0175817646913785,-0.3572036419998663,0.8381764060944417,1.4485291041806465,0.1908913257051083,-1.0070284974684074,0.0038915654674468,0.4148107608437678,0.1792865011849748,-0.0112362520238773,0.3738957935643184,10.878865999105985,-1.183491601469772,0.123207397125068,-1.0500120088242253
1.74,-0.3507276995804651,0.7930685667743195,1.4490691296440383,0.0227130571603599,0.1393646187928612,0.0119519082361014,0.1411029401537731,-0.8390748381144089,0.0245843981847721,-0.3533858154857641,0.8180358361450735,1.4486069354899955,0.2054950165081593,-1.0470284980644535,0.0103489710048137,0.3990387639620658,0.1894445703067668,0.0273952608796368,0.3501316746696797,10.878865999105985,-1.18358060671958,0.1242773922736995,-1.0529013311971531
1.76,-0.347864263169477,0.776302994550485,1.4496345332749443,0.0235954354344775,0.139996270997459,0.0121188517593698,0.145055966873574,-0.8378141011950462,0.0315973322068069,-0.3495679889716619,0.7978952661957054,1.4486847667993443,0.2200987073112103,-1.0870284986605003,0.0168063765421806,0.4074221441721042,0.1976513359900469,0.063036845968134,0.3506467011017417,10.83083139268456,-1.1833622278411873,0.1236718091645157,-1.0556157261452686
1.78,-0.3449180293254203,0.7595514236826287,1.4503432661595332,0.0262085827266609,0.1404451598096623,0.0124053234005373,0.1493513439486499,-0.8376390972749631,0.0389164465111024,-0.3453850701874835,0.776754696231436,1.4489240332471274,0.2347023981142613,-1.1270284992565467,0.0232637820795474,0.4244123136422722,0.2147688537537953,0.0087501960041536,0.3659557152147732,10.840255775679909,-1.1832131106421182,0.1213870163237146,-1.0586730167049374
1.8,-0.3420368723369521,0.7436154952239585,1.4511561226666607,0.0295091658508932,0.1406258979642271,0.0127282241905982,0.1536828591859859,-0.8400105764989325,0.0462725850904825,-0.3408370591332288,0.7546141262522655,1.449324734833345,0.2493060889173123,-1.167028499852593,0.0297211876169143,0.4429974964941583,0.2165757618668023,-0.1185739611984704,0.3678069289690034,10.862707253717415,-1.1830880073831098,0.11817227835397,-1.061465695487538
1.82,-0.338914106257108,0.7267709108419612,1.4521671512656962,0.032816555209117,0.1405330868533348,0.0130462011016894,0.1583391167730326,-0.8443201503523754,0.054463560945168,-0.3374504621279878,0.7176694688188806,1.4522890884850883,0.1880302545319076,-0.9114632794277112,0.0268612338792808,0.5180377567495673,0.2328128793523343,-0.2154786926721441,0.4095487927342759,10.894578726669351,-1.182906272330552,0.1150661607391332,-1.0637392543052553
1.84,-0.3357095593265495,0.709674745877814,1.4532564029185808,0.0305406487170471,0.140160564707567,0.0129669850929644,0.1617764385042813,-0.8632207742448677,0.0537191492862442,-0.3374504621279878,0.7176694688188806,1.4522890884850883,0.1880302545319076,-0.9114632794277112,0.0268612338792808,0.9612529751937112,0.1718660865624319,-0.9450311946246126,-0.0372205829461878,10.928892710287982,-1.1876202275329777,0.1173586463283541,-1.0646073857825464
1.86,-0.3324470080601715,0.6923245441584852,1.4543191277332128,0.0221892267001548,0.1397088832407844,0.0124797039716671,0.1641901586722928,-0.8697008152439137,0.0527204804465933,-0.3374504621279878,0.7176694688188806,1.4522890884850883,0.1880302545319076,-0.9114632794277112,0.0268612338792808,0.3493362128740513,0.1206860084005778,-0.3240020499523044,-0.0499334419825487,10.384373870844684,-1.187810509077787,0.1254376795781522,-1.0606622090852806
1.88,-0.3293070567069118,0.6758000229597608,1.4553013077315486,0.0138138451428579,0.1394623807598607,0.0120130299711297,0.1661107216021888,-0.8693485139222569,0.0507529491875421,-0.3355701595826687,0.7085548360246035,1.452557700823881,0.1957660366485591,-0.9262281158582608,0.0244501913529165,0.1385988586197145,0.0960281464947976,0.0176150660828433,-0.0983765629525568,10.311298946963689,-1.1894676817064538,0.1342281411784697,-1.0585772924422194
1.9,-0.3259691253517155,0.6584544802976517,1.4562857075298623,0.0063458257495387,0.1395320131653132,0.0116419579871825,0.1676145759607963,-0.8654597464601133,0.0477311356169025,-0.3318095544920305,0.6903255704360493,1.453094925501467,0.2112376008818622,-0.95575778871936,0.0196281063001878,0.2574657625890865,0.0751927179303779,0.1944383731071808,-0.1510906785319836,10.311298946963689,-1.1911041139995198,0.1417321941540057,-1.0571349360846198
1.92,-0.3226035679403355,0.6412092603369641,1.4572001095751772,0.0008769909802255,0.1400160038378109,0.0114300865499469,0.1689417336214342,-0.8597791495129733,0.0438526378565748,-0.3280489494013924,0.672096304847495,1.4536321501790523,0.2267091651151652,-0.9852874615804592,0.0148060212474591,0.3502615951289577,0.066357883031895,0.284029847356998,-0.1939248880163856,10.20951878204596,-1.19235006829247,0.1470828198491536,-1.05634405165463
1.94,-0.3193807613466123,0.6249385271364346,1.4579934859529848,-0.0025298091518219,0.1408509988011465,0.0113656994206952,0.1703057587691592,-0.8536831828557423,0.0398490412568946,-0.3235147660990891,0.6523905556158859,1.4539282706040015,0.2421807293484683,-1.0148171344415584,0.0099839361947305,0.37097897454798,0.0682012573862481,0.30479833286155,-0.2001798299840054,10.20951878204596,-1.1930786165149507,0.1509151797761202,-1.0560628319872472
1.96,-0.3159577124241542,0.607937120713215,1.45874329670153,-0.0044615249207085,0.1420714717007568,0.0114221121420273,0.1719918463817989,-0.8470549572487738,0.0353256845155675,-0.3189805827967857,0.6326848063842766,1.4542243910289507,0.2576522935817714,-1.0443468073026578,0.0051618511420018,0.4099909216790064,0.0843043806319873,0.3314112803484259,-0.2261678370663593,10.17764942343183,-1.193543927212291,0.1531183420892412,-1.0563432659983247
1.98,-0.3124947618142235,0.5910651748328665,1.4594020425241307,-0.0049388984605488,0.1434994630786908,0.0115875366725414,0.174274501907943,-0.8405925616288741,0.0307755889358993,-0.3140596103886499,0.6122408153311399,1.4543999593275818,0.2731238578150745,-1.073876480163757,0.0003397660892732,0.4113284672352825,0.1141327763072019,0.3231197809949848,-0.2275047789834098,10.17764942343183,-1.1935872907683858,0.1539202017743629,-1.057070529408393
2.0,-0.3089795403499886,0.5743232192689961,1.4599720821214237,-0.004016661452666,0.1449262469155295,0.0118582659750804,0.1771604844009345,-0.8341057871554278,0.026455250979776,-0.3087518488746814,0.5910585824564758,1.4544549754998946,0.2885954220483775,-1.1034061530248562,-0.0044823189634554,0.415549209102624,0.1442991246495731,0.3243387236723127,-0.2160168978061634,10.179714359848733,-1.1937389108723633,0.1534453656596283,-1.0578879447483405
2.02,-0.305581434596786,0.5585349116205868,1.460437165176835,-0.0018646337300643,0.1461389740772717,0.0122112071854817,0.1803951112171521,-0.8282951948426887,0.0227178438138763,-0.3037810367188263,0.5490355467514227,1.4609408219709257,0.1951542529792769,-0.8717158998960812,0.0451271580520148,0.3814249794808148,0.1617313408108819,0.2905296156369585,-0.1868703582949833,10.194492952026849,-1.1941761871308154,0.1516699787335822,-1.0588064828681285
2.04,-0.3018448885983432,0.5418455276333928,1.460952895385831,-0.004216338554712,0.1449516068990728,0.0122738963126145,0.1932757838627063,-0.8391811714372768,0.029632099990963,-0.3037810367188263,0.5490355467514227,1.4609408219709257,0.1951542529792769,-0.8717158998960812,0.0451271580520148,0.9113494838729952,0.6440336322777102,-0.544298829729406,0.345712808854334,10.217105129764604,-1.183771426777137,0.153636042786155,-1.0614038372650731
2.06,-0.2978574164334212,0.5250545755296812,1.4616284955899026,-0.0126422586149412,0.138979586635139,0.0119827502776286,0.204005797474606,-0.8383512723794777,0.0375646214900266,-0.3037810367188263,0.5490355467514227,1.4609408219709257,0.1951542529792769,-0.8717158998960812,0.0451271580520148,0.6684811551023593,0.536500680594984,0.0414949528899533,0.396626074953178,10.963736456777042,-1.1953424827817536,0.1619539255569453,-1.0525188755193828
2.08,-0.2937160813233703,0.5083689559659066,1.46244413178613,-0.0216380267969326,0.1302003890267102,0.0117849337173859,0.2091033061990874,-0.8302796496820768,0.0436441566878307,-0.3018294941890335,0.5403183877524619,1.4613920935514455,0.1993302031935437,-0.8779405675495227,0.0479974718752379,0.5658984811490079,0.254875436224071,0.4035811348700457,0.3039767598902086,10.899383107473112,-1.2096834112703296,0.1713450384980072,-1.0416523463648006
2.1,-0.2897392724893994,0.4927067243296357,1.4633137978326218,-0.028883408261998,0.1210493140718925,0.0118064689258959,0.2090108449507652,-0.8191563378045826,0.0476233853283042,-0.297926409129448,0.5228840697545403,1.462294636712486,0.2076821036220772,-0.8903899028564055,0.0537380995216842,0.590700594166808,-0.0046230624161106,0.5561655938747079,0.1989614320236719,10.64181861493762,-1.2236632297122745,0.1793613126949524,-1.0299298893281044
2.12,-0.2855997887848726,0.4764651474996073,1.464297423692516,-0.0346483903376081,0.1119737671666262,0.0120317272024224,0.2047297403493738,-0.8059025874292327,0.0504829436912102,-0.2940233240698625,0.5054497517566187,1.4631971798735264,0.2160340040506108,-0.9028392381632884,0.0594787271681304,0.710926911944907,-0.2140552300695708,0.6626875187674963,0.1429779181452994,10.64181861493762,-1.2355302628407632,0.1855092694392919,-1.0197367406661544
2.14,-0.2815837081430815,0.460497977440718,1.465326646512817,-0.038507511271667,0.1044941827278976,0.0123974620636137,0.1969716985988993,-0.7918343956954538,0.0522672343766482,-0.2897026439888502,0.4873929669933529,1.464386754416889,0.2243859044791443,-0.9152885734701712,0.0652193548145766,0.8082155091784181,-0.387902087523724,0.7034095866889467,0.0892145342719002,10.560903517751283,-1.244449148752252,0.1896319812732951,-1.0118449143420003
2.16,-0.2777561297595864,0.4448168759717367,1.4663888837153292,-0.0405894845786679,0.0995737026498901,0.0128242904112523,0.1861562809300542,-0.7774417825747798,0.0538854246216306,-0.285381963907838,0.4693361822300871,1.4655763289602517,0.2327378049076779,-0.927737908777054,0.0709599824610229,0.903796314804834,-0.5407708834422542,0.7196306560336985,0.0809095122491231,10.505100624831355,-1.2503087729637845,0.1922619146254539,-1.00611981443847
2.18,-0.2743400586510634,0.4301855192369627,1.4674302191090511,-0.0411502887394364,0.0980936640024534,0.0132147241843431,0.1743078410115332,-0.7636420971741802,0.0556473676250978,-0.2808524863161125,0.4509681640841492,1.4669094191947754,0.2410897053362114,-0.940187244083937,0.0767006101074691,0.9136756656573906,-0.5924219959260485,0.6899842700299808,0.0880971501733586,10.513294837865942,-1.2497276118811398,0.1933583376865899,-1.0058962359208556
2.2,-0.2709724412915797,0.4150682381243299,1.4685665390546203,-0.0401927602643812,0.0996239864718838,0.0136149631815116,0.1634223812700881,-0.7489608964039833,0.0579099867699722,-0.2761142112136736,0.4322889125555393,1.46838602512046,0.249441605764745,-0.9526365793908198,0.0824412377539153,0.9208017365755278,-0.5442729870722557,0.7340600385098428,0.1131309572437178,10.527917188769608,-1.2450219638735185,0.1929877222147466,-1.0106993263317836
2.22,-0.2677992349891631,0.4002441029206492,1.4697546751407309,-0.0374876102651441,0.1033423449606474,0.0140588133051638,0.1547814027491595,-0.7345442384250893,0.0607881696957314,-0.2656246666004868,0.3920034143782537,1.470212587490306,0.1946494571354479,-0.7444223913391954,0.0773756951229377,0.8526289844265355,-0.4320489260464299,0.720832898944701,0.1439091462879623,10.548240861397062,-1.2392129114580364,0.1911798107931834,-1.0181340486001142
2.24,-0.2649097011691355,0.3862299366339364,1.4709317462527636,-0.0394948055245062,0.1077161155365104,0.0141386367650891,0.1499011218133643,-0.7386318181722713,0.062878035161017,-0.2656246666004868,0.3920034143782537,1.470212587490306,0.1946494571354479,-0.7444223913391954,0.0773756951229377,0.3350111485639408,-0.2440140467897616,-0.2043789873590995,0.1044932732642816,10.511196531362655,-1.2314704267608418,0.1934181855200833,-1.02652477931909
2.26,-0.2619518485895841,0.3715233724646292,1.4722144885736683,-0.0475905033311477,0.112322032932518,0.0137940431520495,0.1462625713594026,-0.7307559164903978,0.0652728501961836,-0.2656246666004868,0.3920034143782537,1.470212587490306,0.1946494571354479,-0.7444223913391954,0.0773756951229377,0.4500111547540286,-0.1819275226980846,0.3937950840936732,0.1197407517583258,10.511196531362655,-1.2252826325436312,0.2015178310973761,-1.0317072903995406
2.28,-0.2590528672894432,0.357063071345299,1.4735419090045982,-0.0565391459508416,0.1166462910816657,0.013383032786569,0.1439112697624771,-0.7155548741335157,0.0673159322530875,-0.2636781720291323,0.3845591904648617,1.4709863444415354,0.1987177803602309,-0.7405784501721985,0.0817213606225057,0.7758454940042375,-0.1175650798462726,0.7600521178441066,0.102154102845197,10.542393850319968,-1.221523246683336,0.2102530012599721,-1.0369462013416768
2.3000000000000003,-0.2563316821947576,0.3436497880455644,1.4748377007209932,-0.0638947208140025,0.1202958692663926,0.0130845566016949,0.1426844182755836,-0.6974577460579162,0.068977636777376,-0.2597851828864233,0.3696707426380778,1.4725338583439942,0.2068544268097968,-0.7328905678382045,0.0904126916216417,0.9107311226174072,-0.0613425743446777,0.9048564037799744,0.0830852262144243,10.542393850319968,-1.2191363715452503,0.2185412332766634,-1.042450821116992
2.32,-0.2534838986554165,0.3299204483576377,1.4762365664841286,-0.0699122281938375,0.1235611513808295,0.0129222852368068,0.1422006964309068,-0.6766914683205739,0.0708359391085255,-0.2558921937437143,0.3547822948112939,1.474081372246453,0.2149910732593627,-0.7252026855042106,0.0991040226207777,1.0427434553156056,-0.0241860922338368,1.038313886867115,0.092915116557473,10.549400965445784,-1.218206646262357,0.2253478283150594,-1.0481796735466131
2.34,-0.2506382073110978,0.3166211311191869,1.4776764099905633,-0.0740427417329965,0.126190965320071,0.0129388165028268,0.1423905660818686,-0.6547656092772487,0.0730712141812625,-0.2515923722785271,0.3402782411012097,1.4760634526988683,0.2231277197089285,-0.7175148031702168,0.1077953536199136,1.1020161068729015,0.0094934825480882,1.0962929521662612,0.111763753636853,10.612440408375733,-1.2182310680832524,0.230191051232365,-1.0529483161854245
2.36,-0.2479267251724898,0.3043970627587092,1.4790907862963678,-0.0763980615102143,0.1281149626839612,0.0131140329775981,0.1430048740763022,-0.6334936595393236,0.0757169053775188,-0.2472925508133398,0.3257741873911255,1.478045533151284,0.2312643661584945,-0.7098269208362228,0.1164866846190496,1.0722323697207452,0.0307153997216771,1.063597486896256,0.1322845598128168,10.612440408375733,-1.219088787448219,0.2337990054933011,-1.0577263162883108
2.38,-0.2450564434339395,0.2919680711530355,1.480640231890811,-0.0773932341390613,0.1295708939889166,0.0134559684699497,0.1439785513802622,-0.6106884749674852,0.0791242520159825,-0.2427893131869134,0.3114623307393911,1.480244896878678,0.2394010126080603,-0.7021390385022289,0.1251780156181856,1.1539437832521453,0.0486838651980042,1.1402592285919166,0.1703673319231831,10.655064517462051,-1.2206205173546167,0.2360206922500785,-1.062556795923965
2.4,-0.2421643096451558,0.2800055458101,1.4822651326491136,-0.0765101723735982,0.1304767336729632,0.0139821359240598,0.1451395284555527,-0.5870340649162686,0.0832108082601778,-0.2380826593992479,0.2973426711460066,1.4826615438810504,0.2475376590576262,-0.6944511561682349,0.1338693466173215,1.201643587526495,0.0580488537645251,1.18272050256083,0.2043278122097626,10.750923030825106,-1.2229474725730396,0.2364931306820518,-1.0669162562621908
2.42,-0.2394021957084601,0.2690707971077082,1.4838053468131516,-0.073732810982075,0.1307465239414504,0.0146695086234275,0.1454378940337654,-0.5655300964173994,0.0782799741880981,-0.2378575158649264,0.2614336474046612,1.48459644449161,0.1691709294690941,-0.5895383628153856,0.0894809725529298,1.103203072721661,0.0149182789106347,1.0751984249434632,-0.2465417036039856,10.156243123231434,-1.2310767735635084,0.2354231863979378,-1.0717689587717258
2.44,-0.2364959204188339,0.2579727424744504,1.4853263199327773,-0.0694389661113639,0.1304870768615458,0.01553074732275,0.1451370024921121,-0.5457547877243322,0.0742613641965801,-0.2378575158649264,0.2614336474046612,1.48459644449161,0.1691709294690941,-0.5895383628153856,0.0894809725529298,1.009086958455348,-0.0150445770826665,0.9887654346533604,-0.2009304995758992,10.156243123231434,-1.234519733586318,0.2320649293097335,-1.0710780706960945
2.46,-0.2335991668181523,0.2472462832957924,1.486791945359458,-0.0649195947357235,0.1300590130803655,0.0164171340847127,0.144538813786799,-0.5280002520998148,0.0725965435069452,-0.2378575158649264,0.2614336474046612,1.48459644449161,0.1691709294690941,-0.5895383628153856,0.0894809725529298,0.8921224592202236,-0.0299094352656542,0.8877267812258671,-0.0832410344817416,10.403015371683068,-1.236999194717535,0.2286939825875347,-1.0711332204741426
2.48,-0.230716731555456,0.2368604477897608,1.4882458030788273,-0.0606478587600714,0.1297097069026515,0.0172772817520008,0.1437439691218785,-0.5115122542852131,0.0728601080003896,-0.2361658065702355,0.2555382637765074,1.4854912542171392,0.1742094050868605,-0.5853083403849657,0.0915523166603192,0.8254624707063754,-0.0397422332460276,0.8243998907300876,0.0131782246722188,10.500810091036328,-1.2392163073020137,0.2254418007150802,-1.0721859467676509
2.5,-0.2279941793223641,0.2272903057484369,1.4896448963481796,-0.0569577276528981,0.1295841748043162,0.0180527894220877,0.1429060740612347,-0.4966996055363469,0.0743899240626863,-0.2327823879808536,0.2437474965201996,1.487280873668198,0.1842863563223933,-0.5768482955241259,0.0956950048750981,0.7457495696854224,-0.0418947530321886,0.740632437443306,0.0764908031148321,10.500810091036328,-1.2409696515874469,0.2226069004950994,-1.0740838962228256
2.52,-0.2251452396205016,0.2175129722889767,1.491158904919187,-0.0534905479328086,0.1297350301868482,0.0188210573765437,0.1420648690859454,-0.481827160995366,0.0769648594503907,-0.2293989693914717,0.2319567292638919,1.4890704931192564,0.194363307557926,-0.568388250663286,0.099837693089877,0.7558563433051593,-0.0420602487644652,0.7436222270490483,0.1287467693852226,10.575286658141522,-1.242215582382428,0.2202044808692018,-1.076740431947574
2.54,-0.2223123707753624,0.2080268677680184,1.4927294858908084,-0.0504242421864075,0.1301982947441496,0.019542526041716,0.1413153086634812,-0.4675273089232459,0.0799483780742806,-0.2255117032403132,0.2205889642506262,1.491067246981054,0.2044402587934588,-0.5599282058024462,0.1039803813046559,0.7313497683915335,-0.037478021123212,0.7149926036060045,0.1491759311944951,10.653098262087951,-1.2430740237822582,0.2183438828295435,-1.080435708419188
2.56,-0.2196320668258173,0.1992764294067547,1.4942786756306572,-0.0477799011156385,0.130864639368158,0.0201962483213564,0.1408955495369476,-0.4543185020690907,0.0829659496726816,-0.2216244370891547,0.2092211992373605,1.4930640008428515,0.2145172100289916,-0.5514681609416063,0.1081230695194348,0.6777804116861171,-0.020987956326679,0.6604403427077576,0.1508785799200517,10.653098262087951,-1.243584741082707,0.2166740166025332,-1.085077749215841
2.58,-0.2168158201836634,0.1903317152854866,1.495973456280582,-0.045209749078901,0.1316977600936914,0.0208616657201952,0.1407849342850103,-0.4408908445297786,0.0863570646534312,-0.2174852471571078,0.1980649353456158,1.4951643219100186,0.2245941612645243,-0.5430081160807665,0.1122657577342137,0.6924844466478486,-0.0055307625968628,0.6713828769656066,0.1695557490374755,10.667271920084204,-1.2440383163377846,0.2152007135039729,-1.0897938529586595
2.6,-0.2139981407765558,0.1816510395647285,1.4977385601079558,-0.0428176761016565,0.132572078654722,0.0215108780754224,0.1410098443155969,-0.4278948151791819,0.08997266554117,-0.2130941334441727,0.1871201725753921,1.497368210182555,0.2346711125000571,-0.5345480712199266,0.1164084459489926,0.6745738157956601,0.0112455015293291,0.6498014675298341,0.1807800443869425,10.684182731053625,-1.2446531835626775,0.2139867086330694,-1.0946166200621223
2.62,-0.2111727908666863,0.1732257363257459,1.4995779679695376,-0.0405679351255112,0.133409885540627,0.0221492379131279,0.1415256945193001,-0.4153339211970421,0.0937774098800605,-0.2097765734694129,0.1682871730589977,1.5002913095132535,0.161800695705141,-0.4169473253100225,0.1110355501214611,0.6567309923925027,0.0257925101851616,0.6280446991069916,0.1902372169445249,10.700410583746816,-1.2454445018151887,0.2128445099484329,-1.099762818263222
2.64,-0.2084450784637837,0.1654256767862999,1.501383671723033,-0.039343956555596,0.1330937006145273,0.0227334846090756,0.1453806646205484,-0.4059971088894321,0.0960918668051901,-0.2097765734694129,0.1682871730589977,1.5002913095132535,0.161800695705141,-0.4169473253100225,0.1110355501214611,0.5181543433363636,0.1927485050624122,0.4668406153804982,0.1157228462564809,10.715926699518604,-1.2450476382032338,0.2124467465354521,-1.103531185009084
