t,x,y,z,roll,pitch,yaw,v_x,v_y,v_z,ref_x,ref_y,ref_z,ref_v_x,ref_v_y,ref_v_z,a_com,a_x,a_y,a_z,thrust,wind_x,wind_y,wind_z
0.0,1.00588807151713,-0.6671530820008521,2.400087954454491,0.0114050196418075,0.1362867092889774,0.025714360479922,0.0019062871409324,-0.002669530854302,0.0022376809411285,1.005949288738693,-0.6673128391740145,2.400157482364952,-0.0980414123586948,0.0954588021323971,-0.0977578119584796,0.1985418195245345,0.0953143570466239,-0.1334765427151007,0.1118840470564299,10.544995333981204,-1.2849915414822908,0.1647459696193342,-1.1639549004651617
0.02,1.0060518374901697,-0.6674379946367338,2.3999026690805825,0.002316412237065,0.131531747020501,0.0250686717976607,0.013856229612214,-0.0215136818672681,-0.0217539907504958,1.005949288738693,-0.6673128391740145,2.400157482364952,-0.0980414123586948,0.0954588021323971,-0.0977578119584796,1.6382181349145046,0.5974971235640772,-0.9422075506483064,-1.1995835845812208,10.544353387398589,-1.2871814512066189,0.1737663230839516,-1.1439482719402776
0.04,1.0064030975042866,-0.6678695123628973,2.3992130044641016,-0.0136681968606107,0.1181935126250903,0.0241004547132496,0.0194400354030165,-0.0199237589867323,-0.0456759376772519,1.005949288738693,-0.6673128391740145,2.400157482364952,-0.0980414123586948,0.0954588021323971,-0.0977578119584796,1.230819124244082,0.2791902895401241,0.0794961440267897,-1.1960973463378064,9.192839708104655,-1.3116694354717815,0.1899602813679208,-1.1163407484327452
0.06,1.006750921824388,-0.6681758399018491,2.39811635686833,-0.0292117914471784,0.1008752663919724,0.0235140919647141,0.0160926534099211,-0.0120960031189703,-0.0684973509072928,1.005949288738693,-0.6673128391740145,2.400157482364952,-0.0980414123586948,0.0954588021323971,-0.0977578119584796,1.2178830300456485,-0.1673690996547674,0.3913877933881001,-1.1410706615020458,9.192839708104655,-1.3406536775812332,0.2067690542273963,-1.0803462461845257
0.08,1.0069564393599086,-0.6683008703517065,2.3964916593497505,-0.0449224151219129,0.0809623661159474,0.0233575102472341,0.0039680744666577,-0.0004881909924328,-0.0927660409533619,1.004968874615106,-0.6663582511526905,2.3991799042453668,-0.118041412656718,0.1154588024304203,-0.1177578122565028,1.475394890756868,-0.6062289471631729,0.5803906063268727,-1.2134345023034523,9.118248695928742,-1.3656829483745607,0.2218411496205566,-1.0402085142870054
0.1,1.0068384460015387,-0.6681640270733455,2.3943809720387086,-0.059849993186027,0.0618693040008693,0.0235864104468667,-0.0155550791231305,0.0139010495605659,-0.1170881311095925,1.003008046367932,-0.6644490751100426,2.397224748006197,-0.1580414132527644,0.1554588030264667,-0.1577578128525493,1.7173874339751782,-0.976157679489412,0.7194620276499425,-1.2161045078115316,9.07601828124598,-1.38423518605093,0.2351290236370393,-1.0004219779212289
0.12,1.0062652321394194,-0.667703937302619,2.3917823811383463,-0.07376303135538,0.0454298574258927,0.0240488997240719,-0.0407860972577419,0.031501669441659,-0.1415421375523498,1.001047218120758,-0.6625398990673946,2.395269591767028,-0.1980414138488109,0.1954588036225132,-0.1977578134485957,1.964932904331744,-1.2615509067305712,0.8800309940546549,-1.2227003221378625,9.07799163844902,-1.3952316253348602,0.2460047866228122,-0.9651765463580968
0.14,1.0052148887154748,-0.6669051805506031,2.388850363427373,-0.0855054645356624,0.0331278185574351,0.0245799501674808,-0.0683487118711961,0.051478253707421,-0.165827867179031,0.997086389843782,-0.6586307229949444,2.391314435498056,-0.2380414144448573,0.2354588042185596,-0.2377578140446422,2.090788312310185,-1.378130730672707,0.9988292132881018,-1.2142864813340606,9.07799163844902,-1.4007186252913064,0.2554082560098926,-0.932716067408372
0.16,1.003521681545786,-0.6656358277861335,2.385256157555388,-0.096115795977526,0.0239584910362129,0.0251054154523674,-0.0994971875553705,0.0742953425663065,-0.1923172905758916,0.9931255615668058,-0.6547215469224942,2.387359279229084,-0.2780414150409038,0.2754588048146061,-0.2777578146406887,2.341226512610445,-1.5574237842087224,1.1408544429442726,-1.3244711698430305,9.036945595888485,-1.4013156837191263,0.2627511092445455,-0.9054628537984636
0.18,1.001174608268441,-0.663881382009126,2.3811259186066045,-0.1046278521566555,0.019267641829345,0.0254477117403288,-0.1335036481195631,0.0995021160498532,-0.2192981621391074,0.9881647332749284,-0.6498123708351428,2.382404122945211,-0.3180414156369502,0.3154588054106526,-0.3177578152367351,2.509874608354751,-1.7003230282096278,1.2603386741773372,-1.34904357816079,8.997893442407985,-1.3985561148499377,0.2681847949932217,-0.8851000464185712
0.2,0.9981424960502292,-0.6616102182230658,2.376455247449846,-0.1109914805100208,0.0195638116353935,0.0254586022734501,-0.1672877335025885,0.1258683723040301,-0.2462925831169141,0.9822039049681498,-0.6439031947328901,2.376448966646437,-0.3580414162329967,0.355458806006699,-0.3577578158327815,2.53241123139367,-1.6892042691512703,1.318312812708844,-1.3497210488903355,9.002497766435226,-1.3887334847874653,0.271664213254118,-0.8751262834477636
0.22,0.9946602869356757,-0.6589578798766632,2.3715189095591303,-0.1152390380027373,0.0235499933957391,0.0251869420501769,-0.1970524593157802,0.151579584193271,-0.2718716818518235,0.9944994258624628,-0.6589062762066333,2.370161010499649,-0.2335036496096792,0.1995021175399694,-0.3192981636292235,2.345898341594413,-1.4882362906595863,1.285560594462043,-1.2789549367454702,8.992362682706698,-1.375718824324913,0.2741784446579026,-0.8728766953520832
0.24,0.9903794310718912,-0.6554939494759504,2.365970104892809,-0.1141762933376549,0.0317595966515193,0.0248238999732008,-0.228736612902637,0.1921591190005768,-0.2804552623860981,0.9944994258624628,-0.6589062762066333,2.370161010499649,-0.2335036496096792,0.1995021175399694,-0.3192981636292235,2.6097232077757067,-1.5842076793428377,2.028976740365292,-0.4291790267137274,8.977545703951819,-1.352893625727479,0.27336753275912,-0.8887091848123733
0.26,0.9855239423757666,-0.6513104178361483,2.360271245094691,-0.1071266338742272,0.043645885058012,0.024512569916676,-0.2544972392696754,0.2229490173711092,-0.288940606629077,0.9944994258624628,-0.6589062762066333,2.370161010499649,-0.2335036496096792,0.1995021175399694,-0.3192981636292235,2.0516022880980853,-1.288031318351919,1.539494918526617,-0.4242672121489488,10.184855911349588,-1.335094019677053,0.2683326948716577,-0.9075941282033758
0.28,0.9804890044686962,-0.6468365361210697,2.3546651881877985,-0.0992342233253013,0.0563781013929051,0.0242390978675201,-0.2737852304771433,0.2462123905865392,-0.3007210087630604,0.992164389366366,-0.6569112550312336,2.366968028863357,-0.2535036499077024,0.2195021178379926,-0.3392981639272467,1.6217190051131791,-0.9643995603733996,1.1631686607715033,-0.5890201066991702,9.941898637895063,-1.3183298075110024,0.2620043595047922,-0.9289694593762432
0.3,0.9748433165658664,-0.6416912159952414,2.348483791270153,-0.0913063515699057,0.0698076491900882,0.0240300851457898,-0.2894121228512971,0.2670490477066915,-0.3170042523006517,0.9874943163741724,-0.6529212126804342,2.3605820655907723,-0.2935036505037489,0.259502118434039,-0.3792981645232932,1.5358304474458484,-0.7813446187076883,1.0418328560076129,-0.8141621768795654,9.673099326946613,-1.3033251005908502,0.2557099334068532,-0.9479941223466914
0.32,0.9689269272574776,-0.6361540457930654,2.3419369405479817,-0.0843631954088861,0.0821845534823839,0.023945001697805,-0.3012298121183211,0.2856774049796473,-0.3370478257297878,0.9828242433819788,-0.6489311703296349,2.354196102318188,-0.3335036510997953,0.2995021190300855,-0.4192981651193396,1.4903173404597332,-0.5908844633512017,0.9314178636477904,-1.002178671456802,9.439059993828778,-1.2903711747288629,0.2500732949755503,-0.9638627669828744
0.34,0.9628065387796548,-0.6302616795745207,2.334952497211209,-0.0785554394082176,0.0927962635892698,0.0240022240154793,-0.310184071123223,0.3028097284260141,-0.3604208204770605,0.9761541703599828,-0.6429411279490331,2.3458101390158013,-0.3735036516958417,0.3395021196261319,-0.4592981657153861,1.516568614054301,-0.4477129502450938,0.8566161723183391,-1.1686497373636362,9.089575454199805,-1.2808478808413772,0.2455997204605008,-0.9757721633655384
0.36,0.9568467624210314,-0.6243563738740275,2.3278671075211306,-0.0740403013966608,0.1009406925566819,0.0241843460146596,-0.3167601024577145,0.3181263767521142,-0.38426533575471,0.969484097337987,-0.6369510855684314,2.3374241757134144,-0.4135036522918883,0.3795021202221784,-0.4992981663114326,1.4546518594527167,-0.3288015667245736,0.7658324163050068,-1.1922257638824734,9.089575454199805,-1.2731693047457409,0.2417236484517907,-0.9845239973137782
0.38,0.9504470039843664,-0.617824897596328,2.3199052064697883,-0.0700067312569092,0.1075292316182046,0.0245021509791025,-0.3228809634469256,0.3342015542544846,-0.4107305369538807,0.96181402430109,-0.6299610431729286,2.3280382123961263,-0.4535036528879347,0.4195021208182248,-0.539298166907479,1.5781976630753118,-0.3060430494605554,0.803758875118521,-1.3232600599585365,8.945472595625688,-1.2682752888972262,0.2384963781009182,-0.9897150002773047
0.4,0.9439302881631724,-0.6109750523794485,2.311402316957733,-0.06635255698736,0.1123636275124928,0.024934311493399,-0.3285476649049217,0.3499232011997398,-0.4382242954372322,0.9531439512492916,-0.6219710007625245,2.3176522490639373,-0.493503653483981,0.4595021214142712,-0.5792981675035255,1.6087172247058912,-0.2833350728998068,0.7860823472627593,-1.3746879241675751,8.899012898987166,-1.2652583908603685,0.2357213170159155,-0.9921070183611934
0.42,0.937301570825309,-0.603816217631278,2.3023411103757088,-0.0629090380474248,0.1157881842031566,0.0254550617495302,-0.3340966516530227,0.365097855958248,-0.4665082755631433,0.9343029558120204,-0.6011148198836037,2.299368679622094,-0.4228809649370417,0.4342015557446008,-0.5107305384439969,1.6286842333103204,-0.2774493374050502,0.7587327379254105,-1.414199006295555,8.899012898987166,-1.263422597432734,0.2329722898735415,-0.9925377113630324
0.44,0.9309329965113574,-0.5967339544494739,2.293441833691592,-0.0600877735023952,0.1179732582448476,0.0259890054505262,-0.3360649889561635,0.3797822842289644,-0.4688640234494469,0.9343029558120204,-0.6011148198836037,2.299368679622094,-0.4228809649370417,0.4342015557446008,-0.5107305384439969,0.7500938832582449,-0.0984168651570388,0.7342214135358183,-0.1177873943151802,8.857070131664841,-1.2500495507366831,0.230047693878134,-0.995809759067085
0.46,0.9241944336697632,-0.5889939535960518,2.284001385379785,-0.058088158146177,0.1190847605325813,0.0265535940957126,-0.3378265499400324,0.3936413735752175,-0.4754181214056496,0.9343029558120204,-0.6011148198836037,2.299368679622094,-0.4228809649370417,0.4342015557446008,-0.5107305384439969,0.7715789891949115,-0.0880780491934435,0.6929544673126564,-0.3277048978101354,10.317330565330847,-1.2525023483334092,0.2292670409567585,-0.998370306277148
0.48,0.9174149630782532,-0.580978185062634,2.274368031358303,-0.0571346222935876,0.1188021438831809,0.0271225815039303,-0.340147680360335,0.4073524500697777,-0.4875570094748809,0.9300741461626498,-0.5967728043261578,2.294261374237654,-0.442880965235065,0.454201556042624,-0.53073053874202,0.922948899756995,-0.1160565210151315,0.685553824728008,-0.6069444034615623,9.975857137350433,-1.256172554465345,0.2292937712581768,-0.997646591515676
0.5,0.9109262186935372,-0.5731122523609009,2.264953051959306,-0.0570699691671049,0.1171793128424582,0.0276785464699719,-0.3428598594274973,0.4200383006461656,-0.5028646881580905,0.921616526863909,-0.5880887732112657,2.284046763468774,-0.4828809658311114,0.4942015566386705,-0.5707305393380665,1.0032593717568563,-0.1356089533581156,0.6342925288193968,-0.7653839341604796,9.69139578708564,-1.2606286153968236,0.2299819918139597,-0.994039000186146
0.52,0.9040332713698256,-0.5645753251327004,2.254697655545188,-0.0579805801313736,0.1139270826530702,0.0282833415595642,-0.3464169579273735,0.4330648609699881,-0.5219884964274702,0.9131589075651682,-0.5794047420963737,2.273832152699894,-0.5228809664271579,0.534201557234717,-0.610730539934113,1.1705386221009595,-0.1778549249938088,0.6513280161911245,-0.956190413468988,9.477743065081086,-1.2661470617571284,0.2314562590680822,-0.9872934065431062
0.54,0.8970573293520578,-0.5557768368375752,2.2440353935530557,-0.0599638111124215,0.1090531486865168,0.0289142485315582,-0.351290723664593,0.4462241111817581,-0.5433481347993356,0.902701288236625,-0.5687207109516794,2.261617541901212,-0.5628809670232043,0.5742015578307634,-0.6507305405301594,1.277843505651345,-0.2436882868609741,0.6579625105885001,-1.0679819185932693,9.30537256531352,-1.2728396318691886,0.2338676367114831,-0.9784022269233532
0.56,0.8899591338320113,-0.5467033614586252,2.232937679045216,-0.0627500609093335,0.1030611282131496,0.0295726689789958,-0.3585555474175102,0.4607169727156806,-0.5653640839238373,0.8922436689080818,-0.558036679806985,2.2494029311025296,-0.6028809676192508,0.6142015584268099,-0.6907305411262059,1.3670430822170931,-0.3632411876458602,0.7246430766961215,-1.1007974562250833,9.18428802848848,-1.2788921250576513,0.236753132321859,-0.9689339063266686
0.58,0.8830546871335518,-0.5377926361840178,2.221984475504041,-0.0652368314628642,0.0971162782449945,0.0302444279979822,-0.3679838085731451,0.476386528194151,-0.5864804450965109,0.8807860495646376,-0.5463526486473895,2.2361883202889463,-0.6428809682152972,0.6542015590228563,-0.7307305417222523,1.3967173895302814,-0.4714130577817471,0.7834777739235216,-1.0558180586336785,9.15274228562339,-1.284492434727643,0.2396233764689183,-0.9592901595234165
0.6,0.87595133936697,-0.5285779880967001,2.210626046146455,-0.0671459953984755,0.0915498810027988,0.0309467205170546,-0.3793381404413972,0.4926360368205753,-0.6080417230660218,0.868328430206292,-0.5336686174728928,2.2219737094604617,-0.6828809688113436,0.6942015596189027,-0.7707305423182987,1.4644590216639382,-0.5677165934126038,0.8124754313212162,-1.0780638984755453,9.114899050736312,-1.2883956137679706,0.2418045608773232,-0.9514740405269316
0.62,0.8682212709842436,-0.5185404141755572,2.198220396207007,-0.0683944023117197,0.0865988771177596,0.0316869405960762,-0.3932016185815896,0.5101724604681188,-0.6314051838705085,0.8646554967048946,-0.5139733097743103,2.192660453249216,-0.4679838100632613,0.5763865296842672,-0.6274000842666807,1.6167664343161166,-0.6931739070096171,0.8768211823771743,-1.168173040224335,9.114899050736312,-1.2911618984569189,0.2433649570188585,-0.9451488126990936
0.64,0.8605988834498484,-0.5085990638343318,2.186338815182664,-0.0669679343993778,0.084365063847877,0.0324021358886434,-0.4084549608654294,0.5350463678917096,-0.6161102651865767,0.8646554967048946,-0.5139733097743103,2.192660453249216,-0.4679838100632613,0.5763865296842672,-0.6274000842666807,1.64720236984821,-0.7626671141919922,1.243695371179537,0.7647459341965868,9.080456376350412,-1.274920862850868,0.2411878461449892,-0.9402692016194916
0.66,0.8526949770500444,-0.498214155360837,2.174789836828507,-0.0621731694403919,0.0858204298950916,0.0330955331405818,-0.4222864470783072,0.5558891740095452,-0.6008092752857519,0.8646554967048946,-0.5139733097743103,2.192660453249216,-0.4679838100632613,0.5763865296842672,-0.6274000842666807,1.4661623969293596,-0.6915743106438887,1.042140305891781,0.7650494950412423,11.679089995177492,-1.271918163491077,0.2384597937193039,-0.953900032047793
0.68,0.8441209545110153,-0.4869123413453857,2.1628845758674307,-0.0561072868887755,0.0897673811378493,0.0337466581723659,-0.4340726737305752,0.5729458245835005,-0.5907827275048845,0.859975658604262,-0.5082094444774676,2.1863864524065493,-0.4879838103612845,0.5963865299822904,-0.6355840121007147,1.1514948196829418,-0.5893113326133986,0.8528325286977667,0.5013273890433712,11.297384042415615,-1.2679728827053065,0.2345338161592673,-0.9684605535186598
0.7000000000000001,0.8353377407996859,-0.4753003873060143,2.1511203328613084,-0.0502099071053594,0.0948489623372367,0.0343334603270601,-0.4434399943201442,0.5873093202699281,-0.5863772359930872,0.8506159824029967,-0.4966817138837823,2.1738384507212154,-0.5279838109573309,0.6363865305783368,-0.6519518677687826,0.8852472236927748,-0.4683660294784536,0.7181747843213793,0.2202745755898627,10.901980461540916,-1.2633920225366335,0.2304410725081255,-0.9819170559009562
0.72,0.8263894028293562,-0.4634212356959803,2.1393940321680978,-0.0449090445152959,0.1001102884482913,0.0348829702916302,-0.4507852726818225,0.5998818724850595,-0.5866677566226474,0.8412563062017315,-0.4851539832900969,2.161290449035882,-0.5679838115533774,0.6763865311743833,-0.6683197234368505,0.728193974242004,-0.3672639180839154,0.6286276107565714,-0.0145260314780071,10.573559463713536,-1.2589091403007115,0.2267711462609343,-0.9925985918864682
0.74,0.8177686800791716,-0.451917029149722,2.1282086541231053,-0.0405950065125706,0.1046543213570155,0.0353838109491713,-0.4562618506758752,0.6105650595157133,-0.5907220215221414,0.829896629970664,-0.4716262526666093,2.1479240545671447,-0.6079838121494239,0.7163865317704298,-0.6846875791049185,0.6335622612106471,-0.2738288997026328,0.534159351532687,-0.2027132449747004,10.314771170535096,-1.2546670340478077,0.2233940667785131,-1.0015140235358202
0.76,0.8085961236495286,-0.4395977038454675,2.116337266072931,-0.0368645441022319,0.1085505828626763,0.0358932117501332,-0.4606884196128066,0.6208980912465248,-0.5962590556306369,0.8185369537395965,-0.4580985220431216,2.134557660098408,-0.6479838127454703,0.7563865323664762,-0.7010554347729864,0.6265476917641775,-0.221328446846572,0.5166515865405785,-0.2768517054247743,10.112076600885302,-1.2506988831829702,0.2205931994998828,-1.008086481834739
0.78,0.7993404886084466,-0.4270695749649859,2.1043459201530674,-0.0336756060984737,0.1114291778254061,0.0363990121802012,-0.4646657427102905,0.6313503668137032,-0.6026301192810996,0.8061772774936278,-0.4435707914047328,2.1207820692379693,-0.6879838133415167,0.7963865329625226,-0.7174232904410544,0.643544123569352,-0.1988661548741915,0.5226137783589158,-0.3185531825231347,10.051795996520925,-1.2483157536874547,0.2183730165684848,-1.0126098488092503
0.8,0.7904765022219261,-0.4149770377284976,2.092828765367205,-0.0308395727613226,0.113335170350271,0.0368867331673651,-0.4682237213034157,0.6409512996370951,-0.6093808003011276,0.7928176012327579,-0.4280430607514428,2.1065972819858287,-0.7279838139375632,0.8363865335585691,-0.7337911461091222,0.6132063620482686,-0.1778989296562616,0.4800466411695958,-0.3375340510014035,10.014100326220614,-1.246687525699643,0.2161849099115946,-1.0160504931784595
0.8200000000000001,0.78107348246914,-0.4020573132533904,2.0805593874564665,-0.0279961123243307,0.1146038621686078,0.0374022055707566,-0.4719228061346496,0.6504481107132484,-0.6172343539134706,0.7761072014729321,-0.3955020566243007,2.0742144141890124,-0.5510690679103714,0.6779211894102531,-0.6045908818247033,0.6433330271849065,-0.1849542415616967,0.474840553807665,-0.3926776806171483,9.978909174750695,-1.245803819863528,0.2140898142201286,-1.018320902534544
0.84,0.7715869356580058,-0.3887838367204729,2.068358172899126,-0.0200180190367728,0.116233796622707,0.0382536668291024,-0.4761620693663884,0.6735025993064044,-0.6011896822709685,0.7761072014729321,-0.3955020566243007,2.0742144141890124,-0.5510690679103714,0.6779211894102531,-0.6045908818247033,1.4203100763175336,-0.2119631615869394,1.1527244296578032,0.8022335821251059,9.936901429387945,-1.2352468119982165,0.2064385384285059,-1.0236738485882333
0.86,0.7620410490210193,-0.3751923129766519,2.0565031036994084,-0.0071662412618973,0.1187929540527007,0.0394183245587125,-0.4780524710858977,0.6836271684200862,-0.5854227818563188,0.7761072014729321,-0.3955020566243007,2.0742144141890124,-0.5510690679103714,0.6779211894102531,-0.6045908818247033,0.9416417406374924,-0.0945200859754663,0.5062284556840879,0.7883450207324838,11.533275779345786,-1.233880926877715,0.1958737957814332,-1.0359483297763787
0.88,0.7529534993255493,-0.362167966637117,2.0454852862401878,0.0054092225987403,0.1211861502209508,0.0405483714624615,-0.4784226453527626,0.6866616676490931,-0.5751380556093126,0.7705965107938284,-0.3887228447301982,2.068168505370765,-0.5683497329503875,0.6872353539295631,-0.604983034333424,0.5364718271599865,-0.0185087133432432,0.1517249614503446,0.514236312350308,11.2920189505312,-1.23284093262847,0.1840147416605347,-1.0460019219792318
0.9,0.743390722271004,-0.3484429109933858,2.03406042301556,0.017524173450631,0.12307622642166,0.0416476093145712,-0.4778648803309447,0.6856491481443074,-0.568061010215204,0.759575129435621,-0.3751644209419931,2.0560766877342718,-0.6029110630304199,0.7058636829681831,-0.6057673393508656,0.3585417307560182,0.0278882510908962,-0.0506259752392823,0.3538522697054291,10.784285070629268,-1.2320743076620333,0.1729466113951145,-1.0528656790084907
0.92,0.7347988858734392,-0.3361360293294451,2.023868442511517,0.0269060939360624,0.1239008729045588,0.0424980926508557,-0.4769255639631697,0.6820621190738267,-0.5647181074088053,0.7485537480774136,-0.3616059971537881,2.0439848700977774,-0.6374723931104522,0.7244920120068031,-0.6065516443683071,0.2496201712816493,0.04696581838875,-0.1793514535240348,0.1671451403199353,10.784285070629268,-1.2321870178244607,0.1642993759924337,-1.0563714568400715
0.94,0.7267012002555603,-0.3245858882593095,2.014282827235846,0.0343421060810125,0.1237740826440427,0.0431535380183468,-0.4758415130580504,0.6770905076614907,-0.5632627522029093,0.7358043002152046,-0.347116156913652,2.031853837210411,-0.6720337231904846,0.7431203410454231,-0.6073359493857486,0.2646230582143612,0.054202545255963,-0.248580570616802,0.0727677602948007,10.500944419848564,-1.2326192316746691,0.1573726253817664,-1.0575680493926685
0.96,0.7200492757250487,-0.3151466536811157,2.006402950141884,0.0393269808054716,0.1228337484711638,0.0435631384960095,-0.474558216976674,0.6718870116889226,-0.5624978339682316,0.7230548523529955,-0.3326263166735159,2.019722804323045,-0.706595053270517,0.7617486700840431,-0.6081202544031902,0.2706857914388506,0.0641648040688197,-0.2601747986284042,0.0382459117338862,10.500944419848564,-1.2328543211327083,0.1529479573983896,-1.0570823366750182
0.98,0.7181518857526852,-0.3124627402652136,2.004153506383893,0.0405843829837875,0.1224071315633269,0.0436583686410044,-0.4741931566439685,0.6703463813061209,-0.5622813715441237,0.7094413712387857,-0.3176707682074144,2.007572163810243,-0.7411563833505492,0.7803769991226631,-0.6089045594206316,0.0799009856631552,0.0182530166352751,-0.0770315191400861,0.0108231212053944,10.482859033480963,-1.232592933038989,0.151684189387382,-1.05699324160242
1.0,0.7058655267570068,-0.2951761607272536,1.9895552961652163,0.0469453108936525,0.1173313071334691,0.0440042471827243,-0.4714164395937415,0.660283398415054,-0.5606516811036327,0.6944422279204867,-0.2789454211999075,1.976039437806687,-0.5369205409132061,0.6651706585431786,-0.5398275754256259,0.5282747229774345,0.1388358525113514,-0.5031491445533443,0.0814845220245497,10.487677618311864,-1.2381645948793814,0.1454720672286065,-1.0502275673300083
1.02,0.7053941515538664,-0.2945162306583743,1.9889947150406653,0.047157435235878,0.1170603967970515,0.0440101011318352,-0.4713752031403071,0.6599300688792635,-0.5605811245508953,0.6944422279204867,-0.2789454211999075,1.976039437806687,-0.5369205409132061,0.6651706585431786,-0.5398275754256259,0.0181328729858204,0.00206182267172,-0.017666476789524,0.0035278276368733,10.490591674445568,-1.2381645948793814,0.1454720672286065,-1.0502275673300083
1.04,0.6973207166345559,-0.2832567820678586,1.9795791064133916,0.0539250032939669,0.1139546326463385,0.0443775882145835,-0.4779618366253506,0.6620206198046161,-0.5479264904902679,0.6944422279204867,-0.2789454211999075,1.976039437806687,-0.5369205409132061,0.6651706585431786,-0.5398275754256259,0.7209263260662965,-0.3293316742521729,0.1045275462676298,0.6327317030313695,10.490591674445568,-1.2413644292193635,0.1388519897673788,-1.0467033679343145
1.06,0.6881694777049148,-0.2707465801543255,1.9692950779259544,0.0639811486273832,0.1136234090237382,0.0450812300502769,-0.4842518778485333,0.6548302608060079,-0.5360982700860051,0.6890730225113546,-0.2722937146144757,1.970641162052431,-0.5494660177670536,0.6641355139905901,-0.5353368162019263,0.7602181908012056,-0.3145020611591387,-0.3595179499304102,0.5914110202131395,11.19010012940089,-1.2375373021507177,0.1287835340141585,-1.0513824011227233
1.08,0.685256894593142,-0.2668341011581032,1.9660942507536223,0.0671881479428068,0.1140416144736996,0.0453306143586479,-0.4860487944695532,0.6504086531386707,-0.5321212351622804,0.6783346116930905,-0.2589903014436122,1.9598446105439185,-0.5745569714747486,0.6620652248854132,-0.5263552977545272,0.3106297252810758,-0.0898458310509914,-0.2210803833668617,0.1988517461862349,11.078479636917107,-1.2369983589488525,0.1266741172191645,-1.0527739755866556
1.1,0.6794106996397679,-0.2590839185368184,1.959750989115626,0.0732389034813128,0.1152995326061609,0.0458267618456293,-0.4879588233590551,0.6419259005019924,-0.5256308534000459,0.6675962008748264,-0.2456868882727486,1.9490480590354056,-0.5996479251824436,0.6599949357802363,-0.517373779307128,0.542518105857654,-0.0955014444750962,-0.4241376318339152,0.3245190881117243,11.076653963345962,-1.2320210536199554,0.1194595445905488,-1.056566591436322
1.12,0.6706156447435582,-0.2476635790380065,1.9503765864561449,0.0813619371362104,0.1175598421233079,0.0465203419708699,-0.4890048694383266,0.6277246700999941,-0.5165502435279015,0.6556032423711775,-0.2324869895571439,1.9387005834492632,-0.6247388788901386,0.6579246466750593,-0.5083922608597289,0.8444326985922064,-0.0523023039635778,-0.7100615200999139,0.4540304936072215,11.076653963345962,-1.2269903611708497,0.1112962723742778,-1.0609168126892337
1.14,0.6647482636908533,-0.2402010219713627,1.944214074918192,0.0860590561946065,0.119028196074064,0.0469217456554065,-0.4888123581023447,0.6168429004193905,-0.5110670838331821,0.6436102838675287,-0.2192870908415391,1.9283531078631209,-0.6498298325978337,0.6558543575698824,-0.4994107424123297,0.6093336775404352,0.0096255667990957,-0.5440884840301807,0.2741579847359676,10.994676508093107,-1.224842055853152,0.1083882138210115,-1.062589632891042
1.16,0.6642594781527527,-0.2395850685919552,1.9437034583158843,0.0864183823287371,0.1191428242408796,0.0469519861434581,-0.4887855381006608,0.6159533794074948,-0.5106166023073533,0.6309900515211875,-0.2061389493535638,1.9182301702381632,-0.6749207863055287,0.6537840684647055,-0.4904292239649306,0.0498723507619018,0.0013410000841984,-0.0444760505947827,0.0225240762914413,10.994508728037545,-1.224842055853152,0.1083882138210115,-1.062589632891042
1.18,0.6618167786128408,-0.2365199933543629,1.9411575081801715,0.0881204042075105,0.1196791070386334,0.0470925569051761,-0.4883266298197103,0.6111317053821606,-0.5081543942255804,0.6398202012477197,-0.2087873996215805,1.918172628200517,-0.533821585797728,0.5798448744266923,-0.4937491621134617,0.2716689430854028,0.0229454140475204,-0.2410837012667144,0.1231104040886443,11.110209859303724,-1.2207776918261242,0.1045901277029221,-1.064050605745366
1.2,0.6569192515759347,-0.2304318435002169,1.936096355565884,0.0921083537114173,0.1210745075381866,0.0474397751762731,-0.4911377237554838,0.6068516776313762,-0.5046677716915131,0.6398202012477197,-0.2087873996215805,1.918172628200517,-0.533821585797728,0.5798448744266923,-0.4937491621134617,0.3097475720578475,-0.1405546967886722,-0.2140013875392199,0.1743311267033642,10.825536053368523,-1.2266351448614483,0.1015727601713395,-1.0650147790865307
1.22,0.6475560794855575,-0.2190353745388792,1.9265670733271136,0.1017248047402035,0.125432168765056,0.0483992875739823,-0.4937104483759119,0.5924168097282402,-0.4988079555460512,0.6398202012477197,-0.2087873996215805,1.918172628200517,-0.533821585797728,0.5798448744266923,-0.4937491621134617,0.7894963087503285,-0.1286362310214034,-0.7217433951567986,0.2929908072730941,10.825536053368523,-1.2162945073206994,0.0910516326835369,-1.0719505341588047
1.24,0.6431120653498403,-0.2137485930681172,1.922089815689076,0.106406881814229,0.1279079508340318,0.0489077073117643,-0.4937018719386483,0.5831493927604399,-0.4964996546993036,0.6344819853897423,-0.2029889508773135,1.9132351365793825,-0.5428287953371415,0.5726231734305318,-0.4903756740746834,0.4775283855684523,0.0004288218631798,-0.4633708483900156,0.11541504233738,10.819349550798506,-1.2123126882730852,0.086756991606405,-1.0747243367250074
1.26,0.6416313931992785,-0.2120057211178503,1.9206018169260195,0.1079052778550968,0.1287531533778108,0.0490757089225819,-0.4934522326854159,0.5798426805410335,-0.4957374940627267,0.6238055536737878,-0.1913920533887797,1.9033601533371127,-0.5608432144159683,0.5581797714382107,-0.4836286979971268,0.1701290267317212,0.0124819626616201,-0.1653356109703185,0.0381080318288429,10.776812062407773,-1.2099302525521052,0.0851110988970429,-1.0757432012989707
1.28,0.640644877712563,-0.2108492941220303,1.9196111912037348,0.1088877220833519,0.1293125900927241,0.0491863202336873,-0.4931731259985355,0.577695757676806,-0.4951499762533065,0.6131291219578332,-0.1797951559002458,1.893485170094844,-0.5788576334947952,0.5437363694458898,-0.4768817219195702,0.1121645610697737,0.0139553343440179,-0.1073461432113731,0.0293758904710145,10.87466848940312,-1.2072227739814745,0.0834186753287634,-1.0773112919073418
1.3,0.6357251706824544,-0.2051278308021082,1.914680013016033,0.1138288494031123,0.1319313090083653,0.0497235713460264,-0.4909281867277396,0.5675046289328786,-0.4914285070830974,0.6015519692879373,-0.168920428511328,1.8839475356564523,-0.5968720525736222,0.5292929674535688,-0.4701347458420136,0.5539589113591438,0.1122469635397943,-0.5095564371963734,0.1860734585104551,10.937781001722216,-1.202734080360872,0.0782967762199109,-1.0807621229066713
1.32,0.6182433341348489,-0.1854758869426329,1.897223664027928,0.1307906344730958,0.1385928430262856,0.0512719134610875,-0.4805177477120262,0.5243634591708837,-0.4789025776146527,0.5899748166180414,-0.1580457011224102,1.874409901218061,-0.614886471652449,0.5148495654612477,-0.463387769764457,2.3056651307061045,0.5205219507856684,-2.1570584880997443,0.6262964734222332,10.939365080173957,-1.193734592190908,0.0611111754452039,-1.086775726831562
1.34,0.6182433341348489,-0.1854758869426329,1.897223664027928,0.1307906344730958,0.1385928430262856,0.0512719134610875,-0.4805177477120262,0.5243634591708837,-0.4789025776146527,0.5779473034711747,-0.1475320587833005,1.8650409411816085,-0.632900890731276,0.5004061634689267,-0.4566407936869004,0.0,0.0,0.0,0.0,10.939365080173957,-1.193734592190908,0.0611111754452039,-1.086775726831562
1.36,0.6139359457990142,-0.1808281678872136,1.892925550858067,0.1343362904907519,0.1396513879516639,0.0515254127683343,-0.4770104593341379,0.5100001784426353,-0.4765383366408431,0.5654694298473375,-0.1373795014939987,1.855840655547095,-0.6509153098101028,0.4859627614766057,-0.4498938176093437,0.7486563638051518,0.1753644188944192,-0.7181640364124164,0.1182120486904775,10.910439725799732,-1.1912568836561783,0.0578583290070603,-1.085934141396447
1.38,0.6063584526720036,-0.172876893427746,1.8853396744622477,0.1389206052510479,0.1406358184534902,0.0517175880809291,-0.4706592333847881,0.4857994922871639,-0.4718909847566223,0.5942174467492476,-0.1592577139840887,1.8732785351471952,-0.5081177958219153,0.5027613631348071,-0.4573378648667212,1.2724083080826387,0.317561297467489,-1.2100343077735691,0.2323675942110414,10.936930242000017,-1.188939304290951,0.0526985057762144,-1.085436974310387
1.4,0.6035421791694452,-0.1699922067327844,1.8825147365730517,0.1403314665605124,0.1407574227720051,0.0517274412955019,-0.4684796756501601,0.4772139013099924,-0.4700568256257735,0.5942174467492476,-0.1592577139840887,1.8732785351471952,-0.5081177958219153,0.5027613631348071,-0.4573378648667212,0.4522913443322289,0.1089778867313984,-0.4292795488585771,0.0917079565424389,10.936932526902638,-1.1888752120977464,0.0519615887150262,-1.0851564713492343
1.42,0.602606275827408,-0.1690420403193082,1.8815755465529305,0.1407821894491099,0.1407747903278284,0.0517252837874251,-0.4677765901281025,0.4743735413575377,-0.4694409237071606,0.5942174467492476,-0.1592577139840887,1.8732785351471952,-0.5081177958219153,0.5027613631348071,-0.4573378648667212,0.1495101090577725,0.0351542761028805,-0.142017997622737,0.0307950959306468,10.936932526902638,-1.1888088394068117,0.051013351288176,-1.0847083209544526
1.44,0.5955942931693272,-0.1621634177941233,1.8745541010177424,0.141813294027094,0.1417625391140179,0.0516544647697144,-0.4668975966780067,0.4460344465698302,-0.4666538800756507,0.5891362687910284,-0.1542301003527407,1.868705156498528,-0.5136378054438931,0.4984409439275918,-0.4530249223171349,1.4244687914060452,0.0439496725047894,-1.4169547393853732,0.1393521815754972,10.936985498993636,-1.1899086368514065,0.0503542843246987,-1.0788910731801251
1.46,0.5895397836762656,-0.1565247691217615,1.8685111351554888,0.1403667849315663,0.1435215232572311,0.0515420321387756,-0.4645388707477591,0.4233561073735663,-0.463167446358369,0.5789739128745901,-0.1441748730900445,1.8595583992011937,-0.5246778246878487,0.4898001055131612,-0.4443990372179623,1.1532843066432272,0.1179362965123803,-1.1339169598131942,0.1743216858640844,10.96141716249258,-1.1840319895472209,0.0512958727522398,-1.07850889145552
1.48,0.5867574091059762,-0.1540186722635304,1.865738371594984,0.1391029832017972,0.1445007227417089,0.0514667417948424,-0.4630928196423612,0.4136465332096203,-0.4613410024423257,0.5688115569581518,-0.1341196458273484,1.8504116419038592,-0.5357178439318043,0.4811592670987306,-0.4357731521187897,0.4992564261555425,0.072302555269893,-0.4854787081973011,0.0913221958021626,11.028346702318233,-1.1807013410228762,0.0522509342851452,-1.07866693767126
1.5,0.5835250873024588,-0.1511676935461041,1.8625203279639624,0.1372656367447054,0.1456819193425084,0.0513543140371861,-0.4607168485832362,0.4026906846611425,-0.4584325372301312,0.5580972000795157,-0.1244964604853738,1.8416961788614836,-0.5467578631757599,0.4725184286842999,-0.4271472670196171,0.5790833829888596,0.1187985529562535,-0.5477924274238904,0.1454232606097255,11.097981931593496,-1.1774981870184549,0.0536783005032411,-1.0800343088711748
1.52,0.5762076013529686,-0.144915638186536,1.8552518224277497,0.1324300178774015,0.1482216922545809,0.0510122080169997,-0.4542962636526148,0.3806592619060081,-0.4505222600218498,0.5473828432008796,-0.1148732751433991,1.832980715819108,-0.5577978824197155,0.4638775902698693,-0.4185213819204446,1.2136514995856829,0.321029246531071,-1.1015711377567183,0.3955138604140679,11.155587578607992,-1.173180285284681,0.0579894279353423,-1.081543773111485
1.54,0.5685542398309352,-0.1386457415232586,1.8476731758899092,0.126895450812833,0.1504613219406055,0.0505337093141679,-0.4464854631643305,0.3585891190727781,-0.4415278260902604,0.5363924858411446,-0.1054661107617853,1.8244808999042117,-0.5688379016636712,0.4552367518554387,-0.4098954968212719,1.253993272207513,0.3905400244142126,-1.1035071416615,0.449721696579472,11.188856383731943,-1.170079684835005,0.062764079703198,-1.0819868108600967
1.56,0.5676626518018597,-0.1379322495718586,1.84679174226232,0.1262279362785401,0.1506867213294196,0.0504697391587317,-0.445563666021332,0.3561337399678635,-0.4404462211325594,0.5251261280003108,-0.0962749673405322,1.816196731116794,-0.5798779209076268,0.4465959134410081,-0.4012696117220994,0.1418490906404987,0.0460898571499251,-0.1227689552457278,0.0540802478850493,11.18911226598084,-1.1697723851611894,0.0637020364471832,-1.0820089559413013
1.58,0.56455830282422,-0.1354734310397559,1.8437255369350083,0.1238885799527166,0.151381088640119,0.0502313454780067,-0.4418662261769141,0.3476345162549527,-0.4361501530891329,0.5462299666727187,-0.1207162855696197,1.8255967845853964,-0.4627321191202412,0.3476275184934567,-0.3947704595820149,0.5107936612736755,0.1848719922208946,-0.4249611856455448,0.2148034021713263,11.293906031525694,-1.1675896794241831,0.0653698329480511,-1.0823899761260012
1.6,0.5641169675085755,-0.1351269896661462,1.8432900152910157,0.1235545814458172,0.1514666232129625,0.0501953143607833,-0.4413353156445301,0.3464413736096687,-0.4355216439929264,0.5462299666727187,-0.1207162855696197,1.8255967845853964,-0.4627321191202412,0.3476275184934567,-0.3947704595820149,0.0724651476470876,0.026545526619201,-0.0596571322641958,0.0314254548103243,11.293906031525694,-1.1704310476331077,0.0664322745909939,-1.0808164455953473
1.62,0.5553691578958191,-0.1284234537029189,1.8347502797844768,0.1177383756280749,0.1537018140347852,0.0495850341960526,-0.4334912732186705,0.3248082039712116,-0.4190751278503097,0.5462299666727187,-0.1207162855696197,1.8255967845853964,-0.4627321191202412,0.3476275184934567,-0.3947704595820149,1.4142232173655462,0.3922021212929782,-1.0816584819228592,0.8223258071308359,11.294027076131895,-1.1655568968220218,0.0710900215551947,-1.0828876867789732
1.64,0.5497791263779478,-0.1243069013255207,1.8293788140549,0.1142479184052575,0.1553644348047992,0.0492184499296231,-0.426924408406529,0.3097717218520299,-0.4081204595035507,0.5416026454815163,-0.1172400103846851,1.8216490799895764,-0.4659814503114233,0.3454351983775924,-0.3854189862803658,0.986438374366203,0.3283432406070735,-0.7518241059590841,0.5477334173379478,11.563897830480528,-1.1627615617192997,0.0743042038105265,-1.0846328526957412
1.66,0.5468065717292164,-0.1221707570250017,1.826546835672883,0.1123079766710873,0.1561955144754734,0.0490045114394331,-0.4228986376153306,0.3017209199994924,-0.4018587151336668,0.5323480030991115,-0.110287460014816,1.813753670797936,-0.4724801126937876,0.3410505581458639,-0.3667160396770677,0.5482510453384,0.2012885395599212,-0.4025400926268713,0.3130872184941957,11.641435090868072,-1.1607353922442696,0.075616042905596,-1.0856309797698698
1.68,0.5447013390532084,-0.120679009110408,1.8245520586989856,0.1108893104525108,0.1567228220850965,0.0488399335734635,-0.419780208345212,0.2961174647262043,-0.3969560035506282,0.5230933607167066,-0.1033349096449468,1.805858261606296,-0.4789787750761519,0.3366659179141353,-0.3480130930737695,0.4036083899615251,0.1559214635059314,-0.2801727636644047,0.245135579151931,11.76347548164631,-1.1587401359593177,0.0766769127454672,-1.086757492312254
1.7,0.5388939829706241,-0.1166455728649846,1.819110331694036,0.1069483007643104,0.1578060045407785,0.0483303594590057,-0.4105257597800129,0.2812766291569259,-0.3814276760958175,0.5135137852151836,-0.0966015912866641,1.7988979997448202,-0.4854774374585162,0.3322812776824068,-0.3293101464704713,1.1694273942662117,0.4627224282599568,-0.7420417784639227,0.7764163727405349,11.912829658625924,-1.1567890466164097,0.0802337862367972,-1.089167905600748
1.72,0.5332189184968031,-0.1128179311097455,1.813889561376746,0.1030327832412524,0.158289606334299,0.04774966092043,-0.4008776630018735,0.2666797355858631,-0.365481587224938,0.5039342097136605,-0.0898682729283814,1.791937737883345,-0.4919760998408804,0.3278966374506782,-0.3106071998671731,1.1836731217308938,0.482404838906969,-0.7298446785531404,0.7973044435439725,11.949282138539274,-1.1562803532738914,0.0835592229611156,-1.0910617477877798
1.74,0.5316221200515928,-0.111761236760141,1.8124391059198248,0.1019081171266138,0.1583138843358577,0.0475703219421164,-0.3981987421422308,0.2626792046963884,-0.3608921791779716,0.4941921676525784,-0.0832445705758919,1.785445049686952,-0.4984747622232447,0.3235119972189497,-0.2919042532638749,0.3325790529762448,0.1339460429821332,-0.2000265444737359,0.2294704023483224,11.9497838898169,-1.1565254217627254,0.0843083903743913,-1.0912797193796844
1.76,0.5288548711199292,-0.1099515909847977,1.809945413520132,0.0998976859388019,0.1582140177031574,0.0472382433860409,-0.393158971808822,0.2554706928081019,-0.3526642338167355,0.4842876590319371,-0.0767304842291956,1.7794199351556417,-0.5049734246056089,0.3191273569872211,-0.2732013066605767,0.602206388052637,0.2519885166704427,-0.3604255944143236,0.4113972680618027,11.9497838898169,-1.154411707008296,0.0857546200377824,-1.0924647863441397
1.78,0.521906719295927,-0.1055181199256875,1.803828765137716,0.0947058256751176,0.1569855869797067,0.0462855837800923,-0.3797149933206433,0.2383197065994192,-0.328128002479214,0.5117121829444813,-0.0986272765253216,1.794394496960926,-0.4105433297365015,0.2556985708675994,-0.3405274774300773,1.6408256563155992,0.6721989244089344,-0.8575493104341316,1.2268115668760764,12.250562580959013,-1.1558129669369432,0.0901324362175378,-1.0938645483162046
1.8,0.5177501888340286,-0.1029416265430502,1.8002500805410055,0.0919286174436125,0.1560862010819585,0.0457176186283407,-0.3767498975038749,0.2308773708399943,-0.3239349404246372,0.5117121829444813,-0.0986272765253216,1.794394496960926,-0.4105433297365015,0.2556985708675994,-0.3405274774300773,0.4521115021545142,0.1482547908384202,-0.3721167879712467,0.2096531027288406,10.836809985166838,-1.1752597679069314,0.0946584159168002,-1.0905787593007772
1.82,0.5113865291829485,-0.099128241710796,1.7947924651167566,0.0884348786462651,0.1557231317979544,0.044989207111812,-0.3719567396087428,0.2183799319757128,-0.3183131053049874,0.5117121829444813,-0.0986272765253216,1.794394496960926,-0.4105433297365015,0.2556985708675994,-0.3405274774300773,0.7258880266381428,0.2396578947566008,-0.6248719432140739,0.2810917559824877,10.911062234300516,-1.1728914561353412,0.097418643014024,-1.089628376111781
1.84,0.5054825964636506,-0.0957386256738863,1.7897525485760015,0.0853747300156192,0.1560232878437472,0.0443722880223442,-0.3662632632807928,0.2061513150586323,-0.3119549724173022,0.5076067496471163,-0.0960702908166456,1.7909892221866253,-0.4130122472553557,0.2543024441018416,-0.3364545370804985,0.7456215498144848,0.2846738163975015,-0.6114308458540287,0.3179066443842637,10.911062234300516,-1.1711012113709665,0.0996057034918873,-1.089470210296397
1.86,0.5011190000870271,-0.0933244147148201,1.7860435962428372,0.0830339711502902,0.1564132049499167,0.0439171731843119,-0.361335449492603,0.1970199596949388,-0.3065617086625701,0.4993958830523862,-0.0909563193992936,1.7841786726380235,-0.4179500822930639,0.251510190570326,-0.3283086563813407,0.5847056811705237,0.2463906894094925,-0.4565677681846736,0.2696631877366046,10.989338410872731,-1.1696824112344733,0.1014113663354029,-1.089657799931861
1.88,0.4993187501332087,-0.0923503655218522,1.7845178614073238,0.0820339517018124,0.1565797944667656,0.0437253190939636,-0.359153189733776,0.1933160196381269,-0.3041471509368816,0.4911850164576562,-0.0858423479819416,1.777368123089422,-0.4228879173307722,0.2487179370388104,-0.320162775682183,0.2465335606470906,0.1091129879413482,-0.1851970028405938,0.1207278862844246,11.053535209121035,-1.168453267712668,0.1021227142437933,-1.089837112921102
1.9,0.4925855733960383,-0.0888127391104456,1.7788519328286525,0.0781918339591925,0.1570285916912884,0.0429746833891093,-0.3500740609039814,0.1799825909116301,-0.2926893159837396,0.4827272581110408,-0.0808679892411654,1.7709648675757783,-0.4278257523684805,0.2459256835072948,-0.3120168949830253,0.9893089554406392,0.4539564414897307,-0.6666714363248379,0.5728917476571005,11.124828763870935,-1.167948054147799,0.1050763426155142,-1.0904111802880905
1.92,0.4860286433953352,-0.0855230748986981,1.7734035377169162,0.0742874541710778,0.157068275189225,0.0421838259302933,-0.3406252767009168,0.1671500273736113,-0.2814716661662987,0.4742694997644253,-0.0758936305003892,1.7645616120621348,-0.4327635874061888,0.2431334299757792,-0.3038710142838676,0.9744099205417904,0.4724392101532276,-0.6416281769009421,0.5608824908720417,11.238477609770598,-1.1689400985213567,0.1085024650839058,-1.0908066039862558
1.94,0.4793217065193098,-0.0823153670965,1.7678930297854198,0.0699327308473184,0.1564352409468792,0.0412841301912793,-0.3306595645226398,0.1545347590259523,-0.270165064292115,0.4656882955418672,-0.0709890780979009,1.75836200356597,-0.4377014224438971,0.2403411764442636,-0.2957251335847099,0.9827253693746288,0.498285608913851,-0.6307634173829498,0.5653300937091849,11.20528184712748,-1.1710972514267983,0.1122120478966191,-1.0902493094446022
1.96,0.4728121631362809,-0.0793481920845378,1.762604912717045,0.0653760481222884,0.1550077531236771,0.040320365722628,-0.3208691606374698,0.1430334884286897,-0.2592066975078173,0.4569836454433663,-0.0661543320337004,1.7523660420872842,-0.4426392574816054,0.237548922912748,-0.2875792528855522,0.933028718965031,0.4895201942585026,-0.575063529863129,0.5479183392148895,11.17275193750902,-1.1737635591625313,0.1158917862083561,-1.0890360912149737
1.98,0.4668073198025335,-0.0767313145705752,1.757781994914704,0.060930455475632,0.1527638538170452,0.0393497393470839,-0.3118186353425557,0.1331989310013882,-0.2489903768575445,0.4627887282931778,-0.0745886291452024,1.754384776570814,-0.3578028529263893,0.1612217081970782,-0.2578278294895709,0.8411357434058452,0.4525262647457034,-0.4917278713650774,0.510816032513639,11.145289954808504,-1.1772659198552784,0.1196682008937429,-1.086769269820904
2.0,0.4609677045897662,-0.0742837613406686,1.7531331778147947,0.0566403027041986,0.1494859632196929,0.038343948186256,-0.3034676252168219,0.1250196503669641,-0.2410025929760451,0.4627887282931778,-0.0745886291452024,1.754384776570814,-0.3578028529263893,0.1612217081970782,-0.2578278294895709,0.7078924585597648,0.4175505062866902,-0.4089640317212054,0.39938919407497,11.126667647241447,-1.1832059466354592,0.1235783822950705,-1.0829922781967372
2.02,0.45498567471396,-0.0718703562517669,1.7483980629123343,0.0522911623387967,0.1446766374810923,0.0372445195675533,-0.2953430102064175,0.1169057085559004,-0.2328894245584592,0.4627887282931778,-0.0745886291452024,1.754384776570814,-0.3578028529263893,0.1612217081970782,-0.2578278294895709,0.7029739016363424,0.40623075052022,-0.4056970905531851,0.4056584208792929,10.956844722200913,-1.1896084991046754,0.1272092194601061,-1.0772107363555772
2.04,0.4491465572246343,-0.0696107771445073,1.7438268479759764,0.0479744174759534,0.1385824121012583,0.0361124782209707,-0.2893209867098575,0.1096089195524576,-0.2245999101414814,0.4592106997639139,-0.0729764120632316,1.7518064982759185,-0.3632315106071392,0.1625590980313034,-0.2553603825290621,0.6289355015086325,0.3011011748279973,-0.3648394501721358,0.4144757208488919,10.94184879439308,-1.19780033979482,0.1306895688923437,-1.069935496467812
2.06,0.4436850994363385,-0.0675909969766141,1.7396393794860685,0.0439120793066343,0.1322486465163302,0.0350487779559378,-0.2860845436200612,0.1035037551910321,-0.2165735285912458,0.4520546427053861,-0.06975197789929,1.746649941686127,-0.3740888259686389,0.1652338776997537,-0.2504254886080445,0.5295526332279754,0.1618221544898157,-0.3052582180712776,0.4013190775117789,10.94184879439308,-1.205886899243262,0.1341871043875293,-1.0621760793972992
2.08,0.4379775282051463,-0.0655805075345941,1.735397486227274,0.0397312009858989,0.1256096268177307,0.0339760022473158,-0.2850438065753045,0.0979926472176151,-0.2080227592224794,0.4448985856468583,-0.0665275437353484,1.7414933850963354,-0.3849461413301387,0.1679086573682041,-0.2454905946870268,0.5113000623137598,0.0520368522378383,-0.2755553986708486,0.4275384684383168,10.936699362513536,-1.2128975493203675,0.1374907918846813,-1.054973461476881
2.1,0.4322671237460355,-0.063670471727733,1.7313262663427762,0.0356977732328952,0.1194719300741077,0.0329723119180809,-0.2862065601247912,0.0933946541958451,-0.1995235410113995,0.4371996628202556,-0.0631693705879844,1.736583573202595,-0.3958034566916386,0.1705834370366545,-0.2405557007660091,0.4866473205634735,-0.0581376774743347,-0.2298996510884998,0.4249609105539995,10.918662830694302,-1.218576844857469,0.1404585370036024,-1.049114557367237
2.12,0.426799627031467,-0.0619327104586628,1.727613584528526,0.0320428454544276,0.1145440179531664,0.0320961475397871,-0.289366050453187,0.0898361255440517,-0.1917031775904438,0.4295007399936528,-0.0598111974406203,1.7316737613088544,-0.4066607720531383,0.1732582167051048,-0.2356208068449915,0.4577215019438184,-0.1579745164197898,-0.1779264325896701,0.3910181710477814,10.918662830694302,-1.2232166970011924,0.1432627985144749,-1.044358869307571
2.14,0.4209579863061389,-0.0601675530022314,1.7238633417580125,0.0284333123037664,0.1108850539485396,0.0312679124326082,-0.294763745766828,0.0869331252619293,-0.1837472272671098,0.4215303842830125,-0.0563861548015449,1.7268873217631393,-0.4175180874146381,0.1759329963735552,-0.2306859129239739,0.5021445779958782,-0.2698847656820519,-0.1451500141061205,0.3977975161666994,10.900221840935046,-1.2261467486601163,0.1459769150005167,-1.0412888660737114
2.16,0.4152909170113337,-0.0585366956219338,1.7204437375008883,0.0252764551579211,0.1094933777330623,0.0305792437757645,-0.3013297980083286,0.0849136780427757,-0.1766172398125732,0.4132885956883347,-0.0528942426707583,1.7222242545654496,-0.4283754027761379,0.1786077760420055,-0.2257510190029562,0.495045276239739,-0.3283026120750293,-0.1009723609576788,0.3564993727268317,10.885628437432388,-1.2249620115264812,0.1482944092632617,-1.0416730750049374
2.18,0.409198512693601,-0.0568541280554677,1.71698566262302,0.0222462913917174,0.1101194368772257,0.0299405062321446,-0.3073385593163958,0.083494300366041,-0.1695969446635671,0.4062197990177975,-0.055820896739135,1.7146759803946567,-0.299065570373783,0.109730238546398,-0.1633668271458978,0.4674515734963823,-0.3004380654033606,-0.0709688838367389,0.3510147574503061,10.858190334419303,-1.2207280051043572,0.1503011408183659,-1.0450264924444133
2.2,0.4029531213917195,-0.0551943553481414,1.7137093252145617,0.0195348426387967,0.1138456521765638,0.0293973199530464,-0.3164173465386836,0.0825794664786364,-0.1581890549763791,0.4062197990177975,-0.055820896739135,1.7146759803946567,-0.299065570373783,0.109730238546398,-0.1633668271458978,0.7304129749398109,-0.4539393611143888,-0.0457416943702285,0.5703944843594002,10.825583331395135,-1.215544003168714,0.1521093658536629,-1.0505480013424755
2.22,0.3968893909801885,-0.0536326459581809,1.7108061800016634,0.017114565093915,0.1205745898295132,0.0289515260820993,-0.3209493681484168,0.0819647969208928,-0.1480282619661651,0.4062197990177975,-0.055820896739135,1.7146759803946567,-0.299065570373783,0.109730238546398,-0.1633668271458978,0.5571327335849129,-0.226601080486663,-0.0307334778871792,0.5080396505106984,11.06018531938571,-1.2026878811975286,0.1536318129435243,-1.063535581836324
2.24,0.3904547598681349,-0.0519949370317275,1.7079473929963953,0.0146019932452777,0.1292414442821037,0.028502190350907,-0.3218801753096112,0.0819421332714715,-0.1384592553625109,0.4032291433140597,-0.054723594353671,1.7130423121231977,-0.2999259352951741,0.1142896612032917,-0.1592907471216554,0.4807098995057051,-0.0465403580597184,-0.0011331824710664,0.4784503301827114,11.06018531938571,-1.1916205474847943,0.1553241372250276,-1.076207651838165
2.26,0.3840414440839639,-0.0503498799133693,1.7052680317224935,0.0121371715489056,0.1383346671448188,0.0280504353105877,-0.319112091640747,0.0826491868014926,-0.1300256917047618,0.397247831906584,-0.052528989582743,1.7097749755802798,-0.301646665137956,0.1234085065170792,-0.1511385870731706,0.4452168231925142,0.1384041834432109,0.0353526765010575,0.4216781828874527,10.99769954516796,-1.1809983325257474,0.1572348489822474,-1.0891952349557572
2.28,0.3780336975497426,-0.0487670140107531,1.7028695220348515,0.0098831443996845,0.1464154416270308,0.027610508118185,-0.3132627066681868,0.0839875413826914,-0.1229238834782926,0.3912665204991084,-0.0503343848118151,1.706507639037362,-0.3033673949807381,0.1325273518308666,-0.1429864270246858,0.4648714274607948,0.2924692486280078,0.0669177290599391,0.355090411323463,10.909979404432306,-1.1723315365122915,0.1592053336540568,-1.1008161653131132
2.3000000000000003,0.3718579708753345,-0.0470670135181773,1.7004835091391586,0.0076351677647501,0.153556081868855,0.0271357195444975,-0.3045493768628358,0.0859933804477824,-0.1160872605413841,0.3851991725994936,-0.0476838377751977,1.7036479104968685,-0.3050881248235201,0.1416461971446541,-0.134834266976201,0.5627719783209882,0.4356664902675528,0.1002919532545498,0.3418311468454247,10.894891507990906,-1.166805876787738,0.1610905190946231,-1.109764060300719
2.32,0.3661723168632657,-0.0454088473450999,1.6983404179736703,0.0056546557528772,0.1586124562936969,0.0266803881202687,-0.2944799947232273,0.0884628621694824,-0.1098505074571679,0.3791318246998788,-0.0450332907385804,1.7007881819563744,-0.3068088546663021,0.1507650424584416,-0.1266821069277162,0.6049543075323057,0.5034691069804254,0.1234740860849979,0.3118376542108073,10.894891507990906,-1.164006628298828,0.1630170758033264,-1.1168048391353915
2.34,0.3604029774547372,-0.0436062727656061,1.6962122788195366,0.0038095044391532,0.1620102023427447,0.0262104179837065,-0.2830703342695163,0.091654207167834,-0.1032882792793087,0.3730214585541945,-0.0421547725691184,1.6981322574170927,-0.3085295845090842,0.159883887772229,-0.1185299468792314,0.6771777337334901,0.5704830226855501,0.1595672499175804,0.3281114088929615,10.91117267136542,-1.1641560131646107,0.1647755212935527,-1.121518186527672
2.36,0.3548651343253263,-0.0417341774904307,1.6942161368146895,0.0023006028526818,0.1635292120497558,0.0257650660929476,-0.2714217762181972,0.0953874064730802,-0.0966433007227149,0.3668680741624406,-0.0390482832668117,1.6956801368790233,-0.3102503143518662,0.1690027330860165,-0.1103777868307466,0.6960269781862475,0.5824279025659518,0.1866599652623125,0.3322489278296883,10.91117267136542,-1.1666470843029566,0.1661956084258303,-1.1246154677237856
2.38,0.3495587009165602,-0.0397818772190049,1.6923543346161374,0.0012621086394677,0.1633391669461111,0.0253601970076161,-0.2599021379240636,0.099641652751209,-0.0898611484333324,0.3462494607412614,-0.0390235624072144,1.6910478648555711,-0.2830356227603008,0.1028022073038518,-0.0874356472782663,0.7014240292059778,0.575981914706683,0.2127123139064386,0.3391076144691244,10.922814163240218,-1.1704887844962766,0.1672525345118303,-1.1278337149281537
2.4,0.3447267752164416,-0.037773044326952,1.690680611085178,0.0031556226096025,0.1614466319087493,0.0251826244524757,-0.2494135837090062,0.1105781746524362,-0.0866389849560535,0.3462494607412614,-0.0390235624072144,1.6910478648555711,-0.2830356227603008,0.1028022073038518,-0.0874356472782663,0.774596053263455,0.5244277107528658,0.5468260950613584,0.1611081738639483,10.733372596860136,-1.1781194767320968,0.1655063412854287,-1.1316410957387748
2.42,0.339849442230309,-0.0354922198997709,1.6889884493581444,0.0085854541859015,0.1575095598877587,0.0252172492165294,-0.2390174257416022,0.1161110768317199,-0.0826833282315815,0.3462494607412614,-0.0390235624072144,1.6910478648555711,-0.2830356227603008,0.1028022073038518,-0.0874356472782663,0.6211689124759086,0.5198078983702017,0.2766451089641866,0.1977828362235971,10.733372596860136,-1.1865445796862288,0.1597893051879359,-1.1292059920196038
2.44,0.3351634741777466,-0.0331583379387892,1.6873834457265704,0.0145330328801449,0.151859610477431,0.0252403922586369,-0.2304855031155097,0.1169049068185084,-0.0779624944190197,0.3434191045136584,-0.0379955403341758,1.6901735083827885,-0.2830286804584578,0.1050318073310553,-0.0842651208780578,0.4891578007948453,0.4265961313046226,0.0396914993394267,0.2360416906280901,10.764848184662696,-1.1974202305562236,0.1535965233619427,-1.1257329020681772
2.46,0.3306167120226863,-0.0308389233089671,1.6858804438072443,0.019718060222118,0.1454107344681864,0.0251592921482536,-0.2248642497551946,0.115173329655128,-0.0725565021794139,0.3377583920584524,-0.0359394961880988,1.6884247954372231,-0.2830147958547716,0.1094910073854625,-0.0779240680776409,0.3994421137920778,0.2810626680157566,-0.0865788581690216,0.2702996119802917,10.798439602698636,-1.2069167789731183,0.1483104246931653,-1.121706821028792
2.48,0.326375652542321,-0.0286819999063786,1.6845572661936736,0.0235971375513847,0.1393452706279281,0.0249789811114548,-0.2219718677988129,0.1121980385654626,-0.0669859420125856,0.3320976796032464,-0.0338834520420218,1.6866760824916578,-0.2830009112510854,0.1139502074398696,-0.071583015277224,0.3473088359878656,0.1446190978190875,-0.1487645544832702,0.2785280083414116,10.82712816294952,-1.215660505372467,0.1437725511505283,-1.1177671650536705
2.5,0.3219474178373518,-0.0264792738520264,1.6832822027761705,0.0265834074707743,0.1336480037726784,0.0247065561760657,-0.2211823087339621,0.1084009120969169,-0.0607944682520789,0.3264376613782247,-0.0316044478932244,1.6852444221861134,-0.2829870266473993,0.1184094074942767,-0.065241962476807,0.3652941289634349,0.0394779532425379,-0.1898563234272843,0.3095736880253375,10.848071081639318,-1.2230108350604971,0.1403460850223005,-1.1148476636106637
2.52,0.3175092121873832,-0.0243586301721906,1.6821316374910873,0.0285014041455086,0.1293546571493511,0.0243857523666559,-0.2227742876479517,0.1041120332971786,-0.0545671348168803,0.320777643153203,-0.029325443744427,1.683812761880569,-0.2829731420437131,0.1228686075486838,-0.0589009096763901,0.386356570846719,-0.0795989456994814,-0.2144439399869142,0.3113666717599293,10.86667691445291,-1.2284501894998738,0.1379839923175237,-1.1136376333142448
2.54,0.3130177322806113,-0.0223272967074928,1.6811046732652517,0.0294313173771748,0.1272200688222135,0.0240564467471728,-0.2262674164793964,0.0993884155057225,-0.0484422173845984,0.3151179720432734,-0.0269349595942694,1.6825396278950349,-0.282959257440027,0.1273278076030909,-0.0525598568759731,0.4243498781227027,-0.1746564415722337,-0.2361808895728054,0.3062458716140935,10.871483961648664,-1.2298039155293796,0.1365529841964063,-1.1137340363241568
2.56,0.3086864070312154,-0.0204890778370499,1.680240732142923,0.0292528301976697,0.127403107011201,0.0237395525114419,-0.2292070052428265,0.0944979791990035,-0.042812227779453,0.309458648048436,-0.0244329954427517,1.6814250202295111,-0.2829453728363408,0.1317870076574981,-0.0462188040755562,0.4007940004609762,-0.1469794381715072,-0.2445218153359497,0.2814994802572693,10.86991952477092,-1.225448625533389,0.1359418992593687,-1.1151036901075904
2.58,0.3040828559281089,-0.0186538116447153,1.6794451801142654,0.0278008248604074,0.1292381953168159,0.0233730652876522,-0.2307889291515655,0.089413918622588,-0.0370515996776016,0.3017043614566415,-0.0173578759322067,1.6786825623960218,-0.2246893797836776,0.1021399694025371,-0.0616752056899883,0.3922212109433362,-0.0790961954369492,-0.2542030288207743,0.2880314050925723,10.853800838028292,-1.219973675812544,0.1367382020815947,-1.1182536852040037
2.6,0.2994306807740205,-0.0168789351091855,1.67867593720346,0.0261184016037761,0.1327020563563974,0.0230411748217413,-0.2341430252974864,0.0882043847277262,-0.0406349390607405,0.3017043614566415,-0.0173578759322067,1.6786825623960218,-0.2246893797836776,0.1021399694025371,-0.0616752056899883,0.2527511341896153,-0.1677048072960416,-0.0604766947430904,-0.1791669691569446,10.24733919616665,-1.22199778764833,0.1384549657844551,-1.124932969464165
2.62,0.2949680198972844,-0.0152158677671272,1.6778605330978726,0.0250550688148071,0.1373758313523903,0.0228032421708235,-0.2351852280627271,0.08687765553693,-0.0449754558224914,0.3017043614566415,-0.0173578759322067,1.6786825623960218,-0.2246893797836776,0.1021399694025371,-0.0616752056899883,0.2328437389571974,-0.0521101382620348,-0.0663364595398126,-0.2170258380875464,10.24821599329971,-1.213539891437547,0.1389699733052654,-1.125861754646038
2.64,0.2902750972609882,-0.0134928074630073,1.676914590063893,0.024221530296837,0.142857712098313,0.0225908438112769,-0.2338443867330314,0.0855109038087424,-0.0493912833179335,0.2994574676588047,-0.0163364762381813,1.678065810339122,-0.2243737724445339,0.1026902801819,-0.0643218033510663,0.2406522295108977,0.0670420664847848,-0.0683375864093789,-0.220791374772105,10.24821599329971,-1.2059905195582188,0.1393157418839557,-1.1281453969052124
