t,x,y,z,roll,pitch,yaw,v_x,v_y,v_z,ref_x,ref_y,ref_z,ref_v_x,ref_v_y,ref_v_z,a_com,a_x,a_y,a_z,thrust,wind_x,wind_y,wind_z
0.0,-2.396622221533705,-0.7006755392543755,2.8347679579022165,0.022535530734393,0.1366440233151709,0.0267502356681396,0.007185940912359,0.0015343378721686,0.0413511036006654,-2.396408232360387,-0.7005502201974438,2.8360212085439227,0.1071457608803003,0.1034934217331674,-0.0583355242861943,2.099943873354033,0.359297045617952,0.0767168936084338,2.0675551800332737,10.565537462138307,-1.2867374970592895,0.1537495371837348,-1.195442234626772
0.02,-2.396576631226017,-0.7009386613823784,2.835380561528609,0.0143938345251728,0.1390076459315583,0.0262183793908645,-0.0025054867000727,-0.0232450988455657,0.0190190873870712,-2.396408232360387,-0.7005502201974438,2.8360212085439227,0.1071457608803003,0.1034934217331674,-0.0583355242861943,1.7368529020756511,-0.4845713806215881,-1.2389718358867197,-1.1166008106797125,10.566115666170845,-1.2976726002508177,0.1634863057596132,-1.183207403631136
0.04,-2.396714531633569,-0.7014429900726484,2.8354330332501405,-0.0019821595417159,0.1450180517516164,0.0251225770293546,-0.0102819823027262,-0.0250262325011206,-0.0124955147954651,-2.396408232360387,-0.7005502201974438,2.8360212085439227,0.1071457608803003,0.1034934217331674,-0.0583355242861943,1.6254356890389152,-0.3888247801326742,-0.0890566827777475,-1.575730109126818,9.247892559983484,-1.2890923700631405,0.1796274189949631,-1.1720813202065656
0.06,-2.396953431009128,-0.7018697186689704,2.834907304941002,-0.0181794642939465,0.1523514842000503,0.0239470217972072,-0.0141825155473686,-0.019466468943099,-0.0412491555770454,-2.395336774751584,-0.6995152859801121,2.8354378533010607,0.1271457611783235,0.1234934220311906,-0.0783355245842175,1.477241507514785,-0.1950266622321213,0.2779881779010819,-1.437682039079013,8.807265162144176,-1.2766764374374084,0.1965984420299158,-1.1574773409539267
0.08,-2.397253233919086,-0.7021626870146405,2.833780307148219,-0.0346648221261721,0.1607254488126788,0.0226258382843865,-0.0153082019622315,-0.0097545684950566,-0.0698755298124714,-2.393193859533978,-0.6974454175454489,2.834271142815337,0.16714576177437,0.1634934226272371,-0.118335525180264,1.5124958529562644,-0.0562843207431447,0.4855950224021191,-1.4313187117713042,8.87829488339139,-1.2663348352501684,0.2127945589103196,-1.1464732092397505
0.1,-2.397547465269964,-0.7022269633672117,2.832102205380704,-0.0503875601914631,0.1691824238386593,0.0212414744988408,-0.0138427821682045,0.0031812873195074,-0.0965351986112441,-2.391050944316372,-0.6953755491107855,2.833104432329613,0.2071457623704165,0.2034934232232835,-0.1583355257763104,1.483426574934004,0.0732709897013478,0.6467927907282073,-1.3329834399386336,8.9656059952531,-1.2585667444725426,0.2273649660720093,-1.138409873608584
0.12,-2.397778717494875,-0.7020198303286036,2.830030455597424,-0.0646152737557735,0.1770038288155395,0.0198898348037878,-0.0104140440756967,0.0182578273177311,-0.1202433956817276,-2.386908029068964,-0.6913056806463198,2.829937721814087,0.2471457629664629,0.24349342381933,-0.1983355263723568,1.4152181029420283,0.1714369046253896,0.7538269999111836,-1.185409853524174,9.068906904025424,-1.252788731981982,0.2419676239497226,-1.1320776497532985
0.14,-2.3979348431204524,-0.701461134004781,2.827365874841169,-0.0787794311493069,0.1848682326325236,0.0184587627235834,-0.0052116769442643,0.0370808684864621,-0.1449851648375048,-2.3827651138215558,-0.6872358121818541,2.8267710112985607,0.2871457635625094,0.2834934244153765,-0.2383355269684033,1.576012883487725,0.2601183565716208,0.941152058436548,-1.2370884577888603,9.1676592840613,-1.2499680299939468,0.2559004772302949,-1.1278273661662397
0.16,-2.397972389248882,-0.7004711939756054,2.824206295782129,-0.0912058959383656,0.1923016587225398,0.017108918579052,0.0013571220222079,0.0607455140092161,-0.169719413601192,-2.3776221985592456,-0.6821659437024873,2.822604300768133,0.3271457641585558,0.3234934250114229,-0.2783355275644498,1.7428049442518605,0.3284399483236163,1.1832322761376994,-1.236712438184362,9.190871609330316,-1.24937151230959,0.2682234674114815,-1.125251016137582
0.18,-2.3978647613788127,-0.6989773764396615,2.82055444285394,-0.1011103100077083,0.1992960213155357,0.0159249922332862,0.009229185739946,0.087090936197675,-0.19418763814158,-2.371479283282035,-0.6760960752082192,2.8174375902228044,0.3671457647546022,0.3634934256074693,-0.3183355281604962,1.840342814276133,0.3936031858869059,1.3172711094229486,-1.2234112270193984,9.220954986516515,-1.2500219725565351,0.277639185924983,-1.1239660464020866
0.2,-2.397604734165891,-0.6970526087648474,2.816636140062128,-0.1080807302274439,0.2055424399973416,0.014985737173587,0.0178741658257756,0.1136385949610585,-0.2170036684080088,-2.3974033020918157,-0.6946228296297777,2.8108450609468614,0.1092291872300622,0.1870909376877912,-0.2941876396316961,1.8028346455097,0.4322490042914771,1.3273829381691742,-1.1408015133214378,9.25950012679732,-1.2508959603360763,0.2851188408674083,-1.124389784948227
0.22,-2.3971207177663927,-0.6943394565467244,2.8121438659650364,-0.10914477855701,0.21169085565809,0.0144832981911874,0.0303672596061454,0.1546550105657685,-0.2302520193386046,-2.3974033020918157,-0.6946228296297777,2.8108450609468614,0.1092291872300622,0.1870909376877912,-0.2941876396316961,2.243848559753773,0.6246546890184926,2.0508207802355,-0.6624175465297893,9.30076299368102,-1.2506089344440157,0.2866087891565663,-1.1300605322879766
0.24,-2.3963720208520325,-0.6908937208943288,2.807406557646195,-0.1034847928344625,0.2174045793515088,0.0145407335304897,0.0439885895373058,0.1865152018688763,-0.2428306108867485,-2.3974033020918157,-0.6946228296297777,2.8108450609468614,0.1092291872300622,0.1870909376877912,-0.2941876396316961,1.843117864041245,0.6810664965580203,1.5930095651553855,-0.6289295774071959,10.064287925205464,-1.2564468499388572,0.2821920748883356,-1.141212059633948
0.26,-2.3953447526647595,-0.6868913455004241,2.802402493131164,-0.0959533346790634,0.2227247926878187,0.0148248625391379,0.0581392874609822,0.2117769010419441,-0.2570286761800206,-2.396311010219515,-0.6927519202528998,2.807903184550544,0.1292291875280854,0.2070909379858144,-0.3141876399297194,1.6124366304677935,0.7075348961838184,1.263084958653392,-0.7099032646636055,9.954516254113514,-1.2609135667953284,0.2762678590672729,-1.153576697054436
0.28,-2.394103180266641,-0.6826595984429643,2.797366436567514,-0.0888407911811019,0.2274530048589816,0.0151718544831564,0.0719263078720808,0.2323727704259725,-0.2723867443928619,-2.3941264264749136,-0.689010101499144,2.8020194317579104,0.1692291881241318,0.2470909385818609,-0.3541876405257658,1.457859755540888,0.6893510205549308,1.0297934692014203,-0.7679034106420651,9.83552111296649,-1.2642985800669158,0.2698321683347747,-1.1658730709707632
0.3,-2.392509274089333,-0.6778070885009337,2.791732492108069,-0.0821199398303318,0.2321195631330264,0.0155559451816275,0.0868034717976119,0.2518184705229162,-0.2903047646499333,-2.3919418427303123,-0.6852682827453882,2.7961356789652765,0.2092291887201783,0.2870909391779073,-0.3941876411218122,1.5170042095032397,0.7438581962765534,0.9722850048471844,-0.8959010128535699,9.728804329907687,-1.2672525260807748,0.263943624298745,-1.1762432689644435
0.32,-2.3906137849566225,-0.6725819813099991,2.785723838339495,-0.076411602411962,0.2364939503998388,0.0159321000242462,0.102081289377922,0.2698587100384992,-0.3096896009035517,-2.387757258955909,-0.67952646396183,2.7882519261428405,0.2492291893162247,0.3270909397739537,-0.4341876417178587,1.5285890785103398,0.7638908790155066,0.9020119757791516,-0.969241812680921,9.565159805682017,-1.2690263657598515,0.2590136371862359,-1.1836131842390891
0.34,-2.388524507693737,-0.6672933062181488,2.7796507313704217,-0.071885399475079,0.2403942670316726,0.0162764905733662,0.1171430155357649,0.2860809094678995,-0.3286433303702337,-2.383572675181505,-0.6737846451782719,2.780368173320404,0.2892291899122712,0.3670909403700003,-0.4741876423139052,1.457102612959403,0.7530863078921417,0.8111099714700115,-0.9476864733340972,9.54245669410193,-1.269476198899309,0.2546625485009154,-1.190359960842618
0.36,-2.386010361170896,-0.6613928219897284,2.7728635352688418,-0.0677485642173133,0.2442447443412974,0.0166405450710107,0.133549295525748,0.303074709919474,-0.3491126532055879,-2.3783880913922,-0.6670428263798126,2.771484420483066,0.3292291905083176,0.4070909409660467,-0.5141876429099516,1.5628087328873683,0.8203139994991553,0.8496900225787252,-1.023466141767712,9.54245669410193,-1.2692920188886276,0.2510771835786782,-1.1977124371294046
0.38,-2.3831619828092325,-0.6551557896988651,2.765663657967962,-0.0639163763009466,0.247847525893451,0.0170246494732781,0.1505354059894263,0.3196929586181103,-0.3698700422388539,-2.3722035075879946,-0.659301007566452,2.761600667630828,0.3692291911043641,0.4470909415620931,-0.554187643505998,1.5776274417399412,0.8493055231839172,0.8309124349318187,-1.0378694516633007,9.51845917373521,-1.2694098374657814,0.2478400916365377,-1.2048767492423855
0.4,-2.3799681378346045,-0.6485921966834227,2.758045826949634,-0.0602340002896781,0.2512158967597367,0.0174352737496047,0.1680653399530956,0.3357288021910466,-0.3908881770885897,-2.3756352125097613,-0.6391711417679596,2.7471701558560198,0.2505354074795425,0.4013644722351491,-0.46987004372897,1.5860397665474562,0.8764966981834627,0.8017921786468152,-1.0509067424867873,9.51244329747351,-1.2691053720565664,0.2448786743586009,-1.211485331381456
0.42,-2.376554128515174,-0.6420066146761075,2.7506001401597007,-0.0552913425344549,0.2541232297032281,0.0179641536498513,0.1904729662842885,0.3555047705424939,-0.3917757523147049,-2.3756352125097613,-0.6391711417679596,2.7471701558560198,0.2505354074795425,0.4013644722351491,-0.46987004372897,1.4949736049658442,1.120381316559646,0.9887984175723646,-0.0443787613057605,9.51244329747351,-1.266536623830788,0.239234349979279,-1.2105130114178495
0.44,-2.372500746962579,-0.6347297970730273,2.742730637863656,-0.0490902634493555,0.2568592781939863,0.0186290767931151,0.213655316445437,0.3709586039515705,-0.3954031283527471,-2.3756352125097613,-0.6391711417679596,2.7471701558560198,0.2505354074795425,0.4013644722351491,-0.46987004372897,1.4048133176252957,1.1591175080574263,0.7726916704538261,-0.1813688019021098,10.73788018837422,-1.2718927945129557,0.2346298726271494,-1.2278931245540443
0.46,-2.3679918292804976,-0.6271715036456067,2.734745181362249,-0.043227890992257,0.2593729194885562,0.0192980947387598,0.2360758260058849,0.3840413567713653,-0.4031446782844293,-2.373129858434966,-0.6351574970456082,2.742471455418729,0.2705354077775657,0.4176987749585568,-0.4898700440269932,1.3544087876622728,1.1210254780223945,0.6541376409897437,-0.3870774965841123,10.48568018449896,-1.2750446579420984,0.2301801534420324,-1.2424763299868529
0.48,-2.363041240834657,-0.6193699411789767,2.726565437886828,-0.0380427040268124,0.2617285532976153,0.0199398634000542,0.257908267490206,0.3955261288853581,-0.414452029602322,-2.368119150285375,-0.6271302076009052,2.7330740545441503,0.3105354083736121,0.4503673804053723,-0.5298700446230397,1.3568453168129548,1.0916220742160532,0.5742386056996396,-0.5653675658946339,10.260420888122098,-1.2774679665193496,0.2258202371897463,-1.2546807899540544
0.5,-2.3579369841157045,-0.6117568427808242,2.7185599070379163,-0.0338202038522406,0.2638482215206448,0.020514530007112,0.2783280653489097,0.4053729199846894,-0.4276822365470248,-2.363108442135784,-0.6191029181562022,2.7236766536695707,0.3505354089696586,0.4830359858521878,-0.5698700452190861,1.3124079161448337,1.020989892935184,0.4923395549665615,-0.6615103472351391,10.081696669389205,-1.2791375468631698,0.221938597247388,-1.2633461390619434
0.52,-2.3521469417162884,-0.6035497486563541,2.709840060224836,-0.030125458104656,0.26596931490615,0.0210786363435733,0.2996171192158768,0.4148892275497391,-0.4437103408072702,-2.356097733956391,-0.6094421984391585,2.712279252765189,0.390535409565705,0.5157045912990033,-0.6098700458151326,1.4148180540272202,1.0644526933483582,0.4758153782524865,-0.8014052130122684,9.830539483107714,-1.2803610658769131,0.2187237038859371,-1.2697563943913135
0.54,-2.3459301004750444,-0.5951582700333508,2.7007888883964646,-0.0271576293740204,0.2679808931188348,0.0216014419745184,0.3210336457667442,0.4238604533432484,-0.4606398304424901,-2.349087025776998,-0.5997814787221147,2.700881851860807,0.4305354101617515,0.5483731967458187,-0.6498700464111791,1.436800369789722,1.0708263275433672,0.448561289675467,-0.8464744817609976,9.794352092163535,-1.2812796158158342,0.2163026725239143,-1.2740672224473475
0.56,-2.3392828614508367,-0.5865851401246476,2.691393549062642,-0.0246239895812312,0.2698806536813516,0.0221018374910156,0.342650918750164,0.4329709026971706,-0.4780709110611292,-2.3410763175827034,-0.5893040438689006,2.6884844509415244,0.470535410757798,0.5810418021926342,-0.6898700470072254,1.4612916805035634,1.080863649170993,0.4555224676961067,-0.8715540309319564,9.794352092163535,-1.2822386091261515,0.2142320108958366,-1.2782269427033184
0.58,-2.3325658119713237,-0.5782735757102287,2.682140521114773,-0.0223657663497913,0.2715825552295482,0.0225729814559912,0.363355494086074,0.4414168177709899,-0.4950655679972259,-2.332065609373508,-0.5780098938795161,2.67508705000734,0.5105354113538444,0.6137104076394497,-0.7298700476032719,1.4043070227430323,1.0352287667954985,0.4222957536909683,-0.8497328468048349,9.774431744817775,-1.2834136265278877,0.2123356846963444,-1.281928752171864
0.6,-2.325069064308106,-0.569355762119062,2.672045464176982,-0.0200884015073874,0.273269808733226,0.0230671141219277,0.3852529890324151,0.4498666677325769,-0.5135794650499738,-2.3143980372670194,-0.5562027348216793,2.657387242714912,0.4633554955761901,0.5052608354554496,-0.5950655694873421,1.4947112040274786,1.0948747473170566,0.4224924980793465,-0.9256948526373904,9.754824209684555,-1.2846361620348428,0.2105598597932814,-1.2856879289987984
0.62,-2.317061278444396,-0.5601989729997412,2.6618173954601976,-0.0156924547332779,0.2747344242640892,0.0237175752191347,0.4148104475145236,0.4641648452012393,-0.5070377382528902,-2.3143980372670194,-0.5562027348216793,2.657387242714912,0.4633554955761901,0.5052608354554496,-0.5950655694873421,1.673973879974395,1.4778729241054225,0.7149088734331233,0.3270863398541768,9.721849287390796,-1.2835311480574505,0.2060342950689155,-1.2831257287047273
0.64,-2.3084588183931816,-0.550821199487281,2.6517205001342283,-0.0093957399966219,0.2758382699927382,0.02450694992002,0.4438885572604178,0.4725537875752207,-0.5031413843683084,-2.3143980372670194,-0.5562027348216793,2.657387242714912,0.4633554955761901,0.5052608354554496,-0.5950655694873421,1.5256903307537113,1.4539054872947126,0.4194471186990706,0.1948176942290935,11.386898959325665,-1.2903727245110486,0.2008022379835733,-1.30357022309177
0.66,-2.29975603538669,-0.5417908330715459,2.6421476149181697,-0.0035000356854541,0.2763876907500273,0.0252495753625468,0.4706539834589948,0.4775755712525132,-0.5047167872321455,-2.309764482311257,-0.5511501264671248,2.6514365870200383,0.4833554958742134,0.5180296389923416,-0.6150655697853653,1.3638990478370985,1.3382713099288484,0.2510891838646223,-0.0787701431918586,11.04021840992209,-1.2960873679106957,0.1950531771423267,-1.318806532670289
0.68,-2.2900583748892624,-0.5322025281637108,2.631994930170177,0.0019986434493084,0.2762901946267949,0.0259724752908437,0.4975710927470275,0.4810244540338258,-0.5106483522923422,-2.3004973723997337,-0.5410449097580158,2.6395352756302914,0.5233554964702598,0.5435672460661255,-0.6550655703814118,1.388892570473394,1.3458554644016352,0.1724441390656306,-0.2965782530098326,10.721684997639386,-1.3011717878872897,0.1897461030851361,-1.329553003602867
0.7000000000000001,-2.2798344300201627,-0.5225592741906875,2.6216810420214878,0.0065492380603646,0.2754668161637196,0.0266114521349143,0.5233915363566748,0.483284224240556,-0.5204124280706932,-2.29123026248821,-0.5309396930489068,2.6276339642405446,0.5633554970663063,0.5691048531399093,-0.6950655709774582,1.3848637526771184,1.2910221804823625,0.1129885103365119,-0.4882037889175517,10.470183432515114,-1.305003654460633,0.1854047253066768,-1.3353757511930953
0.72,-2.2696529541164865,-0.5133641090055144,2.6116745924372133,0.0100041668795279,0.2739470402760343,0.02713577736979,0.5469758140110772,0.4846777248919237,-0.5323856132539425,-2.279963152546884,-0.5195575959861085,2.613732652820995,0.6033554976623527,0.5946424602136932,-0.7350655715735047,1.3243084610256852,1.1792138827201204,0.0696750325683837,-0.5986592591624651,10.268374540344666,-1.3099566313755358,0.1817871068163985,-1.3380160655015547
0.74,-2.2584616096258507,-0.5036616132064119,2.6008820961792622,0.0127808247037702,0.2715808554415899,0.0276010092052654,0.5708078611001474,0.485621051037595,-0.5462656242752457,-2.268696042605558,-0.5081754989233104,2.5998313414014462,0.6433554982583992,0.6201800672874771,-0.7750655721695512,1.379774473079082,1.1916023544535082,0.0471663072835637,-0.6940005510651603,10.10821696749099,-1.3160995538510525,0.1791643384858735,-1.3375525854722727
0.76,-2.2467976455155587,-0.4939388992574645,2.589801028400438,0.0149053823661882,0.2683035260705558,0.0279900567333771,0.5943038669685949,0.4866466814590931,-0.5611624734474124,-2.2564289326493308,-0.4961549616836676,2.584930029966996,0.6833554988544456,0.6457176743612609,-0.8150655727655975,1.3919683229063706,1.174800293422379,0.0512815210749056,-0.7448424586083358,9.970185473979654,-1.3222305249826445,0.1772958228796968,-1.3346253729517488
0.78,-2.234668975748172,-0.4841972600107017,2.5784102346751903,0.0166010403593325,0.2637085506872588,0.0283104056640012,0.6171983226474709,0.4874972946749282,-0.5771183362302612,-2.243161822678202,-0.4834959842671802,2.5690287185176444,0.723355499450492,0.6712552814350448,-0.855065573361644,1.3959487820296868,1.1447227839437968,0.0425306607917536,-0.7977931391424387,9.904828209613695,-1.3304394395488837,0.1758309561027001,-1.3298510305868398
0.8,-2.222739350640168,-0.4749301972429647,2.567284335526202,0.017855192497299,0.2581023091379975,0.0285515620871178,0.6371046168896687,0.4879469462748184,-0.5931619324996011,-2.203809059615798,-0.4598223952769553,2.5495543178636773,0.717198324137587,0.520740071664865,-0.6771183377203773,1.2785340416584727,0.9953147121098904,0.0224825799945094,-0.8021798134669966,9.904828209613695,-1.3410337146499658,0.1748652139532953,-1.3233082051188445
0.8200000000000001,-2.20973685910716,-0.4650595795194228,2.5555409580773905,0.022454471732511,0.251856277000808,0.0290035826287941,0.6622874754842679,0.4971436146695482,-0.5788182615070923,-2.203809059615798,-0.4598223952769553,2.5495543178636773,0.717198324137587,0.520740071664865,-0.6771183377203773,1.5202762693829237,1.2591429297299617,0.4598334197364911,0.7171835496254442,9.83143283226309,-1.3545689729869494,0.1700170055107255,-1.3104117410740523
0.84,-2.196259730381515,-0.4550964291909132,2.5440738057223125,0.0303819179455147,0.24625687587651,0.0296411296092937,0.6839923577353646,0.4980607362783259,-0.5687871248933283,-2.203809059615798,-0.4598223952769553,2.5495543178636773,0.717198324137587,0.520740071664865,-0.6771183377203773,1.1964183291633983,1.085244112554834,0.0458560804388857,0.501556830688199,11.352808553651812,-1.3658536130704686,0.1619515809785449,-1.3223609726465553
0.86,-2.1830863993286376,-0.4456663439892899,2.5332931209671066,0.0380757143714599,0.2418562531258626,0.030220193955744,0.7014929836520107,0.4944972322999658,-0.5664922637180159,-2.1966370763744227,-0.4546149945603066,2.542783134486473,0.7371983244356102,0.5273886270628524,-0.6971183380184005,0.9003289064171651,0.875031295832307,-0.1781751989180069,0.1147430587656206,10.886040193616282,-1.3746448439672112,0.1527339972925016,-1.328049652620919
0.88,-2.1688897589365816,-0.435840926175511,2.521933373580219,0.0452838639528229,0.2384138134715687,0.0307546104687014,0.7170826085679323,0.4882888329466021,-0.5698364804787516,-2.182293109891671,-0.4442001931270093,2.5292407677320656,0.7771983250316566,0.5406857378588271,-0.737118338614447,0.8555179911795443,0.7794812457960765,-0.3104199676681823,-0.1672108380367853,10.886040193616282,-1.3812488942047538,0.144410298106902,-1.3297037226767503
0.9,-2.1544065725272765,-0.4261571027853025,2.510454383065471,0.0512368645902109,0.2365268759256605,0.0312280754411519,0.7303721869600733,0.4805509276082451,-0.5780644350219301,-2.167949143408919,-0.433785391693712,2.515698400977658,0.8171983256277031,0.5539828486548019,-0.7771183392104934,0.8720483198063751,0.6644789196070533,-0.3868952669178527,-0.4113977271589242,10.530911250810275,-1.3847965040732324,0.13749695902492,-1.32844088485952
0.92,-2.1396693848138564,-0.4166393488585761,2.498766548416908,0.0558429781837911,0.2362866561264139,0.031663067905286,0.7428892450798328,0.4719015606834444,-0.5902796029207857,-2.151605176896365,-0.422705734720616,2.500156034193448,0.8571983262237496,0.5672799594507766,-0.8171183398065399,0.9755749829850422,0.6258529059879725,-0.4324683462400336,-0.6107583949427842,10.251281302997086,-1.3849056398025612,0.1323963391832849,-1.324739510398283
0.94,-2.125432296269457,-0.4077632914318988,2.487421861877388,0.0590614570444909,0.2371597756853911,0.0320392022649679,0.7552549243074376,0.4631252055304505,-0.6032669776199451,-2.135261210383811,-0.4116260777475199,2.4846136674092385,0.897198326819796,0.5805770702467513,-0.8571183404025864,0.9982563975600938,0.6182839613802393,-0.4388177576496926,-0.6493687349579669,10.038707080387212,-1.3835680419737184,0.1285485762583142,-1.3198295518319456
0.96,-2.110180223472561,-0.3985992833400902,2.475203563953817,0.0614488590876931,0.2386834574635893,0.0323863691247914,0.7693837699093534,0.453890956195483,-0.6179075039932516,-2.117917243856356,-0.4002139930045246,2.468071300610128,0.9371983274158424,0.593874181042726,-0.8971183409986327,1.1171846885258137,0.7064422800957926,-0.4617124667483763,-0.7320263186653242,9.96321610418454,-1.3812149526408657,0.1259609513285377,-1.3147565950178115
0.98,-2.0946344539393134,-0.3896226690612358,2.462683853504952,0.0629404736640752,0.2402399738180639,0.0326586620843879,0.7845178121798079,0.4443270361198861,-0.6333447229122573,-2.0995732773139992,-0.3884694804916298,2.450528933796116,0.9771983280118888,0.6071712918387008,-0.9371183415946792,1.18196397006171,0.7567021135227225,-0.4781960037798433,-0.7718609459502868,9.908383364541804,-1.3791736804471513,0.1244739342813082,-1.3094151249844652
1.0,-2.078777834246135,-0.3808435803154764,2.4498465998562566,0.0633472113665793,0.2413891975101622,0.0328145904087069,0.8003399290223603,0.4342225835325525,-0.6495731107825609,-2.0554085633303227,-0.3674063172552415,2.4310166173593384,0.884517813669924,0.4614832533671338,-0.7333447244023734,1.2407658082189308,0.7911058421276207,-0.5052226293666834,-0.8114193935151781,9.86697567315423,-1.3779810797646694,0.1242609730524459,-1.3036044477754731
1.02,-2.0633330528590528,-0.3726317099575275,2.437671155852257,0.0651089016545879,0.241697147282377,0.0329960680265242,0.8244994009254849,0.4296267665264037,-0.6313246372873378,-2.0554085633303227,-0.3674063172552415,2.4310166173593384,0.884517813669924,0.4614832533671338,-0.7333447244023734,1.53118287730249,1.207973595156231,-0.2297908503074375,0.9124236747611536,9.825584078616885,-1.3789738871975168,0.1226997741525641,-1.289476585889275
1.04,-2.046593242577524,-0.3641343694096631,2.425195112462141,0.0688779988114372,0.2411404902919987,0.0332446836463548,0.8479952755467773,0.4200642068750619,-0.6177142457011556,-2.0554085633303227,-0.3674063172552415,2.4310166173593384,0.884517813669924,0.4614832533671338,-0.7333447244023734,1.4393934750739483,1.1747937310646217,-0.478127982567092,0.6805195793091079,12.0663032636985,-1.3834464356059095,0.1182409250775304,-1.3034813961490168
1.06,-2.0294033545398307,-0.3558607335396408,2.412909966505724,0.0724912933664195,0.2398025428035812,0.0334025691078102,0.8696970101547774,0.4078810874371209,-0.6117595189159247,-2.046563385193624,-0.3627914847215702,2.4236831701153148,0.9045178139679472,0.4649144968165834,-0.7533447247003966,1.2795042548990894,1.0850867304000034,-0.6091559718970491,0.2977363392615451,11.092461815018396,-1.3872361970530804,0.1138623205175785,-1.3099766817845422
1.08,-2.011796230839714,-0.3478427207104304,2.400677649110421,0.075153472106074,0.2374609235091788,0.0333928157936783,0.8897958474809151,0.3947428711761292,-0.6119692130962342,-2.028873028920225,-0.3535618196542275,2.409016275627267,0.9445178145639936,0.4717769837154825,-0.7933447252964431,1.200645618024308,1.0049418663068854,-0.6569108130495854,-0.0104847090154736,11.092461815018396,-1.391470169449797,0.1107199155140312,-1.3113509997808026
1.1,-1.9947137973956288,-0.3404744336824297,2.3890006128736623,0.0765332151764147,0.2341595531205075,0.0331974008218085,0.9072430557146745,0.381778323487521,-0.6171025624578174,-2.0111826726468265,-0.3443321545868848,2.39434938113922,0.98451781516004,0.4786394706143815,-0.8333447258924895,1.1167316682963937,0.8723604116879613,-0.648227384430411,-0.2566674680791581,10.733486593915586,-1.396891161246454,0.1088017801735624,-1.3088748912874844
1.12,-1.9763950139608688,-0.3329867526005847,2.3765655157540606,0.0765899950228622,0.22960136459662,0.0327910074168179,0.923522945500732,0.3678220593078902,-0.6262538069521878,-1.9914923163436256,-0.3347593651745972,2.37768248662137,1.0245178157560866,0.4855019575132806,-0.873344726488536,1.1657158713571372,0.8139944893028772,-0.6978132089815403,-0.4575622247185218,10.445524901892895,-1.4039654946752853,0.1086512747679237,-1.3019280450598552
1.14,-1.9577748963891064,-0.3257839959144376,2.363922800121672,0.0748055411067763,0.2242482801268789,0.0321864543658518,0.9374290451924898,0.353442998427743,-0.6374541575201609,-1.9718019600404249,-0.3251865757623095,2.36101559210352,1.0645178163521332,0.4923644444121797,-0.9133447270845824,1.1462818733601068,0.6953049845878967,-0.718953044007356,-0.5600175283986542,10.208447618617356,-1.412015576804562,0.1106003568558662,-1.2917152057429704
1.16,-1.9398480011108483,-0.3192005810971256,2.3516917338578547,0.0713163613511948,0.2188274123668812,0.0314701337686367,0.9487359940653464,0.3408936660914762,-0.6493645965016877,-1.9511116037223228,-0.3154422241775494,2.343348697570769,1.1045178169481795,0.4992269313110787,-0.9533447276806288,1.033430442303858,0.565347443642833,-0.6274666168133408,-0.5955219490763386,10.089247484893349,-1.4195663853316725,0.1147691289490969,-1.2782989829614724
1.18,-1.920767122244068,-0.3124980159623096,2.338559910895812,0.0667407354030833,0.2130403050155622,0.0306710446888846,0.9585656243346334,0.3302975457284344,-0.6632073716294651,-1.92942124738932,-0.3055263104203168,2.324681803023117,1.144517817544226,0.5060894182099779,-0.9933447282766752,1.000652063927775,0.491481513464348,-0.529806018152093,-0.6921387563888715,9.984455745974628,-1.427208201450876,0.1199902858978938,-1.2643943906442705
1.2,-1.9015102268726851,-0.3059887033850514,2.3251358779603764,0.0619071584606436,0.2074126506176369,0.0298952391901867,0.9664739548889814,0.3213561758547593,-0.6785246490428946,-1.8728388410273364,-0.2959831386758879,2.3053995423143383,1.03321732012254,0.34103552830701,-0.7632073731195812,0.9709644364427752,0.395416527717396,-0.4470684936837554,-0.7658638706714738,9.76241137726629,-1.4344641811181489,0.1254451191521247,-1.2500272174525209
1.22,-1.8820028000845843,-0.2995935167677707,2.3117494981729614,0.0593190608380557,0.2009623959401202,0.0292541951282565,0.9839162358166208,0.317653903142134,-0.6575696739404986,-1.8728388410273364,-0.2959831386758879,2.3053995423143383,1.03321732012254,0.34103552830701,-0.7632073731195812,1.375727960698792,0.8721140463819776,-0.1851136356312621,1.0477487551197984,9.76241137726629,-1.4404725734492012,0.128489474424351,-1.2170524786348735
1.24,-1.8631770022553904,-0.2936151045436915,2.299411242656633,0.059508700231765,0.193508967530465,0.0287544137368706,0.9964927414596004,0.3116232281112324,-0.6424239032764888,-1.8728388410273364,-0.2959831386758879,2.3053995423143383,1.03321732012254,0.34103552830701,-0.7632073731195812,1.0294803355613673,0.6288252821489815,-0.30153375154508,0.7572885332004897,12.156116336366722,-1.4539038246419298,0.1279539355900941,-1.2277026102008353
1.26,-1.843152955876024,-0.2874642994920726,2.286647922140884,0.0609794265277055,0.1852169016326256,0.0282751488539119,1.004883734512484,0.3037392453340842,-0.6350563807976563,-1.862506667826111,-0.2925727833928178,2.2977674685831424,1.048147659280121,0.3431831248227251,-0.7832073734176044,0.6834587337945375,0.41954965264418,-0.3941991388574095,0.3683761239416272,11.538441657592555,-1.466600507652594,0.1259557703495945,-1.2299810952147885
1.28,-1.8230083690861612,-0.2814831845494508,2.2739484292466345,0.0629532787946383,0.177162960050364,0.0278207790459028,1.008890746734756,0.2947756425475245,-0.6355352839204194,-1.84184232142366,-0.2857520728266776,2.282503321120751,1.078008337595284,0.3474783178541554,-0.8232073740136508,0.4915070448774114,0.2003506111135977,-0.448180139327986,-0.0239451561381554,10.97974977652484,-1.478140724460936,0.1234618886609445,-1.2254630032242593
1.3,-1.802825295333824,-0.2756936330875298,2.2611644769370223,0.0647745338360743,0.1699425441027933,0.0273830388211024,1.0091533319146182,0.2847221867744405,-0.6427528397244465,-1.8211779750212091,-0.2789313622605374,2.2672391736583597,1.1078690159104467,0.3517735108855856,-0.8632073746096973,0.6189386798025432,0.0131292589931053,-0.5026727886542015,-0.3608777902013582,10.515057466416692,-1.487208218126134,0.1213275684591655,-1.2161767309480411
1.32,-1.7836761789440456,-0.2703883342896916,2.248838474297811,0.0658703670887506,0.1643032689909824,0.0269844257224039,1.0064868349041804,0.274376690317171,-0.6542998389010489,-1.7990205947030005,-0.2718958920428256,2.2499750261661653,1.1377296942256094,0.3560687039170158,-0.9032073752057438,0.7865632416381183,-0.1333248505218875,-0.5172748228634755,-0.5773499588301201,9.864936693058551,-1.494351672498519,0.1199051779858156,-1.2029859622200147
1.34,-1.7635995985773831,-0.2650216549539833,2.2356032930269234,0.0659896163440635,0.1602488656865768,0.0266073676458173,1.0011841215939743,0.262939623759498,-0.6686624783068408,-1.7768632143847916,-0.2648604218251139,2.2327108786739718,1.167590372540772,0.3603638969484461,-0.9432073758017904,0.9555242940340152,-0.2651356655102965,-0.571853327883648,-0.7181319702895927,9.864936693058551,-1.4987917299730935,0.1197697452620286,-1.1881261926029554
1.36,-1.7436465669314185,-0.2598878467194593,2.222064891201692,0.0647139667460097,0.1587364239466733,0.0262990285195974,0.9944818903151172,0.2511646428203874,-0.6844824175686379,-1.7539593171087036,-0.2577175717816165,2.2144467311668765,1.1974510508559346,0.3646590899798763,-0.9832073763978366,1.041441979275204,-0.3351115639428637,-0.5887490469555307,-0.7909969630898572,9.733331108985112,-1.4989278034798972,0.1210347254089902,-1.174233772358204
1.38,-1.7238220190803617,-0.2549883198166372,2.2081977227838125,0.0617799606143363,0.1596209777333329,0.0260309219914322,0.9886120179585052,0.2398684188307528,-0.7013833022099529,-1.7303089028747365,-0.2504673419123333,2.19518258364488,1.227311729171097,0.3689542830113066,-1.023207376993883,1.0579460992483865,-0.2934936178306035,-0.5648111994817268,-0.8450442320657503,9.568396591505008,-1.4948033310649158,0.1239888208957357,-1.1611497700956854
1.4,-1.7050835338527417,-0.2505206175149237,2.1947056263233917,0.0580359582989652,0.1619553483741734,0.0257995835258342,0.9843585781119067,0.2312788459010754,-0.7179570502896973,-1.6743914181824362,-0.2429948988750995,2.173128557673315,1.0568141782573297,0.2622866626412873,-0.801383303700069,0.9572899757305872,-0.2126719923299158,-0.4294786464838745,-0.8286874039872161,9.568396591505008,-1.4891625254125678,0.1280103969669034,-1.150828497760087
1.42,-1.6853531375940929,-0.2459928125514881,2.180509388024385,0.053839716702072,0.1647718730777019,0.0255536786554449,0.9893010483779894,0.2220372533334665,-0.6990067335610478,-1.6743914181824362,-0.2429948988750995,2.173128557673315,1.0568141782573297,0.2622866626412873,-0.801383303700069,1.0827621502815417,0.247123513304126,-0.4620796283804407,0.947515836432472,9.519611270151472,-1.4806538971682424,0.1323518490994605,-1.1245204662032688
1.44,-1.6655172339767108,-0.2416421379701024,2.166691461409984,0.0494791945769055,0.1671633432748327,0.0252679511417092,0.9940335039028612,0.213780545997547,-0.6839431571329938,-1.6743914181824362,-0.2429948988750995,2.173128557673315,1.0568141782573297,0.2622866626412873,-0.801383303700069,0.8908993856347386,0.2366227762435946,-0.4128353667959758,0.7531788214027002,11.859156834482746,-1.479848152044319,0.1363459115692147,-1.1396837561165392
1.46,-1.6465933032819242,-0.2376492768051369,2.153769724419001,0.0451345733387013,0.1691239089626129,0.0249642296714662,0.9977413904868732,0.2071831398654513,-0.6769693477331936,-1.6638232763998628,-0.2403720322486867,2.165114724636314,1.0704546103170944,0.2667703114033942,-0.8213833039980922,0.5145585684264998,0.1853943292005999,-0.3298703066047848,0.3486904699900095,11.349357038052403,-1.4785523686383524,0.1408781070969181,-1.1505466996379652
1.48,-1.6266053646518324,-0.233566236669409,2.1402501125829483,0.0404186804851453,0.1708974113626395,0.0246208136931701,1.000838151511264,0.2016839596149966,-0.6756111927607993,-1.6426869928347163,-0.2351262989958609,2.149087058562313,1.097735474436624,0.275737608927608,-0.8613833045941387,0.3227828108737253,0.1548380512195413,-0.274959012522738,0.0679077486197166,10.892664157571744,-1.4771805626935557,0.1456523944691063,-1.157081629777611
1.5,-1.6065629566318242,-0.2295781719984728,2.1267022459468405,0.0356694141570337,0.1724598031120423,0.0242679906368602,1.0032411954849862,0.19757643874186,-0.6794330697317859,-1.6215507092695698,-0.2298805657430352,2.1330593924883114,1.1250163385561538,0.2847049064518218,-0.9013833051901852,0.3051765539988805,0.1201521986861076,-0.2053760436568297,-0.1910938485493285,10.534948596937284,-1.4754491601635906,0.1504809069450788,-1.160459067922963
1.52,-1.586479658527443,-0.2256583238671137,2.1130293354481933,0.0309930349599589,0.1739009049993774,0.0239191368317925,1.0050124859234253,0.1947620752296312,-0.6876302259964794,-1.5990503824984468,-0.2241864676139987,2.115031726384508,1.1522972026756837,0.2936722039760356,-0.9413833057862316,0.4422993404473795,0.0885645219219521,-0.14071817561144,-0.4098578132346764,10.247717284224564,-1.4737587988798275,0.1550120283660918,-1.161104527453232
1.54,-1.567369706106756,-0.221975167061311,2.099870179980302,0.0267194262826848,0.1752426394953893,0.0236027439123434,1.006519183669184,0.1931683850865256,-0.6971159976260513,-1.5765500557273235,-0.2184923694849623,2.097004060280704,1.1795780667952132,0.3026395015002494,-0.981383306382278,0.4868003948686177,0.0753348872879366,-0.0796845071552782,-0.4742885814785935,10.019121331100903,-1.4718169119180535,0.1595737995809371,-1.1589051545796778
1.56,-1.547220082251766,-0.2181187382101708,2.0858093976365466,0.0225179636559336,0.1765816254758065,0.0232937477960898,1.0083843823006795,0.1926158240383546,-0.708519199038594,-1.5533677073532122,-0.2125740889178205,2.077976394161999,1.206858930914743,0.3116067990244632,-1.0213833069783245,0.5783971215823611,0.0932599315747739,-0.0276280524085514,-0.5701600706271348,9.923139736602025,-1.469685999364842,0.1637820238155762,-1.1558654933994
1.58,-1.527030801565333,-0.2142627295703532,2.0715043027685254,0.0187209630619062,0.177688848811344,0.023014364676866,1.0104470712430609,0.1930131232947226,-0.7214010567413316,-1.5295033373761129,-0.2064316259125734,2.057948728028393,1.2341397950342727,0.3205740965486769,-1.0613833075743708,0.6526001651963361,0.1031344471190687,0.0198649628184,-0.6440928851368821,9.83865473934111,-1.4680042322061218,0.1673808864342583,-1.1524732069557253
1.6,-1.5078123803636638,-0.2105845271371698,2.057662333881216,0.0155164751421385,0.1784477884944627,0.0227789874812027,1.012424409566376,0.1941229724789592,-0.7349911472295428,-1.4765084480031805,-0.2046120734056171,2.0354342499314586,1.0608463411517275,0.2092260728240128,-0.7499593649999843,0.6888980177326173,0.0988669161657629,0.0554924592118324,-0.6795045244105624,9.759008092191834,-1.466757196784049,0.1707467277296345,-1.1491436695260484
1.62,-1.487356473188933,-0.206625418554248,2.0433314363794626,0.0145780368782737,0.176124529575592,0.0226635616106945,1.0336284629267023,0.2010248195833033,-0.6946896114784055,-1.4765084480031805,-0.2046120734056171,2.0354342499314586,1.0608463411517275,0.2092260728240128,-0.7499593649999843,2.30296610714287,1.060202668016319,0.3450923552172039,2.0150767875568687,9.67779500283359,-1.4564993259061754,0.1701041393456774,-1.1160189236167892
1.64,-1.4664841891615852,-0.2025527714590314,2.0298469481806767,0.0169578821175169,0.1678314022576235,0.0226863706962122,1.051426775041511,0.2055740607795994,-0.6564369216098704,-1.4765084480031805,-0.2046120734056171,2.0354342499314586,1.0608463411517275,0.2092260728240128,-0.7499593649999843,2.121758581799857,0.8899156057404212,0.2274620598148036,1.9126344934267516,13.555421807211133,-1.4736689346997351,0.1691535984655679,-1.140566653388994
1.66,-1.4464014441716688,-0.1986316631240006,2.017643261306948,0.0209068317354663,0.1563042564683794,0.022725640960912,1.060975690665466,0.2065074539371281,-0.6299859757594259,-1.465899984591663,-0.2025198126773769,2.027934656281458,1.0709261951334608,0.2124686627298708,-0.7556710266517148,1.4068631319029226,0.4774457811977495,0.0466696578764344,1.3225472925222248,12.8834650151839,-1.4954554401140334,0.1658855570144469,-1.1525569842360732
1.68,-1.4251435623263828,-0.1945183601465235,2.005257454420221,0.0252187120935053,0.1422652856573329,0.0226732633191295,1.063691427345645,0.2046960520040568,-0.6103246382267343,-1.4446830577686285,-0.1983352912208967,2.012935468981459,1.0910859030969275,0.2189538425415869,-0.7670943499551759,0.9965247064845312,0.1357868340089552,-0.0905700966535624,0.9830668766345808,12.171660574159432,-1.517047813049873,0.1619456523607841,-1.1531447748496122
1.7,-1.403901726958932,-0.1904590141824646,1.993181255722408,0.029035346535505,0.1279084310394858,0.022510576500294,1.0598995785852878,0.2013635238544852,-0.5985697241551424,-1.4234661309455938,-0.1941507697644164,1.9979362816814596,1.111245611060394,0.225439022353303,-0.778517673258637,0.6396519868639887,-0.1895924380178604,-0.1666264074785831,0.5877457035795952,11.117057058769204,-1.5374043235999342,0.1582497983609273,-1.145612653919159
1.72,-1.3827972109721256,-0.1864772088478653,1.9812634680082235,0.0321123023869856,0.1145607125423984,0.0222700921216494,1.0505677437735743,0.1971318357207692,-0.5937277775496665,-1.401241218724386,-0.1896419893173503,1.9823659282162869,1.1314053190238609,0.2319242021650191,-0.789940996562098,0.566645330750231,-0.4665917405856645,-0.2115844066857955,0.2420973302737938,11.117057058769204,-1.5542059040798224,0.155304663405158,-1.1335770295426844
1.74,-1.3629605944669252,-0.1827789604979365,1.97000322781852,0.034324829267315,0.1036577921627564,0.0220132947142099,1.037944709874816,0.1925338489893679,-0.5917612314944282,-1.3790163065031782,-0.1851332088702843,1.9667955747511137,1.1515650269873274,0.2384093819767351,-0.8013643198655591,0.6788773272446262,-0.6311516949379259,-0.2298993365700663,0.0983273027619191,10.732432635539226,-1.5678296395488047,0.1528477011470251,-1.1176479854921488
1.76,-1.3423646252778787,-0.1789824334122176,1.9581740156105547,0.0359809906218721,0.0944736124402729,0.0217526019881143,1.0222712311050537,0.1874378820376644,-0.5913114359072514,-1.3562874015828836,-0.1804622989279253,1.9509396382033548,1.171724734950794,0.2448945617884512,-0.8127876431690202,0.8243620745602142,-0.7836739384881164,-0.2547983475851736,0.0224897793588363,10.580469147927944,-1.5772464657211127,0.1510347643448449,-1.1013545564596363
1.78,-1.3221049083692016,-0.1752928265720421,1.9463379400571608,0.0369097789664479,0.087845249227988,0.0215228887739311,1.0043710240793573,0.1818291303587854,-0.5923597436729938,-1.3330545039635024,-0.1756292594902735,1.934798118573009,1.1918844429142608,0.2513797416001673,-0.8242109664724813,0.9393807217122276,-0.8950103512848195,-0.2804375839439502,-0.0524153882871192,10.47892041070736,-1.584007229438006,0.150003164985632,-1.0876360150407658
1.8,-1.302228897251113,-0.1717216696745058,1.9344676113732375,0.0368701145657547,0.0844030630041154,0.0213432261343063,0.9841537610071992,0.1757025857931628,-0.5945816883304635,-1.2718863571652337,-0.1662013700541029,1.916719952873511,1.042894426144396,0.193390973925382,-0.6093178313557178,1.062084404019128,-1.010863153607905,-0.3063272282811335,-0.111097232873486,10.395620470313588,-1.586252023884966,0.1498704420250196,-1.0762952121437612
1.82,-1.2836905610089189,-0.1684292510634969,1.92339060168924,0.0365075066881912,0.0839452459261863,0.0212584909377452,0.968534042564377,0.171006166073195,-0.5713316437737217,-1.2718863571652337,-0.1662013700541029,1.916719952873511,1.042894426144396,0.193390973925382,-0.6093178313557178,1.4200321601196422,-0.7809859221411086,-0.2348209859983907,1.1625022278370922,10.337956801370638,-1.5752729109794017,0.1494302599811107,-1.0577471194357777
1.84,-1.2644868716228752,-0.165069928139085,1.9121936276671745,0.0359682705766515,0.0854020042429506,0.0212336634839079,0.9528440603090172,0.1652346766664344,-0.5498886597701382,-1.2718863571652337,-0.1662013700541029,1.916719952873511,1.042894426144396,0.193390973925382,-0.6093178313557178,1.3594918132557758,-0.784499112767989,-0.2885744703380294,1.0721492001791733,12.001203164242725,-1.5736524817046569,0.1498088223424225,-1.0681788920816233
1.86,-1.24558926665949,-0.1618294298094605,1.9013780986495397,0.0347588503896838,0.08841400058257,0.0212216488770319,0.9379087763923328,0.1592211187216178,-0.5329081942242603,-1.2614574129037897,-0.1642674603148491,1.9106267745599537,1.0505991065574036,0.1957033426387013,-0.6127094488922626,1.170001917714658,-0.7467641958342264,-0.3006778972408308,0.8490232772938977,11.68803943779676,-1.570086077497579,0.1507685191965576,-1.0776047694742892
1.88,-1.2269800932874606,-0.1587076656830555,1.8908627237080244,0.0325980918888655,0.092601610104798,0.0211848093948753,0.9240084598002724,0.1535267769378328,-0.5194539507884691,-1.2405995243809018,-0.1603996408363414,1.89844041793284,1.0660084673834191,0.2003280800653399,-0.6194926839653522,1.0082918676400134,-0.6950158296030129,-0.2847170891892486,0.6727121717895579,11.22117896137297,-1.564100412461422,0.1526468976619194,-1.0866575821410007
1.9,-1.209546714343988,-0.1558328276380204,1.881099403973865,0.0299210329961162,0.0973166845347793,0.0211269214410749,0.9119771146218696,0.1495927853056133,-0.5089308268735865,-1.219741635858014,-0.1565318213578338,1.8862540613057253,1.0814178282094349,0.2049528174919785,-0.6262759190384418,0.8230517813178937,-0.6015672589201382,-0.1966995816109734,0.5261561957441319,11.22117896137297,-1.5570425725098485,0.1552337904402274,-1.0957791567456434
1.92,-1.1914284542099736,-0.1528728248845258,1.871020905870891,0.0269434231813204,0.1027259920484928,0.021061656449928,0.9006665978250283,0.1467364018428037,-0.4995524804627086,-1.1981132792938254,-0.1524327650079942,1.8737285429249564,1.0968271890354502,0.2095775549186171,-0.6330591541115315,0.7483984535337239,-0.5655258398420682,-0.1428191731404821,0.4689173205438907,11.08059402935578,-1.5497493321995164,0.1580607321253241,-1.1048424445898806
1.94,-1.1735205674748042,-0.1499591598876739,1.8611232866224807,0.0240298488065406,0.1083011636408987,0.0209977484195648,0.8908592934710206,0.1448494846607111,-0.4906853704201502,-1.1764849227296366,-0.1483337086581546,1.8612030245441875,1.1122365498614657,0.2142022923452557,-0.639842389184621,0.6677748790780024,-0.4903652177003892,-0.0943458591046261,0.4433555021279206,10.979349843761156,-1.5425920342835262,0.1607274276805795,-1.1131053696643305
1.96,-1.1557909035900995,-0.1470733307873805,1.851399709098511,0.0213289680841905,0.1137090107840296,0.0209379273311555,0.8827124772158792,0.1438466860946058,-0.4821351056394264,-1.1544713321447977,-0.1441190338726491,1.8485079252865917,1.127645910687481,0.2188270297718943,-0.6466256242577106,0.5926281462259978,-0.4073408127570677,-0.0501399283052692,0.4275132390361924,10.963110507382224,-1.5353894974631397,0.1633907146269536,-1.1220375047381663
1.98,-1.139085009221925,-0.1443434043527206,1.84231608512511,0.0190378454276117,0.1184123795963249,0.0208867427224057,0.8762701454057038,0.1435517007259658,-0.4744811545295325,-1.132072507539308,-0.1397887406514776,1.8356432451521685,1.1430552715134965,0.2234517671985329,-0.6534088593308002,0.5004338695391103,-0.3221165905087697,-0.014749268431996,0.3826975554946932,10.95111374489352,-1.5291130295391773,0.1658393759973911,-1.1309693470416586
2.0,-1.1216211333436987,-0.1414703327773132,1.8329052932549028,0.0169362764600676,0.1227354326158816,0.0208407765646431,0.8705167340214395,0.1437689985964779,-0.4670413630991225,-1.0952715019516397,-0.1371658193164223,1.8185920273986331,0.908976130415374,0.1544696688426665,-0.4820588136261013,0.4703707512407466,-0.2876705692132164,0.0108648935256028,0.3719895715205007,10.92989809593564,-1.5238883026829653,0.1680340920896495,-1.139416205489864
2.02,-1.104189883154048,-0.1385588564607878,1.823809334925805,0.0161389574541684,0.1246552253523622,0.020847575754019,0.8729752316039684,0.147073534300981,-0.4420958612147961,-1.0952715019516397,-0.1371658193164223,1.8185920273986331,0.908976130415374,0.1544696688426665,-0.4820588136261013,1.2641620058823224,0.1229248791264459,0.165226785225156,1.2472750942163184,10.9010583016252,-1.5132042250286553,0.1682197279736593,-1.1381413513710923
2.04,-1.086709778017896,-0.1355892830479929,1.8152091368491612,0.0172074258298532,0.1225361659258272,0.0209224440135443,0.8746085802637502,0.1495297097951671,-0.4192890048955576,-1.0952715019516397,-0.1371658193164223,1.8185920273986331,0.908976130415374,0.1544696688426665,-0.4820588136261013,1.149840555326089,0.0816674329890909,0.1228087747093056,1.1403428159619282,12.127986756185235,-1.519213237276446,0.1678051562029261,-1.1534970825871846
2.06,-1.0701001918813622,-0.1327318908607206,1.807417819482684,0.0195083767938916,0.1175446790104929,0.021026367715304,0.8732243504138018,0.1509840991946345,-0.4019797799974643,-1.0861817406474858,-0.1356211226279956,1.8137714392623725,0.915517327417308,0.1566532624660066,-0.4835743454454151,0.8712643217984163,-0.0692114924974229,0.0727194699733674,0.8654612449046611,11.582473738571023,-1.5299730674660343,0.1659351541412743,-1.1628809356515697
2.08,-1.0526894382233036,-0.1297164158397802,1.799532802483521,0.0226452877085878,0.1106168363560856,0.0211334793913414,0.867573273539699,0.1502744706583812,-0.3875969382033734,-1.0680022180391784,-0.1325317292511423,1.8041302629898504,0.9285997214211762,0.1610204497126869,-0.4866054090840426,0.7734733036284026,-0.2825538437051356,-0.0354814268126627,0.7191420897045497,11.582473738571023,-1.5417304305618165,0.1630793211029135,-1.1645488020603476
2.1,-1.0354342524969071,-0.1267357584739293,1.7918921225095692,0.0255926547333785,0.1033697365913389,0.0211948417687567,0.8580649755110612,0.1478748370550328,-0.3771604810614336,-1.049822695430871,-0.129442335874289,1.7944890867173282,0.9416821154250444,0.1653876369593671,-0.4896364727226702,0.7160405199904235,-0.475414901431892,-0.1199816801674219,0.5218228570969874,11.34147824190677,-1.5516398990407736,0.1603576498897626,-1.1616445063475012
2.12,-1.0184036894201944,-0.1238136197446778,1.7844278521630748,0.0280116016130688,0.0968409281736335,0.0212162526774062,0.8454005120420768,0.1445779019312813,-0.369765315471483,-1.03098905312237,-0.1261345831351016,1.784696357262875,0.9547645094289124,0.1697548242060474,-0.4926675363612977,0.7515764935624599,-0.6332231734492211,-0.1648467561875741,0.3697582794975312,11.120525320323395,-1.5600030620211696,0.1579014549957233,-1.1556442028224163
2.14,-1.0024858142255888,-0.1211042693680765,1.777457914841473,0.0297381028038339,0.0921025841135616,0.0212248349552976,0.8307340036664199,0.1409115003605474,-0.3642631367152396,-1.0121554108138693,-0.1228268303959143,1.7749036278084214,0.9678469034327806,0.1741220114527277,-0.4956985999999252,0.8043987498075026,-0.7333254187828431,-0.1833200785366945,0.2751089378121713,10.945973475971186,-1.565921961822254,0.1560388599928802,-1.1489920997564556
2.16,-0.9860535248697352,-0.1183310555018049,1.770224404629945,0.0309405280531757,0.0895265377702165,0.0212569684528874,0.8132008976005282,0.1366351854870457,-0.3594079462955712,-0.9929947086552716,-0.1194098979755599,1.7650351217630025,0.9809292974366486,0.1784891986994079,-0.4987296636385527,0.9344377336483976,-0.8766553032945879,-0.2138157436750873,0.2427595209834154,10.86427963807455,-1.56779930197931,0.1547595982635687,-1.1431844883086917
2.18,-0.9699771347439924,-0.1156496256547948,1.763080073970691,0.0313266826464356,0.0898436799529566,0.0213218759502124,0.795707017048822,0.1318341935261859,-0.3552410864198023,-0.9735069466465772,-0.1158837858740386,1.7550908391266176,0.9940116914405168,0.1828563859460882,-0.5017607272771804,0.9306558195566952,-0.8746940275853099,-0.2400495980429864,0.208342993788449,10.8138419681527,-1.5641211834354358,0.1541726136818629,-1.1386841380437445
2.2,-0.9542345892808748,-0.1130668617893091,1.7560169441708176,0.0307105296697333,0.0923737690485073,0.0213889146462317,0.7797239247899171,0.1268152314288603,-0.351262035106699,-0.9301917838915512,-0.1090579159784855,1.7453180196497011,0.8169209955777984,0.1301422450201361,-0.3637349820622617,0.8609327326268925,-0.7991546129452409,-0.2509481048662818,0.1989525656551638,10.743170985148936,-1.5583833354316536,0.1545824123996131,-1.1372478420164562
2.22,-0.9395146764702867,-0.1106572806477446,1.7495066682099485,0.0307160345983487,0.0951034425754208,0.0215059776725204,0.7704486254252199,0.1265181739965165,-0.3342780962866851,-0.9301917838915512,-0.1090579159784855,1.7453180196497011,0.8169209955777984,0.1301422450201361,-0.3637349820622617,0.9676951989971307,-0.4637649682348643,-0.0148528716171908,0.8491969410006933,10.743170985148936,-1.546622291352982,0.1540670725198491,-1.1356944787558794
2.24,-0.924208937260887,-0.108144634653301,1.742991565893162,0.0321590531110671,0.0971677144213224,0.0217074878297026,0.760582625433395,0.124642061822376,-0.3183069159651149,-0.9301917838915512,-0.1090579159784855,1.7453180196497011,0.8169209955777984,0.1301422450201361,-0.3637349820622617,0.943313778115156,-0.4932999995912401,-0.0938056087070232,0.7985590160785094,11.598009371485205,-1.545158745548393,0.1527062718172436,-1.1466031252552649
2.26,-0.9091044887503852,-0.1056825853491233,1.7367646205958651,0.0343926711981424,0.0987579583119182,0.0219514782850959,0.7503565005835948,0.1215113285906712,-0.3053140801023631,-0.9220225739357734,-0.1077564935282841,1.7416806698290783,0.8211637912835937,0.1298038553189262,-0.3654337611907535,0.8414108743179712,-0.5113062424900117,-0.1565366615852388,0.6496417931375925,11.26209676853341,-1.544026423350023,0.1506112186353212,-1.1542956501661454
2.28,-0.8949478263924244,-0.1034182518261944,1.7310630522248245,0.0366012911249909,0.1000753413953215,0.0221840424956195,0.7403633097685884,0.1170140117080566,-0.2954906413521433,-0.9056841540242172,-0.1051536486278814,1.7344059701878332,0.8296493826951843,0.1291270759165062,-0.3688313194477373,0.735849289404932,-0.499659540750319,-0.2248658441307324,0.4911719375109868,11.121264717016857,-1.5422039532519525,0.1482141311358667,-1.1595479845253769
2.3000000000000003,-0.8802526102053371,-0.1011364669122561,1.7252442438547844,0.0385525312231375,0.1014406460928605,0.0224027586809913,0.7297161791459622,0.1114654066510429,-0.2869832100435203,-0.8893457341126614,-0.1025508037274787,1.727131270546588,0.8381349741067748,0.1284502965140863,-0.3722288777047211,0.7357390774672148,-0.5323565311313116,-0.2774302528506842,0.425371565431154,11.121264717016857,-1.5396394289493167,0.1461505753598843,-1.162853809584431
2.32,-0.8657707582561814,-0.0989722665035841,1.7195783831297995,0.0399319731816965,0.1029088291481038,0.0225860784007328,0.7190487440026567,0.1052808492105242,-0.2800864711777295,-0.8725830346305259,-0.099981797797197,1.7196866929924937,0.8466205655183654,0.1277735171116664,-0.3756264359617048,0.7064133532405314,-0.5333717571652741,-0.3092278720259362,0.3448369432895365,11.01399994197709,-1.5364130601596284,0.1446509104234304,-1.164622716762972
2.34,-0.8515009692547925,-0.0969389825529951,1.7140407789406265,0.0404781401501657,0.1045603823744702,0.0227190804911245,0.7085426942672886,0.0984761972836994,-0.2740051981745298,-0.8558203351483904,-0.0974127918669152,1.712242115438399,0.855106156929956,0.1270967377092465,-0.3790239942186886,0.695812924259669,-0.5253024867684086,-0.340232596341241,0.3040636501599886,10.92365499956304,-1.5328547252258566,0.1440233979233202,-1.1651661632039618
2.36,-0.8381352362747225,-0.0951369395795455,1.7088877348158438,0.0400131976713221,0.1062772837597181,0.0227831702026561,0.6989614343650322,0.0916841440811288,-0.2687161604854947,-0.8388454958809651,-0.094860705421694,1.7047125989278802,0.8635917483415466,0.1264199583068265,-0.3824215524756723,0.6440233840808265,-0.4790629951128167,-0.3396026601285282,0.2644518844517551,10.88437756730582,-1.52868134780012,0.144426797292569,-1.1653856310473578
2.38,-0.8242580612747664,-0.0933780400960367,1.70356775087983,0.0383531244900972,0.1081612812161342,0.0227722321704288,0.6893164252396202,0.0846832845881525,-0.2635737913223342,-0.8216585168282501,-0.0923255384615333,1.6970981434609365,0.8720773397531372,0.1257431789044066,-0.3858191107326561,0.6490034577717989,-0.4822504562705998,-0.3500429746488141,0.2571184581580232,10.854406336161446,-1.5242933880691518,0.1460818231388305,-1.1657668039423803
2.4,-0.8105694442364663,-0.0917510809696765,1.698345839053799,0.0355482572837243,0.1100569046924464,0.0226819171436238,0.6800723078946941,0.0787348000504847,-0.2588813189758794,-0.7897922400127854,-0.0891438758666291,1.6903890613137134,0.7062270340974903,0.0911491256728712,-0.241646740076168,0.597614989989122,-0.4622058672463069,-0.297424226883388,0.2346236173227378,10.82694373088998,-1.5196664612921944,0.148921511426066,-1.1666033323570284
2.42,-0.7970020161650658,-0.0902392785192526,1.6933936282495692,0.0318854895886154,0.1106555021861023,0.0224890510026421,0.6771995422992352,0.0730908839840668,-0.2356655466526155,-0.7897922400127854,-0.0891438758666291,1.6903890613137134,0.7062270340974903,0.0911491256728712,-0.241646740076168,1.20320265884103,-0.1436382797729452,-0.2821958033208983,1.1607886161631955,10.796497211324096,-1.5084188680330683,0.1518384971243853,-1.161969875535975
2.44,-0.7841673005923574,-0.0888851180687774,1.689132137041648,0.0280814416882378,0.1089140893111521,0.0222198944828953,0.6737701991880479,0.0698507879152267,-0.2141901430642915,-0.7897922400127854,-0.0891438758666291,1.6903890613137134,0.7062270340974903,0.0911491256728712,-0.241646740076168,1.0993766142580106,-0.1714671555593627,-0.1620048034420063,1.073770179416203,11.890793766637216,-1.5113229086910642,0.1561993385654734,-1.1729528972525225
2.46,-0.7707463192595215,-0.0875103179460026,1.685059365545946,0.0242649219482631,0.1052129306508275,0.0219179903678955,0.668307145525335,0.0678644188159977,-0.1943453573166864,-0.7827299696718104,-0.0882323846099004,1.6879725939129515,0.7096091558690644,0.092442293889815,-0.2372613298269347,1.0339319838466188,-0.2731526831356468,-0.0993184549614459,0.9922392873802532,11.714863419282665,-1.516646160625067,0.1602828051525309,-1.1795406721097617
2.48,-0.7581207773688852,-0.0862298101719514,1.6815286049152751,0.0210029603916594,0.1005294504252788,0.0216527132567929,0.6608103152143504,0.0670072802633311,-0.1782976311144505,-0.7686054289898606,-0.0864094020964429,1.6831396591114285,0.7163733994122123,0.0950286303237024,-0.2284905093284682,0.8866604021158446,-0.374841515549229,-0.0428569276333293,0.802386310111794,11.54593248954825,-1.5237502311342996,0.1642448676333699,-1.1830529476457383
2.5,-0.7450128653541839,-0.0848915887764123,1.6781195806630265,0.0180065266900915,0.0951925689861294,0.0214220357903432,0.6501568065639627,0.0668553074266637,-0.1635450982901452,-0.7544808883079108,-0.0845864195829855,1.678306724309905,0.7231376429553604,0.0976149667575899,-0.2197196888300017,0.9098867608652972,-0.5326754325193861,-0.0075986418333721,0.7376266412152666,11.54593248954825,-1.5310792018037165,0.1677409808773413,-1.1837656148648394
2.52,-0.7321495012462829,-0.0835495068609567,1.6749837003527135,0.0154723829231905,0.090438731112506,0.0212582358156226,0.6365124009307569,0.0673338624115275,-0.1508660527339368,-0.7400181354488036,-0.0826341202478337,1.673912330533305,0.7299018864985085,0.1002013031914774,-0.2109488683315352,0.9316075034227156,-0.6822202816602896,0.023927749243191,0.6339522778104164,11.418378989154917,-1.5370041623293436,0.170701989137499,-1.1830643133973977
2.54,-0.7195902558900784,-0.0821924679438067,1.6720894494337546,0.013402008879657,0.0874417844249005,0.0211721095976019,0.6200388741822496,0.0682759500965786,-0.1391910523435626,-0.7255553825896964,-0.0806818209126819,1.669517936756705,0.7366661300416565,0.1027876396253649,-0.2021780478330687,1.0106560330490175,-0.8236763374253664,0.0471043842525518,0.583750019518714,11.272928628690352,-1.5403598514700405,0.1730276876118611,-1.1829665105725695
2.56,-0.7079785594400233,-0.0808818088454116,1.6695509372855348,0.011848644115284,0.0870314913728697,0.0211624089741684,0.6034172003654371,0.0695800179008474,-0.1286043996453152,-0.7109235236420105,-0.0786648631666829,1.6653428134925663,0.7434303735848046,0.1053739760592524,-0.1934072273346022,0.9874941122152914,-0.8310836908406227,0.0652033902134412,0.5293326349123662,11.272928628690352,-1.537699310683609,0.1747772006750597,-1.1853197593003453
2.58,-0.6960834300711215,-0.0794712744943531,1.6670947486553735,0.0106768661949619,0.088810078799106,0.0212165921484555,0.5872178148431584,0.0713985467435072,-0.1175803735470161,-0.6961225586057459,-0.0765832470098367,1.66138696074089,0.7501946171279525,0.1079603124931398,-0.1846364068361358,0.983941423392394,-0.8099692761139365,0.0909264421329929,0.5512013049149569,11.240323367485871,-1.5320160237294853,0.1760125893041992,-1.1910012834091617
2.6,-0.684496278721647,-0.0780185512938029,1.6648581132234503,0.010131826462056,0.0921791606966589,0.0213350526660276,0.5725679902427664,0.0737220753516027,-0.1066466613876881,-0.6667225393289635,-0.0759013471571777,1.6612157299780228,0.5955405250145003,0.0748929763783912,-0.1326447760304198,0.9213606888698996,-0.7324912300195996,0.1161764304047748,0.5466856079664018,11.230427189695549,-1.5252160917138995,0.1766137194332287,-1.1989841109832722
2.62,-0.6737281452231872,-0.0765667626460143,1.6628817278749397,0.0111205224055592,0.0956118067921409,0.0215587681225621,0.5616347080423402,0.0785677528545683,-0.1019521737061145,-0.6667225393289635,-0.0759013471571777,1.6612157299780228,0.5955405250145003,0.0748929763783912,-0.1326447760304198,0.6423695679461887,-0.546664110021311,0.2422838751482761,0.23472438407868,11.225566868237363,-1.5176800507524206,0.1756307795302498,-1.2108177129327289
2.64,-0.6626132676821317,-0.0749538249499785,1.660883911591957,0.0141396010022556,0.098658153145586,0.0219326905382017,0.5504662545721782,0.0820839927333642,-0.0981020211880763,-0.6667225393289635,-0.0759013471571777,1.6612157299780228,0.5955405250145003,0.0748929763783912,-0.1326447760304198,0.6162831536975568,-0.5584226735080966,0.1758119939397985,0.1925076259019068,10.847568548167146,-1.5135074440350442,0.1724912116606169,-1.2163111558938595
