t,x,y,z,roll,pitch,yaw,v_x,v_y,v_z,ref_x,ref_y,ref_z,ref_v_x,ref_v_y,ref_v_z,a_com,a_x,a_y,a_z,thrust,wind_x,wind_y,wind_z
0.0,0.6661313427482113,0.3537406307910457,2.6722157156509216,0.0202767770164419,0.1363611900324549,0.0264149355053713,0.0026828159717002,0.0058244768734409,0.0051531391164699,0.6662159950771638,0.3539672541289864,2.672380195428978,-0.0972815399912437,-0.0625038839684251,-0.094731637294912,0.411329779924061,0.1341407985850112,0.2912238436720453,0.257656955823498,10.54557124934854,-1.2872929792857066,0.1556796337905328,-1.1706525436543709
0.02,0.6663119204815521,0.3540184288286817,2.6720961383559385,0.0273737603054507,0.1313171669879468,0.026775666770586,0.0148431237563672,0.0191067614990174,-0.0181771506070312,0.6662159950771638,0.3539672541289864,2.672380195428978,-0.0972815399912437,-0.0625038839684251,-0.094731637294912,1.4735964414275402,0.6080153892333519,0.6641142312788249,-1.1665144861750587,10.54631354652156,-1.2965747325541053,0.1483757320582762,-1.1717728445287352
0.04,0.6666968453038017,0.354458137949475,2.671438041260715,0.0404387122817215,0.1166152889328894,0.027136695399202,0.0215053689679696,0.02251933139528,-0.046181662247853,0.6662159950771638,0.3539672541289864,2.672380195428978,-0.0972815399912437,-0.0625038839684251,-0.094731637294912,1.449382469189313,0.3331122605801217,0.1706284948131339,-1.4002255820410918,9.187084034941565,-1.3254029333924937,0.1362376957275415,-1.1451284462313105
0.06,0.6670824841199935,0.3548370589089429,2.6702968225262915,0.0538644255536756,0.0973367028312355,0.0270607695290919,0.0179162324349729,0.0170108769822598,-0.0724463603160794,0.6652431796772513,0.3533422152893021,2.6714328790560287,-0.1172815402892669,-0.0763926945434335,-0.1147316375929352,1.3537534263002884,-0.1794568266498384,-0.2754227206510131,-1.3132349034113182,8.995604569758598,-1.3559275685302468,0.1224158782726012,-1.103590512519493
0.08,0.667316846567293,0.3550693279269325,2.668561480517827,0.0668599750876466,0.075241636884793,0.0264632907749785,0.0050049184596763,0.0064954045732107,-0.0996466148188746,0.6632975488774265,0.3520921376099336,2.6695382463101307,-0.1572815408853134,-0.1041703156934503,-0.1547316381889817,1.5946245902805716,-0.6455656987648278,-0.5257736204524532,-1.3600127251397611,8.956605536045572,-1.37911210781364,0.1099014958190199,-1.055484498482127
0.1,0.6672051584723999,0.355054373538352,2.66628687453527,0.0779696481843814,0.0541722685550043,0.0254856560622052,-0.0157854943502463,-0.0071694025526022,-0.1264023306445373,0.6613519180776016,0.3508420599305651,2.6676436135642323,-0.1972815414813598,-0.1319479368434671,-0.1947316387850281,1.826770749120072,-1.039520640496136,-0.6832403562906514,-1.3377857912831324,8.967090883518722,-1.3936227752339176,0.0999075345029968,-1.0112673999703938
0.12,0.6666559907978229,0.3547675789023052,2.6636338631611918,0.0867415515255181,0.0368218362341823,0.0244099569828633,-0.0409725800909255,-0.0220371335453004,-0.1514735027353305,0.6574062872479745,0.3482031011936957,2.663748980788532,-0.2372815420774063,-0.1597255579934839,-0.2347316393810745,1.926137574905885,-1.259354287033958,-0.7433865496349067,-1.2535586045396618,8.967090883518722,-1.399783280329748,0.0913631502099224,-0.96647456333409
0.14,0.6655234722566874,0.3541513759081258,2.66032014075852,0.0943581781135899,0.0222300494023872,0.0233129409224839,-0.070954343072367,-0.0386610116177058,-0.1785673436396286,0.6534606564183473,0.3455641424568264,2.659854348012831,-0.2772815426734528,-0.1875031791435007,-0.2747316399771211,2.184797272396779,-1.4990881490720778,-0.8311939036202736,-1.3546920452149072,8.991708596736316,-1.398490459772347,0.0845775642353794,-0.9263726095611268
0.16,0.6637595659434942,0.3531855639699608,2.6564589546011854,0.1003512719938183,0.0118810703316894,0.0223907709184636,-0.1038767143453236,-0.0568307375075363,-0.206165773729714,0.6485150255738189,0.3422307431912066,2.6549597152222297,-0.3172815432694992,-0.2152808002935174,-0.3147316405731675,2.33221719217106,-1.646118563647831,-0.9084862944915242,-1.379921504504268,8.949933196618986,-1.3950305938973715,0.0792410595204494,-0.898211594467737
0.18,0.6613087678955831,0.3518457443362275,2.652041212747068,0.1046639989782086,0.0064937201371028,0.0217917195375342,-0.1393939988444643,-0.0758300812153431,-0.234151797954327,0.6425693947143893,0.3382029033968364,2.6490650824167266,-0.3572815438655456,-0.2430584214435342,-0.3547316411692139,2.452381552400083,-1.775864224957031,-0.9499671853903408,-1.3993012112306482,8.935439678872171,-1.3876653950373268,0.0756591454648888,-0.8775068399729997
0.2,0.6583192004210718,0.3502181385551867,2.6473247190690645,0.1074060993779356,0.0063534765631783,0.0216311514664104,-0.1728424963793935,-0.0941982885171894,-0.2608009464885563,0.6543390679533599,0.3480542402754604,2.6403336228493512,-0.2393940003345804,-0.1268403508870217,-0.3341517994444431,2.327214077189278,-1.6724248767464616,-0.9184103650923112,-1.3324574267114642,8.930954738234504,-1.3690377327966026,0.0726227459675552,-0.8629247422754366
0.22,0.654483675145703,0.3479948592880028,2.641980876436874,0.1054402933258037,0.011623655530724,0.0217005793135327,-0.2082361877668389,-0.1260321504922328,-0.2710495338195613,0.6543390679533599,0.3480542402754604,2.6403336228493512,-0.2393940003345804,-0.1268403508870217,-0.3341517994444431,2.4347185158438136,-1.7696845693722694,-1.5916930987521734,-0.5124293665502516,8.907240232264485,-1.3376584943953975,0.0723544474027925,-0.8602139755751527
0.24,0.649996893463332,0.3452160592724266,2.6364535717793323,0.0978801829116797,0.0217407998905902,0.0218499895605556,-0.2379585481961087,-0.1490786082009309,-0.2812746702910331,0.6543390679533599,0.3480542402754604,2.6403336228493512,-0.2393940003345804,-0.1268403508870217,-0.3341517994444431,1.9487889433353585,-1.4861180214634908,-1.1523228854349046,-0.5112568235735915,10.040462173604285,-1.3144995140913909,0.0765100781385622,-0.8743411337031248
0.26,0.6449754925510774,0.3420537688624477,2.630686269460258,0.0889550389798988,0.034299828599639,0.022053156592695,-0.2621425546477813,-0.1656424306759722,-0.2950813844184788,0.6519451279500141,0.3467858367665902,2.6369921048549068,-0.2593940006326036,-0.1370424048213574,-0.3541517997424663,1.6200707839753707,-1.2092003225836283,-0.8281911237520617,-0.6903357063722831,9.79251518678393,-1.2943318750067316,0.0821363037396794,-0.8873845624764037
0.28,0.6398061003918534,0.3387838477279377,2.6249129567514315,0.0807410297224216,0.0468737110025244,0.0222210353893669,-0.280464687155854,-0.1777010156806209,-0.311928108968998,0.6471572479433225,0.3442490297488497,2.6303090688660182,-0.29939400122865,-0.1574465126900288,-0.3941518003385127,1.3828612909821971,-0.9161066254036344,-0.6029292502324354,-0.842336227525961,9.532255990600788,-1.2747259120995749,0.0882128153401444,-0.9010299080379036
0.3,0.6340322838511326,0.3351219092387978,2.6184562189050133,0.0729930070712705,0.0595469453184867,0.0223163722174693,-0.2956654286043178,-0.1878657560856089,-0.3330309913275262,0.6423693679366309,0.3417122227311093,2.6236260328771293,-0.3393940018246965,-0.1778506205587002,-0.4341518009345592,1.3961698785621708,-0.760037072423192,-0.5082370202493997,-1.0551441179264098,9.309369441615672,-1.2576332392000893,0.0938667527471922,-0.912817897307651
0.32,0.6279902083189624,0.3312762878988091,2.611544995220485,0.0663573510426953,0.0708011665071954,0.0223055224536895,-0.307618083736196,-0.1962546658263605,-0.357173468025825,0.635581487900137,0.3381552103199353,2.614942996858438,-0.3793940024207429,-0.1982547284273716,-0.4741518015306057,1.41076127717271,-0.5976327565939077,-0.4194454870375827,-1.207123834914939,9.11779171996659,-1.2434903903754604,0.0988727035858166,-0.921067174107737
0.34,0.6217372625941955,0.3272778530130302,2.6041295417464414,0.0608670834511856,0.0801104027832599,0.0221900296753566,-0.3170816591007678,-0.2033595187237147,-0.3831734756856531,0.6287936078636431,0.3345981979087613,2.606259960839747,-0.4193940030167895,-0.2186588362960431,-0.5141518021266522,1.4283194597892763,-0.4731787682285937,-0.3552426448677093,-1.3000003829914035,8.88304097368382,-1.2326163434343895,0.1028667587679177,-0.9256223010828972
0.36,0.6156338398352135,0.3233518841313887,2.5965916471294683,0.056488013490425,0.0871145428349358,0.0219947985614949,-0.324932057135724,-0.2096253967003842,-0.4089912426049467,0.621005727812248,0.3305310828008704,2.5965769248061545,-0.4593940036128359,-0.2390629441647145,-0.5541518027226986,1.3851417480033648,-0.3925199017478092,-0.3132938988334735,-1.2908883459646805,8.88304097368382,-1.2240258788871758,0.1064369398250297,-0.9270571625365308
0.38,0.6090552759237154,0.3190962900484639,2.588115262336781,0.0525384399283171,0.0927839641881924,0.0217204599271743,-0.3325143710079025,-0.2156285553817157,-0.4373406572428235,0.6122178477459518,0.3259538649962629,2.585893888757661,-0.4993940042088823,-0.2594670520333859,-0.5941518033187451,1.4976804633496952,-0.3791156936089224,-0.3001579340665736,-1.417470731893844,8.8265406869441,-1.2178908638105344,0.1094617537551419,-0.9268709486308232
0.4,0.6023293513532388,0.3147263046621209,2.579062338482381,0.0491431109459865,0.0969790454906744,0.0213982813807399,-0.3397150476725172,-0.2210873364417384,-0.4665644124322849,0.5924295573733204,0.3083148622793781,2.56624822947464,-0.4325143724980186,-0.2329137831572894,-0.5373406587329397,1.5294409946637038,-0.3600338332307384,-0.2729390530011366,-1.4611877594730676,8.763020797150602,-1.2128956804515432,0.1118304176801339,-0.9259630131944608
0.42,0.5958358206573366,0.3103940780488721,2.570138166693789,0.0439780841086943,0.0998020802171499,0.0208973615621213,-0.3435278740482662,-0.2330103210088617,-0.4712729614351253,0.5924295573733204,0.3083148622793781,2.56624822947464,-0.4325143724980186,-0.2329137831572894,-0.5373406587329397,0.6687032968208257,-0.1906413187874489,-0.5961492283561645,-0.23542745014202,10.08997236264895,-1.1991432957515706,0.1151723019064907,-0.9237758967425233
0.44,0.588929231980649,0.3056581153209568,2.560627928728793,0.0366333528036182,0.1014618004940453,0.020181598240628,-0.3470501537179687,-0.2395334698600368,-0.4798116786363774,0.5924295573733204,0.3083148622793781,2.56624822947464,-0.4325143724980186,-0.2329137831572894,-0.5373406587329397,0.5653928201904097,-0.1761139834851266,-0.326157442558754,-0.4269358600626077,10.08997236264895,-1.1979581599103235,0.1209858859736696,-0.9238709294461852
0.46,0.5819474068043522,0.3008333101086766,2.550892269031112,0.0291827096993902,0.1016397035224455,0.0194172632710326,-0.3510539980386559,-0.2424815722076469,-0.4935246305297374,0.5881044136483402,0.3059857244478052,2.5608748228873104,-0.4525143727960418,-0.2363708287124041,-0.5573406590309629,0.7293269610159212,-0.2001922160343561,-0.1474051173805057,-0.6856475946679985,9.771167999677346,-1.1985366425752315,0.1266381586209709,-0.9213425555925918
0.48,0.5748803444334432,0.295975507470865,2.5408335221621683,0.0223742776334154,0.1003135295886877,0.0186792960377451,-0.3555556700438337,-0.2431937568544193,-0.5116264008415564,0.5794541261983798,0.3013274487846594,2.5501280097126515,-0.4925143733920882,-0.2432849198226336,-0.5973406596270093,0.9333358803709828,-0.2250836002588907,-0.0356092323386222,-0.9050885155909488,9.488710552920566,-1.2001373955893817,0.1320339175991646,-0.9162751130110868
0.5,0.5680774124356253,0.2913624212689293,2.530912055646726,0.0167203209026595,0.0976006309348503,0.0180348668314116,-0.3604216924172438,-0.2424615944244579,-0.5318080367629684,0.5708038387484194,0.2966691731215136,2.5393811965379927,-0.5325143739881347,-0.2501990109328631,-0.6373406602230558,1.0386441450598003,-0.243301118670508,0.036608121498069,-1.009081796070599,9.268082061557834,-1.2029572547844938,0.1366584556052788,-0.9085867541427454
0.52,0.560807545980829,0.2865317220453411,2.520029248232262,0.0116508681492888,0.0931684301171342,0.0174324922616516,-0.3664993275265879,-0.240710312694179,-0.5555004405060837,0.5601535512686567,0.2916651929028563,2.526634383333532,-0.5725143745841812,-0.2571131020430926,-0.6773406608191023,1.2261062671603196,-0.303881755467203,0.0875640865139457,-1.184620187155766,9.099585317703712,-1.2073989548129531,0.1405011960427752,-0.8982044901945658
0.54,0.5533954907664085,0.2817446086801364,2.5086621528607345,0.0074585989406043,0.0874433722721148,0.0169204906964997,-0.3746812468519367,-0.2381775635642368,-0.5800253468800146,0.549503263788894,0.2866612126841991,2.51388757012907,-0.6125143751802277,-0.2640271931533221,-0.7173406614151487,1.298874180446104,-0.4090959662674392,0.1266374564971112,-1.226245318696545,8.959185298444027,-1.2124142669337543,0.1435433920623019,-0.8857374592125603
0.56,0.5457916009163347,0.2770126507852294,2.4968013260154422,0.0040377674760394,0.0812850249313573,0.0165013049365579,-0.3854814993715446,-0.2352151519962103,-0.6048268407876165,0.5378529762942301,0.2814843801877861,2.500140756909708,-0.652514375776274,-0.2709412842635516,-0.7573406620111951,1.360639038131061,-0.5400126259803933,0.148120578401327,-1.2400746953800943,8.915385406165115,-1.2167297715177388,0.1457792284739398,-0.8736709085536266
0.58,0.5383458795492257,0.2725762578511719,2.485070591232107,0.0014060479957767,0.0757646470792478,0.0161818050924293,-0.3977862783617453,-0.2320243311554859,-0.6287310518056253,0.5252026887846651,0.2761346954136174,2.4853939436754446,-0.6925143763723205,-0.2778553753737811,-0.7973406626072416,1.3536988476289489,-0.6152389495100358,0.1595410420362153,-1.1952105509004385,8.89417042269497,-1.2200449562040456,0.1475560936813442,-0.8620795590616951
0.6,0.5302375855255509,0.2679741641975549,2.472225330196293,-0.0008265632141871,0.0708085978904985,0.0159138840986688,-0.4125253347295843,-0.2284130303234069,-0.6545634717779245,0.5184565656311385,0.2609750412933976,2.453634038641826,-0.4587357045061068,-0.2355568027564059,-0.7287310532957414,1.4979946578170404,-0.7369528183919533,0.1805650416039528,-1.2916209986149618,8.869653913466664,-1.222102547841984,0.1488872727931684,-0.8526066151630114
0.62,0.5217317689516597,0.2634186816253512,2.459088218230232,-0.0034493741882614,0.0705110545900783,0.0156351023999008,-0.4369269240353027,-0.2268884512519949,-0.6566678971313198,0.5184565656311385,0.2609750412933976,2.453634038641826,-0.4587357045061068,-0.2355568027564059,-0.7287310532957414,1.2269785125033268,-1.2200794652859197,0.0762289535706006,-0.1052212676697639,8.828166960442559,-1.214394198434332,0.1498700376460017,-0.8447477496849044
0.64,0.5127843718352767,0.2589167140075649,2.445904469835469,-0.006563397911788,0.0769108742008972,0.0153057775362675,-0.4557638038788788,-0.2232549047877512,-0.6617307249494869,0.5184565656311385,0.2609750412933976,2.453634038641826,-0.4587357045061068,-0.2355568027564059,-0.7287310532957414,0.9920470347538308,-0.9418439921788035,0.1816773232121857,-0.2531413909083568,10.322495393538702,-1.2018272435760815,0.1518647939251389,-0.8593158560384743
0.66,0.5039878536401041,0.2547221949601346,2.4332297526531907,-0.0093402193254262,0.0861720168070122,0.0149757996962049,-0.4687635819437141,-0.2184902284648215,-0.6721911212331313,0.5138692085860774,0.2586194732658336,2.4463467281088684,-0.4709255897349791,-0.2362632970765899,-0.7487310535937646,0.8676350912223143,-0.6499889032417661,0.2382338161464853,-0.5230198141822184,9.93509618740427,-1.189644700261798,0.1539403168799356,-0.8745857511052092
0.68,0.4945034123005326,0.2504127412045275,2.419624419999452,-0.0118349638907182,0.0974542147257492,0.0146293027590074,-0.4785719755673118,-0.2127490873696634,-0.6880141816696812,0.5046944944959553,0.2539083372107055,2.4317721070429537,-0.4953053601927237,-0.2376762857169579,-0.788731054189811,0.9740822964830224,-0.490419681179885,0.2870570547579026,-0.7911530218274954,9.596784110939552,-1.1779508906070728,0.1557847201752017,-0.8891627569515493
0.7000000000000001,0.4848565035414628,0.2462243343909811,2.405655586416864,-0.0137963082230662,0.1092766589303147,0.0143008140031093,-0.4852606533988854,-0.2064966431698132,-0.70807632999483,0.4955197804058331,0.2491972011555773,2.417197485977039,-0.5196851306504683,-0.2390892743573259,-0.8287310547858575,1.1026346460037122,-0.334433891578681,0.312622209992508,-1.0031074162574372,9.33390105097169,-1.1674933200651938,0.1572019511602354,-0.90189741071298
0.72,0.4755933258571123,0.2423652474456468,2.3919831847625592,-0.0151321279881154,0.1204770541916434,0.0140191294046126,-0.4892037795544945,-0.2001157461924703,-0.7301329690855435,0.4851260777928238,0.2444154156684308,2.400622864881321,-0.5440649011082129,-0.2405022629976939,-0.868731055381904,1.1648598822310183,-0.1971563077804522,0.3190448488671463,-1.1028319545356768,8.985558183346257,-1.1571422323344704,0.1582891552707084,-0.9142207089694032
0.74,0.4657861566847575,0.238438367793613,2.377120647894111,-0.0158512182253415,0.1319314351232841,0.0137754899014588,-0.4910353823508135,-0.1929509844566052,-0.7550462154410845,0.4747323751798144,0.2396336301812843,2.3840482437856045,-0.5684446715659575,-0.2419152516380618,-0.9087310559779505,1.299382953084925,-0.0915801398159499,0.3582380867932583,-1.245662317777052,8.985558183346257,-1.1467500618551052,0.1588244194158193,-0.9265737828519046
0.76,0.4559653483582113,0.2346593015165263,2.3617475265254813,-0.0156618354977824,0.142879499955996,0.0136119980500905,-0.4907125465092838,-0.1853853142763766,-0.7810759282380607,0.4637291783053615,0.2348165199781286,2.3664736226749863,-0.5928244420237021,-0.2433282402784298,-0.9487310565739968,1.3554423047013484,0.0161417920764822,0.3782835090114261,-1.3014856398488095,8.911523437303003,-1.1373238400824708,0.1586238961123725,-0.93768336380493
0.78,0.4461714361823288,0.2310343399252953,2.3458425970377386,-0.0143418652170656,0.1532463077496182,0.0135555785602125,-0.4884705635405579,-0.1776378875289538,-0.8081353854738605,0.4521164871694649,0.2299640850589637,2.3478990015494667,-0.6172042124814466,-0.2447412289187978,-0.9887310571700432,1.4117925969621212,0.1120991484362982,0.3873713373711424,-1.3529728617899917,8.870954561997223,-1.1293562326212434,0.1575731283262116,-0.947344173491118
0.8,0.436925408995135,0.2277324230903084,2.330222965510554,-0.0119319025786559,0.1625349201430655,0.0136180016893322,-0.4847273508157985,-0.1705864367554542,-0.8346981528594951,0.4217479080053009,0.2221524455488476,2.305435827764045,-0.4864600357751795,-0.1932150575954893,-0.872721719404353,1.386826602983606,0.1871606362379679,0.3525725386749778,-1.3281383692817283,8.83304028464363,-1.1219777843510486,0.1554374509046782,-0.9564223345019875
0.8200000000000001,0.4273426751712743,0.2244098983146317,2.3135312468197875,-0.0078910036612864,0.1715777267686236,0.013835403155663,-0.4732621527464339,-0.1626512409286037,-0.8315357192204604,0.4217479080053009,0.2221524455488476,2.305435827764045,-0.4864600357751795,-0.1932150575954893,-0.872721719404353,0.7148760139029817,0.5732599034682317,0.3967597913425255,0.1581216819517339,8.79773401303828,-1.1089754385549002,0.1511567238057163,-0.95538941768789
0.84,0.418010149456459,0.2212155367347283,2.296926197253406,-0.0028656216975845,0.1798220280625031,0.0141743754765507,-0.4604630089312622,-0.1574765869248514,-0.8295530307731788,0.4217479080053009,0.2221524455488476,2.305435827764045,-0.4864600357751795,-0.1932150575954893,-0.872721719404353,0.6973632122842814,0.6399571907585833,0.2587327001876138,0.0991344223640833,10.691993706178437,-1.106934135636022,0.1474005117577176,-0.9648831776262824
0.86,0.4089403147583054,0.2181042640000966,2.2803135338794944,0.0023922200558053,0.1874423071158635,0.0145772437501001,-0.4470256634950599,-0.154103639725415,-0.8320023750159786,0.4168833076475491,0.2202202949728927,2.296708610570002,-0.4860579302221038,-0.1963304916087964,-0.8856389861904514,0.7034527567679112,0.6718672718101143,0.1686473599718241,-0.1224672121399927,10.408655929651104,-1.1040986869960434,0.143145295554276,-0.9748046378743184
0.88,0.400579005203488,0.2151972722088452,2.264449133700412,0.0073318341633012,0.1941995153938465,0.0149938733336355,-0.4336434232867409,-0.1521938902011301,-0.8378170175412842,0.4071541069320455,0.2163559938209829,2.2792541761819147,-0.4852537191159525,-0.2025613596354105,-0.9114735197626485,0.7357675650906172,0.6691120104159537,0.0954874762142413,-0.2907321262652806,10.178091950017006,-1.1015424066261563,0.1388625610734402,-0.9832874939184324
0.9,0.3920603217259406,0.2121640768482195,2.2476032297264306,0.0123271693506954,0.2008646202871422,0.015451125800999,-0.4188052530506804,-0.1513356045600977,-0.8465989371733672,0.397424906216542,0.2124916926690731,2.261799741793828,-0.4844495080098012,-0.2087922276620247,-0.9373080533348452,0.8631773610045013,0.7419085118030244,0.0429142820516204,-0.4390959816041484,10.001075799717,-1.0994582688497374,0.134723463203046,-0.9905110602663008
0.92,0.3838463308546831,0.2091365259909668,2.230556736608782,0.0170260710435204,0.207111542957187,0.0159147803021256,-0.4031987085137988,-0.1515312298553498,-0.8576234037241094,0.3877359160563459,0.2083158481158326,2.2430535807271306,-0.4836452969036498,-0.2150230956886389,-0.9631425869070422,0.9554336245473084,0.780327226844077,-0.0097812647626038,-0.5512233275371092,9.862855509290966,-1.0978147497417707,0.1310081332683426,-0.996364252578835
0.94,0.3759558978725318,0.2060945392050723,2.213284875641145,0.0213679480888332,0.2129627565064891,0.0163740713161156,-0.3865013750896245,-0.1526939138570194,-0.869029463418925,0.3780469258961499,0.2041400035625921,2.224307419660434,-0.4828410857974985,-0.2212539637152531,-0.9889771204792392,1.0127326588585512,0.8348666712087172,-0.0581342000834803,-0.5703029847407781,9.761155287123074,-1.09624808801419,0.1273700673450415,-1.0011425201061244
0.96,0.3687795795481645,0.2031733218897421,2.1966648738359216,0.0250805485959718,0.2181686271801244,0.0167949894276211,-0.3696380536701125,-0.1547189073620606,-0.8798912036442276,0.3683780410136077,0.1998083873086863,2.204915395254432,-0.4820368746913471,-0.2274848317418673,-1.014811654051436,1.008029772272609,0.8431660709755984,-0.1012496752520616,-0.5430870112651309,9.756863656463793,-1.095200747945282,0.1241337092670851,-1.0051780560867565
0.98,0.361581203052805,0.2000494865575583,2.1789443693227475,0.0285112826923833,0.2232960177413214,0.0172133908693691,-0.3509837305378679,-0.1575479641792491,-0.8916122992605958,0.3587292614087192,0.1953209993541151,2.1848775075091256,-0.4812326635851958,-0.2337156997684815,-1.040646187623633,1.1105982807085586,0.9327161566122288,-0.1414528408594212,-0.5860547808184124,9.766981800143183,-1.0947507233230362,0.1213602181516251,-1.008738152708047
1.0,0.3547650553377682,0.1968615930187894,2.160986734367905,0.0314197428233176,0.2280838575756528,0.0175994322918862,-0.3314687794838202,-0.1610266051318845,-0.9035791385171356,0.3440320165259116,0.1921720883485959,2.134363754359718,-0.3612204399165277,-0.17452585923049,-0.9146493063391242,1.157734316791955,0.9757475527023856,-0.1739320476317737,-0.5983419628269926,9.75623042550069,-1.0948591683143998,0.1190788525740117,-1.0117928240237506
1.02,0.3484482734642417,0.1935625917360899,2.143049657210264,0.0328666981741282,0.2313966141299957,0.0178437181738684,-0.3014689520431221,-0.1681582098569737,-0.8894894713661409,0.3440320165259116,0.1921720883485959,2.134363754359718,-0.3612204399165277,-0.17452585923049,-0.9146493063391242,1.6951166278846423,1.499991372034906,-0.3565802362544598,0.70448335754974,9.75623042550069,-1.090883772176371,0.1177259059046965,-1.0043579140396977
1.04,0.3430129158363154,0.1903056645489954,2.12626772877037,0.0326175838639756,0.2321147133916971,0.0178827714016639,-0.2724095952323902,-0.174155303737788,-0.8777653411559257,0.3440320165259116,0.1921720883485959,2.134363754359718,-0.3612204399165277,-0.17452585923049,-0.9146493063391242,1.5952010707547264,1.4529678405365951,-0.2998546940407146,0.5862065105107561,11.404841321075764,-1.0977630199205697,0.1185025651287205,-1.005974183002176
1.06,0.3378905983820487,0.1867598725406777,2.1088154414488534,0.0309199130131686,0.2297696298710881,0.0177251429161735,-0.2414924748329059,-0.1799748224838484,-0.868159395893674,0.3404198121267463,0.190426829756291,2.1252172612963265,-0.3632677817922596,-0.1779214382407382,-0.91925670775483,1.6446955011592084,1.5458560199742164,-0.2909759373030202,0.480297263112589,11.20831165682921,-1.1072768941775435,0.120573222085598,-1.0040394906962866
1.08,0.3333798588951056,0.1831070419321485,2.091532949940289,0.0278855443144596,0.2235227093128602,0.0173701489300486,-0.2118306188228316,-0.1846054532106862,-0.860513724670181,0.3331954033284157,0.1869363125716812,2.1069242751695443,-0.3673624655437235,-0.1847125962612345,-0.9284715105862412,1.548971216120932,1.4830928005037145,-0.2315315363418876,0.3822835611746511,11.040588605230369,-1.1230577991950434,0.1239817207586739,-0.9960062194850876
1.1,0.3294249181509288,0.1793857181693326,2.0743901314163447,0.0243283488359638,0.213846242329993,0.0169206093338736,-0.1858668476646602,-0.1871362124403992,-0.8539961237732642,0.3259709945300852,0.1834457953870714,2.0886312890427616,-0.3714571492951874,-0.1915037542817309,-0.9376863134176526,1.344434152798271,1.2981885579085708,-0.126537961485651,0.3258800448458387,10.793986255246637,-1.1402968210077498,0.1275731066022618,-0.984296222068022
1.12,0.3261080795501693,0.1758172238864104,2.0582185913348603,0.0210045343894502,0.2023097517580363,0.0164888368700309,-0.1651645679595832,-0.1883225608629516,-0.8484801436185552,0.3185418515441814,0.1796157203014367,2.0698775627744084,-0.3755518330466513,-0.1982949123022273,-0.946901116249064,1.0728674715850026,1.0351139852538491,-0.0593174211276179,0.2757990077354499,10.793986255246637,-1.159753515338619,0.1312039745161307,-0.9687928142713744
1.14,0.3229956330767395,0.1720463015942102,2.041313502998213,0.0177839369566362,0.1885574431872834,0.0160771206050652,-0.1477468481746021,-0.1886839791734495,-0.8422274994454736,0.3111127085582776,0.1757856452158021,2.051123836506056,-0.3796465167981152,-0.2050860703227237,-0.9561159190804752,0.9254770997416096,0.8708859892490552,-0.0180709155248953,0.3126322086540789,10.701284802092232,-1.1792418512275142,0.1344560659811099,-0.950831491131786
1.16,0.3201837207951976,0.1682743235761482,2.024537769409592,0.0148947476466005,0.1739620343735702,0.0157316251099326,-0.1348387304970609,-0.1884741048447246,-0.8355903479688264,0.3035811984785873,0.1717857911796551,2.032139740166917,-0.3837412005495791,-0.21187722834322,-0.9653307219118868,0.7258018478466902,0.6454058838770566,0.0104937164362411,0.3318575738323615,10.680449372622206,-1.1979817353065811,0.1373120531281901,-0.9319581358093936
1.18,0.3175823042244807,0.1645125550291439,2.00789508946134,0.0123319291563621,0.1592388601789302,0.015461160018321,-0.126403681204074,-0.1877213988743839,-0.8289408699693842,0.2959473213051104,0.1676161581929957,2.0129252737569936,-0.387835884301043,-0.2186683863637164,-0.974545524743298,0.53835903567687,0.4217524646493484,0.0376352985170372,0.3324738999721077,10.65798579748207,-1.214643529076215,0.1396854421744835,-0.9139477095807248
1.2,0.3152259558356032,0.160957489924008,1.9922054508525413,0.0101967987854259,0.1457007817580179,0.0152752264539024,-0.1223679004245837,-0.1865555897607046,-0.8228903377013524,0.311262120164277,0.1551264850854247,1.9664480459628708,-0.1963243477199011,-0.1765214504964766,-0.7892067150297327,0.3682919294395905,0.201789038974514,0.0582904556839666,0.302526613401588,10.62179271270088,-1.2302588776634624,0.141832002602633,-0.8957214453910612
1.22,0.3128850409279666,0.1571701170665969,1.976080430786192,0.0059439971748234,0.1306745731066711,0.014989556166086,-0.112388452861717,-0.1909858384730023,-0.7884355095505179,0.311262120164277,0.1551264850854247,1.9664480459628708,-0.1963243477199011,-0.1765214504964766,-0.7892067150297327,1.8071743553240536,0.4989723781433356,-0.2215124356148859,1.722741407541728,12.514247965586035,-1.2312342269027412,0.1444082629447507,-0.8719984044413558
1.24,0.3106898975868749,0.1533573799471579,1.9606774368045303,-0.0002321525283107,0.1139947169947713,0.0146728374029966,-0.108400855942943,-0.1896988138857984,-0.753865497698557,0.311262120164277,0.1551264850854247,1.9664480459628708,-0.1963243477199011,-0.1765214504964766,-0.7892067150297327,1.7411512577310713,0.1993798459386984,0.0643512293601933,1.7285005925980423,12.514247965586035,-1.2501222461532755,0.149828946896141,-0.8556959759011956
1.26,0.3085072146099943,0.1496058563749561,1.945927157242769,-0.0064704551137859,0.0968913736045642,0.0144873612989075,-0.110656109230183,-0.1853940750293948,-0.7228385711095704,0.309298876687078,0.1533612705804599,1.9585559788125733,-0.2103084810230666,-0.1742814608208952,-0.7812598840418025,1.5702604223263452,-0.1127626643620025,0.2152369428201808,1.5513463294493324,12.244375474154369,-1.266409837387351,0.1548903249241622,-0.8395238468191581
1.28,0.3063356972585513,0.146142074138385,1.932462279489624,-0.0118961055125913,0.0810724906894241,0.0144636002212891,-0.1182038489448488,-0.1794484417580556,-0.696049202547824,0.30537238973268,0.1498308415705304,1.9427718445119788,-0.2382767476293974,-0.1698014814697322,-0.7653662220659418,1.4230154582212782,-0.3773869857332884,0.2972816635669617,1.3394684280873204,12.002459736370838,-1.2809001206784518,0.1596781422650566,-0.8231263960604933
1.3,0.3038437924908277,0.1426316258764986,1.918819702413692,-0.0169028371661951,0.0655562281699152,0.0145833838795133,-0.1310411823307669,-0.1718751002719118,-0.6698014626885769,0.301445902778282,0.1463004125606008,1.926987710211384,-0.2662450142357283,-0.1653215021185693,-0.7494725600900812,1.509218736172512,-0.641866669295902,0.3786670743071887,1.3123869929623555,11.813716547329022,-1.2920118592345875,0.1638165545163693,-0.8092787125167552
1.32,0.3010438456361191,0.1392864922102036,1.9056765823032225,-0.0210361238634338,0.0518792904503283,0.0148219557101497,-0.1484785171340217,-0.1631606313169945,-0.6458198110854985,0.2961210024935674,0.1429939825182294,1.9119982590095823,-0.2942132808420591,-0.1608415227674065,-0.7335788981142206,1.545252590855662,-0.8718667401627425,0.4357234477458671,1.1990825801539209,11.68242051162906,-1.2998344450201362,0.1670907131353346,-0.7985709953272654
1.34,0.2980257027014298,0.1362783727118276,1.8936284904537608,-0.0241465192736936,0.0410240049388174,0.0151207951897542,-0.1683795325844272,-0.1540857275876682,-0.623606826694639,0.2907961022088528,0.139687552475858,1.897008807807781,-0.3221815474483901,-0.1563615434162435,-0.71768523613836,1.558702159813083,-0.995050772520277,0.4537451864663144,1.1106492195429751,11.566377376846503,-1.3041657264334083,0.1698297114438733,-0.7908533340996635
1.36,0.2944098972973935,0.1333033019080121,1.8813989055394544,-0.02659403983303,0.0322231064285302,0.0154716770513374,-0.1922584534510071,-0.1440278325887043,-0.6005443165125476,0.28477199525898,0.1364931219172657,1.882416698155376,-0.3501498140547209,-0.1518815640650806,-0.7017915741624995,1.73439001486231,-1.1939460433289917,0.5028947499481947,1.153125509104569,11.550963549750122,-1.305737479251558,0.1719506236688013,-0.7868493755384016
1.38,0.2902845258728834,0.1305349445714596,1.869623831598172,-0.0281820793764905,0.026782380612112,0.0158185081744294,-0.2192063795600448,-0.1334321529956751,-0.5781616016465866,0.2780486816439488,0.1334106908424525,1.8682219300523677,-0.3781180806610518,-0.1474015847139177,-0.6858979121866389,1.8299214958483907,-1.347396305451888,0.5297839796514575,1.1191357432980498,11.557085535285296,-1.304786687693055,0.1734824333136926,-0.7870269518442259
1.4,0.2855973313043576,0.1279858410791876,1.858287786516637,-0.0287048526184989,0.0256206280608897,0.0161304868757926,-0.2475533306748763,-0.1221784710706166,-0.556545945210476,0.2793242068948812,0.1238633369216758,1.8407157515158423,-0.2330539690528427,-0.1328780682178431,-0.5449335023004257,1.869111819515492,-1.4173475557415742,0.5626840962529238,1.0807828218055315,11.55643419449916,-1.2986503784481738,0.1742122084265415,-0.794473854510915
1.42,0.2805744629052559,0.1258214186783404,1.847921119129601,-0.0265252566266241,0.0299448659013446,0.0164650555304556,-0.2786509126932758,-0.1070124551784531,-0.5356868267183446,0.2793242068948812,0.1238633369216758,1.8407157515158423,-0.2330539690528427,-0.1328780682178431,-0.5449335023004257,2.0200064787651173,-1.5548791009199745,0.7583007946081778,1.04295592460657,11.518823987282303,-1.2892935357369484,0.173064370938459,-0.80827815065642
1.44,0.2747225662357962,0.123810144934184,1.8374268851493163,-0.021211830127222,0.0398135583047766,0.0169171209218306,-0.3040925853111696,-0.0956882411229413,-0.5148785828086077,0.2793242068948812,0.1238633369216758,1.8407157515158423,-0.2330539690528427,-0.1328780682178431,-0.5449335023004257,1.7381740017747351,-1.272083630894688,0.5662107027755894,1.040412195486845,11.634296120021643,-1.2729141052136814,0.1695150332452011,-0.8323532704566846
1.46,0.2684295170830635,0.1219803285869501,1.827336754128965,-0.0150255362169916,0.0522853796349293,0.0174385615425209,-0.323329064564214,-0.0881242634965308,-0.4952346992245904,0.2769936672043527,0.1225345562394974,1.8352664164928385,-0.2358234869514023,-0.1327672512622767,-0.5382878824311935,1.425778781796172,-0.9618239626522224,0.3781988813205253,0.9821941792008626,11.45777060141063,-1.2565177085498749,0.1653704172858314,-0.8564821380832983
1.48,0.2618058386561306,0.1202752121665243,1.817627511932324,-0.0089073018987022,0.0657548039961889,0.0180187412637839,-0.3375650960373166,-0.0828863896689072,-0.4766991643410988,0.2723325878232959,0.1198769948751405,1.8243677464468295,-0.2413625227485214,-0.1325456173511439,-0.5249966426927292,1.1975662484330496,-0.711801573655127,0.2618936913811799,0.9267767441745788,11.360376842651933,-1.2398346167582726,0.1609139540608182,-0.8813735636597886
1.5,0.2552902753741149,0.1187352109525852,1.8087383271178548,-0.0035142441417296,0.0786771738844719,0.0186117067373611,-0.3471885117676326,-0.079499524817487,-0.459968383876458,0.267671508442239,0.1172194335107836,1.8134690764008208,-0.2469015585456405,-0.1323239834400111,-0.5117054029542648,0.9797958955776024,-0.4811707865157999,0.1693432425710114,0.8365390232320413,11.29813606791231,-1.224563658912655,0.1567230835224845,-0.9050024768605556
1.52,0.2482720993821445,0.1171702787312619,1.7997179880184258,0.0015855649833393,0.0919650762632296,0.0192645935629227,-0.3537260514775729,-0.0771937965884057,-0.443006111549875,0.2627334772713262,0.1145729538419834,1.803234968341736,-0.2524405943427597,-0.1321023495288782,-0.4984141632158004,0.9162075237174576,-0.3268769854970182,0.1152864114540616,0.8481136163291464,11.257125293155696,-1.2103476131839868,0.1529104909740957,-0.926833690574924
1.54,0.2411581158160998,0.1156396358305438,1.7910292211452772,0.0060385742385908,0.1046969049876648,0.019929900579801,-0.3569932687958549,-0.0759714120942691,-0.4267835555458785,0.2577954461004134,0.1119264741731832,1.7930008602826506,-0.2579796301398788,-0.1318807156177454,-0.4851229234773361,0.8296689944779071,-0.1633608659140972,0.0611192247068299,0.811127800199829,11.219312926614291,-1.197121597850773,0.1495590453557729,-0.9471280827231494
1.56,0.2340102258118776,0.1141234556774971,1.7826568785757269,0.0098151816793616,0.1167643122477444,0.0205902932438416,-0.3573118177588641,-0.07562190253768,-0.4113113634850419,0.2527189390345726,0.1092855353521613,1.783099033217027,-0.2635186659369979,-0.1316590817066126,-0.4718316837388717,0.7739708611107344,-0.0159274481504601,0.0174754778294546,0.7736096030418305,11.219312926614291,-1.1855794317162296,0.1468623168595583,-0.9648696152973
1.58,0.2272394639422855,0.112683034254101,1.7749829711254643,0.0128066269853639,0.1275786942677153,0.0212022115674833,-0.3551290642828961,-0.0759256923245842,-0.3972843318938328,0.2475039560738038,0.1066501373789177,1.7735294871448648,-0.2690577017341171,-0.1314374477954798,-0.4585404440004074,0.7099547806590498,0.1091376737983984,-0.0151894893452096,0.7013515795604552,11.201663333287796,-1.1746922186463855,0.1445434571535846,-0.9818776442780196
1.6,0.2201825493238461,0.1111560477188031,1.7671882837316593,0.015380761431354,0.1382781168970378,0.021822079499512,-0.3504032225949657,-0.0766986480667656,-0.3829721637604415,0.2094830107281407,0.1088867496378718,1.755118754530773,-0.3226557981581708,-0.0910735143023188,-0.3703726876287771,0.7546012140813386,0.2362920843965194,-0.0386477871090695,0.7156084066695628,11.185037346377612,-1.1649094527160262,0.1427356848451242,-0.9975655334436304
1.62,0.2132393375943929,0.1096274215047085,1.7596466409204166,0.0179811242191361,0.1483081200145834,0.022452315628705,-0.3438980108277045,-0.0764251001540803,-0.3719559923552394,0.2094830107281407,0.1088867496378718,1.755118754530773,-0.3226557981581708,-0.0910735143023188,-0.3703726876287771,0.6398215396230429,0.3252605883630632,0.0136773956342657,0.5508085702601029,11.18424036277338,-1.1583169625663272,0.1411108189662889,-1.0108861883574844
1.64,0.2067839104289026,0.1081669662682509,1.7526807747977171,0.0205479152633151,0.1572478108084687,0.0230639839954521,-0.3357434669054973,-0.0773644697722843,-0.3618756869189576,0.2094830107281407,0.1088867496378718,1.755118754530773,-0.3226557981581708,-0.0910735143023188,-0.3703726876287771,0.6499837681579919,0.4077271961103607,-0.0469684809101991,0.5040152718140928,10.999100039573932,-1.150853721053828,0.1391737687858173,-1.0236910616651418
1.66,0.2001770909364228,0.1066014119137166,1.7455566374990714,0.0230573291220403,0.1660591763549056,0.0236968273022014,-0.3251472396580411,-0.0791549678731047,-0.3510851342294351,0.206256452746559,0.1079760144948486,1.751415027654485,-0.3161611449332257,-0.0941030786978657,-0.3649903587757659,0.7614491819454092,0.5298113623728062,-0.0895249050410197,0.5395276344761224,11.008347824200428,-1.1445326744640676,0.1374815370765309,-1.034917642439134
1.68,0.1941150697200377,0.1050749360591998,1.738989970148176,0.0251509391616272,0.1738862888711003,0.0242753175246086,-0.3133159475711545,-0.0814215769536414,-0.3406988220111788,0.1998033367833956,0.1061545442088023,1.7440075739019096,-0.3031718384833356,-0.1001622074889595,-0.3542257010697437,0.7952868518092994,0.5915646043443329,-0.1133304540268352,0.5193156109128155,11.04579108971484,-1.138966130332992,0.1359921790844294,-1.0457664257621089
1.7,0.1879982360115716,0.103417474571168,1.7322930041719249,0.0270151776698849,0.1814828088812043,0.024850484553072,-0.2988184196306143,-0.0841799212598049,-0.3295586720413079,0.1933502208202321,0.1043330739227559,1.7366001201493342,-0.2901825320334454,-0.1062213362800534,-0.3434610433637214,0.9245130083580516,0.7248763970270078,-0.1379172153081781,0.5570074984935447,11.076463533644528,-1.1342996921682131,0.1348264327478812,-1.0557750438443243
1.72,0.182201229315739,0.1017002400197505,1.7258195646156471,0.0284962141601387,0.1879595641026104,0.0253701685508514,-0.2816085974756169,-0.0873758065414717,-0.3183657818763094,0.1875465701795632,0.1022086471971548,1.7297308992820597,-0.2771932255835553,-0.1122804650711472,-0.3326963856576992,1.0388364303223303,0.8604911077498723,-0.1597942640833356,0.5596445082499291,11.11211004229608,-1.131036073385139,0.1340446054046785,-1.0641334807286118
1.74,0.1770322558500159,0.1000053716162727,1.7198774779457762,0.029437299222239,0.1925929440988587,0.0257848956403382,-0.2634491022286513,-0.0908357431583127,-0.3076807616115162,0.1817429195388943,0.1000842204715537,1.7228616784147852,-0.2642039191336652,-0.118339593862241,-0.3219317279516769,1.0676002143547942,0.9079747623482765,-0.1729968308420537,0.5342510132396561,11.164396887703331,-1.1302723113594833,0.1337399470013728,-1.0705546556074708
1.76,0.1719757039539963,0.0981461122076134,1.7138442372112703,0.0297716607073389,0.1956324748843879,0.0261140423704214,-0.2432547455680911,-0.0948702810105466,-0.2961827146032202,0.1762640015594727,0.0978083155261753,1.7162615739901614,-0.251214612683775,-0.1243987226533348,-0.3111670702456546,1.1792949393811591,1.0097178330280108,-0.2017268926116928,0.5749023504147993,11.164396887703331,-1.1323979639998814,0.1341380821749955,-1.0750652011000417
1.78,0.1673312457521883,0.0962033904360488,1.70804449761988,0.0292510322089983,0.1966434817820102,0.0263135501484148,-0.2224302959108465,-0.0991026519700106,-0.2843444127722014,0.1711098162412983,0.0953809323610196,1.709930586008188,-0.2382253062338849,-0.1304578514444287,-0.3004024125396324,1.216260722160274,1.0412224828622307,-0.2116185479731989,0.5919150915509402,11.196414067224396,-1.1365625591845965,0.1352854163791844,-1.077360707637209
1.8,0.1631054295965061,0.0941777464974057,1.7024857625851657,0.0278045561053426,0.1955425620576007,0.0263791527847508,-0.2013747806073679,-0.1031411827573977,-0.2720955094585959,0.156209730956646,0.0912482578375483,1.69382727698127,-0.193905653100621,-0.110995501549464,-0.259061910597824,1.234585039600098,1.052775765173929,-0.2019265393693563,0.6124451656802754,11.22432152440888,-1.142761060818285,0.137334895909794,-1.0777637019390718
1.82,0.1594807344279034,0.0921731585894046,1.697392287568264,0.0252254195007243,0.1920379636233,0.0262895001671623,-0.1814340656344772,-0.1071724795441592,-0.2646213119148755,0.156209730956646,0.0912482578375483,1.69382727698127,-0.193905653100621,-0.110995501549464,-0.259061910597824,1.083682490787292,0.9970357486445384,-0.2015648393380739,0.3737098771860209,11.251081645537852,-1.1535178768177663,0.1407504487962288,-1.074812087104089
1.84,0.156053858030255,0.0900115621740939,1.6921943845291718,0.0219097453371185,0.1855996132358427,0.0260988608387213,-0.1628356499158798,-0.1086757310071624,-0.2554147125343234,0.156209730956646,0.0912482578375483,1.69382727698127,-0.193905653100621,-0.110995501549464,-0.259061910597824,1.040339252788211,0.9299207859298692,-0.0751625731501594,0.4603299690276036,10.968387900169546,-1.1678007798728265,0.1447899323352792,-1.0667149670018112
1.86,0.1529606727771563,0.0878363893743666,1.6871971763538025,0.0188421451674337,0.1775252766754039,0.025914241012312,-0.1477980571886422,-0.1087866501263156,-0.244676495167419,0.1542706744256398,0.0901383028220536,1.6912366578752918,-0.1882007245385759,-0.1133740714653547,-0.2540054101629485,0.9239193827117056,0.7518796363618796,-0.0055459559576628,0.5369108683452236,11.041487374888677,-1.181997525238638,0.1484499838733599,-1.0581316687212767
1.88,0.1501310281515689,0.0856683845543811,1.6824274849683665,0.0163110589701741,0.168903518844912,0.0257815106988974,-0.1362094186258175,-0.1081188170968752,-0.2327994106184292,0.1503925613636274,0.0879183927910644,1.6860554196633353,-0.1767908674144857,-0.1181312112971361,-0.2438924092931975,0.8303729313971698,0.5794319281412358,0.0333916514720235,0.593854227449489,11.101261258773777,-1.1945787279530884,0.1513461374722284,-1.0504378007155353
1.9,0.1476268755844906,0.0836255508588394,1.678123049447566,0.0144415265244801,0.1609810384677085,0.0257153132799294,-0.1281224502317576,-0.10706435443067,-0.2208832275455403,0.1465144483016149,0.0856984827600751,1.6808741814513788,-0.1653810102903955,-0.1228883511289175,-0.2337794084234465,0.7219874797175295,0.4043484197029934,0.052723133310259,0.5958091536444456,11.142166417665068,-1.2052903067891478,0.1537309576176825,-1.0448892094536038
1.92,0.145130106239678,0.0814998400853462,1.6738411817676444,0.0130266889361309,0.1534977943049672,0.0257089472424213,-0.122129207323679,-0.105602029388227,-0.2079131131883228,0.143206828095807,0.0832407157374967,1.67619859328291,-0.1539711531663053,-0.1276454909606989,-0.2236664075536956,0.7181246784582194,0.2996621454039297,0.0731162521221462,0.6485057178608727,11.16618734018175,-1.21370745201006,0.1554784771747809,-1.0407661484772612
1.94,0.142728099051374,0.0794081151863941,1.6698188743644669,0.0122909761741428,0.1473368766131094,0.0257724697116342,-0.1185407192864105,-0.1036883004862434,-0.1949734405545914,0.1398992078899991,0.0807829487149184,1.671523005114441,-0.1425612960422151,-0.1324026307924803,-0.2135534066839446,0.6781864282261258,0.1794244018634233,0.0956864450991822,0.6469836316865707,11.183455786431296,-1.2205924644799713,0.1565656055662353,-1.0386492958814917
1.96,0.1404901073049533,0.0774586981517735,1.6662354713875462,0.0123514687535473,0.1432476827139949,0.0259055633062686,-0.1172776285410485,-0.1016883822803135,-0.1828795221739665,0.1368768341122934,0.0782062531965455,1.667100241967716,-0.1311514389181249,-0.1371597706242617,-0.2034404058141936,0.6161532537823821,0.0631545372681022,0.099995910296495,0.6046959190312464,11.168793999423542,-1.225701597948397,0.1569480641642827,-1.039108325586786
1.98,0.1381437777403278,0.075446399720288,1.6627101989147974,0.0132470462012372,0.1413417418484435,0.0261264004873385,-0.1173268757931075,-0.0997112389721549,-0.1703079173095217,0.1341397067626901,0.0755106291823781,1.6629303038427343,-0.1197415817940348,-0.1419169104560431,-0.1933274049444426,0.6363111853106217,-0.0024623626029479,0.0988571654079305,0.6285802432222389,11.168793999423542,-1.2265965238014176,0.1563841666933961,-1.0427325580517286
2.0,0.1358031572730165,0.0734697707177014,1.6594326742052343,0.0149608676280924,0.1417468220179959,0.0264266220266455,-0.1164964761551924,-0.0981231100473958,-0.1581086000443555,0.1322774339506724,0.0704608377716802,1.6541948030493214,-0.127916426042386,-0.0940650716491616,-0.1635850242092898,0.616512487254898,0.0415199818957517,0.0794064462379555,0.6099658632583105,11.159306951464714,-1.2243788277758474,0.1549646861063063,-1.0491556503474189
2.02,0.1335498596857028,0.0714493339876449,1.656328491656041,0.0150779820354543,0.1417192574860186,0.0266015057657617,-0.1088613620494096,-0.1034861071326057,-0.1532542155055002,0.1322774339506724,0.0704608377716802,1.6541948030493214,-0.127916426042386,-0.0940650716491616,-0.1635850242092898,0.5258843846212077,0.3817557052891391,-0.2681498542604972,0.2427192269427627,11.137105436720049,-1.2200648987713263,0.154724559223645,-1.0528577065506148
2.04,0.1315564259327862,0.069443967536397,1.6534564912444736,0.0121725723697128,0.1388775619623963,0.0265173386409691,-0.1015901479888281,-0.106809463185714,-0.1492361346402382,0.1322774339506724,0.0704608377716802,1.6541948030493214,-0.127916426042386,-0.0940650716491616,-0.1635850242092898,0.4473818928228861,0.3635607030290783,-0.1661678026554133,0.2009040432631018,10.675939759403263,-1.2247232132407715,0.1579632363023844,-1.0507535291339054
2.06,0.129586274295727,0.0673085479198591,1.650520665557028,0.0076719021053009,0.1333030021091204,0.026318654906857,-0.096305548639254,-0.106264929202252,-0.1445068454288987,0.1309982696902485,0.0695201870551886,1.6525589528072284,-0.1300343360922417,-0.092935838184563,-0.1622404455892434,0.3556321273069817,0.2642299674787053,0.0272266991730996,0.2364644605669721,10.690820213970255,-1.234418884988773,0.1628342893797059,-1.0454335703188296
2.08,0.127682113836175,0.0652137642219747,1.6476838370163516,0.0032358977201565,0.1263121040255759,0.0261494837057682,-0.0946971072520989,-0.1032277074196197,-0.1393870383336,0.1284399411694008,0.0676388856222054,1.6492872523230426,-0.1342701561919531,-0.0906773712553657,-0.1595512883491507,0.3083189280026506,0.080422069357755,0.151861089131617,0.2559903547649386,10.690820213970255,-1.243681314064449,0.1673166708328009,-1.039112758861726
2.1,0.1257734499476512,0.0631960496821778,1.6449517330412289,-0.0005367049060023,0.1191102986486599,0.0260625446477844,-0.096423701650671,-0.0988323224313188,-0.134068857445822,0.1258816126485531,0.0657575841892221,1.6460155518388568,-0.1385059762916645,-0.0884189043261683,-0.1568621311090579,0.355610690811202,-0.0863297199286086,0.2197692494150409,0.2659090443888998,10.699455036758993,-1.252232164746021,0.1713301679785725,-1.0325037319609416
2.12,0.1239008203135361,0.0613683277444519,1.6424553006279032,-0.0033832763454543,0.1128788957566107,0.026058336019225,-0.1006740383978682,-0.0939350742107384,-0.1289762859106183,0.1231114931227198,0.0639892061026988,1.6428783092166757,-0.142741796391376,-0.086160437396971,-0.1541729738689652,0.4122580728127717,-0.2125168373598607,0.2448624110290231,0.2546285767601838,10.7035338612568,-1.2589693262745385,0.1745196245992165,-1.0269513851002237
2.14,0.121817753589951,0.0595481264291294,1.6399295207259188,-0.0056548470480848,0.1076255357600837,0.0261192083058836,-0.107575437231127,-0.0884465935998125,-0.1238840755046076,0.1203413735968865,0.0622208280161754,1.6397410665944945,-0.1469776164910874,-0.0839019704677737,-0.1514838166288724,0.5091250634453621,-0.3450699416629364,0.2744240305462914,0.2546105203005362,10.70386681934542,-1.2641524515389684,0.1769961003511252,-1.0230381959903965
2.16,0.1195699933918649,0.0578417333220303,1.6375017170294035,-0.0072199465231762,0.1045498676744023,0.0262274715332943,-0.1169648532170998,-0.0825534326425682,-0.1191709028794038,0.1174653585685604,0.060508911602882,1.6366710529033155,-0.1512134365907988,-0.0816435035385764,-0.1487946593887796,0.6022965939232104,-0.4694707992986408,0.294658047862216,0.2356586312601855,10.690954891010731,-1.2668230534285103,0.1787200428703375,-1.0217467699491478
2.18,0.1172486221358461,0.0563348573432148,1.6352786011488178,-0.0079449563339374,0.1042943026502485,0.0263667752378166,-0.1265239981414379,-0.0764588372910267,-0.1150853062519457,0.1144834480377416,0.0588534568628185,1.6336682681431391,-0.1554492566905102,-0.0793850366093791,-0.1461055021486869,0.602522704936976,-0.4779572462169069,0.3047297675770742,0.2042798313729076,10.65265492414892,-1.263253760544684,0.1795332101095383,-1.024453419546684
2.2,0.114625473792547,0.0548767492669598,1.633019010513547,-0.0077677718873455,0.1062934904278123,0.0265594979549744,-0.1350170356455145,-0.0697422716348877,-0.1111110805898108,0.1109224222287742,0.0525119154786635,1.6295243358362206,-0.1138769290821256,-0.0758655349852389,-0.1066275738650586,0.5767113876811558,-0.4246518752038297,0.335828282806952,0.1987112831067457,10.65265492414892,-1.2578719193904369,0.1794822788171816,-1.0299617271166313
2.22,0.1118154365910353,0.0535790230421371,1.6308577197949707,-0.0056696478642361,0.1110342166882553,0.0268656714681006,-0.145107135853463,-0.0606719356297918,-0.1051190251322367,0.1109224222287742,0.0525119154786635,1.6295243358362206,-0.1138769290821256,-0.0758655349852389,-0.1066275738650586,0.7415959918621868,-0.5045050103974227,0.4535168002547974,0.2996027728787022,10.63227766561704,-1.252274184588858,0.1778288895945351,-1.0392614255283288
2.24,0.1088389869729314,0.0524362890211719,1.6288147425026636,-0.0015450625220572,0.1186358205713989,0.0273114539386542,-0.1514939738338247,-0.0546201294870835,-0.0995131572350787,0.1109224222287742,0.0525119154786635,1.6295243358362206,-0.1138769290821256,-0.0758655349852389,-0.1066275738650586,0.5216363960094714,-0.3193418990180857,0.3025903071354134,0.2802933948579042,10.7882974288068,-1.2409655451766182,0.1741440490280252,-1.0513718666210616
2.26,0.1059335334104996,0.0514314202566844,1.626972022339808,0.0026993801397539,0.1271166156393142,0.0277821064677745,-0.1537084911841133,-0.0515186211453455,-0.0947688697475372,0.1097836529379529,0.0517532601288111,1.62845806009757,-0.1113475152702631,-0.0757468745240814,-0.1049360273876812,0.3042684047557432,-0.1107258675144301,0.155075417086898,0.2372143743770732,10.739607317174888,-1.2289462112297782,0.1699487919906414,-1.0654220324400925
2.28,0.1028683003548132,0.0504205120182446,1.625124495096372,0.0068245189529809,0.1362202012425347,0.0282844388657688,-0.1524190819850011,-0.0497350649181631,-0.0902815704400904,0.1075061143563104,0.0502359494291063,1.6263255086202688,-0.1062886876465382,-0.0755095536017663,-0.1015529344329264,0.2498974988514719,0.0644704599556109,0.0891778113591205,0.2243649653723381,10.709788113054856,-1.21811404221276,0.1661232646903354,-1.0790642465863785
2.3000000000000003,0.0998634498329457,0.0494346114392612,1.6233614525954003,0.0103631056058528,0.1446283805514575,0.0287665576829305,-0.1479600683655559,-0.0488976240033287,-0.0862890754668996,0.1052285757746679,0.0487186387294015,1.6241929571429676,-0.1012298600228132,-0.0752722326794511,-0.0981698414781716,0.3021759663473824,0.2229506809722573,0.0418720457417181,0.1996247486595402,10.695826801918884,-1.2092788193374142,0.162914672468082,-1.0913299739492586
2.32,0.0969760749234216,0.0484581821726386,1.6216742462717966,0.01325257983624,0.1516985794701568,0.0292057561698525,-0.1409977011951257,-0.0486793628642901,-0.0826569387398646,0.1032039785742116,0.0472131940758125,1.6222295603134045,-0.0961710323990883,-0.075034911757136,-0.0947867485234167,0.3927932399640298,0.3481183585215125,0.0109130569519343,0.1816068363517504,10.688486611998997,-1.2031921275357058,0.1605025080908055,-1.1011235310572356
2.34,0.0943781366318532,0.0475312400275936,1.6201373435955768,0.0154645317617724,0.1569160504936209,0.0295727747861615,-0.1328074146193099,-0.0488524224554818,-0.0793129696802346,0.1011793813737553,0.0457077494222235,1.620266163483841,-0.0911122047753634,-0.0747975908348209,-0.0914036555686619,0.4424162996767123,0.4095143287907873,-0.0086529795595848,0.1671984529814998,10.688486611998997,-1.1992532825733166,0.1585499741212598,-1.109332649578778
2.36,0.0918232475104782,0.0465489740777366,1.618588318365952,0.017278913230642,0.1606986093642369,0.0298968944239195,-0.123171692896933,-0.04931272644897,-0.0757659138501296,0.0992812548638922,0.0442082377916924,1.6183873439781462,-0.0860533771516384,-0.0745602699125058,-0.0880205626139071,0.5139081093429796,0.4817860861188481,-0.0230151996744105,0.1773527915052503,10.700494963012716,-1.1978766093443558,0.1571571626688576,-1.1153806067745493
2.38,0.0894675195691011,0.0455531252466703,1.617110975748348,0.0185729544197921,0.1627638491021628,0.0301501494879503,-0.1130473174787375,-0.0502018358600611,-0.0721441607569757,0.0975095990446222,0.0427146591842191,1.6165931017963204,-0.0809945495279135,-0.0743229489901907,-0.0846374696591522,0.5394686937654974,0.5062187709097727,-0.0444554705545573,0.1810876546576932,10.715448753302551,-1.1984877241975094,0.1563144377804984,-1.1191351130282108
