t,x,y,z,roll,pitch,yaw,v_x,v_y,v_z,ref_x,ref_y,ref_z,ref_v_x,ref_v_y,ref_v_z,a_com,a_x,a_y,a_z,thrust,wind_x,wind_y,wind_z
0.0,-2.373064340618482,2.214995673112534,2.641164365072543,0.0119785980538109,0.1363588834784438,0.0259056614699727,0.0055340459670362,0.0041365287711128,0.0156049169247101,-2.3729946482214177,2.2148801334029424,2.641345448313387,0.0363435850692824,-0.1009750873064591,-0.0840844841550111,0.8533023603427751,0.2767022983518127,0.2068264385556439,0.780245846235508,10.54973546515066,-1.2877409009033975,0.1648470350741324,-1.1769816835843354
0.02,-2.373056507020505,2.215318506156653,2.6412645563013983,0.0207461528139512,0.138314909712358,0.0265548267145228,-0.0045013679198895,0.0240189350625453,-0.00662836808803,-2.3729946482214177,2.2148801334029424,2.641345448313387,0.0363435850692824,-0.1009750873064591,-0.0840844841550111,1.5734822641812929,-0.5017706943462908,0.9941203145716216,-1.1116642506370118,10.54973546515066,-1.3107896679578608,0.158308200515597,-1.192941472683564
0.04,-2.373241099050557,2.215828042796617,2.640836180617242,0.0358050716459946,0.1437409081245386,0.027747863793984,-0.0128439807604517,0.0252280365670336,-0.0349597289441813,-2.3729946482214177,2.2148801334029424,2.641345448313387,0.0363435850692824,-0.1009750873064591,-0.0840844841550111,1.4779437771927657,-0.4171306420281099,0.0604550752244185,-1.4165680428075615,9.2189165429254,-1.301942808729838,0.1417624646805344,-1.1785644091547256
0.06,-2.37353100758727,2.2162655278867,2.63990721682289,0.0505000408980206,0.1507786876172519,0.0290479663409666,-0.01692084890242,0.0204679779916372,-0.0613973120772398,-2.3726312123707247,2.213870382529878,2.640504603471837,0.0424475991381244,-0.1209750876044823,-0.1040844844530343,1.3585146423627357,-0.2038434070984136,-0.2380029287698202,-1.3218791566529255,8.98476763026656,-1.287612389501017,0.1249730744923563,-1.165091924807707
0.08,-2.3738859160151637,2.216592458177266,2.638393202518774,0.0654277147789362,0.1590041108776352,0.0305172439103477,-0.0180429612698439,0.0121538835066941,-0.0885977609189098,-2.371904340669339,2.2118508807837487,2.638822913788737,0.0546556272758082,-0.1609750882005287,-0.1440844850490808,1.4232425306830163,-0.0561056183711963,-0.4157047242471586,-1.3600224420835034,9.012946900195402,-1.2749805828647418,0.1093904261553132,-1.1567196894391398
0.1,-2.374234189502636,2.216723230577363,2.6363440948577312,0.0796622166188544,0.1674155864419406,0.0320514187911016,-0.0164665794696759,0.0010393999785615,-0.1149275634784994,-2.3711774689679537,2.2098313790376194,2.6371412241056365,0.0668636554134921,-0.2009750887965752,-0.1840844856451272,1.4311492117385949,0.0788190900083996,-0.5557241764066263,-1.3164901279794792,9.046283235624289,-1.2640046434323184,0.0957121358782282,-1.148972335294343
0.12,-2.374525532082754,2.2166040910309697,2.633777843762545,0.0932046636355268,0.1756433219685045,0.0336160110487169,-0.0125324440394971,-0.0126795678517495,-0.1404057884878645,-2.369840195859684,2.205811877261688,2.633459534392734,0.079071683551176,-0.2409750893926216,-0.2240844862411737,1.460160478800134,0.1967067715089418,-0.6859483915155559,-1.2739112504682528,9.098092885576987,-1.2537304353620982,0.0824382906619032,-1.1407190439560992
0.14,-2.374705180580291,2.2162142657842367,2.63086504385996,0.1054471601210074,0.1829106192728447,0.0350815993697908,-0.0064814075017708,-0.0279016722758165,-0.1649548832798265,-2.368502922751414,2.2017923754857565,2.6297778446798312,0.0912797116888599,-0.2809750899886681,-0.2640844868372202,1.4756232254397097,0.3025518268863154,-0.7611052212033502,-1.227454739598102,9.147053653726289,-1.2458090455841138,0.0701179544211274,-1.1347420984429664
0.16,-2.3747491445890616,2.2154687854305246,2.62729059088832,0.1176950659125534,0.1895485835037983,0.0365320451241471,0.0018514015524192,-0.0461015996805615,-0.1912262170513868,-2.366860448939702,2.196772873694924,2.625096154952028,0.1034877398265437,-0.3209750905847146,-0.3040844874332666,1.6514054941233405,0.4166404527095045,-0.9099963702372498,-1.313566688578012,9.136816936214018,-1.240270916852559,0.0587347468482233,-1.128255994867788
0.18,-2.3746086301468776,2.214336405255446,2.62319048985004,0.1293036319757433,0.1948554984330232,0.0378192171162539,0.0118046320675499,-0.0664706357056588,-0.2174694934279853,-2.364912774424548,2.19075337188919,2.6194144652093225,0.1156957679642276,-0.360975091180761,-0.344084488029313,1.7339795134729648,0.4976615257565349,-1.0184518012548636,-1.3121638188299285,9.145244719044967,-1.2369874773954783,0.0482186492733446,-1.120544395340953
0.2,-2.374256088913405,2.2127745188512464,2.618567996706253,0.1402899789268084,0.1986790390219253,0.0388849535242488,0.0228615921180443,-0.0889320763926558,-0.2434705567958999,-2.3740183985435,2.211012873470163,2.612317015178641,0.0419342286585457,-0.1664706371957749,-0.3174694949181015,1.804735423515052,0.5528480025247196,-1.1230720343498493,-1.3000531683957288,9.145244719044967,-1.2361393346486471,0.0389769610321313,-1.1120638896216524
0.22,-2.373671502123558,2.2106821794130984,2.613829963829366,0.145199790409252,0.2009217742995797,0.039302902974575,0.0379492379540922,-0.1271785145883858,-0.2535695062880768,-2.3740183985435,2.211012873470163,2.612317015178641,0.0419342286585457,-0.1664706371957749,-0.3174694949181015,2.116846636142631,0.7543822918023946,-1.9123219097865003,-0.5049474746088439,9.16797627149117,-1.224381859175846,0.0345573451754538,-1.0941024468389886
0.24,-2.3727527076001182,2.2077925537721663,2.608644221871966,0.1444197254594442,0.2020072673937169,0.0391114235464667,0.0530044062574241,-0.1593096910774137,-0.2645501109541829,-2.3740183985435,2.211012873470163,2.612317015178641,0.0419342286585457,-0.1664706371957749,-0.3174694949181015,1.8571781511503007,0.7527584151665955,-1.6065588244513942,-0.549030233305306,10.18504724313243,-1.2263715341493635,0.0359619859923507,-1.0883372306911343
0.26,-2.371541280904916,2.204299038830987,2.60321505969404,0.1404753532864682,0.202047604067927,0.0385222701390349,0.0672812610895282,-0.1876648556077014,-0.2778007553808297,-2.3735990562569147,2.2093481670982054,2.60914232022946,0.0479601479767449,-0.1864706374937981,-0.3374694952161247,1.7200461601059494,0.7138427416052022,-1.4177582265143889,-0.6625322213323404,9.855280490592122,-1.229389706465418,0.0401759870274248,-1.08320769490266
0.28,-2.370053654580649,2.200287677602141,2.597497946728053,0.1354106867736927,0.201093640816292,0.0377009641949261,0.0806806581943996,-0.2118216312628295,-0.293169488858748,-2.372760371683744,2.206018754354289,2.602792930331097,0.0600119866131432,-0.2264706380898446,-0.3774694958121711,1.5805787085285476,0.669969855243574,-1.2078387827564012,-0.7684366738959114,9.707009737528097,-1.23330619471108,0.045165356372789,-1.0767651736038957
0.3,-2.368401520011881,2.1960555788434486,2.591763946393021,0.1306854907201884,0.199324497566415,0.036805467550555,0.0924835673985627,-0.2324507034299155,-0.3096056821995782,-2.371921687110573,2.202689341610374,2.5964435404327357,0.0720638252495415,-0.266470638685891,-0.4174694964082176,1.444831941519246,0.5901454602081517,-1.0314536083543004,-0.8218096670415093,9.707009737528097,-1.2372910181837766,0.0501022409536105,-1.069284589204631
0.32,-2.366432742130073,2.1911950945756504,2.585373247762542,0.1262690998442849,0.1966853115878453,0.0358013840064951,0.1036553948491013,-0.2525468532375701,-0.328666311984365,-2.370480410605582,2.197359928836656,2.588094150504571,0.0841156638859398,-0.3064706392819374,-0.457469497004264,1.493295494425841,0.55859137252693,-1.0048074903827295,-0.953031489239342,9.452085818607884,-1.2424821938293156,0.0544817751878089,-1.0602197510636584
0.34,-2.364254449552887,2.1859434515123533,2.578590244183595,0.1225803598773866,0.1934834736782496,0.0347806367071706,0.1135165150868201,-0.2717327857526245,-0.3486477434345025,-2.3690391341005914,2.1920305160629385,2.5797447605764066,0.0961675025223381,-0.346470639877984,-0.4974694976003105,1.4702034736827378,0.4930560118859429,-0.9592966257527202,-0.9990715725068766,9.452085818607884,-1.247816854062206,0.0579646699995139,-1.050253130737405
0.36,-2.3618912576941464,2.1803052121923745,2.5714008357644524,0.119267823863241,0.1899571569716326,0.0337505563926026,0.1222027943162319,-0.2910403474224817,-0.3692423726537633,-2.3672965616296904,2.18570110327432,2.570395370633341,0.1082193411587364,-0.3864706404740304,-0.5374694981963569,1.4767973262820118,0.4343139614705872,-0.9653780834928628,-1.0297314609630377,9.390875158273047,-1.25317424251364,0.0611944218371391,-1.038791769514417
0.38,-2.359497856847501,2.1745943412109536,2.564184128475669,0.1161866022100679,0.186524459683941,0.0327719174463233,0.1292093347410076,-0.3090210562920859,-0.3893330650576382,-2.36525269319288,2.1783716904707995,2.5600459806753744,0.1202711797951347,-0.4264706410700768,-0.5774694987924034,1.3928688213939917,0.3503270212387853,-0.8990354434802089,-1.0045346201937448,9.343544762384226,-1.2579653465308993,0.0642596751747669,-1.02683332627439
0.4,-2.35684924894117,2.168221450316068,2.556168283281747,0.1129809883286164,0.1831284344256714,0.0317765348894924,0.1351663346097599,-0.3272214556170994,-0.4111972647002352,-2.3530373901104507,2.1591432883963493,2.5447174752227872,0.1576827212820165,-0.409021057782202,-0.4893330665477543,1.4532580715736694,0.2978499934376169,-0.9100199662506748,-1.0932099821298529,9.295157390075474,-1.2607621373258042,0.0671351659826101,-1.0145296756429865
0.42,-2.354064573094389,2.1614703300786444,2.547945381197092,0.1099897100499243,0.1807541439761164,0.0309179681826567,0.143055220047789,-0.3470850011344727,-0.4087826587014578,-2.3530373901104507,2.1591432883963493,2.5447174752227872,0.1576827212820165,-0.409021057782202,-0.4893330665477543,1.0754362790333536,0.3944442719014535,-0.9931772758686674,0.1207302999388731,9.232895062074022,-1.2566647388942618,0.0699842135035725,-0.9940762774383562
0.44,-2.351135753784267,2.154337220497528,2.5397737540711582,0.1076305685893975,0.1803677439267669,0.030324726457124,0.1496103848192642,-0.36532558743535,-0.4089420246106131,-2.3530373901104507,2.1591432883963493,2.5447174752227872,0.1576827212820165,-0.409021057782202,-0.4893330665477543,0.9691679050530144,0.3277582385737582,-0.9120293150438608,-0.0079682954577636,10.717863081624271,-1.257488357247322,0.0713204744134953,-0.99600518367801
0.46,-2.34822994952067,2.1472272497677034,2.531949341632641,0.1059552523022039,0.1814522389175589,0.0299539266885548,0.1560978717143184,-0.3822257112377693,-0.4146562244990407,-2.3514605628976306,2.1550530778185277,2.539824144557309,0.1633773985902183,-0.4290210580802252,-0.5093330668457775,0.9491492916231692,0.3243743447527106,-0.8450061901209643,-0.285709994421382,10.361212011239331,-1.2565620009831155,0.072333348592127,-0.99809640642061
0.48,-2.345032365124029,2.1394038038159398,2.523553380669145,0.1046035357732128,0.1834282615291404,0.0296747185286482,0.1634138075481258,-0.3992109820947155,-0.424821617283427,-2.34830690847199,2.1468726566628837,2.5300374832263546,0.1747667532066219,-0.4690210586762717,-0.549333067441824,1.0551748121390463,0.3657967916903704,-0.8492635428473144,-0.5082696392193137,10.050030398279889,-1.2546606229793953,0.0731024713938791,-0.9993531679726162
0.5,-2.341682854688461,2.131247845835859,2.514917277659418,0.1037294141825129,0.18575944543008,0.0294591444368877,0.1712393730741155,-0.4155273353594756,-0.4384093232315043,-2.34515325404635,2.1386922355072397,2.5202508218954,0.1861561078230255,-0.5090210592723181,-0.5893330680378704,1.131468749671662,0.3912782762994865,-0.8158176632380054,-0.6793852974038644,9.813001043605254,-1.2522397288534433,0.0735485120499378,-0.9992833450744644
0.52,-2.3381724886843127,2.1227723191534853,2.505978118475489,0.103417038399314,0.1880840900030824,0.0292755583926086,0.1794573265138774,-0.4312539217122415,-0.4548106702430743,-2.3414301318898896,2.1285118143217927,2.508464160534642,0.1975454624394291,-0.5490210598683646,-0.6293330686339169,1.2081643729673472,0.410897671988096,-0.7863293176382902,-0.8200673505785044,9.631973916133576,-1.250329529175153,0.0735778223030269,-0.9984793802184226
0.54,-2.33468039590689,2.1144321505650674,2.4971711865863364,0.1037267168416336,0.1900850964854212,0.0291165261270851,0.187739576014711,-0.4459306929050758,-0.4714073810925683,-2.337707009733429,2.1183313931363466,2.4966774991738845,0.2089348170558327,-0.589021060464411,-0.6693330692299634,1.1826390832187383,0.4141124750416794,-0.7338385596417196,-0.8298355424746995,9.490447744441552,-1.2485313436759722,0.0730973925237874,-0.9963275936789984
0.56,-2.330829243114636,2.105343281805993,2.487550477533097,0.1044625137728429,0.1918110447280475,0.0289325789258578,0.1969430424204973,-0.4621683543945449,-0.4898169457079216,-2.3336991537115583,2.107150971935999,2.483890837798226,0.2203241716722362,-0.6290210610604574,-0.7093330698260097,1.310798910832525,0.4601733202893157,-0.8118830744734545,-0.9204782307676656,9.436169477542537,-1.2472347036136575,0.0722593210137035,-0.9932695175678332
0.58,-2.326789991164312,2.0959202570336988,2.4775531989016413,0.1051170412933974,0.1930041430739661,0.0286809359810871,0.2064978716147238,-0.4792659619476197,-0.5089975729243467,-2.3294065638242776,2.0949705507207503,2.4701041764076663,0.2317135262886398,-0.6690210616565039,-0.7493330704220562,1.3706927129970312,0.4777414597113227,-0.8548803776537384,-0.9590313608212496,9.387389924956551,-1.2465286170751084,0.0715106184669272,-0.989149175379098
0.6,-2.3225583368482394,2.0861475805428418,2.467164502776825,0.105221988802202,0.1935952053413459,0.0283210648942894,0.216143062450829,-0.4970568278363018,-0.5289153712981588,-2.3164650975835754,2.0719569589363176,2.452103320255424,0.2505828713250452,-0.5792659634377358,-0.6089975744144628,1.419738802908648,0.4822595418052605,-0.8895432944341031,-0.9958899186906068,9.309595406770311,-1.2464453667677349,0.0712501160342052,-0.98428924669281
0.62,-2.3183345457723656,2.0764751318878427,2.457193943246066,0.1036286555738141,0.1945401751053704,0.0278964352640684,0.2282161142609831,-0.5196847325387995,-0.5195979822896658,-2.3164650975835754,2.0719569589363176,2.452103320255424,0.2505828713250452,-0.5792659634377358,-0.6089975744144628,1.3643628450412042,0.6036525905077056,-1.131395235124888,0.4658694504246496,9.309595406770311,-1.2415081368160388,0.072674150970367,-0.971388943710523
0.64,-2.3136367961767927,2.0658636163059345,2.446865010138223,0.100176622532552,0.1966213428801315,0.0274339663780858,0.2410062068244007,-0.539778051403235,-0.5141542048416541,-2.3164650975835754,2.0719569589363176,2.452103320255424,0.2505828713250452,-0.5792659634377358,-0.6089975744144628,1.2216409493711196,0.6395046281708796,-1.004665943221772,0.2721888724005861,11.099497667300966,-1.2392096481165604,0.0748566363809932,-0.9774264738368
0.66,-2.3086802223952443,2.0548837828623308,2.4365732954377752,0.0963251240431776,0.1991790218699304,0.02698561570346,0.2540995151995064,-0.5570503515802772,-0.5152516481817054,-2.3139592688703248,2.06616429930194,2.4460133445112797,0.2593998712671095,-0.599265963735759,-0.628997574712486,1.0850938432873998,0.654665418755286,-0.8636150088521088,-0.0548721670025675,10.67943632461902,-1.2375155139593028,0.0774808926544483,-0.981973481370674
0.68,-2.3034591251277226,2.0435794916652155,2.4262065059851987,0.0925971102420041,0.2016266733907345,0.0265292341485137,0.2673803485249831,-0.5724732626524108,-0.5213551564398882,-2.308947611443824,2.054578980033185,2.43383339302299,0.2770338711512381,-0.6392659643318055,-0.6689975753085324,1.062425918377064,0.6640416662738319,-0.7711455536066836,-0.3051754129091366,10.318105609388112,-1.236394044446698,0.0803202381294447,-0.9847496366496276
0.7000000000000001,-2.298253090145706,2.0325683460577286,2.416206362802264,0.0893805876862162,0.2035518180558691,0.0260773625592137,0.2799455356101354,-0.5858473532096903,-0.5309707732581517,-2.303935954017323,2.042993660764431,2.421653441534701,0.2946678710353667,-0.679265964927852,-0.7089975759045789,1.035869576147091,0.6282593542576154,-0.6687045278639725,-0.4807808409131753,10.038490365291182,-1.2361170051253334,0.0829672489902808,-0.9855971122361052
0.72,-2.292518392108194,2.020714917487286,2.4054502846128503,0.0864714946639547,0.2050498856079618,0.0255861861552674,0.2928224938540834,-0.5988261355411757,-0.5442675061616206,-2.298042596596616,2.029408341465874,2.407473490016609,0.3123018709194952,-0.7192659655238984,-0.7489975765006254,1.1303406016889883,0.6438479121973983,-0.6489391165742708,-0.6648366451734444,9.816947913120202,-1.2367336072341684,0.0852506627375225,-0.9847773051785492
0.74,-2.286527614356883,2.008609434612512,2.394408623441057,0.0841078666198649,0.2059870493805431,0.0250853149537936,0.3055664535197624,-0.6111719016024391,-0.5592094048794871,-2.2921492391759086,2.015823022167317,2.3932935384985177,0.3299358708036238,-0.7592659661199449,-0.7889975770966718,1.1598348857648646,0.6371979832839519,-0.6172883030631682,-0.7470949358933276,9.633136193920109,-1.2376903063269735,0.0870813284959297,-0.98197922709745
0.76,-2.280281098122409,1.9962525109781848,2.3830561493794287,0.0819406444833112,0.206301261786385,0.0245482598020226,0.318362978643904,-0.6237956744754087,-0.5752560480173332,-2.285815031758098,2.001237702853859,2.378113586965525,0.3475698706877524,-0.7992659667159913,-0.8289975776927182,1.2047877954172004,0.6398262562070794,-0.6311886436484837,-0.8023321568923047,9.494026002837929,-1.239070391812157,0.0886465241827485,-0.9782369529489652
0.78,-2.274111339297876,1.984281745651207,2.371963927977377,0.0798043092222424,0.2059467919512523,0.0239833576927663,0.3303735843165921,-0.6355280401210085,-0.5915099921598922,-2.2790399743431844,1.9856523835254996,2.361933635417631,0.365203870571881,-0.8392659673120377,-0.8689975782887647,1.1684324461177509,0.600530283634404,-0.5866182822799881,-0.8126972071279492,9.494026002837929,-1.2411384463537212,0.0903383071702644,-0.9733489629184224
0.8,-2.2677169164776982,1.972093807713061,2.3605522584778256,0.0775763766717847,0.204904513928055,0.0233637199185259,0.3420386546097798,-0.6467043331320572,-0.6088987159281258,-2.2575926600820466,1.9525053436451565,2.3423884283693828,0.3658636613055275,-0.7355280416111246,-0.6915099936500083,1.1867509265867038,0.5832535146593848,-0.5588146505524361,-0.8694361884116819,9.430476714548604,-1.2437631658914836,0.0920049714127897,-0.9678032326122752
0.8200000000000001,-2.2606771763883846,1.9590090708454213,2.348476202230949,0.0748538014380263,0.2027179188654426,0.0226113186049004,0.3615628672407038,-0.6610250885912025,-0.5962012130391665,-2.2575926600820466,1.9525053436451565,2.3423884283693828,0.3658636613055275,-0.7355280416111246,-0.6915099936500083,1.367027336406723,0.9762106315462038,-0.716037772957262,0.6348751444479661,9.352645047327314,-1.2401336235131453,0.0937611699297784,-0.9538633986102883
0.84,-2.253251830527616,1.9456629051302448,2.336650505210678,0.0721493670923964,0.199018392004547,0.0217637524051601,0.3797912145366419,-0.6729568303167317,-0.587156166007001,-2.2575926600820466,1.9525053436451565,2.3423884283693828,0.3658636613055275,-0.7355280416111246,-0.6915099936500083,1.1794617221005437,0.9114173647969016,-0.5965870862764622,0.4522523516082732,11.334047346285844,-1.2462983519645432,0.095421129853779,-0.9544442240162928
0.86,-2.245880785320122,1.9327728124604533,2.325516387320862,0.069960159470666,0.1939762438430793,0.0208938980448798,0.3949108269919495,-0.6833564308528735,-0.5852463943510018,-2.2539340234689917,1.9451500632290453,2.3354733284328826,0.3729616767033146,-0.7555280419091478,-0.7115099939480315,0.9224987803353364,0.7559806227653842,-0.5199800268070875,0.0954885827999629,10.86252919731578,-1.2549093632896424,0.0969379002501439,-0.9511584688163424
0.88,-2.237848003253413,1.918999952219946,2.3137808160182134,0.0680956166834927,0.187408903718201,0.0199425040750219,0.4072068657894061,-0.6934229069854899,-0.5886148089783867,-2.246616750242881,1.9304395023968224,2.321643128559882,0.3871577074988888,-0.7955280425051943,-0.751509994544078,0.8122079920486414,0.6148019398728277,-0.5033238066308232,-0.1684207313692454,10.438713287921018,-1.2648542814508783,0.098112287839367,-0.9450476088297638
0.9,-2.2296075127715347,1.905033281751353,2.3019268938793425,0.066764049718285,0.1802834077204384,0.0190112495004083,0.4159446413504207,-0.7027521741382314,-0.5967662692904109,-2.2392994770167705,1.9157289415646,2.3078129286868823,0.401353738294463,-0.8355280431012407,-0.7915099951401244,0.7580076724222367,0.4368887780507285,-0.4664633576370758,-0.4075730156012092,10.099154455627286,-1.2738416254232732,0.0988046605022775,-0.9367374121160632
0.92,-2.22164910336765,1.8916002942260255,2.29047269010087,0.0661677697042178,0.1735689681418085,0.0181922312990235,0.421214149211163,-0.7108625530931666,-0.6084789012229642,-2.231272402250881,1.8990183807025756,2.29198272878408,0.4155497690900372,-0.8755280436972872,-0.8315099957361709,0.7594927693443638,0.2634753930371158,-0.405518947746758,-0.5856315966276671,9.816966863684684,-1.282264630725462,0.0989537534736692,-0.9261109476039832
0.94,-2.2131891580363927,1.8772996713634795,2.278155557130104,0.0664823920593306,0.1670320294130374,0.0174399905717842,0.4243617787966758,-0.7188533808614178,-0.622680789234476,-2.223245327484992,1.8823078198405503,2.276152528881277,0.4297457998856114,-0.9155280442933336,-0.8715099963322174,0.8298411346772532,0.1573814792756395,-0.3995413884125609,-0.7100944005755894,9.584693568406692,-1.288971076265313,0.0983029927635459,-0.914392877067182
0.96,-2.2046856626898355,1.8628303908677208,2.265538547844486,0.0676295720456219,0.1613324454693658,0.0168026679736959,0.4257101202502095,-0.7277004526829831,-0.6383453813278049,-2.2148633519492136,1.8645972589636248,2.2593223289635738,0.4439418306811856,-0.95552804488938,-0.9115099969282636,0.9020367924059908,0.0674170726766842,-0.442353591078265,-0.7832296046664466,9.465514339551191,-1.2939423451898102,0.096965592610544,-0.9030799676514312
0.98,-2.1961742803517463,1.848174724736764,2.252593258147452,0.069140696308329,0.1567369649404368,0.0162631127118402,0.4252830760385117,-0.7373908301824301,-0.655364392205167,-2.2061264756435457,1.8458866980717976,2.2414921290309686,0.4581378614767598,-0.9955280454854266,-0.9515099975243102,0.9794545855784996,-0.0213522105848879,-0.4845188749723506,-0.8509505438681009,9.37882735585481,-1.2974427174163152,0.0954683530103793,-0.8928695618313723
1.0,-2.1881120047771163,1.8340642194227883,2.239968826080625,0.0705701738686212,0.1537420001909913,0.0158435755222518,0.4233589636918192,-0.7473836644154835,-0.6726467753183808,-2.174910126549821,1.8113051832276423,2.2198250385371936,0.4709906818176827,-0.8373908316725462,-0.7553643936952831,1.0027957299518655,-0.096205617334627,-0.4996417116526708,-0.864119155660692,9.30168653101191,-1.299414927491947,0.0939250628046106,-0.883418185651543
1.02,-2.1796630468966693,1.8189417431680968,2.226643763703444,0.0706561066841181,0.153632218492228,0.0155214002995426,0.422222767014723,-0.7641407837975388,-0.6572871201721895,-2.174910126549821,1.8113051832276423,2.2198250385371936,0.4709906818176827,-0.8373908316725462,-0.7553643936952831,1.1379927494094786,-0.0568098338548095,-0.8378559691027632,0.7679827573095654,9.232026240854792,-1.292329098510151,0.0934469567982578,-0.8691328022143147
1.04,-2.171216013237997,1.803498596504704,2.213627201409084,0.0686412465147432,0.1572604439167027,0.0153234174617871,0.4229128155510088,-0.7791340815484116,-0.6457196848110829,-2.174910126549821,1.8113051832276423,2.2198250385371936,0.4709906818176827,-0.8373908316725462,-0.7553643936952831,0.9474712466113896,0.0345024268142923,-0.7496648875436385,0.5783717680553302,11.37460880670551,-1.286899697273416,0.094214427398713,-0.8799289674929762
1.06,-2.1627322638089117,1.787778211952681,2.2007540892235484,0.0652471809791561,0.1631084600966732,0.0151802213001379,0.4257958892643504,-0.7916828791180205,-0.6421342772309157,-2.1702002197316443,1.8029312749109168,2.212271394600241,0.4801322029735169,-0.8573908319705694,-0.7753643939933063,0.6682805959989868,0.1441536856670783,-0.6274398784804458,0.1792703790083616,10.41389757916204,-1.2800693967087615,0.096101219201692,-0.8911952958731671
1.08,-2.1546015755256143,1.7726411070585064,2.1885336204578736,0.0617762247421781,0.1696402118565008,0.0150815231677891,0.430171726254935,-0.8010169869250998,-0.6444179915147261,-2.1607804060952907,1.7861834582774665,2.197164106726335,0.4984152452851853,-0.8973908325666159,-0.8153643945893527,0.5279414476351237,0.2187918495292318,-0.4667053903539664,-0.1141857141905233,10.083767164106575,-1.2738116362676937,0.0985814824362211,-0.902272753916916
1.1,-2.145937649796615,1.756534430551853,2.1755758147498847,0.0584701079905939,0.1769030452406664,0.0150139266608925,0.4361944226865332,-0.8091730077766456,-0.6514674347676632,-2.151360592458937,1.7694356416440151,2.1820568188524296,0.5166982875968538,-0.9373908331626624,-0.8553643951853992,0.6174305600924193,0.3011348215799098,-0.4078010425772882,-0.3524721626468552,10.083767164106575,-1.2679235437393763,0.1009557202832602,-0.9118142151232812
1.12,-2.1371356815287537,1.7402759272410713,2.16243460690876,0.0557328867886066,0.1840614549818787,0.0149702226424386,0.44385731635489,-0.8163244457681087,-0.6624698163571701,-2.141026626707,1.750687824980762,2.164949530948721,0.5349813299085222,-0.9773908337587088,-0.8953643957814457,0.7597950469689231,0.3831446834178381,-0.3575718995731558,-0.5501190794753419,9.828151233685276,-1.2625417606826272,0.1028634044877647,-0.9195697659053216
1.14,-2.128162246347796,1.723882483477967,2.149051289792495,0.0536328171537171,0.1906401422202582,0.0149334911856231,0.4531974003682238,-0.8228099377145613,-0.6753196414042862,-2.130692660955063,1.731940008317509,2.1478422430450137,0.5532643722201905,-1.0173908343547553,-0.935364396377492,0.8579288707479357,0.467004200666693,-0.3242745973226324,-0.6424912523558091,9.631805024028836,-1.257223128396726,0.1044123536538084,-0.9255603243051594
1.16,-2.119447972045776,1.708184088991468,2.136087503987804,0.0519370448615286,0.1960012971337808,0.0148710671775834,0.4636340150254743,-0.8292828112015519,-0.6886471353120613,-2.119901619145334,1.7121921916393543,2.1297349551264046,0.571547414531859,-1.0573908349508017,-0.9753643969735386,0.9061499745410554,0.5218307328625216,-0.3236436743495274,-0.666374695388755,9.560636145231,-1.252508832651247,0.1056828517834106,-0.9299458039744442
1.18,-2.1100504294211158,1.6915289474910369,2.1221553250180785,0.0502222059604025,0.2004601901544424,0.0147505788664425,0.47557104868077,-0.8358357131835903,-0.7039193560304371,-2.1086535012778134,1.6914443749462988,2.1106276671928943,0.5898304568435273,-1.097390835546848,-1.015364397569585,1.0230762710382963,0.5968516827647846,-0.3276450991019197,-0.7636110359187875,9.512691620335318,-1.2493173985359831,0.1069289682238447,-0.9325137458812812
1.2,-2.100406234795082,1.6747455673276648,2.1079038255382154,0.048499491430163,0.2035705807265737,0.0145660752627819,0.4881592631969081,-0.8420949978923028,-0.720443683551919,-2.0862718769870767,1.6497371618318573,2.086959357216557,0.5366109919288036,-0.9358357146737064,-0.7895602856697765,1.0847755410754785,0.6294107258069087,-0.3129642354356254,-0.8262163760740959,9.45093402339262,-1.2476135197974292,0.108134240384941,-0.9331107071315692
1.22,-2.0909383674252457,1.6586530017856325,2.09441453429346,0.0462152900364217,0.2054914487870602,0.0143012247522854,0.5077915339003712,-0.8510278021884288,-0.6986518603829588,-2.0862718769870767,1.6497371618318573,2.086959357216557,0.5366109919288036,-0.9358357146737064,-0.7895602856697765,1.533056263313722,0.9816135351731536,-0.4466402148062987,1.0895911584480111,9.39253504277076,-1.240383489860772,0.1096247869418727,-0.922318890104056
1.24,-2.0805729053819104,1.6415623785407707,2.0806339652293144,0.0435158477670706,0.2066686124212995,0.0139714097182845,0.5275673961556472,-0.857532485027384,-0.6810454618518178,-2.0862718769870767,1.6497371618318573,2.086959357216557,0.5366109919288036,-0.9358357146737064,-0.7895602856697765,1.3632506152688963,0.9887931127637972,-0.3252341419477611,0.8803199265570494,11.310591467060476,-1.2430353375395382,0.1117527910041179,-0.933223452847154
1.26,-2.0698254923940653,1.624359030456409,2.06711573346284,0.0412541279113587,0.206851468619503,0.0136406370299966,0.5460436658820725,-0.8626001338705827,-0.6716126939591517,-2.080905767067789,1.6403788046851202,2.0790637543598587,0.5488189805784103,-0.9558357149717296,-0.8066884715976445,1.0677437870558033,0.9238134863212676,-0.2533824421599329,0.4716383946333058,11.310591467060476,-1.2457432440599605,0.1134572107424454,-0.9407076948269508
1.28,-2.058721886467896,1.607064550739765,2.053720262636173,0.0396224663786247,0.2059060241170636,0.0133210083631599,0.5632910654279932,-0.8667345023233444,-0.6683814917565968,-2.0701735472292127,1.621662090391646,2.063272548646464,0.5732349578776237,-0.995835715567776,-0.8409448434533802,0.9013967789958154,0.8623699772960347,-0.2067184226380858,0.1615601101277453,10.84848130888713,-1.2488072858967,0.1147358282392733,-0.944814861390622
1.3,-2.0478647029210566,1.590566460107543,2.0410064972869995,0.0388424816424301,0.203803063619118,0.0130362267089041,0.578610087305247,-0.8698231946892214,-0.6700441716734075,-2.0594413273906365,1.602945376098172,2.047481342933068,0.5976509351768371,-1.0358357161638223,-0.875201215309116,0.785775025552117,0.7659510938626879,-0.1544346182938527,-0.0831339958405341,10.491361842267906,-1.2531271187487183,0.1153461063418122,-0.94605835131779
1.32,-2.036135599103253,1.573144563943672,2.027550459460982,0.0391564273104629,0.2002034982635906,0.0127723655240698,0.5933380451277497,-0.8723139969736714,-0.6756220017822059,-2.0474883086871,1.5822286617748955,2.029977318626885,0.6220669124760505,-1.0758357167598689,-0.9094575871648518,0.7972280513821902,0.7363978911251345,-0.1245401142224988,-0.278891505439921,10.207858952364404,-1.2586641839076902,0.1149781307351877,-0.943819090463466
1.34,-2.024126358684113,1.5556773294098598,2.0139602821948643,0.0409867429861007,0.1951704225270939,0.0125603439452686,0.6065994665424803,-0.8745165499573802,-0.6830570173096296,-2.035535289983563,1.561511947451619,2.012473294320703,0.6464828897752639,-1.1158357173559157,-0.9437139590205876,0.7681080547002372,0.6630710707365317,-0.1101276491854374,-0.371750776371188,9.880561755350756,-1.2649207156677376,0.1134405013481453,-0.9381586955481852
1.36,-2.0124915385301367,1.539026532546236,2.000901097039002,0.0438458556893329,0.1893331337559429,0.0123836090635901,0.6171883980223833,-0.8784081526768855,-0.6911834730486546,-2.022971871847546,1.5397952331134417,1.994112860718127,0.6708988670744773,-1.1558357179519618,-0.9779703308763232,0.6951786182177828,0.5294465739951515,-0.1945801359752696,-0.4063227869512464,9.804707381958906,-1.2724252150684765,0.1108376799838994,-0.9296370813964164
1.38,-2.00005209465659,1.5213960792391898,1.9869761896254696,0.0469972451043907,0.1825970272776706,0.0121623831837296,0.6259459039525924,-0.8844762758558319,-0.7009030297835225,-2.0097980542790483,1.5170785187603628,1.974896017819158,0.6953148443736907,-1.1958357185480082,-1.012226702732059,0.7210856609218301,0.4378752965104537,-0.3034061589473169,-0.4859778367433953,9.804707381958906,-1.2795881670480072,0.1080787875482378,-0.9196173327320109
1.4,-1.987461864489548,1.5036312134914986,1.972843595978124,0.0497611625731989,0.1756991365408866,0.0118868829143063,0.6324264177672876,-0.8916577190965245,-0.7118923674443531,-1.9687547994589605,1.4771722654463983,1.951931038136293,0.6816635175006328,-0.984476277345948,-0.7372913934727067,0.7320104653375782,0.3240256907347583,-0.3590721620346293,-0.5494668830415328,9.721302986976298,-1.2862286176586346,0.1056448795390111,-0.90862434467179
1.42,-1.9746719858032944,1.485633574929313,1.9589183789353348,0.0499981023788975,0.1685849442241891,0.0114147391968,0.6463665172530393,-0.9072283200858272,-0.6777644665823027,-1.9687547994589605,1.4771722654463983,1.951931038136293,0.6816635175006328,-0.984476277345948,-0.7372913934727067,2.000927038956364,0.697004974287585,-0.778530049465137,1.706395043102521,9.63623287127757,-1.281176108072436,0.1047001684780063,-0.885368445914907
1.44,-1.9622809282382232,1.4682639057279372,1.946343039886612,0.0468392597181696,0.1615449433522048,0.0107394399596437,0.6569657209507628,-0.9197634951493868,-0.6478659030420107,-1.9687547994589605,1.4771722654463983,1.951931038136293,0.6816635175006328,-0.984476277345948,-0.7372913934727067,1.7054309093838995,0.5299601848861746,-0.6267587531779806,1.4949281770145983,12.141962976387733,-1.2898214771271923,0.1069567969138648,-0.8889256178659778
1.46,-1.9490585403353804,1.4497777400972192,1.9336428501720435,0.0419592998411449,0.1542046581345535,0.0099752568594459,0.6644243654315869,-0.9278636877221402,-0.6240557162274311,-1.961938164283954,1.4673275026729389,1.9445581242015664,0.6928070402102409,-1.0044762776439713,-0.7445690662105435,1.3116492417489156,0.3729322240412058,-0.4050096286376703,1.1905093407289846,12.141962976387733,-1.298723057551754,0.1106438636550481,-0.8901166904030337
1.48,-1.9357244857625229,1.431165590496129,1.9213394665179109,0.0371865561662002,0.1472820421950575,0.0092948479310613,0.6683852764044017,-0.9329121820149014,-0.6077654262801371,-1.948304893933941,1.44763797712602,1.9298122963321125,0.7150940856294571,-1.0444762782400177,-0.7591244116862171,0.8754279766570101,0.1980455486407406,-0.2524247146380609,0.8145144973646989,11.594864776918255,-1.307170417270964,0.1143510653404234,-0.8890056340415173
1.5,-1.9223442057600784,1.412472833237587,1.909295247871163,0.033121747020768,0.1411258391419622,0.008744251527952,0.6692541562724352,-0.9361834024002008,-0.5977070287799608,-1.9346716235839283,1.427948451579101,1.9150664684626584,0.7373811310486732,-1.084476278836064,-0.7736797571618909,0.5306298034077608,0.0434439934016761,-0.1635610192649683,0.5029198750088115,11.120627441114266,-1.3142200214146196,0.1174045204933151,-0.8863210112841168
1.52,-1.9096458388114144,1.3946666049565353,1.8979874161006085,0.030132485409677,0.136435554904115,0.0083582376338911,0.6672945897027935,-0.9381978928840828,-0.5930623778969956,-1.919924000962955,1.4062589260023797,1.8995928733194205,0.7596681764678893,-1.1244762794321104,-0.7882351026375646,0.2714353278183327,-0.0979783284820845,-0.1007245241940957,0.2322325441482642,10.750224722522034,-1.3200196328806242,0.1199156941103632,-0.8824654246556516
1.54,-1.8963420465569456,1.375888232785773,1.8861614742284367,0.0279294328693456,0.1333209012392003,0.0081007638843797,0.6630732409767126,-0.9397094511842636,-0.589838916907445,-1.9051763783419813,1.3845694004256583,1.8841192781761824,0.7819552218871055,-1.164476280028157,-0.8027904481132382,0.2761127229646639,-0.2110674363040465,-0.0755779150090396,0.1611730494775254,10.468239841892682,-1.323164433258698,0.1216317114194991,-0.8787389905356414
1.56,-1.8831339707344208,1.357074863489332,1.8743867704339927,0.0264040174804076,0.1325281886086242,0.0079748182148891,0.6581971982815888,-0.9415650190626824,-0.5878501099547648,-1.889871579585528,1.361879874834036,1.868281799396053,0.8042422673063216,-1.2044762806242033,-0.8173457935889119,0.2791696509791088,-0.243802134756188,-0.0927783939209447,0.0994403476340111,10.378349645050548,-1.3228433907344288,0.122760225971205,-0.8783993693853611
1.58,-1.870012371891309,1.338225902192418,1.8626403887636265,0.0253052606366859,0.1335693245192663,0.0079412002601845,0.6544228203371603,-0.9432428519792384,-0.5868928762150231,-1.8740096046935932,1.3381903492275125,1.8520804369790316,0.8265293127255378,-1.2444762812202497,-0.8319011390645855,0.2119985176585447,-0.1887188972214293,-0.0838916458278049,0.0478616869870884,10.304799593056488,-1.3210496415308235,0.1235489842708695,-0.8801149600666477
1.6,-1.8576046255219656,1.320290756500979,1.851491212228012,0.0246398139634373,0.1356173028729893,0.0079732993798646,0.6519926129799973,-0.9445909984110918,-0.5867604495372671,-1.8372912308744511,1.2910637595934562,1.833295744952875,0.7234235562161047,-1.0432428534693543,-0.6062589151782217,0.1391127548565295,-0.1215103678581464,-0.0674073215926662,0.0066213338877962,10.24905718057198,-1.318377968751724,0.1241050768522129,-0.8831866918158288
1.62,-1.845202968525615,1.3022939072679245,1.8405758557598813,0.0233394461405751,0.1383900618480399,0.0079883163859895,0.6539096538859948,-0.9495259302554182,-0.5608932958519457,-1.8372912308744511,1.2910637595934562,1.833295744952875,0.7234235562161047,-1.0432428534693543,-0.6062589151782217,1.3201687751225717,0.0958520452998712,-0.2467465922163181,1.293357684266072,10.2045429391992,-1.308924870461009,0.1247093250904709,-0.8794206368394284
1.64,-1.8320941587195696,1.2832759314115447,1.829632358884816,0.0210741255809084,0.1418945255147293,0.0079626715934051,0.6569771429643129,-0.951850230514919,-0.5352393048269384,-1.8372912308744511,1.2910637595934562,1.833295744952875,0.7234235562161047,-1.0432428534693543,-0.6062589151782217,1.29705350357365,0.1533744539159054,-0.1162150129750405,1.2826995512503658,12.049590379659094,-1.3072843472207214,0.1267559590403123,-0.89398507976912
1.66,-1.8189169844251103,1.2642348620004131,1.8191455636529128,0.0191672136738963,0.1456310400531523,0.0079732265155678,0.6606854302506604,-0.9522632129966648,-0.5149618068262304,-1.83005699531229,1.2806313310587627,1.8272331558010928,0.7372237033918936,-1.0632428537673777,-0.6101321229708615,1.0308963021286772,0.1854143643173766,-0.0206491240872852,1.0138749000353997,11.717879924216504,-1.305998469481965,0.1285253519516241,-0.906842024731013
1.68,-1.8063245057752184,1.2461513653540155,1.8095127947324867,0.0182263876100983,0.1491038153456558,0.0080494127471026,0.6647312675514235,-0.951426340719066,-0.5000287669600383,-1.815588524187968,1.2597664739893757,1.8151079774975285,0.7648239977434713,-1.1032428543634245,-0.6178785385561409,0.7747012881081037,0.2022918650381566,0.0418436138799327,0.746651993309605,11.394692149584444,-1.3044637254832334,0.129677594649359,-0.9185344062472184
1.7,-1.7929807407251066,1.2271428166984073,1.7996484776078978,0.0186365878651073,0.1524984518669777,0.0082321731912258,0.6694893038359953,-0.9496265742337808,-0.4873340159009743,-1.801120053063646,1.2389016169199885,1.802982799193964,0.792424292095049,-1.1432428549594706,-0.6256249541414204,0.6838032851969612,0.237901814228586,0.0899883242642562,0.634737552953199,11.148387809797896,-1.3030015914835311,0.1296546458184003,-0.9287006615149572
1.72,-1.7795363983837649,1.208175057576938,1.7900114352458047,0.0209363764022748,0.1555081379776988,0.0085519404072698,0.674745332923681,-0.9474575010021936,-0.4771108016702133,-1.785271567221745,1.216036759820799,1.7904703001111355,0.8200245864466268,-1.183242855555517,-0.6333713697266998,0.5849034742216479,0.2628014543842871,0.1084536615793663,0.5111607115380501,10.975339372888811,-1.301798354873901,0.1280442936668412,-0.9376342996796948
1.74,-1.7659800050798664,1.1892347139766115,1.780569843065829,0.0249982582783322,0.1580287975436696,0.0089978342852164,0.6806440400364173,-0.9473073583825083,-0.4675748348874975,-1.769423081379844,1.1931719027216097,1.7779578010283072,0.8476248807982046,-1.2232428561515636,-0.6411177853119793,0.5606958865756707,0.2949353556368161,0.0075071309842633,0.4767983391357894,10.84460658959506,-1.300801129154581,0.1250742780844047,-0.9444698415599896
1.76,-1.752983398008652,1.1712106622476264,1.7717748591622349,0.0291906215584944,0.1598183712827107,0.0094400684334777,0.6870810559029248,-0.9500228537590486,-0.4586992822700643,-1.7528845881791535,1.169307045607519,1.7652516415558468,0.8752251751497824,-1.26324285674761,-0.6488642008972588,0.5647665948657576,0.3218507933253733,-0.1357747688270127,0.4437776308716584,10.826319509731547,-1.2996890722009589,0.1215534761064742,-0.950415221398174
1.78,-1.7391661895847164,1.1521649181174387,1.7626966963424315,0.0332333919483062,0.1609175784924086,0.0098635627811907,0.6942565628668127,-0.9544114397023976,-0.4495958997163068,-1.7356560876196736,1.1444421884785272,1.7523518216937546,0.90282546950136,-1.3032428573436563,-0.6566106164825383,0.6197159847281282,0.3587753481943956,-0.219429297167456,0.4551691276878739,10.829075716745136,-1.2992929583801345,0.11831147351362,-0.9549255437698928
1.8,-1.7252037775905822,1.1330189458936628,1.7537955033674215,0.0366316123510558,0.1611665000950642,0.0102165491738282,0.7015486280554334,-0.959898735718608,-0.4409967906158441,-1.7044533614413755,1.1044443461323188,1.7402169013566162,0.753154918678647,-1.0544114411925138,-0.4630149290192019,0.6269555598411117,0.3646032594310344,-0.274364800810517,0.4299554550231371,10.824325743619738,-1.2995540433070525,0.115709930305867,-0.9581025664299352
1.82,-1.711016830504804,1.1136744715964806,1.7452395893504271,0.0368784486093354,0.1590337425370381,0.0102631764759552,0.7169984902844152,-0.9734982543873748,-0.4140546843298561,-1.7044533614413755,1.1044443461323188,1.7402169013566162,0.753154918678647,-1.0544114411925138,-0.4630149290192019,1.695230251353878,0.7724931114490907,-0.6799759334383426,1.3471053142994016,12.13297419120954,-1.2931693739060348,0.1149156215859447,-0.953991614325024
1.84,-1.6972578564260872,1.0950808964730128,1.7376106229993882,0.0333772391530005,0.1531608712268557,0.0099250487528993,0.7298411030911497,-0.9823638536650968,-0.3903628101217548,-1.7044533614413755,1.1044443461323188,1.7402169013566162,0.753154918678647,-1.0544114411925138,-0.4630149290192019,1.4184819859178155,0.6421306403367244,-0.4432799638860951,1.1845937104050657,12.13297419120954,-1.3015343443660512,0.1182652138655807,-0.9558322313298286
1.86,-1.682569159143841,1.075386128561212,1.7300199365102673,0.028545657818132,0.1443889667225024,0.0094536935949976,0.7378101150651709,-0.9864750833168664,-0.3701443238838803,-1.6969218122545893,1.0939002317203936,1.735586752066424,0.7649345898410139,-1.074411441490537,-0.465698734879781,1.1058871403117982,0.3984505987010611,-0.2055614825884788,1.010924311893724,11.817119541815371,-1.312624908100818,0.1227257078048068,-0.9519729021259302
1.88,-1.667779467254975,1.0556419433178668,1.7227792276165148,0.0242139196698778,0.134597483133734,0.0090513269434152,0.7403527953916109,-0.9878308828414578,-0.3551383511551168,-1.6818587138810162,1.072812002896543,1.72632645348604,0.7884939321657476,-1.1144114420865836,-0.471066346600939,0.7640069259007742,0.1271340163220002,-0.0677899762295708,0.7502986364381736,11.122194728101933,-1.3242472789711015,0.1267719375456947,-0.9453767529643988
1.9,-1.652991965804143,1.035888516897102,1.7157856277660322,0.0209755775111702,0.1251235393067168,0.0087879394523475,0.7380997519897345,-0.987747661194074,-0.3449376521966567,-1.6667956155074433,1.051723774072693,1.717066154905656,0.8120532744904814,-1.15441144268263,-0.476433958322097,0.5223442103978488,-0.1126521700938187,0.0041610823691917,0.5100349479230049,11.122194728101933,-1.3342286443136795,0.129724780802805,-0.9377727712224002
1.92,-1.6390227143825735,1.017131386858639,1.7092965480873377,0.0189986366668819,0.1172917673998229,0.0086750595051344,0.732438811274788,-0.986990488171928,-0.3386236758083296,-1.6505545500176335,1.0286355452190403,1.707537475739214,0.8356126168152151,-1.1944114432786763,-0.481801570043255,0.4256931365313436,-0.2830470357473247,0.0378586511072975,0.3156988194163573,10.843767015722731,-1.3424737500403474,0.1318096440519079,-0.9296597497893798
1.94,-1.6244633967294144,0.9974080714198508,1.7025781498714196,0.018153673316125,0.1109354165106357,0.00870035866551,0.7236295311070862,-0.9855141533538092,-0.3336140764292938,-1.634313484527824,1.005547316365388,1.698008796572772,0.8591719591399488,-1.234411443874723,-0.487169181764413,0.5120524082227602,-0.4404640083850941,0.0738167409059409,0.2504799689517889,10.633107731002385,-1.3480507916269102,0.132781831718987,-0.9221712290552744
1.96,-1.6101083943755057,0.9777117393785376,1.6959455454427252,0.018629879106975,0.1073105619318533,0.0088765666996634,0.7123041955126697,-0.9843230529080912,-0.3298901519914797,-1.617483435479896,0.981459087496834,1.6883459271133014,0.8827313014646826,-1.2744114444707693,-0.4925367934855711,0.599060847945548,-0.5662667797208254,0.0595550222858953,0.1861962218907026,10.541945222349568,-1.3506213765575767,0.1326774296090372,-0.9177584153409828
1.98,-1.596690198710018,0.959018182365945,1.6897076648526153,0.0201350820261911,0.1068444786076011,0.0091758431640937,0.7011096051671782,-0.9835736009017108,-0.3269212280385276,-1.6000644028738498,0.9563708586133792,1.6785488673608016,0.9062906437894164,-1.3144114450668156,-0.4979044052067291,0.5802909631203348,-0.5597295172745709,0.0374726003190273,0.1484461976476059,10.48078827215886,-1.3486852340948163,0.1315681264484219,-0.9179925957504544
2.0,-1.5827774424759913,0.9393489956066368,1.6832008356530035,0.0226862709503544,0.1088268219806194,0.0096126572653397,0.6910393751786739,-0.9836132158152916,-0.32393163653029,-1.561634718451659,0.9098395023208596,1.6733616034506889,0.7613061315157691,-1.0743972065583347,-0.3456103985183021,0.5252350872439822,-0.5035114994252188,-0.0019807456790477,0.1494795754118816,10.428188113893157,-1.3446504048886718,0.1296601648411143,-0.9215341264833784
2.02,-1.56901807867514,0.91957478206459,1.676891827857311,0.023016820280716,0.1121627462719722,0.0099326866962865,0.6856995270191162,-0.9930646535425056,-0.3063804867255301,-1.561634718451659,0.9098395023208596,1.6733616034506889,0.7613061315157691,-1.0743972065583347,-0.3456103985183021,1.0318509012299886,-0.266992407977884,-0.4725718863606953,0.8775574902379929,10.428188113893157,-1.3344352835542317,0.1292366543059087,-0.9223193209133164
2.04,-1.55535157153664,0.899648368370339,1.670936148834084,0.0197505209533927,0.116036839995922,0.01001599148983,0.6813974102819507,-0.9985439233229086,-0.2901529616460893,-1.561634718451659,0.9098395023208596,1.6733616034506889,0.7613061315157691,-1.0743972065583347,-0.3456103985183021,0.8829824119858192,-0.2151058368582759,-0.2739634890201514,0.8113762539720404,11.404271610934302,-1.3292819354682364,0.1320065186950109,-0.9314670503697604
2.06,-1.5424398081253672,0.8806652356077723,1.6655439486119563,0.015660015608514,0.1200368828712835,0.0100278099337652,0.6780981281996006,-0.9993294823205028,-0.2782700107829479,-1.5540216571365013,0.8990955302552762,1.6699054994655058,0.7733454367854873,-1.0925619276896594,-0.349348232614257,0.6178731391099866,-0.1649641041175042,-0.0392779498797069,0.5941475431570725,11.209593831151324,-1.3248123650189527,0.135978038181566,-0.9414613267351272
2.08,-1.5289072274956477,0.8606964685972919,1.6600808637536058,0.0118985845940848,0.1243814886881688,0.0100739179225844,0.6754624238314272,-0.9976369669410152,-0.2688159831721934,-1.538795534506186,0.8776075861241095,1.6629932914951395,0.7974240473249236,-1.128891369952309,-0.3568239008061667,0.497971344283779,-0.1317852184086698,0.0846257689743834,0.4727013805377211,10.985887387567344,-1.3209599138928445,0.1396081122848965,-0.9509123502444072
2.1,-1.515417948780632,0.8407754426373347,1.6547780768941374,0.0092239555780764,0.128698127780678,0.0101914352740775,0.6737109904065731,-0.9947720597767002,-0.2620550235357644,-1.5235694118758705,0.8561196419929428,1.6560810835247737,0.8215026578643599,-1.1652208122149583,-0.3642995689980766,0.3774446559009083,-0.0875716712427032,0.1432453582157433,0.3380479818214543,10.807692203802617,-1.3175198596179611,0.1422511792451656,-0.9591814807455789
2.12,-1.5026272451528797,0.8219121868399037,1.6498447922699535,0.0078829145918647,0.1326347161337562,0.0103849668014082,0.6728559585632318,-0.9912502282284348,-0.2575829851408767,-1.5071393587185833,0.8328152257486436,1.6487950921448122,0.8455812684037963,-1.201550254477608,-0.3717752371899864,0.2878085488342641,-0.0427515921670673,0.1760915774132676,0.2236019197443817,10.664415892565556,-1.3138773838864517,0.143963450567111,-0.9667397129269596
2.14,-1.4891715994677306,0.8021344029069228,1.6447362086749944,0.0079556214305796,0.1365064929727614,0.0106936348720906,0.6728419610964318,-0.9868755708496706,-0.2535461075976799,-1.490709305561296,0.8095108095043444,1.6415091007648508,0.8696598789432326,-1.2378796967402577,-0.3792509053818961,0.2976331777936581,-0.0006998733399987,0.218732868938215,0.2018438771598407,10.564456165785488,-1.3103804522795133,0.1443499528650445,-0.9734299936471256
2.16,-1.475703583370274,0.7824393377869316,1.6397044325159142,0.0096282548438878,0.1399238037240657,0.011117347288482,0.6740160073116934,-0.9829851919124888,-0.2498523253387281,-1.473677287140523,0.7852981572034791,1.6340362176800916,0.893738489482669,-1.274209139002907,-0.3867265735738059,0.2745790422036329,0.0587023107630813,0.1945189468590957,0.1846891129475891,10.53760332363072,-1.3074731541241702,0.1434218947355618,-0.9794274748161657
2.18,-1.4628773758700413,0.7637922513599049,1.634991254291994,0.0124655430439945,0.1425270717627268,0.0116084224850716,0.6760349766938172,-0.9804079463440528,-0.2464666518497268,-1.456043303456264,0.7601772688460474,1.6263764428905343,0.9178171000221051,-1.3105385812655568,-0.3942022417657157,0.2354846972740596,0.1009484691061879,0.1288622784217985,0.1692836744500644,10.528293376500187,-1.305476564341952,0.1412987839040153,-0.9850072386230228
2.2,-1.4493288427711688,0.7441913726412657,1.6300985891904096,0.0158974710476216,0.1445090799897565,0.0121533359018877,0.6787006812314237,-0.9799369486870798,-0.2429852720548063,-1.4290756270353504,0.7147718540427023,1.6226679216995077,0.7464582817284546,-1.0633668308812727,-0.2481173825797612,0.2204984396269673,0.1332852268803253,0.0235498828486446,0.1740689897460276,10.528729924894831,-1.303948995159658,0.1387087387176608,-0.989288100589904
2.22,-1.4356741231424683,0.7244995511422144,1.6254449091973482,0.0164781618567269,0.1450058458546286,0.0124790412872601,0.6867056363405102,-0.9884172778284108,-0.2216462923792606,-1.4290756270353504,0.7147718540427023,1.6226679216995077,0.7464582817284546,-1.0633668308812727,-0.2481173825797612,1.215881719408957,0.4002477554543249,-0.4240164570665561,1.0669489837772854,11.762088686018616,-1.2975513380417611,0.1381626230034753,-0.9870368211463376
2.24,-1.4218631970324864,0.7046779645427463,1.6212278668627402,0.0131164303926796,0.1434754197564384,0.0125053870437206,0.6937913717237821,-0.992651225934474,-0.201207700385036,-1.4290756270353504,0.7147718540427023,1.6226679216995077,0.7464582817284546,-1.0633668308812727,-0.2481173825797612,1.1021229572885314,0.3542867691635976,-0.2116974053031572,1.021929599711227,11.762088686018616,-1.2988602717746252,0.1414382306383536,-0.991030404487292
2.26,-1.4086305450629335,0.6858223627272862,1.6175621713524424,0.008858000574323,0.1406303057762987,0.012457631691833,0.6986274159242654,-0.9918701500765802,-0.1856646398888447,-1.4216110442180658,0.7041381857338895,1.62018674787371,0.7605429427353821,-1.0799586077887169,-0.2484475287257681,0.8148376104983649,0.2418022100241612,0.0390537928946943,0.7771530248095639,11.557845842567076,-1.3030262651408544,0.1460714134927452,-0.9933381288709896
2.28,-1.3946261895847962,0.6660214368782716,1.61398776715437,0.0049691558602263,0.1367258850939351,0.0124675036679866,0.701349980750513,-0.9884138649171385,-0.1727426535324266,-1.406681878583497,0.6828708491162641,1.6152244002221148,0.7887122647492371,-1.1131421616036048,-0.2491078210177819,0.6825247206730941,0.1361282413123832,0.1728142579720926,0.6460993178209042,11.29436475833245,-1.308740009667815,0.1502443441697545,-0.993407166195218
2.3000000000000003,-1.3805954620730685,0.6463037733361844,1.6106375243726938,0.0022553148943234,0.132604362129668,0.0125826789813473,0.7013924375564045,-0.9837743306615032,-0.1630509879516046,-1.3917527129489278,0.6616035124986386,1.6102620525705196,0.8168815867630921,-1.1463257154184927,-0.2497681133097956,0.5372510177283741,0.0021228402945716,0.2319767127817562,0.4845832790411036,11.074656624802628,-1.3147393919620722,0.1533772321141817,-0.9922332860816268
2.32,-1.3665939258409596,0.6266879557973828,1.6074518218446587,0.0009305046556635,0.129149512409736,0.0128123936999497,0.6986695034055639,-0.9783585432314684,-0.1559854529467521,-1.3754150812136658,0.6386769981902687,1.6052666903043238,0.8450509087769471,-1.1795092692333806,-0.2504284056018094,0.4654753183089641,-0.1361467075420286,0.2707893715017395,0.3532767502426245,10.883959030625192,-1.3195691105510932,0.1551739226968032,-0.9910225503820748
2.34,-1.353364964520938,0.6081592452815604,1.6045466903355283,0.0011791779276113,0.1273274234965192,0.0131434795883525,0.6939959417429394,-0.9725641318407426,-0.1501675368901751,-1.359077449478404,0.6157504838818989,1.6002713280381278,0.873220230790802,-1.2126928230482688,-0.2510886978938232,0.4724021835806369,-0.2336780831312224,0.2897205695362892,0.2908958028288472,10.743918910626236,-1.3221182957718545,0.1555752629307635,-0.9908156464995675
2.36,-1.3395367297273586,0.5887679262469201,1.6016047766032908,0.0030872440361018,0.1272906071438969,0.0136096670530911,0.6892838149059568,-0.9670197401938708,-0.1443494042469055,-1.3420355846927958,0.5919943807281568,1.5952594584646316,0.901389552804657,-1.2458763768631569,-0.2517489901858369,0.4658194004021097,-0.2356063418491316,0.2772195823435852,0.2909066321634818,10.676680146217224,-1.3212528853760706,0.1543585030733004,-0.9932072074950378
2.38,-1.3257911123468902,0.5694738812669246,1.5987791970087315,0.0063562739068445,0.1286478769257073,0.0141750409678553,0.6856992467677132,-0.9631142275108348,-0.1385119653336195,-1.3242894868568411,0.5674086887290426,1.590231081583835,0.929558874818512,-1.2790599306780448,-0.2524092824778507,0.39426466720153,-0.1792284069121796,0.1952756341518091,0.2918719456643001,10.676680146217224,-1.3193889226893711,0.1519274216877744,-0.9973096320549562
2.4,-1.3127862571956586,0.5511914566907444,1.5962056121595871,0.0097369727474724,0.1307060924174321,0.0147382209346838,0.6835326505060773,-0.9615982779011384,-0.1326975328615418,-1.2915061500085043,0.5213181698913828,1.5918535987420506,0.7539734169280068,-0.9916139257772216,-0.154343517779508,0.319373870066198,-0.1083298130817977,0.0757974804848127,0.2907216236038831,10.679199663917643,-1.3165189133973842,0.1493212171460948,-1.0020839449355994
2.42,-1.2990985901465542,0.5317580826384463,1.5936679763825206,0.0063977579684055,0.1325882435014102,0.0148504298634419,0.6855675768225037,-0.9801827177145048,-0.1207214618728469,-1.2915061500085043,0.5213181698913828,1.5918535987420506,0.7539734169280068,-0.9916139257772216,-0.154343517779508,1.110122295758647,0.1017463158213216,-0.9292219906683165,0.598803549434744,10.700147466573071,-1.3111532959626642,0.1525686585268666,-1.0037456128643791
2.44,-1.2853713141853744,0.5120983214051671,1.5913724764716792,-0.0055731772392564,0.1334570133024086,0.0143611880829918,0.686942294890823,-0.9833593126170802,-0.1095771355674679,-1.2915061500085043,0.5213181698913828,1.5918535987420506,0.7539734169280068,-0.9916139257772216,-0.154343517779508,0.5834736792332524,0.0687359034159673,-0.158829745128769,0.5572163152689532,11.15391282276687,-1.3092040554313835,0.1639303990891361,-1.0065190931751318
2.46,-1.271631311347915,0.4924951776601641,1.5892533745737785,-0.0187787238259368,0.1338924667698902,0.0138054071680431,0.6869808646565204,-0.9766152916856964,-0.1028983193266926,-1.2839664158392246,0.5114020306336106,1.5903101635642556,0.7676282509600655,-0.9973138654304992,-0.1575098282686857,0.474578476987249,0.0019284882848691,0.3372010465691966,0.333940812038766,10.981044407762964,-1.3102441200635282,0.1761179945961462,-1.0093478284047874
2.48,-1.2585887855586535,0.4740544844684162,1.587326218272861,-0.0299634256042452,0.1342725911392942,0.0133928109628663,0.6859505898644793,-0.9651749812332032,-0.1002956123330573,-1.2688869475006643,0.4915697521180661,1.5872232932086654,0.794937919024183,-1.0087137447370538,-0.1638424492470411,0.5888893212889366,-0.0515137396020548,0.5720155226246582,0.1301353496817647,10.509468596031184,-1.3121382920353584,0.187800417481278,-1.0112807373681751
2.5,-1.244888545205055,0.4549069454650559,1.585323241638119,-0.0395204348004385,0.1349294029863938,0.0131241192441046,0.6841586257768012,-0.9504763936442178,-0.100251278577471,-1.253807479162104,0.4717374736025217,1.5841364228530752,0.8222475870883004,-1.0201136240436086,-0.1701750702253965,0.740374192358983,-0.089598204383906,0.7349293794492673,0.0022166877793154,10.366398306424344,-1.313773253480682,0.1974148487843188,-1.0125777755061327
2.52,-1.2312281552514142,0.4360723665510544,1.5832993095117218,-0.0466796793071461,0.1360286459512111,0.0130197420937956,0.6820361807462946,-0.9340915100549696,-0.1022082166342239,-1.237362527420338,0.4513352011216495,1.5807329214485673,0.8495572551524178,-1.0315135033501637,-0.1765076912037519,0.8318635550658241,-0.1061222515253312,0.8192441794624028,-0.0978469028376477,10.269628003446996,-1.3149191187507732,0.2048522067107648,-1.0142120068374822
2.54,-1.2176101823269487,0.4175773305079989,1.5812255196214788,-0.0515296751337252,0.1376424546977705,0.0130626884385834,0.6799906733534985,-0.9168004514563478,-0.1050516767745063,-1.2209175756785722,0.4309329286407773,1.5773294200440593,0.8768669232165353,-1.0429133826567183,-0.1828403121821074,0.8821140424065568,-0.1022753696398037,0.864552929931095,-0.1421730070141208,10.269628003446996,-1.3156314818828212,0.2099747020620555,-1.0164791955128198
2.56,-1.2047036811665373,0.4003272536386777,1.579201085267273,-0.0544162885436614,0.139510311972509,0.0132137959899934,0.6787655516948831,-0.9002696855211385,-0.1078919797659131,-1.2037898822352031,0.4102456591772413,1.573767603115093,0.9041765912806526,-1.054313261963273,-0.1891729331604628,0.8408841575479925,-0.0612560829307717,0.8265382967604651,-0.1420151495703361,10.235111302040425,-1.3157124133686844,0.2137044428247632,-1.0193794251191264
2.58,-1.1911353216687088,0.3825071605448463,1.577012449092631,-0.056025751720702,0.1415855616619163,0.0134741210567774,0.6782002316377586,-0.8828074139739627,-0.1108134646214284,-1.1859794470902314,0.3892733927310414,1.570047470661667,0.93148625934477,-1.0657131412698275,-0.1955055541388182,0.8856997066095531,-0.0282660028562253,0.8731135773587917,-0.1460742427757663,10.235111302040425,-1.3156767374588614,0.2161030685963438,-1.0227228621341296
2.6,-1.1775707366346158,0.3650415626491288,1.5747668841381084,-0.056143935551643,0.143579715255718,0.0138510934340253,0.6783305886673907,-0.864780136495022,-0.1135855301631871,-1.1572253100868208,0.3383667898461482,1.5714717758615595,0.7496185393593734,-0.8792058449900949,-0.088607584709648,0.9119814603731048,0.0065178514816077,0.9013638739470364,-0.1386032770879376,10.245118334877588,-1.3157357408823374,0.2171602819769654,-1.0263945034644808
2.62,-1.1639281341360022,0.3478600617292594,1.5726407395588249,-0.0574111786142675,0.1440055647256554,0.0142449174452315,0.6860330699386848,-0.8536161757297529,-0.0980342442473757,-1.1572253100868208,0.3383667898461482,1.5714717758615595,0.7496185393593734,-0.8792058449900949,-0.088607584709648,1.0317518249782986,0.3851240635647068,0.5581980382634522,0.777564295790574,10.261022465569113,-1.3108143345737997,0.2182849094213483,-1.023230426836428
2.64,-1.1508253445779246,0.3317880390339543,1.570930924172779,-0.0606600136626768,0.1417222205018378,0.0146465194708076,0.6925844397117877,-0.8384321947636465,-0.0828386546033448,-1.1572253100868208,0.3383667898461482,1.5714717758615595,0.7496185393593734,-0.8792058449900949,-0.088607584709648,1.1229199309309483,0.3275684886551444,0.7591990483053201,0.759779482201544,11.447944132470184,-1.3164198186432718,0.2231947864115502,-1.0279937891888244
2.66,-1.1369225307319255,0.3152179978443506,1.5694213785121491,-0.0639400022350817,0.1371576787203671,0.0152374040589377,0.6970467407364246,-0.8194744316087532,-0.0689946122337682,-1.149729124693227,0.3295747313962472,1.570585700014463,0.7639022009036963,-0.8784855311933214,-0.084166408727292,1.194745185596216,0.2231150512318425,0.947888157744664,0.6922021184788268,11.362628687471442,-1.325729498986995,0.2282547107778796,-1.0305701771038993
