t,x,y,z,roll,pitch,yaw,v_x,v_y,v_z,ref_x,ref_y,ref_z,ref_v_x,ref_v_y,ref_v_z,a_com,a_x,a_y,a_z,thrust,wind_x,wind_y,wind_z
0.0,-2.1508873259003973,1.318754049688181,2.0209965236456915,0.0158687474325735,0.1363814615807254,0.0261680848958015,0.0053507509709786,0.0067986297468232,0.0068201090653773,-2.1507212877988016,1.31890724969526,2.021206351354966,0.0888593252348797,-0.0943940019840356,-0.0930503831029459,0.5508307136758563,0.2675375485489345,0.3399314873411618,0.3410054532688667,10.545832017629436,-1.2885061309636745,0.1607501929191554,-1.1721872317675517
0.02,-2.150905716535565,1.3191186370738337,2.0208969506719257,0.0256684032727618,0.1389530683395817,0.0269037649871394,-0.0062078980826589,0.0244401748871852,-0.0167313446541414,-2.1507212877988016,1.31890724969526,2.021206351354966,0.0888593252348797,-0.0943940019840356,-0.0930503831029459,1.580741483598142,-0.5779324526818839,0.8820772570181,-1.1775726859759368,10.545958181782224,-1.3111811121824846,0.1529664521039484,-1.1869736203367434
0.04,-2.151104721419649,1.319594703609517,2.020290454237723,0.0399310076673038,0.1446971952408864,0.0280693899459304,-0.0137111892349076,0.0243417966526224,-0.0458565222539656,-2.1507212877988016,1.31890724969526,2.021206351354966,0.0888593252348797,-0.0943940019840356,-0.0930503831029459,1.5038160015555035,-0.3751645576124333,-0.0049189117281392,-1.4562588799912124,9.201522918021965,-1.3005701387820177,0.1365425968078389,-1.1726649514553784
0.06,-2.151426202716827,1.3200270024932284,2.019058937943335,0.0552040338708243,0.1524091033508594,0.0294645970918868,-0.0176633051608769,0.0185387624252688,-0.0756924057405878,-2.1498326945464528,1.3179633096754195,2.020275847523936,0.1055341939973728,-0.1143940022820589,-0.1130503834009691,1.5325423077059162,-0.1976057962984632,-0.2901517113676781,-1.4917941743311085,8.85200120158379,-1.2862201642234343,0.1201930757380347,-1.159533909873163
0.08,-2.151790885359398,1.320306800630016,2.017249449254535,0.0699081835818683,0.1607733933447371,0.0309572362667444,-0.0183036540864907,0.0094185569745318,-0.1036960230529022,-2.148055508041755,1.3160754296357389,2.0184148398618773,0.1388839315223591,-0.1543940028781053,-0.1530503839970156,1.472914438099466,-0.0320174462806898,-0.456010272536851,-1.400180865615723,9.007366311042006,-1.273061309900868,0.1050255523455858,-1.1499114562727435
0.1,-2.152138288578642,1.3203742791931905,2.0149004779462256,0.0839238318615895,0.1692038295025876,0.0325064245093644,-0.0161630040275742,-0.0025066144564439,-0.1298289133562194,-2.1462783215370576,1.3141875495960582,2.0165538321998184,0.1722336690473453,-0.1943940034741518,-0.1930503845930621,1.4402430801240695,0.1070325029458219,-0.5962585715487905,-1.3066445151658563,9.007366311042006,-1.2618293693086522,0.09173380271726,-1.141530539247628
0.12,-2.15240587537236,1.3201925626196396,2.01219897307145,0.0966055910261484,0.176995080272782,0.0340001854990396,-0.0119274041286169,-0.0162676845055885,-0.1532585176757364,-2.1428336481561105,1.3102996695265752,2.0126928245079574,0.2055834065723316,-0.2343940040701982,-0.2330503851891085,1.3750033763328016,0.2117799949478659,-0.6880535024572288,-1.1714802159758508,9.104253585728657,-1.251737168529853,0.0788056057725277,-1.1340244180897
0.14,-2.152581780188933,1.3196945394457975,2.0088752819582907,0.1093123528683785,0.1848285663137375,0.0355694119284871,-0.0056951881320128,-0.0330777168725328,-0.1779049782177031,-2.1393889747751635,1.306411789457092,2.008831816816096,0.2389331440973179,-0.2743940046662447,-0.273050385785155,1.5238649231910026,0.3116107998302035,-0.8405016183472186,-1.2323230270983363,9.18822770992938,-1.2444156252109175,0.0667920831968796,-1.1296398996384998
0.16,-2.1526150176196555,1.318836050423284,2.005061305648335,0.1213872282417819,0.1922270201354255,0.0371135773371119,0.002235221753321,-0.0521839742175485,-0.202266375280047,-2.135110557956092,1.301523909372708,2.0039708091093336,0.2722828816223042,-0.3143940052622911,-0.3130503863812015,1.597981646885022,0.3965204942666974,-0.9553128672507846,-1.2180698531171956,9.228202108503863,-1.2380437577509138,0.0556436714211776,-1.1248513901092716
0.18,-2.1524727531778405,1.3175720662448127,2.0007647978600245,0.1328572237814682,0.1991712062183682,0.0386142614895849,0.0117483938430201,-0.0734967243557131,-0.2262018281503467,-2.129998397698896,1.2956360292734228,1.99810980138767,0.3056326191472904,-0.3543940058583376,-0.3530503869772479,1.671555911244374,0.4756586044849566,-1.0656375069082284,-1.196772643514986,9.228202108503863,-1.2330188733434302,0.0457852792175802,-1.120299986335672
0.2,-2.152147166093339,1.315947101336289,1.9962429364629173,0.1429140975942266,0.2053542983772111,0.0399646234124093,0.0221675907439741,-0.0964717770831874,-0.2485928728384177,-2.1518853334856893,1.313897230027027,1.9894547064525072,0.1117483953331363,-0.1734967258458292,-0.3262018296404629,1.6865435023401143,0.5209598450476955,-1.1487526363737148,-1.1195522344035491,9.264198182020664,-1.2286120475538178,0.0364671797130688,-1.1149712635158184
0.22,-2.1515478094951286,1.313592338630605,1.9911189379883407,0.147940773446996,0.2114390707768751,0.0409518160875831,0.0374670967143727,-0.1358202451074774,-0.2617670113231847,-2.1518853334856893,1.313897230027027,1.9894547064525072,0.1117483953331363,-0.1734967258458292,-0.3262018296404629,2.211297550993905,0.7649752985199331,-1.967423401214501,-0.6587069242383489,9.304588860181866,-1.214936092114964,0.032688609431025,-1.1024908883734152
0.24,-2.150628683131135,1.3105223449089909,1.98575382278352,0.1466895789668025,0.2171050956922675,0.041412450084501,0.0537802183470244,-0.1685356532271368,-0.2740637822757754,-2.1518853334856893,1.313897230027027,1.9894547064525072,0.1117483953331363,-0.1734967258458292,-0.3262018296404629,1.928488035805535,0.8156560816325851,-1.6357704059829656,-0.6148385476295315,10.065685262759873,-1.2110310518595409,0.0344735915404508,-1.1021822988729406
0.26,-2.149448126966293,1.3070425516642985,1.98041771400856,0.1426019127661975,0.2221429410740212,0.0415568620562855,0.0697658625560096,-0.1953723312238103,-0.2869134902918827,-2.150767849532358,1.3121622627685687,1.9861926881561025,0.1317483956311595,-0.1934967261438524,-0.3462018299384861,1.688833253145954,0.7992822104492605,-1.341833899833679,-0.6424854008053649,9.984057772055166,-1.208407906417548,0.0393126663106585,-1.102752340019479
0.28,-2.147872568011318,1.3028785341467202,1.9745254153189664,0.1375133882708304,0.2271102046033919,0.0415610968591993,0.0870359191878603,-0.2194469233333608,-0.3017086639547374,-2.1485328816256954,1.3086923282516525,1.9796686515632933,0.1717483962272059,-0.2334967267398989,-0.3862018305345325,1.6558517483628985,0.8635028315925316,-1.2037296054775228,-0.7397586831427355,9.87996979781292,-1.206261901839849,0.0448604521485028,-1.103653009623662
0.3,-2.14594653975687,1.2982581393105548,1.96832288277108,0.132662256239005,0.2317594142983301,0.0414955639739577,0.1047864697161079,-0.2413463808733209,-0.3178699784471978,-2.146297913719033,1.3052223937347356,1.973144614970484,0.2117483968232524,-0.2734967273359454,-0.426201831130579,1.624697180034328,0.8875275264123808,-1.0949728769980072,-0.8080657246230194,9.778149932004451,-1.2043959257805437,0.0500613544959913,-1.1045710969361986
0.32,-2.1436607336828035,1.2932162679474672,1.9617833704868664,0.1284051592142004,0.2361144462232135,0.0413948132004433,0.1229999480970871,-0.2618183614631978,-0.3352843042684206,-2.1420629457825675,1.2997524591880167,1.9646205783478723,0.2517483974192988,-0.3134967279319918,-0.4662018317266255,1.6233387876644858,0.9106739190489606,-1.0235990294938422,-0.8707162910611438,9.695946697493127,-1.2034071845076713,0.0544532983757599,-1.104956339755052
0.34,-2.141146064479844,1.2880566018724653,1.9552433127541269,0.1249871010000359,0.2399948515275731,0.0412792353381652,0.1408652876664267,-0.2803774438484911,-0.3522874945879559,-2.1378279778461025,1.2942825246412977,1.956096541725261,0.2917483980153453,-0.3534967285280383,-0.506201832322672,1.543306821369503,0.8932669784669791,-0.927954119264668,-0.8501595159767644,9.62865611852976,-1.2028813663121465,0.0584335096636259,-1.1044685345082732
0.36,-2.138126256035514,1.2822433676887215,1.9480053731171283,0.1217866329252988,0.2438244736459049,0.041124721311915,0.1602470581895134,-0.2998986903367074,-0.3706257504843975,-2.1325930098947365,1.2878125900796775,1.9465725050877485,0.3317483986113917,-0.3934967291240847,-0.5462018329187184,1.653045463974494,0.9690885261543338,-0.976062324410812,-0.916912794822078,9.602703266291428,-1.2028743204326446,0.0619656656963643,-1.1035788509357944
0.38,-2.1347125764244703,1.276042507358433,1.940398234756353,0.1186823596788246,0.2474080578541906,0.0409196964507634,0.1802223594264579,-0.3190946136713853,-0.3891674085523926,-2.126358041928469,1.2803426555031563,1.9360484684353343,0.3717483992074382,-0.4334967297201311,-0.5862018335147648,1.666800240046748,0.9987650618472274,-0.959796166733895,-0.9270829033997564,9.571852085067803,-1.2021654650887077,0.0653038829378462,-1.1017634111278007
0.4,-2.1308934880915515,1.2694631124510902,1.9324184300599825,0.1155405476218994,0.2507594522073796,0.0406590652315468,0.2007517783047283,-0.3377512527748692,-0.407882497235962,-2.1257014584531477,1.2600877766748635,1.9209398643287332,0.280222360916574,-0.4190946151615014,-0.4514629608955227,1.6731570208374018,1.0264709439135198,-0.932831955174196,-0.935754434178468,9.571852085067803,-1.201606304520253,0.0684270827291794,-1.1000211386315175
0.42,-2.126783272074024,1.2628340258950077,1.924767114085708,0.1121651525957772,0.2530658534731961,0.0402604148449746,0.230710216954646,-0.3587570174899737,-0.396537068852219,-2.1257014584531477,1.2600877766748635,1.9209398643287332,0.280222360916574,-0.4190946151615014,-0.4514629608955227,1.9153778627322164,1.4979219324958852,-1.0502882357552257,0.5672714191871486,11.49053527727483,-1.193310805063568,0.0719681840214957,-1.0864509281131736
0.44,-2.121844564796329,1.255451308123937,1.9169456818005688,0.108571156914836,0.2541020212912175,0.0396627496456844,0.2613959166685855,-0.3783699140642447,-0.3864678212519056,-2.1257014584531477,1.2600877766748635,1.9209398643287332,0.280222360916574,-0.4190946151615014,-0.4514629608955227,1.8892244613885445,1.5342849856969736,-0.9806448287135504,0.5034623800156707,11.49053527727483,-1.1984838481872122,0.0750881618718894,-1.092808011370464
0.46,-2.116301918891603,1.2476900321275166,1.90927844755118,0.1053282117077757,0.2537875227033538,0.0389306481210331,0.2911927694623286,-0.3967794922397881,-0.3807168778257684,-2.122899234843981,1.2558968305232487,1.916425234719778,0.3002223612145973,-0.4390946154595246,-0.4639220713641487,1.774710085692918,1.4898426396871527,-0.920478908777167,0.2875471713068595,10.974577930827763,-1.2032373845734865,0.0775658625571548,-1.0974892439286206
0.48,-2.110172654195855,1.2395712256002105,1.9016911094617988,0.1024189347827485,0.2519207265955562,0.0380516916856307,0.3201065782420386,-0.4141996352962526,-0.3782684028886584,-2.1172947876256503,1.2475149382200186,1.907395975501868,0.3402223618106437,-0.4790946160555711,-0.4888402923014008,1.6922357635499414,1.4456904389855,-0.8710071528232277,0.1224237468555017,10.773726436528705,-1.2089573197614645,0.0798363575643599,-1.098930950920045
0.5,-2.103824493404648,1.2315436278419325,1.8945027940399397,0.0999662953039331,0.2485148659637959,0.0370698897212405,0.3465289331557652,-0.4299753143392676,-0.3784791934686874,-2.111690340407318,1.2391330459167886,1.8983667162839573,0.3802223624066901,-0.5190946166516175,-0.5137585132386528,1.5387148217942987,1.3211177456863314,-0.7887839521507484,-0.0105395290014548,10.773726436528705,-1.2165536072036975,0.0817786160644078,-1.0971963330478496
0.52,-2.096618961432356,1.2227775364511213,1.8869113267516424,0.0977567212052378,0.243206453918807,0.0358935026966918,0.3722590713926548,-0.4458474115767666,-0.3806919516073457,-2.104085893159185,1.2287511535837563,1.8880915460191845,0.4202223630027366,-0.559094617247664,-0.5386767341759049,1.5156350013989774,1.2865069118444816,-0.7936048618749497,-0.1106379069329116,10.606176027763468,-1.227390277451168,0.083476976680517,-1.0918182935867078
0.54,-2.0889308546884293,1.2136983117992282,1.8792670902179065,0.0959671708251806,0.2367750297394214,0.0346433736538249,0.3949753101632707,-0.4613323438193745,-0.3835509560039752,-2.096481445911051,1.218369261250724,1.877816375754411,0.4602223635987831,-0.5990946178437104,-0.5635949551131569,1.382013509866797,1.1358119385307952,-0.7742466121303943,-0.1429502198314752,10.461498984348507,-1.2382343037995105,0.0846589024066829,-1.0845722853839452
0.56,-2.08081421924486,1.2043027234090442,1.8715587485237408,0.0942815229279738,0.2298563689372538,0.0333618888799778,0.4152930158307032,-0.4773399008334515,-0.3870705866096799,-2.0878769986480163,1.2069873689027903,1.8669182499662067,0.5002223641948295,-0.6390946184397568,-0.588513176050409,1.3052191815438097,1.015885283371623,-0.8003778507038511,-0.1759815302852352,10.40292619770844,-1.2488623904821867,0.0856659389041614,-1.076035202555281
0.58,-2.072749910640246,1.195079173397001,1.86416308495144,0.0924291817310712,0.2231722584718764,0.032127104256683,0.4323768692795509,-0.492578829290516,-0.3911828508303173,-2.07827255137008,1.1946054765399556,1.8553971686545712,0.5402223647908759,-0.6790946190358033,-0.613431396987661,1.1629635701533911,0.8541926724423832,-0.7619464228532241,-0.2056132110318714,10.341809468762222,-1.2588293887694677,0.0868645769997274,-1.066884008759002
0.6,-2.063934588044116,1.1850641145366811,1.856285177053539,0.0902042808513926,0.2163448039496642,0.0308431517242423,0.4480596390975167,-0.5079830941028299,-0.3963987183959885,-2.0511310671762684,1.1704502319324752,1.844603942409924,0.5197741689864868,-0.5925788307806321,-0.4442092699632652,1.1296525107680402,0.7841384908982924,-0.770213240615697,-0.2607933782835608,10.271163952513234,-1.2680543842076668,0.088313563088091,-1.0575007380369397
0.62,-2.054754004645511,1.1747029459768852,1.848522269294692,0.08696380482307,0.2093358474654449,0.0294939741666901,0.4692047675580574,-0.5268863905606308,-0.3783656338180878,-2.0511310671762684,1.1704502319324752,1.844603942409924,0.5197741689864868,-0.5925788307806321,-0.4442092699632652,1.680508266848157,1.0572564230270365,-0.9451648228900432,0.901654228895038,10.190938418571932,-1.269205106591304,0.0903624289626388,-1.0412933929298611
0.64,-2.045180280830801,1.1639996640418169,1.841128694655336,0.0831081340858037,0.2019924931983286,0.0281077976866167,0.4867582744250789,-0.5423800069876296,-0.3622422129609806,-2.0511310671762684,1.1704502319324752,1.844603942409924,0.5197741689864868,-0.5925788307806321,-0.4442092699632652,1.4213923222081712,0.8776753433510726,-0.7746808213499379,0.8061710428553609,11.762288362651816,-1.2791912934477587,0.0928649978197467,-1.0396368902583908
0.66,-2.035797844743498,1.1535637207499176,1.8343484056791923,0.0797401744766896,0.1953739921755215,0.02687645836534,0.4998750323913918,-0.5553962135688378,-0.3522355078149889,-2.0459333254864034,1.164524443624669,1.8401618497102916,0.537253628927874,-0.6125788310786553,-0.4548145537898548,1.0507201354194402,0.6558378983156449,-0.6508103290604139,0.5003352572995834,11.046667245908791,-1.288311161004454,0.0952488923061192,-1.036671739624847
0.68,-2.0256847453561444,1.1423247763483384,1.8273748571426665,0.0767357405628285,0.1892237550060636,0.0257152359124954,0.5105511391877081,-0.5678558421564773,-0.3458232457972645,-2.035537842106674,1.1526728670090562,1.8312776643110265,0.5722125488106483,-0.6525788316747018,-0.476025121443034,0.8808216406461432,0.5338053398158155,-0.6229814293819746,0.3206131008862189,11.046667245908791,-1.2963021488378366,0.0972009484233747,-1.0331540893545612
0.7000000000000001,-2.015389854174162,1.130845072564045,1.820489454791912,0.0743458170509266,0.1844389543177771,0.0247270347859724,0.5182304556179922,-0.5795481718252005,-0.3431816785341778,-2.025142358726944,1.1408212903934436,1.8223934789117608,0.6071714686934226,-0.6925788322707482,-0.4972356890962132,0.7117941267036869,0.3839658215142039,-0.5846164834361567,0.1320783631543365,10.77378096288794,-1.3026042786472751,0.0986274464869329,-1.029693395688935
0.72,-2.004971733600664,1.11913889805026,1.8136215127729705,0.0725714000378878,0.181734994232582,0.0239540886222984,0.5231759649345216,-0.5905910431854962,-0.3437268113731365,-2.0129989293530755,1.1269697137480286,1.8124487651298369,0.642130388576197,-0.7325788328667947,-0.5184462567493924,0.6055993727127466,0.2472754658264686,-0.5521435680147846,-0.0272566419479369,10.54557641037718,-1.3066391998547875,0.0996430845876645,-1.0268023524893226
0.74,-1.9949928509173795,1.107818992246738,1.8070732640188012,0.0715088343246884,0.181522332490158,0.0234445538754584,0.5273171136892448,-0.600494949569454,-0.3455606587427376,-2.000855499979207,1.1131181371026135,1.8025040513479125,0.6770893084589714,-0.7725788334628412,-0.5396568244025716,0.5445169208710157,0.2070574377361633,-0.4951953191978941,-0.0916923684800563,10.368423497721778,-1.3053056050594876,0.0999147455242089,-1.026252856855235
0.76,-1.9843871841220848,1.0956965080836998,1.8001318900150467,0.0709260937773569,0.1831349846668104,0.0230834803788011,0.5332332975744456,-0.611211333671432,-0.3485343680608999,-1.9878380976082688,1.0982665604422974,1.7920290733746584,0.7120482283417457,-0.8125788340588875,-0.5608673920557506,0.6298513060508006,0.2958091942600382,-0.5358192050988975,-0.1486854659081105,10.28285715634047,-1.302132886213521,0.0997317464960719,-1.0278055218884403
0.78,-1.973645652532641,1.0833561047678415,1.7931214984776087,0.0705682258778229,0.1857645948918288,0.0228154850368565,0.5407770701483383,-0.6222236520330898,-0.3523637397267599,-1.973946722240262,1.0824149837670802,1.7810238312100752,0.7470071482245201,-0.852578834654934,-0.5820779597089298,0.6943409603725214,0.3771886286946357,-0.5506159180828918,-0.1914685832930029,10.226420204739044,-1.2985596248572844,0.0994235294258974,-1.0303286898748771
0.8,-1.963286784835984,1.0714262394493528,1.7863841907823783,0.0701991833235778,0.1885664535057477,0.0225846865873805,0.5493257508272391,-0.6329203067250606,-0.3566385930338142,-1.9466067990252245,1.0522449221661871,1.7755033114912706,0.6142500691846504,-0.7222236535232059,-0.3960539406218309,0.7172390357229337,0.42743403394504,-0.5348327345985393,-0.2137426653527147,10.188649475679084,-1.2949619630594429,0.0991736767538916,-1.0333691669471656
0.8200000000000001,-1.952089326127971,1.058593141289521,1.779428630633785,0.0682795545737761,0.1895363740012038,0.0221004094580632,0.5702297457790413,-0.6494450562515783,-0.3374493248392746,-1.9466067990252245,1.0522449221661871,1.7755033114912706,0.6142500691846504,-0.7222236535232059,-0.3960539406218309,1.6418528905638037,1.0451997475901087,-0.8262374763258862,0.9594634097269794,10.159752600783577,-1.2829751488305798,0.0996544285579647,-1.0311684759538555
0.84,-1.940469778451388,1.04546816709716,1.7728696568331996,0.064725773405235,0.1864087728153905,0.0212361193614134,0.5902811187734759,-0.6619326982015695,-0.3197133302525352,-1.9466067990252245,1.0522449221661871,1.7755033114912706,0.6142500691846504,-0.7222236535232059,-0.3960539406218309,1.476959938872728,1.00256864972173,-0.6243820974995595,0.8867997293369734,11.81381741383666,-1.2883750259840467,0.1022184630906252,-1.0356240522641282
0.86,-1.928492253317343,1.0321241026674572,1.7666072475925012,0.0612029783839588,0.1800329225728399,0.0201945484741412,0.605920076187064,-0.6718936564276523,-0.3073255718638005,-1.9404642983333775,1.045022685630955,1.7715427720850525,0.6289446689919128,-0.7422236538212291,-0.4047919808008451,1.1149599047313925,0.7819478706794059,-0.4980479113041391,0.6193879194367313,11.49709394554975,-1.2981282117334296,0.1048087601316069,-1.0339596584727018
0.88,-1.9168733275333585,1.0192776115083952,1.7608441666632202,0.0583791088844488,0.1724009210308291,0.0191813299199076,0.616029857824448,-0.6800060773821824,-0.2998867463544425,-1.9281792969496847,1.030578212560491,1.7636216932726156,0.6583338686064377,-0.7822236544172756,-0.4222680611588736,0.7472536106599977,0.5054890818691982,-0.4056210477265065,0.3719412754679019,11.147039794998818,-1.3092787397164898,0.1070375330199051,-1.027967851886758
0.9,-1.9044825606895648,1.0055975735572096,1.7548931776517738,0.0561371086168072,0.1640119289242056,0.0181812569732332,0.6222119293783047,-0.6876945373427423,-0.2957581648700894,-1.915894295565992,1.016133739490027,1.755700614460179,0.6877230682209625,-0.8222236550133221,-0.439744141516902,0.5347326676365511,0.3091035776928375,-0.3844229980279945,0.2064290742176566,10.84454225362606,-1.3199300086727117,0.108567828743472,-1.019683288492843
0.92,-1.8920101108418528,0.9917703747070472,1.7489875870862797,0.0547110694539115,0.1562760045017504,0.0173041773719337,0.6245475802236672,-0.6947053238957878,-0.2951402720706256,-1.9021398342015725,0.9996892663897604,1.7469057316298409,0.7171122678354873,-0.8622236556093685,-0.4572202218749304,0.3707700920902139,0.1167825422681234,-0.3505393276522717,0.030894639973189,10.595292741960291,-1.329332353160007,0.1093523166571235,-1.0113702357163792
0.94,-1.8795256100191444,0.977811076785674,1.7430713381738303,0.0543269176936597,0.150005060280925,0.016599158279402,0.623739134888048,-0.7010262763774693,-0.2964927784830862,-1.888385372837153,0.983244793289494,1.738110848799503,0.7465014674500122,-0.902223656205415,-0.4746963022329588,0.32571957928603,-0.0404222667809595,-0.3160476240840759,-0.0676253206230326,10.273439412385414,-1.336176849956388,0.1092396934129705,-1.003415284048583
0.96,-1.8677021318618672,0.9644261655907528,1.7374135502231245,0.0548142494125758,0.1459972997996542,0.0161039287890089,0.6208432778557167,-0.7076171224202528,-0.2989841474936707,-1.873896181482371,0.9658003201743264,1.728879063960214,0.775890667064537,-0.9422236568014614,-0.4921723825909872,0.3808942079445359,-0.1447928516165653,-0.3295423021391741,-0.1245684505292249,10.273439412385414,-1.3405609997275625,0.1083084176023696,-0.9968402748234626
0.98,-1.8553324026746432,0.9501963342618452,1.7313976817190646,0.0559399421051064,0.144371544607597,0.0157737828006376,0.6164166556552684,-0.7150434633864142,-0.3025172200794018,-1.8586722601372252,0.9473558470442578,1.7192103771119749,0.8052798666790618,-0.9822236573975076,-0.5096484629490157,0.4669799946122811,-0.2213311100224158,-0.371317048308073,-0.176653629286555,10.141489861513037,-1.3406033591546092,0.1067486595372839,-0.9932321151778564
1.0,-1.8430433835861888,0.9358099187027586,1.7253027431487675,0.0574145208274915,0.1452276905069213,0.0156141183990677,0.6129691113535386,-0.7232329835004465,-0.3068362074059402,-1.82451156989188,0.9144441610925246,1.7162718207150944,0.6999924184635913,-0.8150434648765303,-0.3379015137250222,0.4939824210873494,-0.1723772150864888,-0.4094760057016144,-0.2159493663269174,10.141489861513037,-1.3372154969124634,0.1048541633954969,-0.9927017778049296
1.02,-1.8307699139386429,0.9211813068434124,1.7193615984210449,0.0570921878037944,0.1478212108944404,0.0154379372938599,0.614818379346769,-0.7384259746384251,-0.2870549268841889,-1.82451156989188,0.9144441610925246,1.7162718207150944,0.6999924184635913,-0.8150434648765303,-0.3379015137250222,1.250545711789157,0.0924633996615187,-0.7596495568989281,0.989064026087566,11.63102170084676,-1.3256772050678252,0.1042004889642769,-0.9893548375196708
1.04,-1.819064581810261,0.9070290725756338,1.7140659541961132,0.054456146677999,0.1513830410172547,0.0151765433965974,0.6174398820785102,-0.7502562609050033,-0.2714479021041,-1.82451156989188,0.9144441610925246,1.7162718207150944,0.6999924184635913,-0.8150434648765303,-0.3379015137250222,0.9879361975958058,0.131075136587061,-0.5915143133289114,0.7803512390044426,11.63102170084676,-1.320094781575695,0.1059372804078349,-1.001166453663727
1.06,-1.8066782177297769,0.8919282004205585,1.7087698918891523,0.0507555577927059,0.1558443657900269,0.0148761021780622,0.621231296864104,-0.7590130850533349,-0.2591810140394981,-1.817511645707244,0.9062937264437592,1.7128928055778443,0.7167075710252558,-0.8350434651745535,-0.3449783724541462,0.7770671432229876,0.189570739279693,-0.4378412074165783,0.6133444032300928,11.059266164626024,-1.3144476560943186,0.1087217004983804,-1.0122211828164345
1.08,-1.794204916543885,0.8766801447122033,1.7036745191461775,0.0474189576845873,0.1605981638769542,0.0146144679253152,0.6260756001879634,-0.7654842964146309,-0.2509841380632748,-1.803511797337972,0.8899928571462287,1.7061347753033438,0.7501378761485851,-0.8750434657706,-0.3591320899123944,0.575614078497278,0.2422151661929661,-0.3235605680648012,0.4098437988111658,11.059266164626024,-1.3096824519296817,0.1112229261672187,-1.021772778578127
1.1,-1.7822553005609156,0.8620871135017899,1.698956396282081,0.0449774881981871,0.1650606396410662,0.0144144957738586,0.6316424057526365,-0.7705013439847551,-0.246092339938919,-1.7895119489687,0.8736919878486981,1.6993767450288433,0.7835681812719142,-0.9150434663666464,-0.3732858073706425,0.447464466201553,0.2783402782336575,-0.2508523785062111,0.2445899062177903,10.838726515062262,-1.30508448920731,0.1132648313511746,-1.0306552619896634
1.12,-1.7695533312308471,0.8466305608346973,1.6940674960997637,0.0433110245447215,0.1694878106343744,0.0142585019030455,0.6383520679061214,-0.7750217659787253,-0.2431706363968641,-1.773840585343262,0.8553911185213651,1.6919110288814303,0.8169984863952433,-0.9550434669626928,-0.3874395248288906,0.4300875864435437,0.3354831076742448,-0.226021099698509,0.1460851771027449,10.67274439274206,-1.3010183649905531,0.1145152396821609,-1.0383324660492306
1.14,-1.7567064861523538,0.8310902540767419,1.6892258076965534,0.0427502093205658,0.1734883402863056,0.0141685198850608,0.6460706046885559,-0.778886047494747,-0.2411842121803112,-1.7581692217178235,0.8370902491940322,1.6844453127340175,0.8504287915185725,-0.9950434675587394,-0.4015932422871388,0.4428723373190324,0.3859268391217252,-0.1932140758010847,0.099321210827645,10.516065114869887,-1.2972079764582487,0.1147535390760424,-1.0447715808314884
1.16,-1.7436910632289342,0.8154680089289963,1.6844167670916177,0.0432499471467867,0.1767887523151291,0.0141329473465078,0.6550686740635787,-0.7832129868026876,-0.239828071707461,-1.7416621004643025,0.8177893798517981,1.6766257536501483,0.8838590966419017,-1.0350434681547858,-0.4157469597453869,0.5038024742754517,0.4499034687511394,-0.2163469653970295,0.0678070236425118,10.516065114869887,-1.2943373859236789,0.1140677179375311,-1.0501108732317086
1.18,-1.7311512254162345,0.8005412212892822,1.6798685541209375,0.0444357855168964,0.1790392053932027,0.0141208057959372,0.6644028844776795,-0.7878432133813058,-0.2390005047200938,-1.7243192215826977,0.7974885104946629,1.6684523516298233,0.9172894017652308,-1.075043468750832,-0.429900677203635,0.5226168513897865,0.4667105207050381,-0.2315113289309112,0.0413783493683567,10.4770890269956,-1.2925288708878535,0.1126530054530633,-1.054385831211344
1.2,-1.7177567843527075,0.7847275578765787,1.6750929528985743,0.0462256725299463,0.1804125428617796,0.0141111638784999,0.6744921206481896,-0.7933257410266328,-0.2386219836868605,-1.6979310811923505,0.7611490606202169,1.6679185288849327,0.7345831292215035,-0.8757300385852014,-0.2583476993023177,0.5744433698344537,0.5044618085255081,-0.2741263822663486,0.0189260516616662,10.4770890269956,-1.2919900942312073,0.1107187438282367,-1.0571931026850596
1.22,-1.7040426013414691,0.7686878804382892,1.6705207845351044,0.0451199250690485,0.1783696699997112,0.0137502037046492,0.6967055343777404,-0.8096321371247056,-0.217481498662219,-1.6979310811923505,0.7611490606202169,1.6679185288849327,0.7345831292215035,-0.8757300385852014,-0.2583476993023177,1.73655867328499,1.1106706864775384,-0.8153198049036414,1.0570242512320736,10.453902408390604,-1.2843713796416578,0.1107274704024384,-1.0515051656424437
1.24,-1.6899024393922553,0.7523735193319159,1.666385142105016,0.0396970765826483,0.1706505620468865,0.0128720640329638,0.7152286180630552,-0.8199295419856784,-0.1971047732253222,-1.6979310811923505,0.7611490606202169,1.6679185288849327,0.7345831292215035,-0.8757300385852014,-0.2583476993023177,1.469993295575388,0.9261541842657371,-0.5148702430486374,1.0188362718448405,11.980092091673214,-1.2951906687961008,0.1155733045162537,-1.0487022643857375
1.26,-1.6761955840651883,0.7367468392196704,1.6627879874443954,0.0338547426801688,0.1602999462272103,0.0119467527864952,0.7261503373811619,-0.8244385923036183,-0.1824908200577799,-1.6905852499001357,0.7523917602343649,1.6653350518919097,0.7486191781702682,-0.8933074036259805,-0.2622171382187625,0.9396583352691834,0.5460859659053352,-0.2254525158969955,0.7306976583771191,11.681334100429012,-1.3098758000139163,0.121287227412893,-1.0412539736686015
1.28,-1.6616125087917593,0.7202377747449512,1.6592561318518813,0.028461345134998,0.1483056486601731,0.0110826439193294,0.7310929831375849,-0.8263440789457288,-0.1716543808084596,-1.6758935873157053,0.7348771594626609,1.6601680979058633,0.7766912760677979,-0.9284621337075388,-0.2699560160516521,0.603094192520863,0.2471322878211501,-0.0952743321055271,0.5418219624660131,11.303746682070596,-1.325377785758049,0.1263038328721019,-1.0311174562942238
1.3,-1.646995956521722,0.7037095105453087,1.655887655206849,0.024381524179686,0.1369023974486226,0.0104102399920934,0.7301492612059917,-0.8267175139349358,-0.1656990441087193,-1.6612019247312753,0.7173625586909569,1.655001143919817,0.8047633739653275,-0.963616863789097,-0.2776948938845416,0.3020600105219477,-0.04718609657966,-0.0186717494603472,0.2977668349870149,10.981414243865402,-1.3385541383978556,0.1298962882369448,-1.0207157017667383
1.32,-1.6331721845169984,0.6880082020543583,1.652762527259275,0.0217412636553169,0.1277137019017985,0.0099534247106824,0.7250485103947192,-0.8263547557773732,-0.1635493794778934,-1.6451066572519686,0.698090221415175,1.649447246042126,0.8328354718628571,-0.9987715938706552,-0.2854337717174312,0.2773549636503695,-0.255037540563624,0.0181379078781296,0.1074832315412971,10.693220343286155,-1.349345962093868,0.1324221140371907,-1.0098551200121058
1.34,-1.618758165171235,0.6714917189943629,1.6494994384739523,0.0202093535578181,0.1205368987603158,0.0096506384179324,0.7164869749549853,-0.82548589906688,-0.1629386276414664,-1.629011389772662,0.678817884139393,1.643893348164435,0.8609075697603867,-1.0339263239522134,-0.2931726495503208,0.4313577948608554,-0.4280767719866962,0.0434428355246596,0.0305375918213487,10.382077163027134,-1.3570253392509442,0.1337503456911669,-1.0000741109477893
1.36,-1.6045432421686596,0.6549893799889025,1.6462361421688096,0.0198311089618149,0.116695432639683,0.0095168726582378,0.7053573045585222,-0.8248648389487667,-0.1634620038208711,-1.6122143198459171,0.6586666786115721,1.638145978340922,0.8889796676579163,-1.0690810540337716,-0.3009115273832103,0.5579632636414905,-0.5564835198231532,0.0310530059056624,-0.0261688089702338,10.382077163027134,-1.36066984547765,0.1340145581690802,-0.9938811861981012
1.38,-1.5905585792629602,0.6384982820607678,1.6429553093408116,0.0204586328003527,0.1166044739641261,0.0095406486858781,0.6941789380165359,-0.8243683479521183,-0.1645999078013211,-1.5947154474717342,0.6376366048317124,1.6322051365715868,0.917051765555446,-1.10423578411533,-0.3086504052160999,0.5623548864495548,-0.558918327099317,0.0248245498324195,-0.0568951990225038,10.28260702915668,-1.3581159929549964,0.1332974684246617,-0.992873157998326
1.4,-1.5774602677388048,0.6228374793378997,1.639816686373617,0.0219034523029185,0.119155057764972,0.0096877690621893,0.6854815687943744,-0.8242363304803834,-0.1657326851774251,-1.5558496323621334,0.5972798646631619,1.6347253139507456,0.7634166694136878,-0.8908243380281834,-0.1871941231496841,0.4385910526426008,-0.4348684611080733,0.0066008735867484,-0.0566388688051991,10.28260702915668,-1.3529721664438006,0.1317854452954669,-0.9954757407230276
1.42,-1.5637922166384224,0.606229718349479,1.6366188507350488,0.0204507832305319,0.123095898507186,0.0096750830889957,0.6820914619155494,-0.8356517980140886,-0.153289455987931,-1.5558496323621334,0.5972798646631619,1.6347253139507456,0.7634166694136878,-0.8908243380281834,-0.1871941231496841,0.8611615358415844,-0.1695053439412508,-0.570773376685263,0.6221614594747071,10.274672070231643,-1.3423481991854302,0.1326373406091678,-0.996026624222604
1.44,-1.550176171547327,0.5894625863248191,1.633677528173551,0.0147365743033202,0.127274729224023,0.0093714206971102,0.6797975636918064,-0.8396505596819551,-0.1416657659869126,-1.5558496323621334,0.5972798646631619,1.6347253139507456,0.7634166694136878,-0.8908243380281834,-0.1871941231496841,0.6252244260604838,-0.1146949111871464,-0.199938083393325,0.5811845000509199,11.179376215921366,-1.336384277728159,0.1374428486953809,-1.004532177595687
1.46,-1.536598332275838,0.5726808319487313,1.63092951484655,0.0085552027275645,0.1315842556046011,0.0090315768299789,0.6782483987689849,-0.838339890201044,-0.1337282009983003,-1.5482154656679965,0.58837162128288,1.632853372719249,0.7772642156931182,-0.9041155360433965,-0.1917129662193566,0.4096422353552422,-0.0774582461410766,0.0655334740455537,0.3968782494306141,10.800518525345067,-1.3319893946110184,0.1432052896084547,-1.0135649650819445
1.48,-1.5250756552003926,0.5584606815207138,1.628695101490244,0.0040448594001344,0.1352223804173523,0.008790765512319,0.6775165208588765,-0.8349200215079354,-0.1295485930203953,-1.5329471322797228,0.5705551345223163,1.629109490256255,0.8049593082519789,-0.9306979320738225,-0.2007506523587018,0.272489770461095,-0.0365938955054212,0.1709934346554309,0.208980398895249,10.800518525345067,-1.3286961527285543,0.1478016107343449,-1.0210778620950265
1.5,-1.5128839848731634,0.543477866028158,1.626389258440151,0.0004047437466616,0.1389900164848785,0.0086142584965002,0.6772338348614142,-0.8302273872848732,-0.1269979196445445,-1.517678798891449,0.5527386477617526,1.6253656077932614,0.8326544008108397,-0.9572803281042483,-0.209788338498047,0.2674259803893887,-0.0141342998731142,0.2346317111531104,0.1275336687925427,10.634842726179158,-1.325988515065214,0.151211423944358,-1.027390869282949
1.52,-1.5000146614555612,0.5277618038858957,1.6239869211249007,-0.0020778512475997,0.1428449111906742,0.0085264328046088,0.6775457422411428,-0.8247282411429994,-0.1260258399705007,-1.5010257108752325,0.5335930411996677,1.6211698410233004,0.8603494933697005,-0.9838627241346746,-0.2188260246373921,0.279655294049229,0.0155953689864318,0.2749573070936928,0.0486039837021876,10.52164743457979,-1.3230481122103164,0.1539406917075675,-1.0339687793913968
1.54,-1.4864525633570975,0.5113337589486667,1.6214708308474162,-0.0033514426770393,0.146697080066938,0.0085360904028924,0.6787384303127166,-0.818531351008378,-0.1256679542855011,-1.4843726228590155,0.5144474346375827,1.6169740742533396,0.8880445859285613,-1.0104451201651006,-0.2278637107767373,0.3160381082249778,0.0596344035786899,0.3098445067310662,0.0178942842499779,10.435247977678046,-1.32006899344867,0.155390994283,-1.0400207220298952
1.56,-1.4728535583760924,0.4950289886456679,1.6189582481099096,-0.0032615941966295,0.1501375102656109,0.0086542070604683,0.6811588244409558,-0.8123655127475244,-0.1256241836520033,-1.4670271575288272,0.4946372681747371,1.612552365329895,0.915739678487422,-1.037027516195527,-0.2369013969160825,0.3312015438648247,0.1210197064119567,0.3082919130426798,0.0021885316748904,10.401121200092348,-1.3174826960036587,0.1555831199467429,-1.0456057079582588
1.58,-1.4591951531732912,0.4788469193987182,1.6164447400299211,-0.0018213141744661,0.1528943161654993,0.0088827854659205,0.6845391418322667,-0.8063146627402612,-0.1257345256233169,-1.448989314884667,0.4741625418111308,1.6079047142529668,0.9434347710462828,-1.0636099122259526,-0.2459390830554277,0.3465959709338461,0.1690158695655474,0.3025425003631621,-0.0055170985656785,10.401121200092348,-1.3158908269605978,0.1546103313030393,-1.0502474467742802
1.6,-1.446151014811554,0.4635801757354553,1.6140540413339408,0.0007306816594873,0.1547719376601816,0.0091967115633212,0.6883130774098917,-0.8012834315176096,-0.1259135692293687,-1.4249681960816778,0.4385311862617052,1.6101580137487554,0.7615055989011869,-0.8586878894722768,-0.1347652383917524,0.3145947153589664,0.1886967788812477,0.2515615611325794,-0.0089521803025904,10.400531156340548,-1.3154109183232998,0.1524279342339568,-1.0541024768946627
1.62,-1.432286986554235,0.4475062351716621,1.611678706265049,0.0012809870061623,0.1550449617222302,0.0093878813389394,0.6979725984315074,-0.8055883982176875,-0.1108511042843754,-1.4249681960816778,0.4385311862617052,1.6101580137487554,0.7615055989011869,-0.8586878894722768,-0.1347652383917524,0.9202132020284304,0.4829760510807857,-0.2152483350038925,0.7531232472496645,10.40078797638671,-1.3111853458441458,0.1517798446767085,-1.051104514523048
1.64,-1.4182343161631974,0.4313801198999095,1.6096134447037127,-0.001863218814182,0.1528099064203403,0.0093362280405814,0.706587338153868,-0.8062473906076284,-0.0965012601933504,-1.4249681960816778,0.4385311862617052,1.6101580137487554,0.7615055989011869,-0.8586878894722768,-0.1347652383917524,0.8375052789247716,0.4307369861180299,-0.0329496194970468,0.7174922045512517,11.262643789463256,-1.3143687160228863,0.1550767355163536,-1.05458224016098
1.66,-1.404746432853924,0.4160965657239495,1.6078846338630892,-0.0059542160970899,0.1489299656206351,0.0092437180918124,0.7125871156000645,-0.8024181381454067,-0.0861806903530262,-1.417353140092666,0.4299443073669824,1.608810361364838,0.7768988903149708,-0.8691625348186799,-0.1365713809454395,0.6268466033495113,0.2999888723098254,0.1914626231110827,0.5160284920162086,11.262643789463256,-1.3207948276904995,0.1598561884842321,-1.0562636082278074
1.68,-1.390455271647394,0.4001170057308768,1.6062465689596983,-0.0097418642960999,0.1437098229868217,0.0092286672325032,0.7158995563167115,-0.7958736319651587,-0.0782850090456051,-1.4021230281146422,0.4127705495775368,1.6061150565970028,0.8076854731425389,-0.8901118255114862,-0.1401836660528137,0.5388520389517082,0.1656220358323523,0.3272253090124022,0.3947840653710558,11.042949568281074,-1.3294080452760768,0.1642045768844248,-1.0547299468086555
1.7,-1.376135264192473,0.3842819508080241,1.60473665339764,-0.0124311038306358,0.1383891549075094,0.0093278768381632,0.7157250961174527,-0.7881925188179834,-0.07320272617826,-1.3868929161366184,0.3955967917880913,1.6034197518291675,0.838472055970107,-0.9110611162042924,-0.1437959511601879,0.46059617531126,-0.0087230099629409,0.3840556573587672,0.2541141433672525,10.68903681788106,-1.3377764909658312,0.1674636321355768,-1.0516352650840248
1.72,-1.3625671711456775,0.3693886183337797,1.6033728150570905,-0.0137706026280673,0.1342864718466543,0.0095198474403447,0.7124175082964977,-0.7801893135217478,-0.0705899011670506,-1.3701234750172162,0.3773755694640054,1.600543832805964,0.8692586387976751,-0.9320104068970988,-0.147408236267562,0.4522673068723412,-0.1653793910477485,0.4001602648117774,0.1306412505604738,10.68903681788106,-1.344357195286369,0.1693514448298437,-1.048804143698476
1.74,-1.3483803617177843,0.3538798613036524,1.6019823961906663,-0.0137286614760812,0.1320600413526318,0.0098098036399346,0.7063442039537079,-0.771264310828707,-0.0686160865209757,-1.353354033897814,0.3591543471399196,1.5976679137827603,0.9000452216252431,-0.952959697589905,-0.1510205213749362,0.5487181493444439,-0.3036652171394927,0.4462501346520431,0.0986907323037453,10.566226563026248,-1.3482078096089636,0.1698735237621037,-1.047655894862667
1.76,-1.3343182587046238,0.3385476108709291,1.6006271372020386,-0.0120590827193474,0.1324673122298032,0.0101863977407553,0.7004806407533865,-0.7625574173404861,-0.0670298075608957,-1.3358149282077227,0.3404093925485136,1.5947016876318725,0.9308318044528112,-0.9739089882827112,-0.1546328064823104,0.5308192926000779,-0.2931781600160721,0.4353446744110423,0.0793139480039992,10.528173163369502,-1.3472767220552484,0.1687210255760825,-1.0499559166365082
1.78,-1.3203560915923065,0.3233803089233095,1.5993045641320722,-0.0089088409361156,0.1347703250703908,0.0106530657376336,0.6962889741505349,-0.755077286313593,-0.0653130877700994,-1.3175061579469425,0.3211407056897875,1.5916451543532997,0.9616183872803792,-0.9948582789755176,-0.1582450915896846,0.4372343648692897,-0.2095833301425764,0.3740065513446522,0.0858359895398133,10.502131664504304,-1.3449842906425025,0.1663105974902065,-1.0540880908651793
1.8,-1.3071509771725345,0.3090845117368468,1.598084234321831,-0.0054389608514698,0.1379735243937871,0.0111331739085013,0.6941001656524827,-0.7502270256305342,-0.0632445166514939,-1.2855416428847797,0.2856264446076298,1.5960389097435672,0.7666349943126405,-0.7680897020430562,-0.0736793307525466,0.2854597073472054,-0.1094404249026126,0.2425130341529413,0.1034285559302752,10.509028203391608,-1.341010185560794,0.1632410444164743,-1.0600187227525046
1.82,-1.293222454218622,0.2939523724766575,1.5969292458074311,-0.0073832629608778,0.1404808666174819,0.0112651045330416,0.6988776976835616,-0.7612789511971872,-0.0519209693174815,-1.2855416428847797,0.2856264446076298,1.5960389097435672,0.7666349943126405,-0.7680897020430562,-0.0736793307525466,0.8264269406070376,0.2388766015539445,-0.552596278332651,0.5661773667006209,10.537679898620809,-1.333878961169193,0.1651393569278553,-1.0605679798962253
1.84,-1.2792026444929174,0.2787188937898555,1.5960039840018785,-0.0158945467578086,0.1409501633841248,0.0109669315682035,0.702672452302435,-0.7603724514994576,-0.0413153384189588,-1.2855416428847797,0.2856264446076298,1.5960389097435672,0.7666349943126405,-0.7680897020430562,-0.0736793307525466,0.5650250239483735,0.1897377309436732,0.04532498488648,0.5302815449261332,11.15432236491506,-1.3335238429769614,0.1740490985311213,-1.0663570254757162
1.86,-1.2651254609697349,0.2635960305783249,1.5952551641298534,-0.0253480233291992,0.1402170741898326,0.0106495027579761,0.7047466574517369,-0.7518662496212531,-0.0340980337675424,-1.2778752929416533,0.2779455475871993,1.5953021164360417,0.7807041983450616,-0.7706921851889488,-0.075352579349036,0.5673343014165396,0.1037102574650949,0.425310093910225,0.3608652325708203,10.837375071399038,-1.3363735182419576,0.1836300052730624,-1.0698691968856775
1.88,-1.2517310533690198,0.2494297529431064,1.594649015779082,-0.0332381109041335,0.1390174436367693,0.0104701483582413,0.7050182253680461,-0.7400406234116221,-0.0300594323990789,-1.2625425930554006,0.2625837535463381,1.5938285298209909,0.8088426064099038,-0.775897151480734,-0.0786990765420148,0.6249589694460659,0.0135783958154611,0.5912813104815506,0.2019300684231735,10.837375071399038,-1.3408668117235247,0.1927672063860572,-1.072065519810938
1.9,-1.237643463072254,0.2347806835967983,1.594072532263813,-0.0398072474290088,0.1378623660113583,0.0104325806798801,0.7036736904076056,-0.7257476792906213,-0.0278840973185755,-1.2472098931691478,0.247221959505477,1.5923549432059398,0.836981014474746,-0.7811021177725193,-0.0820455737349937,0.7259960547729697,-0.0672267480220256,0.7146472060500397,0.1087667540251706,10.676965192261378,-1.345406764997319,0.2002275097154137,-1.0738846496381962
1.92,-1.223594101489717,0.2204301875225765,1.5935219209405784,-0.044521316426697,0.137275744398925,0.0105294889255517,0.7013618114958663,-0.710333615969761,-0.0273370894499586,-1.2304702728796528,0.2315999171500267,1.59071403173124,0.8651194225395883,-0.7863070840643045,-0.0853920709279726,0.7798034203733127,-0.115593945586967,0.7707031660430186,0.0273503934308467,10.563714710623572,-1.349082832721201,0.2058554397074176,-1.075634789725618
1.94,-1.209596231385741,0.206395097139143,1.5929743568244918,-0.0474684875335489,0.13745202587139,0.0107358072120645,0.6986562087815432,-0.6944075905373682,-0.0274279497074444,-1.213730652590158,0.2159778747945762,1.58907312025654,0.8932578306044305,-0.7915120503560897,-0.0887385681209514,0.80772338660485,-0.1352801357161537,0.7963012716196372,-0.0045430128742914,10.45694291484051,-1.3516623647054269,0.209563331362971,-1.0776503792744534
1.96,-1.1963444689142382,0.1933575149056801,1.5924511784165207,-0.048890816989676,0.1382390321379311,0.0110123923484267,0.6964807618987995,-0.6790483481100046,-0.0276333058468043,-1.196287572099042,0.2002257082818312,1.5873485463520156,0.9213962386692728,-0.796717016647875,-0.0920850653139303,0.7756949597395543,-0.1087723441371868,0.767962121368182,-0.0102678069679921,10.45694291484051,-1.3531409148345273,0.2120590320145254,-1.0808955903979598
1.98,-1.1824343323106192,0.1799506924337227,1.5918967050704498,-0.0489674205408692,0.1394881363185252,0.011394020053984,0.6947150214259818,-0.6625813314102672,-0.0278000595947099,-1.178141031406305,0.1843434176117916,1.5855403100176668,0.9495346467341148,-0.8019219829396602,-0.0954315625069091,0.828112741749601,-0.0882870236408817,0.823350834986869,-0.008337687395284,10.45524926512735,-1.354329902605369,0.2132010873960093,-1.085521996346293
2.0,-1.1685532974795252,0.1668768385404985,1.5913402840391304,-0.0473575660132498,0.1409599728891733,0.0118932752539922,0.6935309528840284,-0.6458069095550636,-0.0278263412157184,-1.14769858123932,0.1468216258632094,1.5905067020907142,0.7744611560051635,-0.6415793368004344,-0.0322193351541949,0.8408090413583502,-0.0592034270976704,0.8387210927601807,-0.0013140810504254,10.479591461552443,-1.3555545731257514,0.2127614715733793,-1.0913591672545904
2.02,-1.155359235358583,0.154656281011987,1.5908875508492886,-0.0477050557786574,0.1420122527347446,0.0122623877635842,0.695275375624887,-0.6401288208625696,-0.0199002306164476,-1.14769858123932,0.1468216258632094,1.5905067020907142,0.7744611560051635,-0.6415793368004344,-0.0322193351541949,0.495244715091758,0.0872211370429254,0.2839044346246988,0.3963055299635445,10.479591461552443,-1.3544719638510485,0.213732975716453,-1.092221915602966
2.04,-1.1414433624282077,0.1419567671766926,1.5905687085210818,-0.0517098050904121,0.1426225331207068,0.0124331956620066,0.6961689321638962,-0.6292971878035786,-0.0125291710377417,-1.14769858123932,0.1468216258632094,1.5905067020907142,0.7744611560051635,-0.6415793368004344,-0.0322193351541949,0.6566110670059284,0.0446778269504621,0.5415816529495521,0.368552978935294,10.89461720813415,-1.355758506856384,0.219122961751082,-1.0992331340548962
2.06,-1.1275182776358337,0.1295321662135529,1.5903769495548938,-0.056540813582876,0.1431935112250376,0.0125640303970532,0.6962937588495932,-0.6136313006768088,-0.0071056268430696,-1.1399539696792684,0.140405832495205,1.5901845087391722,0.7904103829209999,-0.6373789378784679,-0.0331031902660919,0.828930685886512,0.006241334284851,0.7832943563384875,0.2711772097336028,10.89461720813415,-1.358705542637549,0.2255883636557315,-1.1066352373927113
2.08,-1.1135972469283797,0.1174500749671643,1.5902751569249227,-0.060659831876636,0.1439929951852744,0.0127470948699241,0.6958698665560894,-0.5956002342290453,-0.0033447040098836,-1.1244647465591653,0.1275742457591963,1.5895401220360883,0.8223088367526725,-0.6289781400345348,-0.0348709004898859,0.9211997374040766,-0.0211946146751906,0.9015533223881766,0.1880461416593019,10.725683818547624,-1.3618472443621985,0.2311588942688127,-1.113617028551226
2.1,-1.1003824980975796,0.1063178171293879,1.5902378357311229,-0.0635000565893154,0.1451027420331281,0.0129872478058748,0.6952576437213294,-0.577418904756638,-0.0007697029872564,-1.108975523439062,0.1147426590231876,1.5888957353330044,0.8542072905843452,-0.6205773421906017,-0.0366386107136799,0.9186487202001604,-0.0306111417380017,0.9090664736203624,0.1287500511313591,10.725683818547624,-1.3647706039664165,0.2359122901734888,-1.120997080620085
2.12,-1.0864842026687769,0.0949758238986353,1.5902456629980397,-0.0653582319693868,0.1467033418664672,0.0133029872907568,0.6946824775346803,-0.5579256111764862,0.0013930342183909,-1.091891377627375,0.1023311121793756,1.5881629631187308,0.8861057444160179,-0.6121765443466686,-0.0384063209374738,0.9810666936617316,-0.028758309332455,0.974664679007592,0.1081368602823677,10.67921106911399,-1.367061617792139,0.2394746861389583,-1.128688046518681
2.14,-1.0725939964893447,0.0840318204127503,1.590295789021012,-0.0659262622597219,0.1487489366377465,0.0136903770197953,0.6944798622031279,-0.5376826619998621,0.0035042528452483,-1.074807231815688,0.0899195653355636,1.5874301909044573,0.9180041982476904,-0.6037757465027355,-0.0401740311612678,1.017687683464768,-0.0101307665776206,1.012147458831203,0.1055609313428707,10.658413674415897,-1.368421111312042,0.2416205681313492,-1.1365502797292142
2.16,-1.0593927059781092,0.0740168735485571,1.590383786776718,-0.064945427028576,0.1509045167426767,0.0141603910334911,0.6951953962062826,-0.5177835380613737,0.0056494975512028,-1.0569256246582093,0.0777180384378499,1.586653225934589,0.9499026520793632,-0.5953749486588024,-0.0419417413850618,1.0013605710200264,0.0357767001577358,0.9949561969244236,0.1072622352977253,10.670951756165778,-1.3693507063281567,0.242270220611888,-1.145730882917037
2.18,-1.0454732236867652,0.0638813417619547,1.5905233924028856,-0.062061455105908,0.1531168204356015,0.0147988857925314,0.6967700227836199,-0.4971729460045954,0.0082221319342584,-1.0382465561549388,0.0657265314862345,1.5858320682091256,0.981801105911036,-0.5869741508148693,-0.0437094516088558,1.0415066027849622,0.0787313288668656,1.0305296028389144,0.1286317191527818,10.693313841687086,-1.3705679799984136,0.240991504268724,-1.1557223117745117
2.2,-1.0315138066772225,0.0541328506728854,1.5907195550768027,-0.0578813106880551,0.1550642820270227,0.0155548045025937,0.6991210122851209,-0.4790586094126597,0.0112865140815368,-1.0106347225475842,0.0390226944617249,1.5909344989995986,0.7581705666819639,-0.4809458161577841,-0.0078187296723394,0.9260761034421882,0.1175494750750516,0.9057168295967838,0.1532191073639211,10.721224608512784,-1.371972881264499,0.2383428888454926,-1.1660535867286097
2.22,-1.017428209462288,0.0447305468025229,1.5909810027849705,-0.0532093767872748,0.1543408238491722,0.0165003848393664,0.7094324700693319,-0.4623231650291641,0.0147377497145756,-1.0106347225475842,0.0390226944617249,1.5909344989995986,0.7581705666819639,-0.4809458161577841,-0.0078187296723394,0.9978881296811232,0.5155728892105471,0.8367722191747806,0.1725617816519391,10.7513273721288,-1.3686893617266995,0.2348859719489414,-1.1737418717969863
2.24,-1.0038670685919968,0.0360894754567185,1.5912922018798843,-0.0487302056479586,0.1490990216836442,0.0176275318876795,0.7168126703787758,-0.4481975494569032,0.0178969924429248,-1.0106347225475842,0.0390226944617249,1.5909344989995986,0.7581705666819639,-0.4809458161577841,-0.0078187296723394,0.8123748927057066,0.3690100154721987,0.7062807786130443,0.1579621364174591,10.815251839722803,-1.382836268057757,0.2320592289599435,-1.1759443290811742
2.26,-0.9894993044457364,0.0272681755334977,1.5916770036305816,-0.0443285872940897,0.1409508927444081,0.0188833969280308,0.7190945059029771,-0.4347409976966017,0.0203894663632819,-1.0030530168807643,0.0342132363001471,1.5908563117028751,0.7704506754616327,-0.4777003901884218,-0.011026901993659,0.6937182152733941,0.1140917762100623,0.6728275880150764,0.124623696017855,10.699486505867752,-1.398274723303612,0.2294469901604866,-1.1746180319795718
2.28,-0.9751413642348424,0.018703916665741,1.5920978830414432,-0.0403620848865176,0.1321133548105647,0.0200959416334943,0.7162728765848643,-0.4223972955283226,0.0215227575066997,-0.9878896055471252,0.0245943199769914,1.5906999371094284,0.7950108930209704,-0.4712095382496973,-0.0174432466362981,0.635635359392003,-0.1410814659056403,0.6171851084139535,0.0566645571708891,10.607733255114,-1.4124705638818449,0.2271852085217358,-1.1710147986178268
2.3000000000000003,-0.9615969610012264,0.0107870401781329,1.5925039517419255,-0.0370240519253647,0.124522041444543,0.0211484679892945,0.709573654821745,-0.4115621059626396,0.0211778848544193,-0.972726194213486,0.0149754036538357,1.5905435625159816,0.819571110580308,-0.4647186863109728,-0.0238595912789373,0.6371809835165114,-0.3349610881559661,0.5417594782841484,-0.0172436326140199,10.607733255114,-1.4249493798623374,0.2249404688823867,-1.165271828551257
2.32,-0.9475109119667372,0.0026679867767676,1.5929134055182397,-0.0339465670298942,0.118414057534616,0.0221261988038455,0.6992121959081364,-0.4009220457143067,0.0197403350247236,-0.95633477200188,0.0056810299276163,1.5900663706904028,0.8441313281396455,-0.4582278343722483,-0.0302759359215764,0.7460517113769843,-0.5180729456804256,0.5320030124166486,-0.0718774914847845,10.52156241659668,-1.434879958981791,0.2229912676721265,-1.1600139360821369
2.34,-0.9336687504124084,-0.0052454798708678,1.593284259011594,-0.031295587241426,0.1154734806719439,0.0229468912092934,0.6855949242014403,-0.3909299076585243,0.0174236680459387,-0.9399433497902736,-0.0036133437986031,1.589589178864824,0.8686915456989832,-0.4517369824335238,-0.0366922805642156,0.8524081439521689,-0.6808635853348066,0.4996069027891153,-0.1158333489392473,10.461616399059494,-1.4401909394626615,0.2213595817625268,-1.1571161086573525
2.36,-0.920773026635158,-0.0125818196490799,1.5935903850326807,-0.0290950292653941,0.1160972657319585,0.0235888949333086,0.6729805287652497,-0.3818002217800732,0.0149169714539053,-0.922937922139684,-0.0127454462263544,1.5889515784231794,0.8932517632583208,-0.4452461304947992,-0.0431086252068548,0.7886026633614163,-0.6307197718095292,0.4564842939225572,-0.1253348296016675,10.393118534581845,-1.4379509127360628,0.2195045617379666,-1.1561221952475702
2.38,-0.9074341005024348,-0.020120165307883,1.593861999547764,-0.0270481946308631,0.1194265079119407,0.0241669701269559,0.6619163228286319,-0.3725167490250025,0.0123771530244173,-0.905318489050111,-0.0217152773556377,1.5881535693654685,0.9178119808176584,-0.4387552785560747,-0.0495249698494939,0.7332294952073259,-0.5532102968308916,0.4641736377535344,-0.1269909214744008,10.393118534581845,-1.4327291206024122,0.2179490230308324,-1.1591870172031744
2.4,-0.8942894767785357,-0.0274755689504854,1.59408631071029,-0.0252313345243571,0.1244887970687648,0.0246848143747147,0.6533989320246885,-0.3634934692497885,0.0101857069044385,-0.8743382843610031,-0.0387460027591331,1.594480857198985,0.7087936511350684,-0.3318649396008406,0.0118141990870842,0.6300157936624604,-0.4258695401971712,0.4511639887606999,-0.1095723059989374,10.411375008481627,-1.4255570324240106,0.2166633234361792,-1.165403926576106
2.42,-0.881209975333727,-0.0347368136081011,1.594373427522907,-0.026438895820901,0.1284381882081348,0.0250203784728922,0.6549998734902569,-0.3623574907277714,0.0191379238535632,-0.8743382843610031,-0.0387460027591331,1.594480857198985,0.7087936511350684,-0.3318649396008406,0.0118141990870842,0.4582457012424012,0.0800470732784219,0.0567989261008566,0.4476108474562345,10.411375008481627,-1.4146320153305914,0.2177343443105693,-1.165983463055987
2.44,-0.8687528148225148,-0.0415768378739408,1.5948218472030136,-0.031655879188998,0.1292948197235902,0.025129344135452,0.6559548890846516,-0.356606367519744,0.0275147578910807,-0.8743382843610031,-0.0387460027591331,1.594480857198985,0.7087936511350684,-0.3318649396008406,0.0118141990870842,0.5102911458950641,0.0477507797197351,0.2875561604013671,0.4188417018758735,11.136463397040645,-1.4137147308302014,0.2248812674384514,-1.1755718408072082
2.46,-0.8556386977744052,-0.0485917676277366,1.5954459085127537,-0.0381660663464176,0.1280597169990033,0.0252512718378999,0.6552267672554059,-0.3450032575224287,0.0343529434051455,-0.8672503478496525,-0.0420646521551415,1.594598999189856,0.7181691167963558,-0.3237345777160082,0.0117016082996176,0.67439436558439,-0.0364060914622876,0.5801554998657671,0.3419092757032388,11.05651327114174,-1.417706363288073,0.2335616907699921,-1.1823699764307294
2.48,-0.8425610139763356,-0.0553397641448678,1.5961852667325678,-0.0441093636727457,0.1253989299581187,0.0254906886148733,0.652391592073341,-0.3304420829312198,0.0391600611692027,-0.8530744748269511,-0.0487019509471583,1.5948352831715975,0.7369200481189303,-0.3074738539463434,0.0114764267246844,0.779702515364321,-0.1417587591032443,0.7280587295604463,0.2403558882028617,10.94861499340277,-1.4246773433262618,0.2418735993254429,-1.1873638284660897
2.5,-0.8295668982996467,-0.0617770227360741,1.5970009244634535,-0.0488602863362145,0.1221855702040454,0.0258642118265249,0.6470330791980792,-0.314287497136117,0.0421787510563137,-0.8388986018042497,-0.0553392497391751,1.5950715671533393,0.755670979441505,-0.2912131301766787,0.0112512451497511,0.8642869764728446,-0.2679256437630894,0.807729289755138,0.1509344943555503,10.758122854369503,-1.4325966007782749,0.2486773215494068,-1.1909779141518957
2.52,-0.8173466863349329,-0.0675853799330546,1.5978195406367344,-0.0522109339238337,0.1195144958184244,0.0263015063689705,0.6394972625657199,-0.2981994866876467,0.0438503897777979,-0.8237851822154196,-0.0611635123427087,1.5952965920563345,0.7744219107640796,-0.2749524064070139,0.0110260635748179,0.8921981121390571,-0.3767908316179624,0.8044005224235179,0.0835819360742097,10.758122854369503,-1.4400455770560794,0.2544083803525107,-1.1937230837960664
2.54,-0.8046603264112606,-0.0733679574150447,1.598711502571038,-0.0546814747446173,0.1180712272862827,0.0267767666402107,0.6295235317966924,-0.281072016249525,0.0452461274005743,-0.8086717626265895,-0.0669877749462423,1.5955216169593294,0.7931728420866542,-0.2586916826373491,0.0108008819998847,0.9934455603773816,-0.4986865384513761,0.8563735219060842,0.06978688113882,10.69863022545087,-1.4445320559962067,0.2587570160038427,-1.197189575065178
2.56,-0.7921761419167115,-0.0788005295518018,1.59962897175748,-0.0560760320880317,0.1184247338262551,0.0272344890203518,0.6195894855631082,-0.263190665961295,0.046420768299375,-0.793089569754695,-0.0724055194555342,1.5957410123229512,0.8119237734092288,-0.2424309588676844,0.0105757004249514,1.0244605213751588,-0.4967023116792091,0.8940675144114979,0.0587320449400321,10.688869493636956,-1.4449045284284132,0.2616340446703888,-1.2027414101322915
2.58,-0.779882003320158,-0.0838665856639892,1.6005699369877533,-0.0560806195410298,0.1202035100031153,0.0277103400365395,0.6105341749792644,-0.2445454962026783,0.047612260557674,-0.7770386035997362,-0.0774167458705846,1.5959547781471994,0.8306747047318034,-0.2261702350980196,0.0103505188500182,1.0381000179403397,-0.4527655291921895,0.9322584879308328,0.0595746129149539,10.68406937203872,-1.4434468550340822,0.2631317517024075,-1.210299585942106
2.6,-0.7683587136556369,-0.0883302858785506,1.6014877643952632,-0.0545265660135407,0.1227954938520076,0.0282210484928179,0.6030557628736573,-0.2264813557234812,0.0489364039266479,-0.7493552945711948,-0.0960938604741231,1.602950550015637,0.6512405524557182,-0.2061120077442833,0.0301993652209269,0.979787189310846,-0.373920605280359,0.903207023959858,0.066207168448695,10.694428045420864,-1.4410171850268905,0.2628168985027657,-1.2199465175533146
2.62,-0.7563402517491666,-0.092639437035441,1.6024671779968265,-0.0503584192690742,0.1251019204130691,0.0289591091062206,0.599187786106427,-0.2063978551678612,0.048919912453727,-0.7493552945711948,-0.0960938604741231,1.602950550015637,0.6512405524557182,-0.2061120077442833,0.0301993652209269,1.022629589352985,-0.1933988383615137,1.004175027781001,-0.0008245736460448,10.633607191507508,-1.4381257885644907,0.2595752129140138,-1.2303603758044976
2.64,-0.7444022800914425,-0.0966038034595778,1.6034450193668497,-0.0447947276221658,0.1261676990745013,0.0298551231703667,0.5947167690624325,-0.1912870493553751,0.0488691224624742,-0.7493552945711948,-0.0960938604741231,1.602950550015637,0.6512405524557182,-0.2061120077442833,0.0301993652209269,0.7879229425101851,-0.223550852199722,0.7555402906243042,-0.0025394995626395,10.633607191507508,-1.4407616178646163,0.2549141213355743,-1.2378641075472665
