t,x,y,z,roll,pitch,yaw,v_x,v_y,v_z,ref_x,ref_y,ref_z,ref_v_x,ref_v_y,ref_v_z,a_com,a_x,a_y,a_z,thrust,wind_x,wind_y,wind_z
0.0,2.2978927144425003,1.7043475179459957,2.357637172516738,0.0131356064491969,0.136145024140407,0.0258834670209453,0.0003554290639801,0.0051172642056113,-0.0009697207175833,2.297909564869132,1.7044081314006438,2.357609662974294,-0.0994922704549658,-0.0971537667711281,-0.1009301046017273,0.2610224178095794,0.0177714531990084,0.2558632102805679,-0.048486035879168,10.542561594012112,-1.2865736566607373,0.1631045704434854,-1.1647910709127418
0.02,2.298030254444693,1.704702151465415,2.357347292357038,0.0227295268783743,0.1306458926110487,0.0264500254469155,0.012107179035123,0.0247729861470563,-0.0278677169915094,2.297909564869132,1.7044081314006438,2.357609662974294,-0.0994922704549658,-0.0971537667711281,-0.1009301046017273,1.766319079311406,0.5875874985571418,0.9827860970722492,-1.3448998136963028,10.542561594012112,-1.2984053407989942,0.1542144144111743,-1.168302057878728
0.04,2.2983299216952107,1.705194687574761,2.356516880926347,0.0369668231453935,0.1167974804226521,0.0269825863337194,0.017562540699148,0.0255957099170615,-0.0579869720752543,2.297909564869132,1.7044081314006438,2.357609662974294,-0.0994922704549658,-0.0971537667711281,-0.1009301046017273,1.5310187556711536,0.2727680832012514,0.0411361885002618,-1.5059627541872451,9.054407809073382,-1.3281088257679587,0.1394106352317188,-1.136610699015983
0.06,2.298650766987278,1.7056582627867818,2.355033951234266,0.0521496730107033,0.09681952123585,0.0270430651669178,0.0132650313771668,0.020333706777526,-0.0885900889299704,2.296914642164582,1.7034365937329323,2.3566003619282774,-0.119492270752989,-0.1171537670691513,-0.1209301048997505,1.5674087091728894,-0.2148754660990605,-0.2631001569767765,-1.530155842735808,8.792582812915043,-1.3571358400609674,0.1245777440348141,-1.093353561612388
0.08,2.29878641182805,1.7059773205131683,2.352957358508501,0.0666981403931695,0.0750872540980519,0.026593337751877,-0.0001379560630788,0.0115032013216883,-0.1174444793482305,2.2949247967554824,1.70149351839751,2.354581759836243,-0.1594922713490354,-0.1571537676651977,-0.160930105495797,1.6509041048303978,-0.6701493720122846,-0.4415252727918873,-1.4427195209130037,8.796800041141978,-1.3796827734002255,0.1106323957954806,-1.0469189265552188
0.1,2.2985724615429097,1.706088202412054,2.3503182056502534,0.080532215448259,0.0543742719837323,0.0257960780081334,-0.0209659605983992,-0.0002819059436362,-0.144972072443124,2.2929349513463837,1.6995504430620874,2.3525631577442083,-0.1994922719450819,-0.1971537682612442,-0.2009301060918434,1.8237755534718048,-1.0414002267660174,-0.5892553632662293,-1.3763796547446714,8.853683252621067,-1.3936040220933117,0.0983674508087683,-1.0031886940475478
0.12,2.297925523852038,1.7059493018620329,2.3473107069416828,0.0930461655550139,0.0373589186948409,0.0249109769515685,-0.0460594379567746,-0.0139964546454831,-0.1702229511491116,2.288945105907481,1.6956073676968626,2.348544555622371,-0.2394922725411284,-0.2371537688572907,-0.2409301066878899,1.90747105315856,-1.2546738679187728,-0.6857274350923431,-1.2625439352993817,8.91280647702797,-1.399147959738821,0.0865053974507666,-0.9591240271875988
0.14,2.2966939292900697,1.705496898195383,2.343622920895405,0.1055945827215648,0.0230515518599763,0.0240179430312096,-0.0757710981059932,-0.0307917076488898,-0.1972384781614043,2.28495526046858,1.6916642923316376,2.3445259535005345,-0.2794922731371749,-0.2771537694533372,-0.2809301072839364,2.1764087231164937,-1.4855830074609295,-0.839762650170337,-1.350776350614638,8.963410529575867,-1.398219552944198,0.0756774556814828,-0.921286347337516
0.16,2.294833874463748,1.7046841153604195,2.339392440120736,0.1175329507954345,0.0129946758425329,0.0233378339114029,-0.108496841704899,-0.0498976521810347,-0.2244505266458274,2.279965415014777,1.6867212169515116,2.3395073513637965,-0.3194922737332213,-0.3171537700493836,-0.3209301078799828,2.3326524565852638,-1.636287179945288,-0.955297226607241,-1.360602424221151,8.940402847266796,-1.3950347387256905,0.0661326540744663,-0.8955386144373144
0.18,2.292438886172109,1.7035371719020385,2.334868835768145,0.1283326345134355,0.0079180079454981,0.0230644578152629,-0.1418323916854542,-0.0700859424391257,-0.2503539995383217,2.273975569546073,1.6807781415564844,2.333488749212157,-0.3594922743292677,-0.35715377064543,-0.3609301084760292,2.339773420623896,-1.66677749902776,-1.0094145129045513,-1.2951736446247184,8.947638554054265,-1.3883689710381606,0.0579068729744512,-0.8759092100522832
0.2,2.289234132835729,1.7018792381286587,2.3295724816279986,0.1386546373006729,0.0076269346109364,0.0232984852522521,-0.1762704335310559,-0.0946001429659282,-0.2778436896559138,2.2853472665878365,1.700032874780082,2.3223511357912296,-0.2418323931755703,-0.1700859439292418,-0.3503540010284379,2.521213902264611,-1.7219020922800865,-1.225710026340126,-1.374484505879603,8.966479158876155,-1.3670390322370956,0.0483037236933677,-0.8608127741959227
0.22,2.2853364762891286,1.6995541561391556,2.3238596017207738,0.1432348540427829,0.0127451968301352,0.023880022026975,-0.211094056717928,-0.1347272111482647,-0.2909435126219875,2.2853472665878365,1.700032874780082,2.3223511357912296,-0.2418323931755703,-0.1700859439292418,-0.3503540010284379,2.736088309299249,-1.7411811593436064,-2.006353409116824,-0.6549911483036824,9.945046047162576,-1.3375159317605376,0.043265194313932,-0.8583915094563187
0.24,2.281038529611334,1.6966649112985714,2.3182120993752617,0.1415483801959089,0.0221099716779614,0.0246522862062029,-0.2389155593429953,-0.166720374198879,-0.3028168631330237,2.2853472665878365,1.700032874780082,2.3223511357912296,-0.2418323931755703,-0.1700859439292418,-0.3503540010284379,2.2014625494530566,-1.3910751312533622,-1.5996581525307154,-0.5936675255518109,9.945046047162576,-1.312627007036048,0.0427244618225772,-0.8701123804600093
0.26,2.2760030208488846,1.693027287556314,2.3120017952958243,0.1367584257625348,0.0343312014244377,0.0255479453738564,-0.2626245809710769,-0.1946492927900519,-0.3176259144769146,2.282928942656081,1.6983320153407897,2.3188475957809453,-0.2618323934735935,-0.190085944227265,-0.3703540013264611,1.9757594754544392,-1.1854510814040806,-1.3964459295586442,-0.7404525671945439,9.766957806442406,-1.2895997403305712,0.0451467874428157,-0.8835502643106106
0.28,2.27054703250407,1.688880080514383,2.3054673853557945,0.1311967108493174,0.0472220998578236,0.026412457064405,-0.2813843039354655,-0.218453847694323,-0.3351836657904175,2.278092294792569,1.6949302964622048,2.3118405157603763,-0.30183239406964,-0.2300859448233115,-0.4103540019225075,1.7513271189856858,-0.9379861482194302,-1.1902277452135568,-0.877887565675145,9.370713006239384,-1.2697935431883918,0.048329182366528,-0.8967951296906354
0.3,2.2647618039687143,1.684286658197688,2.2985499954959976,0.1258479742176733,0.0594940160321797,0.02713864127346,-0.2959859902457514,-0.2396727964393383,-0.3556703939928352,2.273255646929058,1.69152857758362,2.304833435739808,-0.3418323946656865,-0.270085945419358,-0.450354002518554,1.6455690971418633,-0.7300843155142955,-1.0609474372507657,-1.0243364101208852,9.370713006239384,-1.2519941387876032,0.0520237044664898,-0.9076939559481612
0.32,2.2590273079732937,1.6795478130311012,2.291575161457511,0.1213146007644341,0.0698236519628824,0.0276424807261046,-0.3068388119381814,-0.2581582810691913,-0.3775108621507134,2.266418999035744,1.686126858675233,2.2958263556894365,-0.3818323952617329,-0.3100859460154044,-0.4903540031146004,1.5301167684555166,-0.5426410846215007,-0.9242742314926472,-1.0920234078939106,9.210541785756504,-1.2370253778858045,0.0555478170637206,-0.9151778874225616
0.34,2.252793192119901,1.674193941853416,2.28376833365062,0.1172785667527499,0.0788419714618882,0.0279543596248107,-0.3159317293993564,-0.2763263083512361,-0.4021119445252058,2.2595823511424307,1.6807251397668457,2.2868192756390657,-0.4218323958577794,-0.3500859466114509,-0.5303540037106469,1.5952833739444443,-0.4546458730587455,-0.9084013641022431,-1.2300541187246217,9.07539018694115,-1.2255924204664803,0.0586122312057145,-0.9200092026421236
0.36,2.2463916994137385,1.6684764172821211,2.275455398405956,0.1137308764754632,0.085868995882799,0.0280350446744049,-0.3238000875997982,-0.2944515410728394,-0.4279355714305804,2.251745703234216,1.6743234208435571,2.276812195573793,-0.4618323964538258,-0.3900859472074973,-0.5703540043066933,1.6258035155967687,-0.3934179100220925,-0.9062616360801634,-1.2911813452687295,8.988493687458686,-1.2176584269533457,0.0613329393377197,-0.9209983230372129
0.38,2.240171282354736,1.6627129895378494,2.267071635715814,0.1105012870296429,0.090937151547669,0.0279181307211473,-0.3306299760074259,-0.3112240191458959,-0.4532556012034512,2.2429090553111,1.666921701905368,2.26580511549362,-0.5018323970498723,-0.4300859478035437,-0.6103540049027397,1.5564922936452907,-0.3414944203813858,-0.8386239036528242,-1.2660014886435391,8.890470597984859,-1.211217382986227,0.0640806408038089,-0.919667705849092
0.4,2.23348658178426,1.6563100103995494,2.257718013530188,0.1072038417861333,0.0948502817257848,0.0276304201791474,-0.3375040571721075,-0.3281073539637674,-0.4808028294223296,2.223639783554365,1.6471517885805549,2.2444088556556414,-0.430629977497542,-0.411224020636012,-0.5532556026935673,1.6516278098999415,-0.3437040582340789,-0.8441667408935732,-1.3773614109439196,8.890470597984859,-1.20602055199808,0.066645696926598,-0.9170658488625276
0.42,2.226690496443483,1.6495641830019827,2.248024759833147,0.1043553231386691,0.0975254253415446,0.0272320660570668,-0.3416658373606439,-0.3458431260045118,-0.4860444434003733,2.223639783554365,1.6471517885805549,2.2444088556556414,-0.430629977497542,-0.411224020636012,-0.5532556026935673,0.947829812405384,-0.2080890094268206,-0.8867886020372223,-0.2620806989021867,10.153292483386394,-1.192509934919623,0.0678212702858653,-0.9157295009971932
0.44,2.2198224298947404,1.6424775383796943,2.238225162890112,0.1024313152781418,0.0988421200100474,0.026752425465184,-0.3451064295721915,-0.362212326874759,-0.4937996783457371,2.223639783554365,1.6471517885805549,2.2444088556556414,-0.430629977497542,-0.411224020636012,-0.5532556026935673,0.9218623554447491,-0.1720296105773788,-0.8184600435123618,-0.3877617472681893,10.153292483386394,-1.1909497024647049,0.0688718855567473,-0.9152877636141924
0.46,2.213230449449628,1.6354418432783535,2.228725917508169,0.1013204243430729,0.0987239476223821,0.026205691737063,-0.3487064393539653,-0.3776184807035925,-0.5057133433512414,2.2193334837793897,1.6430395483741946,2.2388762996287057,-0.4506299777955653,-0.4312240209340353,-0.5732556029915905,0.9902588804069404,-0.1800004890886886,-0.7703076914416712,-0.5956832502752141,9.858137927218197,-1.190534473880794,0.0694105920115131,-0.9120121693001924
0.48,2.206213935574967,1.627725546661886,2.218445481808099,0.1007918901385854,0.0970955400147564,0.0255227500716977,-0.3528366584385339,-0.393220676436977,-0.5218493088539142,2.210720884229439,1.6348150679614744,2.2278111875748343,-0.4906299783916117,-0.4712240215300817,-0.613255603587637,1.1411141530241664,-0.2065109542284338,-0.7801097866692253,-0.8067982751336411,9.599301376901169,-1.1913027509307592,0.0694303323793655,-0.906123018335588
0.5,2.199109819750117,1.6197014477206526,2.2078092131817475,0.1009808979650638,0.0937594929360964,0.0247167678965658,-0.3575018876999972,-0.4084762038406387,-0.5409321259065729,2.202108284679488,1.626590587548754,2.216746075520963,-0.5306299789876582,-0.5112240221261282,-0.6532556041836834,1.243633172494132,-0.2332614630731644,-0.7627763701830853,-0.9541408526329342,9.242550947016753,-1.1932255350526846,0.0689202800087126,-0.8980471844668898
0.52,2.191901016546215,1.6113734673299054,2.196770190867648,0.1019009243004351,0.088702999059534,0.0237832025342296,-0.3634838769956149,-0.4236394430310404,-0.5619841678073796,2.191495685099735,1.6163661071062314,2.2036809634372894,-0.5706299795837046,-0.5512240227221746,-0.6932556047797299,1.331255504093354,-0.2990994647808859,-0.7581619595200872,-1.0526020950403336,9.242550947016753,-1.1970842753509805,0.0679175945378968,-0.8864068789716937
0.54,2.1849194204327893,1.6031787527113506,2.1858879171247114,0.1034587212741173,0.0828333842043721,0.0228254176036472,-0.3713514080956409,-0.4382846326443192,-0.5824486349462066,2.180883085519981,1.606141626663709,2.190615851353616,-0.6106299801797511,-0.5912240233182211,-0.7332556053757764,1.318307664863264,-0.3933765550012957,-0.7322594806639382,-1.0232233569413496,9.130794066814817,-1.200597367532512,0.0661202376630797,-0.8749780477522401
0.56,2.1773824971662545,1.594238048653666,2.174008312600595,0.1054889060156453,0.076326541284245,0.0217944072990191,-0.3821168476218,-0.4550915893411351,-0.6044458963216666,2.169270485925327,1.5949171462062852,2.176550739255041,-0.6506299807757975,-0.6312240239142675,-0.7732556059718227,1.4851329819416326,-0.5382719763079552,-0.8403478348407961,-1.099863068772999,9.074405079916689,-1.2034845715321696,0.0639173217686242,-0.8637180413513167
0.58,2.1696060804128443,1.5849429080414654,2.161685384711867,0.1071622156319183,0.0702245683150878,0.0207653853145646,-0.3950537690814384,-0.4734078096533488,-0.626712181740776,2.156657886315772,1.5826926657339602,2.161485627141565,-0.690629981371844,-0.6712240245103139,-0.8132556065678692,1.5800595951922585,-0.6468460729819214,-0.9158110156106848,-1.1133142709554733,9.074405079916689,-1.2049289615065422,0.0620140700597472,-0.8537344015113533
0.6,2.16155093305155,1.5752706974054909,2.148913832667521,0.1079718914210616,0.0650778964526703,0.0197698999656735,-0.4098856249931332,-0.492722035499495,-0.6493001878620324,2.1498533919587723,1.561272517558798,2.130349775624828,-0.4950537705715545,-0.573407811143465,-0.7267121832308922,1.6607538125465284,-0.741592795584739,-0.9657112923073112,-1.1294003060628166,9.065081790409296,-1.2052075506194526,0.0606322051505351,-0.8443332588151469
0.62,2.153572965781456,1.5656679690528044,2.1365876974499627,0.1067792085405358,0.0632239018323189,0.0190166438649949,-0.4289268160103965,-0.5166033790486864,-0.6470074985018257,2.1498533919587723,1.561272517558798,2.130349775624828,-0.4950537705715545,-0.573407811143465,-0.7267121832308922,1.5314551491741564,-0.9520595508631656,-1.194067177459565,0.1146344680103328,9.051178606192934,-1.1938098867954063,0.0601881275833383,-0.838119859352486
0.64,2.144803254142758,1.5550985931520518,2.123639914274579,0.1033047689388061,0.0657585062526942,0.0185537291873593,-0.4465159335576561,-0.5385387516537906,-0.6481651535630176,2.1498533919587723,1.561272517558798,2.130349775624828,-0.4950537705715545,-0.573407811143465,-0.7267121832308922,1.407016162537568,-0.8794558773629807,-1.0967686302552129,-0.057882753059596,10.560254851453465,-1.1857140620352251,0.0614962861627284,-0.8443902136309012
0.66,2.1357142974599155,1.5441274494163917,2.1106043796553857,0.0989413429448607,0.0710312592654164,0.0183066973858741,-0.4610953357760904,-0.5571928854641462,-0.6552714313361127,2.144902854253057,1.5555384394473637,2.12308265379252,-0.5150537708695777,-0.5934078114414881,-0.7467121835289153,1.2359559671059526,-0.7289701109217145,-0.9327066905177815,-0.3553138886547513,9.851044059756532,-1.1769195026220705,0.0638002684489097,-0.8521646633133095
0.68,2.1263642889412675,1.5328093988518927,2.097374585839192,0.0944894714364879,0.0776665370344846,0.0181728784125866,-0.472881143174708,-0.5735599440378195,-0.6673324920935089,2.135001778841626,1.544070283224494,2.1085484101279013,-0.5550537714656242,-0.6334078120375346,-0.7867121841249618,1.1750053712483235,-0.589290369930881,-0.8183529286836633,-0.6030530378698107,9.851044059756532,-1.168434236413681,0.0662858217530636,-0.8596896835815411
0.7000000000000001,2.1172873065430924,1.5217711542447137,2.084542475031588,0.0904972527441438,0.0843192498763993,0.0180776992373361,-0.4818292189848144,-0.5875176849879481,-0.6828062172391853,2.1251007034301947,1.5326021270016248,2.094014166463284,-0.5950537720616706,-0.6734078126335811,-0.8267121847210083,1.1339342606807594,-0.4474037905053213,-0.6978870475064292,-0.7736862572838232,9.571685712309772,-1.159816759996705,0.0688972415547937,-0.8667920276880207
0.72,2.107570069390066,1.5098803287157747,2.0706822311903577,0.0867368965260049,0.0910140709363785,0.0179638107888592,-0.4892833272291624,-0.6008276656569468,-0.7025657833890876,2.113199627988961,1.519133970748953,2.0774799227688634,-0.6350537726577171,-0.7134078132296275,-0.8667121853170547,1.2481584129828422,-0.3727054122174,-0.6654990334499344,-0.9879783074951132,9.343276247042922,-1.1517167184710415,0.0713045128418758,-0.8720095207274227
0.74,2.097722556218698,1.497733851331729,2.056402590138308,0.0835244893067092,0.0969056631757432,0.0178064717986124,-0.4950503108613908,-0.6132278950887535,-0.7244042911850632,2.101298552547728,1.5056658144962816,2.060945679074443,-0.6750537732537636,-0.753407813825674,-0.9067121859131012,1.288355747581704,-0.2883491816114192,-0.6200114715903371,-1.0919253897987813,9.151970282306138,-1.144876488960871,0.073260280790589,-0.8754558559935552
0.76,2.088268845858584,1.48596304658061,2.042419451921436,0.0806972887863681,0.1016488550884546,0.0175950214380309,-0.4997569969294042,-0.6250745900804721,-0.7464001485088502,2.0883974770915934,1.4911976582287088,2.0434114353651216,-0.71505377384981,-0.7934078144217204,-0.9467121865091476,1.2711361211314387,-0.2353343034006666,-0.5923347495859266,-1.0997928661893477,9.058286470383791,-1.1389110741637805,0.0752021653450303,-0.8773349725895712
0.78,2.078227454388571,1.4733352810093108,2.027236162898104,0.0777464085731323,0.1058268558607616,0.0173052776740516,-0.5040983610657449,-0.6369715490586766,-0.770819383241368,2.0744964016205576,1.4757295019462346,2.024877191640899,-0.7550537744458564,-0.8334078150177668,-0.986712187105194,1.3753945801252747,-0.2170682068170365,-0.5948479489102265,-1.2209617366258918,8.994596795730104,-1.1339793730508532,0.0771592860044645,-0.8779611832728884
0.8,2.0681043176261134,1.4604754027750868,2.0115528986865927,0.0747728178512899,0.1092522783197891,0.0169549820583087,-0.5079754609417404,-0.6483032340505094,-0.7963154850153855,2.053022536335284,1.441486703556377,1.988695193736036,-0.604098362555861,-0.7369715505487927,-0.805660946793986,1.4084478991727307,-0.1938549937997746,-0.5665842495916396,-1.2748050887008755,8.86784467580219,-1.1298781791198138,0.0791539356545728,-0.8774945115844459
0.8200000000000001,2.05797035211524,1.447352841851788,1.9957665337478343,0.0713543578679167,0.1116079900644989,0.0164965586865198,-0.5050097855838608,-0.6631911233947837,-0.7788723777526125,2.053022536335284,1.441486703556377,1.988695193736036,-0.604098362555861,-0.7369715505487927,-0.805660946793986,1.1561860473516954,0.1482837678939808,-0.7443944672137159,0.8721553631386492,8.86784467580219,-1.1112966265684012,0.080132751122861,-0.8791989350248085
0.84,2.048408824143241,1.4346271174900185,1.981126908539472,0.0678043848620586,0.1124430415238496,0.0159467123401671,-0.5018098836517221,-0.6754818819953379,-0.7632446913553259,2.053022536335284,1.441486703556377,1.988695193736036,-0.604098362555861,-0.7369715505487927,-0.805660946793986,1.006884677463535,0.1599950966069352,-0.6145379300277087,0.7813843198643311,11.56586350384896,-1.1127624066735546,0.0827415796620044,-0.8816274259181425
0.86,2.0384069347287617,1.4209989506826994,1.9659818243569585,0.0642737248571083,0.1117217838498368,0.0152877529206218,-0.4986369710639478,-0.6866454938150596,-0.7523286870186106,2.046981552709725,1.434116988050889,1.980638584268096,-0.6240983628538842,-0.7569715508468159,-0.8126292595045096,0.7966378628810507,0.158645629388715,-0.5581805909860849,0.5458002168357678,11.184403146505248,-1.1146203354331887,0.0851345263799,-0.8821405433931814
0.88,2.0284678980344384,1.4071613546782007,1.9509985081329309,0.0611674184619306,0.1088768532394251,0.0145428384671953,-0.4955911151650238,-0.6966011666897699,-0.7465069873856423,2.034899585458608,1.4193775570399132,1.964525365332216,-0.6640983634499307,-0.7969715514428624,-0.8265658849255568,0.5964160610717907,0.152292794946196,-0.4977836437355165,0.2910849816484151,10.832747611067134,-1.1176515488339425,0.0870884603462157,-0.8798696732150189
0.9,2.0185825199322283,1.3931343427468112,1.936093926869046,0.0585359709759295,0.1034818992572127,0.0137022010335852,-0.4935621993249131,-0.7056802461422321,-0.7442030361718854,2.0228176182074904,1.4046381260289371,1.9484121463963364,-0.7040983640459771,-0.8369715520389088,-0.8405025103466041,0.4792034390155851,0.1014457920055361,-0.4539539726231112,0.1151975606878408,10.343760014698091,-1.1237858326629524,0.0888786147090017,-0.8730899345663573
0.92,2.009201221272083,1.3796468954135257,1.9219534176298856,0.0565023181853018,0.0963779240542588,0.0128485857981374,-0.4944411410948091,-0.7136928866282147,-0.7443561803293991,2.008735650926571,1.387898694988159,1.9316020961894045,-0.7440983646420236,-0.8769715526349553,-0.8544391357676513,0.403107923903314,-0.0439470884948001,-0.4006320242991301,-0.0076572078756831,10.343760014698091,-1.1314068291064228,0.0902566278320986,-0.86331034517883
0.94,1.9992772255342384,1.365290672009872,1.907064104940262,0.0549213367137564,0.0876244305385668,0.0119464308594141,-0.4982812961040884,-0.7215697770368887,-0.7445455378165017,1.9946536836456512,1.3711592639473809,1.914792045982472,-0.7840983652380701,-0.9169715532310018,-0.8683757611886985,0.4382580554407282,-0.1920077504639655,-0.3938445204337004,-0.009467874355129,10.193802253582362,-1.138672343272662,0.0910833416734301,-0.8522045891344654
0.96,1.9892401601281748,1.350771504424998,1.8921737247947372,0.0537398313086904,0.078402901819049,0.0110726979207558,-0.5055112333337513,-0.7299070437607517,-0.7444626046167647,1.9795717163498303,1.3534198328917015,1.897633580140014,-0.8240983658341164,-0.9569715538270482,-0.8823123866097456,0.5517900114294272,-0.3614968614831404,-0.4168633361931462,0.0041466599868478,10.186245859448718,-1.145555429041727,0.0915565910931501,-0.840761647471443
0.98,1.979541407856496,1.3368221221319858,1.8780306723918845,0.0527029118956675,0.0699635649960495,0.0102883822048059,-0.515200283552034,-0.7379625290652856,-0.7442713803964719,1.9634897490391088,1.3346804018211211,1.8801266986620293,-0.8640983664301629,-0.9969715544230948,-0.8962490120307929,0.6300894863556936,-0.4844525109141351,-0.4027742652266963,0.0095612110146414,10.196291120013484,-1.151104409819547,0.0918982214353546,-0.8306722661515765
1.0,1.969107906213437,1.3219744890133902,1.863145346617176,0.0515865884125372,0.0619416923320753,0.0095295941259419,-0.5277879779184965,-0.7463212779140601,-0.7442760358195349,1.9537813936788944,1.2999239956787216,1.8408171033720608,-0.6152002850421501,-0.8379625305554017,-0.7432299919080972,0.755511008280698,-0.6293847183231283,-0.4179374424387261,-0.0002327711531524,10.199001039303766,-1.155548041734175,0.0922402503435689,-0.8214254918982467
1.02,1.9583593850102543,1.306912262045922,1.8484797904138164,0.0491964190086046,0.0569354786455343,0.0088619630250748,-0.5467021687425242,-0.7588690355028478,-0.7210924058103262,1.9537813936788944,1.2999239956787216,1.8408171033720608,-0.6152002850421501,-0.8379625305554017,-0.7432299919080972,1.6222465406332327,-0.9457095412013838,-0.6273878794393839,1.1591815004604378,11.827448943657146,-1.1524638173713249,0.0932791944119468,-0.8128893525990362
1.04,1.94779153675605,1.2924062841357724,1.8349944897173265,0.0459070010496078,0.0569235805955345,0.0084142048003374,-0.5641628542398116,-0.7673033600328438,-0.6996875299135257,1.9537813936788944,1.2999239956787216,1.8408171033720608,-0.6152002850421501,-0.8379625305554017,-0.7432299919080972,1.444110522492918,-0.8730342748643705,-0.421716226499802,1.0702437948400256,11.55107615520319,-1.1494961936954715,0.0951266187426719,-0.8173554872168068
1.06,1.936342509343532,1.2769886712087646,1.8212011010612377,0.0426447131807063,0.0601700629685705,0.0081194045783611,-0.5794438542784214,-0.7740266198034225,-0.6809584135684575,1.9476293908284728,1.2915443703731675,1.83338480345298,-0.6352002853401733,-0.8579625308534249,-0.7430217142104223,1.254482944473311,-0.7640500019304886,-0.3361629885289319,0.9364558172534064,11.55107615520319,-1.1443850194194805,0.0970490312558724,-0.8251441950848373
1.08,1.9246183825790464,1.2614511529637096,1.80773811665174,0.0400129218037153,0.0652442332162123,0.007951773113786,-0.5918916878354973,-0.7795366684978489,-0.6662723192227885,1.9353253851276295,1.2747851197620597,1.8185202036148176,-0.6752002859362197,-0.8979625314494714,-0.7426051588150725,1.0012374393837693,-0.6223916778537952,-0.2755024347213197,0.7343047172834516,11.030130435098728,-1.137816049835233,0.098594981384963,-0.8336601177331724
1.1,1.9126738000306724,1.245811564996186,1.7945348145849296,0.0380964276109216,0.0710221577280698,0.0078658728440646,-0.6017318808478397,-0.7843279780742006,-0.6548054102356068,1.9230213794267867,1.2580258691509516,1.803655603776656,-0.7152002865322662,-0.9379625320455178,-0.7421886034197226,0.7925844555895942,-0.4920096506171201,-0.2395654788175882,0.5733454493590862,11.030130435098728,-1.1314505125776004,0.099648953088492,-0.8418253765580174
1.12,1.9011663070262612,1.2308719153192385,1.7821790347107895,0.0370126783757357,0.0764152058063237,0.0078374363882708,-0.6089883103101743,-0.7881489269276758,-0.6463884100388864,1.9087173736961411,1.2392666185100412,1.7888118317082613,-0.7552002871283127,-0.9779625326415644,-0.7417720480243727,0.5875825707811262,-0.3628214731167312,-0.1910474426737585,0.4208500098360213,10.838614292695638,-1.1252815074978548,0.1002526749371671,-0.849642061879832
1.14,1.8889244697660952,1.2150751059022176,1.7693351230849172,0.0369396501892759,0.0814250495269445,0.0078668207376956,-0.6147287134999195,-0.7914338741085916,-0.6384963904375175,1.894413367965496,1.220507367869131,1.7739680596398668,-0.7952002877243591,-1.0179625332376108,-0.7413554926290229,0.5148472592687905,-0.2870201594872612,-0.1642473590457882,0.3946009800684436,10.689767349714202,-1.119881337536484,0.100058725227141,-0.8564099110550174
1.16,1.8765789923848288,1.1992068351553538,1.7566408385372811,0.0379685033116112,0.0855148514084025,0.0079526178305753,-0.6194934049307507,-0.795293837556415,-0.6313637565485548,1.8791093622199495,1.2007481172133194,1.759134701456356,-0.8352002883204055,-1.0579625338336571,-0.740938937233673,0.4703085913619583,-0.2382345715415568,-0.1929981723911733,0.356631694448134,10.6409520907373,-1.115572891340388,0.0990475394608734,-0.8618327957944756
1.18,1.8641465125005523,1.183253951095265,1.744083445581061,0.0398044182918686,0.0887134974252827,0.0080756137036896,-0.6235226166247292,-0.7998517074916526,-0.6247402735454097,1.862805356459502,1.1799888665426066,1.7443117571577291,-0.875200288916452,-1.0979625344297037,-0.7405223818383232,0.4496644646688999,-0.2014605846989259,-0.2278934967618773,0.331174150157254,10.606818435095192,-1.112219811177552,0.0975090577730928,-0.8659921488871851
1.2,1.851639030104696,1.1671989393962006,1.731654695281591,0.0421308616122018,0.091082725405467,0.008213523564573,-0.6270466953775222,-0.8055634406104969,-0.6184782515868813,1.832970381669316,1.1432613657206825,1.7128464319037906,-0.7235226181148453,-0.8998517089817687,-0.5927983679276958,0.4589551864994082,-0.1762039376396518,-0.285586655942216,0.3131010979264215,10.587172121058757,-1.1092898563830291,0.0954946179689687,-0.8695198305193524
1.22,1.8397105649545775,1.1517621301787833,1.7201131543093224,0.042404298149813,0.0926327270252973,0.0081911303465265,-0.6284458268635161,-0.8181785739887848,-0.5967019064362663,1.832970381669316,1.1432613657206825,1.7128464319037906,-0.7235226181148453,-0.8998517089817687,-0.5927983679276958,1.260266209165554,-0.0699565742996954,-0.6307566689143951,1.0888172575307498,10.57396535539374,-1.1029221121144055,0.0947089600852044,-0.8740056567540819
1.24,1.8271338038793692,1.1352863452826674,1.7084144193705255,0.0398863247918681,0.0934014035524019,0.0079471005258496,-0.6292312338702449,-0.8285087296070163,-0.5744425565365869,1.832970381669316,1.1432613657206825,1.7128464319037906,-0.7235226181148453,-0.8998517089817687,-0.5927983679276958,1.2276070597095126,-0.0392703503364399,-0.5165077809115737,1.1129674949839683,11.670510416010984,-1.10179214753443,0.0965331168621986,-0.8766176513857649
1.26,1.814543998366293,1.118640716584301,1.697135486982425,0.0360617714600217,0.0929982643342364,0.0075817348550233,-0.6298620104220641,-0.8352493446262558,-0.5545457259558165,1.825735155488168,1.1342628486308648,1.7069184482245137,-0.7435226184128685,-0.919851709279792,-0.586409986804153,1.0508539825491965,-0.03153882759096,-0.3370307509619752,0.9948415290385204,11.548706674642744,-1.1022020671516737,0.0993043499142442,-0.8779538579966836
1.28,1.801940691923429,1.101891888015507,1.6862334599148048,0.0324516654149641,0.0912267131503413,0.0072042118237715,-0.6305667009389585,-0.8394051183720793,-0.5366506542623332,1.8112647031258708,1.1162658144512294,1.6950624808659598,-0.783522619008915,-0.9598517098758385,-0.5736332245570674,0.9192396791180018,-0.0352345258447184,-0.2077886872911771,0.8947535846741683,11.268877385139604,-1.1033876900824464,0.1020801292832225,-0.8781777615092871
1.3,1.789952388633454,1.0859175150469085,1.676193680793499,0.0297469283114235,0.088023793049783,0.0068706988149244,-0.6314653376211354,-0.8421056985686424,-0.5210606284867304,1.796794250763574,1.098268780271594,1.683206513507406,-0.8235226196049614,-0.9998517104718848,-0.5608564623099819,0.7923849837177961,-0.0449318341088467,-0.1350290098281525,0.7795012887801378,11.268877385139604,-1.1058669092234013,0.1042631708733987,-0.8766361630980174
1.32,1.777307822356059,1.0690543108523354,1.6659376384393132,0.0278281389711823,0.0828124990405454,0.0065554936926897,-0.6332060335888978,-0.8442392418842998,-0.5053908657076904,1.7803237983714746,1.0782717460621565,1.6719893842612064,-0.8635226202010079,-1.0398517110679313,-0.5480797000628963,0.7954927640829884,-0.0870347983881192,-0.1066771657828702,0.7834881389519988,11.17617683831213,-1.110361210024554,0.1057280497384224,-0.8724156035096433
1.34,1.764604506455931,1.0521560226835611,1.6559966181199124,0.0270462279277524,0.0759886024921295,0.0062968401147186,-0.6374299123578915,-0.8456851301979363,-0.4894854326614997,1.7638533459793757,1.0582747118527185,1.6607722550150068,-0.9035226207970544,-1.079851711663978,-0.5353029378158107,0.826006273065651,-0.211193938449683,-0.0722944156818283,0.7952716523095371,11.142237494827896,-1.1163614316491322,0.1063141681914038,-0.8658568094551576
1.36,1.7517808255811964,1.0352239573680355,1.646379471149119,0.0273479064265613,0.0685417113392062,0.0061097253673696,-0.6449701039558865,-0.8475350014766804,-0.4730216843427344,1.746382893572375,1.0372776776283796,1.6498745448249843,-0.9435226213931008,-1.1198517122600242,-0.5225261755687252,0.9101257080563676,-0.3770095798997508,-0.0924935639372015,0.8231874159382618,11.142237494827896,-1.1218649896210604,0.1060521320891359,-0.8592879027898226
1.38,1.7394302066676428,1.019099877761606,1.6375539221598263,0.0284613456292547,0.0617397198431938,0.0060002115612161,-0.6548311418940682,-0.8497059219175589,-0.4568088083480874,1.7279124411504734,1.0152806433891397,1.6392962536911388,-0.9835226219891472,-1.1598517128560706,-0.5097494133216396,0.955000409419658,-0.4930518969090858,-0.108546022043926,0.8106437997323523,11.177678873852528,-1.126558617236325,0.1050616179738289,-0.8534145022699356
1.4,1.7262026210299406,1.0020765057695729,1.628601864028489,0.0303666805470056,0.0554994813472748,0.0059586073870691,-0.6675805434572012,-0.8525906428698689,-0.4392326666510353,1.7066886495729394,0.976614581665728,1.6147134817424222,-0.7548311433841843,-0.949705923407675,-0.4044128498946706,1.0952050175030794,-0.6374700781566489,-0.144236047615498,0.8788070848526064,11.218294488191532,-1.1300029780571836,0.1034753379438722,-0.8489768664511087
1.42,1.712652836887963,0.9849222916998688,1.6200530757651896,0.0308478883878818,0.0523057607619464,0.0059087508634358,-0.6869219795230886,-0.8622481449409244,-0.4162436460720365,1.7066886495729394,0.976614581665728,1.6147134817424222,-0.7548311433841843,-0.949705923407675,-0.4044128498946706,1.5778573783178884,-0.9670718032943726,-0.4828751035527767,1.1494510289499351,11.259580824797013,-1.130446691974969,0.1029420418547064,-0.8457067120050772
1.44,1.6987224948330255,0.967599122832478,1.6119760732100792,0.0288352367822595,0.0537312986454772,0.0058376804755003,-0.7045494723696736,-0.8694158802539913,-0.3926255257506331,1.7066886495729394,0.976614581665728,1.6147134817424222,-0.7548311433841843,-0.949705923407675,-0.4044128498946706,1.5165095953297485,-0.8813746423292468,-0.3583867656533457,1.1809060160701712,11.72755176337978,-1.1238866416622195,0.1040840728212773,-0.8529324977983245
1.46,1.685194588822546,0.9510339632174754,1.6047292775945403,0.0258675264392294,0.0577122806517872,0.0057782775137459,-0.7182216828591982,-0.8736757562741532,-0.3713728499845508,1.6991403381390977,0.9671175224316514,1.6106693532434757,-0.7748311436822075,-0.9697059237056982,-0.3939336582039872,1.2813587618181348,-0.6836105244762303,-0.2129938010080934,1.062633788304118,11.682644339064607,-1.1167444903174286,0.1063168105993866,-0.8619568109099316
1.48,1.6707080354610453,0.9335401531842245,1.597524577693721,0.0229790324510469,0.0632464571122393,0.0057662122355176,-0.7294258847810832,-0.8755796297714763,-0.3502928645933562,1.6840437152714138,0.9481234039634978,1.6025810962455822,-0.814831144278254,-1.0097059243017448,-0.3729752748226205,1.1974187436869734,-0.5602100960942491,-0.0951936748661563,1.0539992695597271,11.573260692002805,-1.1092830699443024,0.1084993950170346,-0.8723712080579489
1.5,1.6560277583763354,0.9160219154403508,1.5907248679247152,0.0209593031804693,0.0690505837200219,0.0058199981388993,-0.737848627031659,-0.8763335349438236,-0.3308193509961893,1.6689470924037302,0.9291292854953443,1.5944928392476887,-0.8548311448743005,-1.0497059248977911,-0.3520168914412537,1.0615185959835678,-0.421137112528791,-0.0376952586173651,0.9736756798583436,11.47691295133427,-1.102785107811006,0.1100373862268515,-0.8820449587317183
1.52,1.6412051040668525,0.8984992253986158,1.5842997507356278,0.0201187680784245,0.0743045063076237,0.0059478474562222,-0.7439406696789574,-0.8761269001853155,-0.3126859694238177,1.651850469506244,0.9081351669973884,1.5874525014188636,-0.8948311454703469,-1.0897059254938375,-0.331058508059887,0.956523926503089,-0.3046021323649228,0.0103317379254064,0.9066690786185828,11.3774316635363,-1.097032345426707,0.1108205129786196,-0.8910142568587239
1.54,1.6270283246469095,0.881863575093668,1.578525977345925,0.0207612350072075,0.078302344418465,0.0061577374082638,-0.7480770918326363,-0.875242780583466,-0.2960053230971321,1.634753846608758,0.8871410484994328,1.5804121635900386,-0.9348311460663934,-1.129705926089884,-0.3101001246785203,0.8604295694299864,-0.206821107683941,0.044205980092471,0.8340323163342794,11.307159935021446,-1.0925416003351631,0.1103923788761648,-0.898659584213848
1.56,1.6120280716028208,0.8643620398224457,1.5727901801683453,0.0229833975546927,0.0813292213021997,0.0064733260054547,-0.751741152138411,-0.8750958139420819,-0.2784597743889067,1.616657223696371,0.8651469299865757,1.5738957853457476,-0.9748311466624398,-1.1697059266859304,-0.2891417412971535,0.8962326938227945,-0.1832030152887354,0.0073483320692069,0.8772774354112722,11.282135709515387,-1.0891764394039745,0.1086582893021577,-0.9047887281006114
1.58,1.5969589210540334,0.8468427518439142,1.5674068355455577,0.0262276185738219,0.0832749572473657,0.0068460870005023,-0.7550206190149944,-0.8771568052766466,-0.2607573994767124,1.5975606007690826,0.8421528114588176,1.5679033666859907,-1.014831147258486,-1.2097059272819768,-0.2681833579157868,0.9060583118757346,-0.1639733438291712,-0.103049566728236,0.8851187456097115,11.293299898329678,-1.0861302268818884,0.106025041394285,-0.910023712936138
1.6,1.5818264557513335,0.8292568417251636,1.562381742119188,0.0294052758924015,0.0842960318463071,0.0071972055733946,-0.7581353947266807,-0.8812970709049719,-0.2426469721767701,1.5592078901032838,0.8029849115800819,1.554368965571722,-0.8550206205051105,-0.9532423876521732,-0.210306407637542,0.9418481886611264,-0.1557387855843139,-0.2070132814162628,0.9055213649971152,11.3485159507336,-1.0843412772035412,0.1035693207981759,-0.91371804449667
1.62,1.5673782080444258,0.8123143732482994,1.5578919462317138,0.027161063963892,0.0849381728839592,0.00716126074222,-0.7625429013857206,-0.8993792979580254,-0.2307782638842216,1.5592078901032838,0.8029849115800819,1.554368965571722,-0.8550206205051105,-0.9532423876521732,-0.210306407637542,1.103697520475234,-0.2203753329519941,-0.9041113526526756,0.5934354146274273,11.040677253749893,-1.08145442197288,0.1052988816858735,-0.9156221976269856
1.64,1.552089219878366,0.7942426150849202,1.5534181501373785,0.0192381241429899,0.0853809094728025,0.0067449895010861,-0.7661415655424197,-0.9059304127687552,-0.217135769729002,1.5592078901032838,0.8029849115800819,1.554368965571722,-0.8550206205051105,-0.9532423876521732,-0.210306407637542,0.7777935711859431,-0.1799332078349591,-0.3275557405364837,0.6821247077609782,11.040677253749893,-1.0814660381701515,0.1120888826061256,-0.9160790379455884
1.66,1.5367315148532723,0.7761229191269455,1.549215984548208,0.0107598234228952,0.0851759102056139,0.0063001953834267,-0.7695539729971014,-0.9057036190326974,-0.2037799970226584,1.5506576838982329,0.7934524877035601,1.5522659014953464,-0.8750206208031337,-0.9684595041272784,-0.2002162092697079,0.6893341436106898,-0.1706203727340816,0.0113396868028858,0.6677886353171777,11.087673562794407,-1.081814711357754,0.1190255157935089,-0.9168095855782078
1.68,1.5220773882444902,0.7589515502766839,1.5454665314057563,0.0038454190338785,0.0843230280654344,0.0059758160072356,-0.7729040373473818,-0.9021342947063268,-0.1915790865030876,1.5335572714881305,0.7743876399505167,1.5480597733425956,-0.9150206213991802,-0.9988937370774889,-0.1800358125340397,0.6573150401527681,-0.1675032175140201,0.1784662163185235,0.610045525978542,11.024475323215484,-1.0835986296251825,0.1254531115036453,-0.917266207933088
1.7,1.506581426645021,0.7409684106290529,1.5417693649253834,-0.0017271631604884,0.0826676525480451,0.005779594931519,-0.7765790402796631,-0.8966492478747417,-0.1787852678855735,1.5164568590780283,0.7553227921974732,1.5438536451898448,-0.9550206219952266,-1.0293279700276994,-0.1598554157983715,0.7198492552521152,-0.1837501466140645,0.2742523415792619,0.6396909308757054,11.024475323215484,-1.0856197824596046,0.1304394442128088,-0.917470160975306
1.72,1.4910086945463206,0.7231058223973635,1.538329394230888,-0.005501975492227,0.0801328209859019,0.0057388703006082,-0.7805979842413158,-0.890212110492825,-0.1658476846026405,1.4973564466381235,0.7347362327969192,1.5406565368738774,-0.9950206225912732,-1.05976220297791,-0.1396750190627033,0.7499495140397816,-0.2009471980826349,0.3218568690958323,0.646879164146652,11.026446834418492,-1.088143172195743,0.1339691580221229,-0.9178585758103888
1.74,1.475349519917954,0.7053785128723986,1.5351519056118497,-0.00755533778034,0.0766682998762919,0.0058475763929009,-0.7852506840467697,-0.8832840970936029,-0.1525493822149679,1.4782560341982192,0.7141496733963651,1.53745942855791,-1.0350206231873196,-1.0901964359281209,-0.1194946223270351,0.7849997317411141,-0.2326349902726954,0.3464006699611055,0.6649151193836258,11.039085821512344,-1.0913963995320373,0.136010742337754,-0.9174458378478312
1.76,1.4603718448240008,0.6886625416878686,1.532385771618204,-0.0081986846039052,0.0727625145267833,0.0060628754932654,-0.7912401451632057,-0.8768165426585952,-0.1392884129316625,1.4581556217434135,0.692802258172056,1.5347668301603343,-1.075020623783366,-1.1206306688783312,-0.0993142255913669,0.7961724234860471,-0.2994730558218028,0.3233777217503841,0.6630484641652736,11.06270893461442,-1.0957923643024063,0.1370317225741277,-0.9158124103575828
1.78,1.4444638832044163,0.6711994898134306,1.5297551823406104,-0.0075583345535539,0.068583980020538,0.0063911004476451,-0.7994106290879963,-0.8699509049723979,-0.1244281440681646,1.4370552092737068,0.6706939871239914,1.5325787416811505,-1.1150206243794123,-1.1510649018285417,-0.0791338288556988,0.9147696145735796,-0.4085241962395292,0.343281884309865,0.7430134431748933,11.107394036000189,-1.100095983349954,0.1369257955128156,-0.9143412437541362
1.8,1.428370002830368,0.6538713252713095,1.5274310941255764,-0.0055112853572457,0.0650582304710785,0.0068133084523401,-0.8097189801704137,-0.8633536146811588,-0.1086927146839455,1.4044933517500169,0.6277019445648107,1.5235337751372022,-0.8994106305781124,-0.8976365080992814,-0.1008426829880903,0.996732259850905,-0.5154175541208672,0.3298645145619561,0.786771469210952,11.171592013460211,-1.1036536999221118,0.135644181107353,-0.913826534580872
1.82,1.4119942119012816,0.6364414945976725,1.525268853158099,-0.0093025771881647,0.0645155046279759,0.0068157563628039,-0.8267936615357766,-0.8762637934293572,-0.1083016401992511,1.4044933517500169,0.6277019445648107,1.5235337751372022,-0.8994106305781124,-0.8976365080992814,-0.1008426829880903,1.07047932989349,-0.8537340682681471,-0.6455089374099221,0.0195537242347228,10.325430535909618,-1.10294154689377,0.1387580480458562,-0.9151075719625285
1.84,1.3961485245988914,0.6197906117458676,1.5232214331535108,-0.0186750693195279,0.0672720105662792,0.0063948190144685,-0.8399777021384053,-0.8749539798785947,-0.1071963143329828,1.4044933517500169,0.6277019445648107,1.5235337751372022,-0.8994106305781124,-0.8976365080992814,-0.1008426829880903,0.6647486055272409,-0.6592020301314339,0.0654906775381269,0.0552662933134162,10.325430535909618,-1.0999709142267369,0.1472849957878067,-0.9181784421674176
1.86,1.379228723720552,0.6023802224014738,1.5210868545208056,-0.0290746619055957,0.0719330527015913,0.0058672273000556,-0.8510226165530965,-0.8660497805801758,-0.1063568558527056,1.3954992454442356,0.6187255794838178,1.5225253483073211,-0.9194106308761356,-0.903173628724658,-0.0961255907720754,0.7105976184063794,-0.5522457207345621,0.4452099649209451,0.0419729240138583,10.351525977590429,-1.0949379737691136,0.1563944602189546,-0.9231763036557824
1.88,1.3621165512577929,0.585197392093266,1.5189604894642434,-0.0379775164024951,0.0772675658965337,0.0053991846069187,-0.8594541715748178,-0.8530691822063622,-0.1063310375887753,1.3775110328326734,0.6007728493218322,1.5205084946475595,-0.959410631472182,-0.9142478699754116,-0.0866914063400457,0.7739310705891688,-0.4215777510860663,0.64902991869068,0.0012909131965131,10.314621832266312,-1.089336209772363,0.1643227822342801,-0.9288079940653596
1.9,1.3448605598983543,0.5682983953717904,1.5168288792221296,-0.0447949730738031,0.0824318209145405,0.0050628047394747,-0.8656280167969954,-0.8379944915338857,-0.1068318221383082,1.3595228202211112,0.5828201191598466,1.5184916409877978,-0.9994106320682286,-0.9253221112261648,-0.077257221908016,0.8148825818228425,-0.3086922611088782,0.7537345336238233,-0.0250392274766447,10.297363146606584,-1.084364500409498,0.1702772349832695,-0.9339719597915672
1.92,1.328371184651076,0.552534317195253,1.5147938742988416,-0.0493243048097446,0.0866408298560205,0.0049021929042171,-0.8697789481642163,-0.8226287636035287,-0.1073471362333188,1.3395346075797463,0.5643136769353232,1.5169464965496375,-1.039410632664275,-0.9363963524769184,-0.0678230374759863,0.7962433275413523,-0.2075465683610444,0.7682863965178532,-0.0257657047505292,10.297363146606584,-1.079906129867324,0.1748545070419023,-0.9386116357402252
1.94,1.3109419254999763,0.5362570877047848,1.5126400187149665,-0.0523081174632579,0.0899926215114171,0.0049132159035286,-0.8729277675237173,-0.806237627296934,-0.1080068841287268,1.319546394938382,0.5458072347108,1.515401352111477,-1.0794106332603215,-0.9474705937276716,-0.0583888530439565,0.8351941092728494,-0.1574409679750477,0.8195568153297306,-0.0329873947704013,10.307173725854229,-1.0767155959319976,0.1778967142577519,-0.9422121705126526
1.96,1.293453344685321,0.5203087166191356,1.5104751564257537,-0.053730923254835,0.0922285090641619,0.0051008974475097,-0.8758031224429976,-0.7896206427850275,-0.1084262993007773,1.2985581822821164,0.5270239364550078,1.5140920622841176,-1.119410633856368,-0.9585448349784252,-0.0489546686119268,0.8434567998233774,-0.1437677459640185,0.8308492255953259,-0.0209707586025252,10.329254074362323,-1.0751147694075478,0.1796303756173086,-0.9445226198403024
1.98,1.2759081985207772,0.5046989208331133,1.5083087240387525,-0.0534934956192777,0.093587749360243,0.005463472113301,-0.8786169249116155,-0.772466637781959,-0.1081872275664321,1.2765699696109494,0.5079637821679468,1.5130186270675587,-1.1594106344524142,-0.9696190762291784,-0.0395204841798971,0.8692446825719764,-0.1406901234308921,0.8577002501534259,0.0119535867172636,10.329254074362323,-1.0744953709539302,0.1799780099408555,-0.9461247445781694
2.0,1.2591875867354163,0.4901892068021368,1.5062635100928907,-0.0515383637323059,0.0942814960301328,0.0059705662989471,-0.8813425244957109,-0.7559855201481614,-0.1070997295011146,1.2319773522751964,0.4660755889440153,1.5028993626604306,-0.9786169264017316,-0.7538272632576041,-0.0711855581595412,0.8370167017359381,-0.136279979204773,0.824055881689878,0.0543749032658726,10.372020499957216,-1.074326429994813,0.1788021896148341,-0.9476414068443766
2.02,1.241520812091158,0.4750679480634699,1.5041094495817957,-0.0532696737072787,0.0948247213881018,0.0062603454273235,-0.8852201841841294,-0.7555803290038824,-0.1086063062715745,1.2319773522751964,0.4660755889440153,1.5028993626604306,-0.9786169264017316,-0.7538272632576041,-0.0711855581595412,0.2089868302541877,-0.1938829844209233,0.020259557213953,-0.0753288385229936,10.427029436981684,-1.070041606733532,0.1806329626864219,-0.9485126440929964
2.04,1.2237848363386217,0.4600536810599086,1.5019294552644564,-0.0606611243654312,0.0952419473998347,0.0061812260467049,-0.8881932304762113,-0.744867669083231,-0.1092621153822919,1.2319773522751964,0.4660755889440153,1.5028993626604306,-0.9786169264017316,-0.7538272632576041,-0.0711855581595412,0.5568441712456302,-0.1486523146040974,0.5356329960325701,-0.0327904555358707,10.218489482729638,-1.0714922208003832,0.1873111111766717,-0.9477926805808714
2.06,1.2068843891026748,0.4460631190382825,1.4998544974776735,-0.0683144421936304,0.0951755910339694,0.0061131218138507,-0.8907271961475183,-0.7283779795720284,-0.1091374560505381,1.2221911830111791,0.4585373163114393,1.502187507078835,-0.9986169266997548,-0.750099388352733,-0.063785224278163,0.83418580386539,-0.1266982835653463,0.8244844755601277,0.0062329665876922,10.31047965068774,-1.072288004501727,0.1950078964181317,-0.9472611288952136
2.08,1.1890431517724898,0.4317115785678301,1.4976801802511774,-0.0753139444655414,0.094545453135311,0.0061817860655164,-0.8933217138298247,-0.707795436864441,-0.1082536421552187,1.2026188444831445,0.4434607710462872,1.5007637959156443,-1.0386169272958012,-0.7426436385429911,-0.0489845565154067,1.0382120608466994,-0.1297258841153226,1.0291271353793707,0.0441906947659685,10.368108982895135,-1.0731599541955077,0.2018379722287466,-0.9467321289026877
2.1,1.171149362431781,0.4177941340104529,1.4955335337520603,-0.0806525434989526,0.0932954237594791,0.0064432817479749,-0.895975283688491,-0.6852615069283573,-0.1063922810749761,1.18304650595511,0.4283842257811351,1.4993400847524534,-1.0786169278918476,-0.7351878887332491,-0.0341838887526503,1.138292686911185,-0.1326784929333135,1.126696496804186,0.0930680540121284,10.428965616362802,-1.0743802016080604,0.2070660816893899,-0.9463140084363708
2.12,1.1532019386238133,0.4043407731999771,1.4934379914798706,-0.0841767319084896,0.0913496754575406,0.0069159662050312,-0.8987187698129847,-0.6616847198133798,-0.1032278301467749,1.1614741673972728,0.4136804680064702,1.4986564069774004,-1.118616928487894,-0.7277321389235072,-0.019383220989894,1.1972941957360044,-0.1371743062246855,1.178839355748873,0.1582225464100611,10.496733403710095,-1.0757922360543082,0.2111884395935141,-0.9467381617701476
2.14,1.1360981002590078,0.3920016940086255,1.4915178182155495,-0.0859887717369749,0.0888055306604587,0.0075531776404146,-0.9016369508077494,-0.6387298632655355,-0.0990283947852348,1.1399018288394358,0.3989767102318051,1.4979727292023473,-1.1586169290839403,-0.7202763891137652,-0.0045825532271376,1.175878901934711,-0.1459090497382353,1.1477428273922174,0.2099717680770073,10.576118772430164,-1.0781690793609864,0.2139994068871867,-0.9472878766058256
2.16,1.1180226456995768,0.3794881484024343,1.4895960422860652,-0.0862903022894664,0.0855660343467547,0.0084012533476719,-0.9058849862319278,-0.6140060166661274,-0.09329654489959,1.1173294902666977,0.3844593462023837,1.497659068121363,-1.198616929679987,-0.7128206393040232,0.0102181145356186,1.286631744855247,-0.2124017712089199,1.2361923299704036,0.2865924942822381,10.65370057527798,-1.0816740589240093,0.2154276755454681,-0.9474400705111364
2.18,1.0998452033897272,0.3674791400405489,1.4878051880447556,-0.0845096866351793,0.0822733733623552,0.009406198423044,-0.9117495297783704,-0.5884972192416019,-0.0860550282895162,1.0937571516790583,0.3701283759182058,1.497715423734448,-1.2386169302760333,-0.7053648894942812,0.025018782298375,1.357876264491333,-0.2932271773221251,1.275439871226275,0.3620758305036921,10.834839898621794,-1.0851433957872283,0.2151410532449842,-0.9480343835090896
2.2,1.0824520654958327,0.3565362201409465,1.486252649747018,-0.0807905066896699,0.0796833216021191,0.0104521033881892,-0.9188682745080956,-0.5654034485300587,-0.0776802972542897,1.0542577269008089,0.3380542790784688,1.4835024366302798,-0.9383328418576808,-0.5758161755347676,-0.0481456844508244,1.2788030459346609,-0.3559372364862645,1.1546885355771586,0.4187365517613242,10.927242159072192,-1.0868885501382632,0.21292680764607,-0.9500524709499344
2.22,1.0638810919551198,0.3454477253208492,1.4846744462756194,-0.0758227929613359,0.0810352275984835,0.0112965845732992,-0.9373568913630264,-0.545040976621731,-0.081189600672487,1.0542577269008089,0.3380542790784688,1.4835024366302798,-0.9383328418576808,-0.5758161755347676,-0.0481456844508244,1.3863390872247283,-0.9244308427465376,1.018123595416387,-0.1754651709098657,10.927242159072192,-1.0913213191070097,0.209267446353374,-0.9484945028411164
2.24,1.0449908729378623,0.3347432672916121,1.483023236825579,-0.0705770216077324,0.0880146377940556,0.011753502865271,-0.9499990863613376,-0.526590974213646,-0.0835606741132901,1.0542577269008089,0.3380542790784688,1.4835024366302798,-0.9383328418576808,-0.5758161755347676,-0.0481456844508244,1.124555103691397,-0.6321097499155548,0.9225001204042516,-0.1185536720401544,10.173479558935467,-1.080206472308143,0.2056445681021205,-0.9629464289936472
2.26,1.0259087587000708,0.3243919981088509,1.48135203181647,-0.0654994323923445,0.0977159087575267,0.0120494096149261,-0.9570852578606894,-0.5095448645229295,-0.0834740138150752,1.0448743984822315,0.3322961173231212,1.4830209797857716,-0.9436495042735428,-0.5732799667934008,-0.0405638156830861,0.9230265328167097,-0.3543085749675989,0.8523054845358258,0.0043330149107428,10.285994754815874,-1.0687520748673098,0.2021697448146531,-0.9776049435502934
2.28,1.0076915962558803,0.3148636553858858,1.479781260976698,-0.061009092143247,0.1079817529356216,0.0122853747988773,-0.9598058437638112,-0.4943302387905775,-0.0819092555549482,1.026107741645078,0.3207797938124258,1.482058066096755,-0.954282829105267,-0.568207549310667,-0.0254000781476094,0.7767478552343206,-0.1360292951560926,0.7607312866175969,0.0782379130063508,10.40204387618178,-1.0569805076968193,0.1987391222669045,-0.9931022376481308
2.3000000000000003,0.98849663857619,0.305137159389809,1.4781712015075792,-0.0566742072161944,0.1190496549592629,0.0125392401802829,-0.95918750984279,-0.4791677102464161,-0.0791590726845637,1.0073410848079245,0.3092634703017304,1.4810951524077385,-0.9649161539369911,-0.5631351318279333,-0.0102363406121327,0.7711162598968959,0.0309166960510587,0.7581264272080696,0.1375091435192266,10.492746826041184,-1.04571217874357,0.1956083811700694,-1.008171823293898
2.32,0.9693470083367096,0.2957059560789794,1.47662561954904,-0.0527284713897791,0.1299249188107646,0.0128224070058835,-0.9555038814120232,-0.4647430925877542,-0.0755858604915059,0.9880427617291848,0.2980007676651718,1.4808904255954958,-0.9755494787687152,-0.5580627143451996,0.0049273969233439,0.765517077522038,0.1841814215383486,0.7212308829330966,0.1786606096528864,10.571326118887557,-1.0352571554556813,0.1927844710842026,-1.0224163714997898
2.34,0.9502991712330956,0.2865559707574269,1.4751531561441416,-0.0491209257763252,0.140370834959525,0.0131445192608547,-0.9491921460962351,-0.4510117166964129,-0.0718846050013115,0.9687444386504448,0.2867380650286131,1.480685698783253,-0.9861828036004396,-0.5529902968624658,0.0200911344588206,0.7779588336948945,0.315586765789394,0.6865687945670662,0.185062774509722,10.63113322893514,-1.0261543197330392,0.1903620985767777,-1.035129024799671
2.36,0.932343315813448,0.2781122848557069,1.4738237042795148,-0.0459535896899929,0.1497971481430906,0.0134887576453422,-0.9409979871689936,-0.4385243894358497,-0.0682805553289507,0.949180282450912,0.2756021728291228,1.4808600654093975,-0.9968161284321636,-0.5479178793797321,0.0352548719942972,0.7682232043458116,0.4097079463620756,0.624366363028156,0.1802024836180402,10.656118018476263,-1.0173016096041068,0.1880350929419652,-1.0476609489708717
2.38,0.9136330279884683,0.2694743719855927,1.4725005547528671,-0.0428572004451334,0.1591551785019091,0.0138892251572874,-0.930227122960425,-0.4259731158316762,-0.0642391212378369,0.929350293130586,0.2645930910667008,1.481413525473929,-1.0074494532638878,-0.5428454618969983,0.0504186095297739,0.8512919217270112,0.5385432104284382,0.6275636802086759,0.2020717045556883,10.68143460851661,-1.0092589471311195,0.1859268799956301,-1.0594867087126296
2.4,0.8951597306160183,0.2610818160070594,1.471260862268552,-0.0399780933572959,0.1679281791833915,0.0143246526787355,-0.9174275482337564,-0.4139597470306422,-0.0599493750609937,0.8671216718404471,0.2481757161940089,1.4692885986909752,-0.8945224245468145,-0.4228227758948387,-0.0148205116484986,0.9035375827752944,0.6399787363334242,0.6006684400516993,0.2144873088421633,10.71842224410102,-1.0023512949741455,0.1841053086798894,-1.0700546494888
2.42,0.8778405352810905,0.2533182605725636,1.4700377048637323,-0.0375140863945033,0.1757958417449256,0.0147574483620572,-0.9061117743934196,-0.4038251239567988,-0.0690500481764696,0.8671216718404471,0.2481757161940089,1.4692885986909752,-0.8945224245468145,-0.4228227758948387,-0.0148205116484986,0.8854089078065494,0.5657886920168387,0.5067311536921693,-0.4550336557737952,10.753641181749115,-0.9996762233551924,0.1825649727001259,-1.078510963017349
2.44,0.8598628052586504,0.245354397764872,1.4685781955080062,-0.03511713169239,0.1836252134069335,0.0152327354613921,-0.8920325307723649,-0.3931473129608484,-0.0762455215569622,0.8671216718404471,0.2481757161940089,1.4692885986909752,-0.8945224245468145,-0.4228227758948387,-0.0148205116484986,0.9539596241136624,0.7039621810527419,0.5338905497975222,-0.3597736690246336,9.930506369541945,-0.9919828502205512,0.180821592282056,-1.0860105105298363
2.46,0.8421925920238014,0.2376016270690917,1.4670187785869253,-0.0328152617124685,0.190943715711358,0.0157335236630941,-0.8755335122153202,-0.3827243429023846,-0.0793884726608506,0.8581764475949789,0.2439474884350606,1.4691403935744902,-0.8873814848640924,-0.4221927079074711,-0.004936789730631,0.9883497101567494,0.824950927852236,0.521148502923191,-0.1571475551944166,10.14298278593651,-0.985087875117014,0.1792272026444308,-1.0936372122349225
2.48,0.824875120701057,0.2300544661424749,1.4654309554969676,-0.0305881774389604,0.1977443860061264,0.0162578658679654,-0.8568914087633288,-0.3725796004716064,-0.0792800994743296,0.8402859991040427,0.2354910329171638,1.46884398334152,-0.8730996054986483,-0.4209325719327361,0.0148306541051043,1.0611969242901336,0.9321051725995676,0.5072371215389088,0.00541865932605,10.584141459476086,-0.9796044105887408,0.177849901760466,-1.100988536801104
2.5,0.8087873131637309,0.2230696587263251,1.4639506563908324,-0.0285272347254311,0.2037406175047615,0.0167752969107476,-0.8373767735930474,-0.3632304017430515,-0.0765833269588263,0.8223955506131063,0.227034577399267,1.4685475731085502,-0.8588177261332041,-0.4196724359580011,0.0345980979408396,1.090299367943926,0.97573175851407,0.4674599364277443,0.1348386257751632,10.761381898842046,-0.975084896795446,0.1765284369245295,-1.1087201108467366
2.52,0.7922709901637209,0.2159054375969094,1.462470333842337,-0.0264170131751239,0.2095902306772345,0.0173364357168814,-0.8151295162431793,-0.3537389833640263,-0.0715145192038504,0.8052191960904422,0.218641128680107,1.469239535067367,-0.8445358467677598,-0.4184122999832661,0.0543655417765749,1.2356377852083733,1.112362867493405,0.4745709189512614,0.253440387748794,10.761381898842046,-0.9714506748407196,0.1753115836123667,-1.1164640761949964
2.54,0.7762268298684931,0.2089278469125771,1.4611081289243877,-0.0243575924943574,0.2146502576796526,0.0179202040427347,-0.7903978093024137,-0.344564087666032,-0.0649907256900148,0.7880428415677782,0.2102476799609469,1.469931497026184,-0.8302539674023157,-0.4171521640085311,0.0741329856123103,1.3586720732797832,1.2365853470382826,0.4587447848997145,0.3261896756917813,10.918343253668354,-0.9687895909163224,0.1742062710957121,-1.124481840055494
2.56,0.7614653758929328,0.2024658171772535,1.459945945659652,-0.022442878744102,0.2181595841074992,0.0185056167650345,-0.7647925982227083,-0.3361681238886784,-0.0576726611942794,0.7712235340292503,0.2018857346411553,1.471117645080894,-0.8159720880368715,-0.415892028033796,0.0939004294480456,1.3961313603585472,1.2802605539852685,0.4197981888676816,0.365903224786767,11.114174082144928,-0.967912064264686,0.1732191251504037,-1.1311222609697136
2.58,0.7464657611839626,0.1958320923407032,1.4588869566745255,-0.020482465008079,0.220104639044884,0.0191554110382447,-0.7366216887867193,-0.3277007451843234,-0.0485312214796207,0.7547612734748583,0.193555292720732,1.4727979792314976,-0.8016902086714274,-0.414631892059061,0.1136678732837809,1.5401806392680024,1.4085454717994494,0.4233689352177494,0.457071985732935,11.114174082144928,-0.9700389828699943,0.1723155468541836,-1.1366448688312318
2.6,0.7320392013998329,0.1893640642220932,1.4580278155870932,-0.0185862033835287,0.2200553063490838,0.0198350551163948,-0.707530023787177,-0.3195773339349703,-0.0377599239764618,0.7096346767446267,0.179447055081487,1.4564603956005444,-0.7141062353884916,-0.3231773663874479,0.0115170718427039,1.603383635217465,1.454583249977115,0.4061705624676531,0.5385648751579489,11.223208320849151,-0.9744603029359572,0.1715238317526228,-1.141120165701246
2.62,0.7181905473760596,0.1830219230283289,1.4571977370099534,-0.0176976177638359,0.2166076532243427,0.0204964183112179,-0.6791039075608316,-0.3148531670570076,-0.0467362756167931,0.7096346767446267,0.179447055081487,1.4564603956005444,-0.7141062353884916,-0.3231773663874479,0.0115170718427039,1.5090864166569584,1.4213058113172694,0.2362083438981338,-0.4488175820165679,11.334527102442737,-0.9850347948440824,0.1719925455134422,-1.1431661404076772
2.64,0.705544638037811,0.177094115068547,1.4562631321955637,-0.0182019466388864,0.2092522754681598,0.021097473443928,-0.6541259529302289,-0.3093091676538892,-0.0509659383234859,0.7096346767446267,0.179447055081487,1.4564603956005444,-0.7141062353884916,-0.3231773663874479,0.0115170718427039,1.2966535712388758,1.2488977315301353,0.2771999701559224,-0.2114831353346363,10.058012645565212,-0.999762894896018,0.1734451657938781,-1.1321952743487005
