t,x,y,z,roll,pitch,yaw,v_x,v_y,v_z,ref_x,ref_y,ref_z,ref_v_x,ref_v_y,ref_v_z,a_com,a_x,a_y,a_z,thrust,wind_x,wind_y,wind_z
0.0,1.9452718354457692,-2.4484068236179044,2.087362009428712,0.0108663399922276,0.136137675635956,0.0259224510937355,0.0033152030205206,-0.0020532665428612,-0.0023844977034456,1.94537577365814,-2.448558372974228,2.087289332816129,-0.0965732612155554,0.0957263434953971,0.006569313936171,0.2285404989331218,0.165760151026033,-0.102663327143062,-0.119224885172281,10.543028974749175,-1.2859780347165817,0.1656826683431942,-1.161083498679219
0.02,1.9455543962119384,-2.448684191273569,2.087349160945876,0.0019886238474267,0.1297992070288824,0.0252785244081021,0.0241615735862727,-0.0212932926186906,0.0015028739107214,1.94537577365814,-2.448558372974228,2.087289332816129,-0.0965732612155554,0.0957263434953971,0.006569313936171,1.43166112194007,1.0423185282876029,-0.9620013037914688,0.1943685807083543,10.54260128783426,-1.2650324778622088,0.1717359654728519,-1.13857403213264
0.04,1.946142233672536,-2.4490901390924376,2.087403372739776,-0.013114720953577,0.1134956846936438,0.0243816834304419,0.035077302621233,-0.0197787859664521,0.0041101407583616,1.94537577365814,-2.448558372974228,2.087289332816129,-0.0965732612155554,0.0957263434953971,0.006569313936171,0.5662259071676998,0.5457864517480155,0.0757253326119228,0.1303633423820109,10.921734325165744,-1.3043920993781697,0.1903631319347443,-1.1293561295834773
0.06,1.9468543626120551,-2.449401041343472,2.0875215659000537,-0.0294415496331519,0.0903521013769392,0.0238758967841022,0.0343217078244398,-0.0109602682888498,0.0076444987533194,1.944410041045984,-2.447601109539274,2.0873550259554907,-0.1165732615135786,0.1157263437934203,0.0083655440511675,0.4765208913669125,-0.0377797398396599,0.4409258838801144,0.1767178997478874,10.651922718542664,-1.3419427304644624,0.2087184819032645,-1.1067109706345208
0.08,1.9474254537838611,-2.449492030792357,2.0877182971601265,-0.0451135853954139,0.0651840299264719,0.0239392557218162,0.0219235869081795,0.0017955862518084,0.0118577139024752,1.942478575821673,-2.445686582669366,2.087486412234214,-0.156573262109625,0.1557263443894667,0.0119580042811603,0.9140246293313457,-0.6199060458130158,0.6377927270329161,0.2106607574577931,10.634269448405576,-1.3749977242684142,0.2257478557247706,-1.0792026328289432
0.1,1.9476359613935907,-2.4492787257021256,2.0880024195029603,-0.0595328569479772,0.0413182733031917,0.0244784549593148,-0.0006260810548969,0.0189170272864337,0.0163012797617127,1.940547110597362,-2.443772055799458,2.0876177985129374,-0.1965732627056715,0.1957263449855132,0.0155504645111532,1.4329833790841124,-1.127483398153824,0.8560720517312638,0.2221782929618717,10.664451441500203,-1.3995242095577285,0.2402009788122971,-1.0535722885976422
0.12,1.947339951835156,-2.448716722916187,2.088354140629672,-0.0713646470390532,0.0219007328524894,0.025269555418044,-0.0294180724790522,0.0390472819029259,0.0204821727736933,1.9366156453432488,-2.4398575288997475,2.0879288078031606,-0.2365732633017179,0.2357263455815596,0.0191429247411461,1.7689585830871393,-1.4395995712077625,1.006512730824611,0.2090446505990288,10.718935283055544,-1.416506614442144,0.2530212132165875,-1.0308204441036306
0.14,1.9463844102263077,-2.4476891304982686,2.0888131463792434,-0.0816317064269822,0.0060337482364651,0.0261833437402482,-0.0646403003470334,0.0624488721205549,0.0252293300910291,1.9326841800891352,-2.435943002000037,2.088239817093384,-0.2765732638977645,0.2757263461776061,0.0227353849711389,2.1276602544187844,-1.7611113933990636,1.170079510881452,0.2373578658667918,10.786025559561494,-1.4246673230334277,0.2632359883553761,-1.0136822076402132
0.16,1.9446776512134225,-2.4461655770784536,2.089369025716417,-0.08947166259501,-0.0043855040201542,0.0269827227109325,-0.1043000292550623,0.0883268434840828,0.0301587741255427,1.9277527148201208,-2.431028475085426,2.0886406378893567,-0.3165732644938109,0.3157263467736526,0.0263278452011318,2.380579192885268,-1.9829864454014443,1.2938985681763908,0.2464722017256806,10.868435652761036,-1.4277955357471257,0.2712579491386315,-1.0047091483758237
0.18,1.9421386871427109,-2.4441082448536866,2.090027030614089,-0.0947338445098129,-0.0081765605341047,0.0274425198209948,-0.1468686242873305,0.1154619043057947,0.0355037302073102,1.9218212495362048,-2.4251139481559134,2.08913127019108,-0.3565732650898573,0.355726347369699,0.0299203054311247,2.538190972097687,-2.1284297516134103,1.356753041085598,0.267247804088376,10.962388884738177,-1.4210570212969265,0.2762857562257025,-1.0041772637148232
0.2,1.9389550318555264,-2.441646612636893,2.090758552889531,-0.097648963321047,-0.0059956271403713,0.0274948722859162,-0.1853730488150094,0.1417592437665596,0.0413525170203753,1.9347952559283443,-2.4383351496383967,2.091802217124455,-0.2468686257774467,0.2154619057959109,0.0418897019993525,2.3496537394407206,-1.9252212263839428,1.3148669730382458,0.2924393406532538,11.026378811890028,-1.4045799091856672,0.2791902362641965,-1.0112093899961498
0.22,1.9348115956853489,-2.438415253048048,2.0915596553593536,-0.0953400319608895,0.0020953672532545,0.0273675772886771,-0.2260825660117298,0.1786213924949932,0.0382888944649039,1.9347952559283443,-2.4383351496383967,2.091802217124455,-0.2468686257774467,0.2154619057959109,0.0418897019993525,2.7502129837658127,-2.03547585983602,1.8431074364216773,-0.153181127773571,11.051449339232022,-1.394556524824978,0.2786316579679487,-1.031740370067446
0.24,1.929931909156161,-2.434546320160817,2.0923168248936297,-0.087615190909267,0.0149490229777804,0.0272282900621504,-0.2589979675913247,0.2055026272917665,0.0378725119544246,1.9347952559283443,-2.4383351496383967,2.091802217124455,-0.2468686257774467,0.2154619057959109,0.0418897019993525,2.124969305507898,-1.645770078979747,1.3440617398386632,-0.0208191255239631,10.54547123939392,-1.3659398566827967,0.2705253525586731,-1.045686864506905
0.26,1.9247560370801051,-2.430440289813437,2.0930481265559173,-0.0796138725889313,0.0289782965321344,0.0270884314049743,-0.283682182046562,0.2253229567178597,0.0391221505233146,1.9323265696705696,-2.4361805305804376,2.0922211141444484,-0.2668686260754699,0.2354619060939341,0.0431668963577609,1.5840750442954556,-1.2342107227618635,0.991016471304662,0.0624819284444997,10.615226297751178,-1.3388434012445565,0.2619613740600367,-1.066108762981792
0.28,1.918868410416669,-2.4257472703427028,2.093849086421467,-0.0721234988119676,0.0437394129655373,0.0269919387937288,-0.3033453693987324,0.2430476225550273,0.0408667768639447,1.927389197155021,-2.4318712924645194,2.0930589081844357,-0.3068686266715164,0.2754619066899805,0.0457212850745778,1.3265071022748334,-0.9831593676085216,0.8862332918583778,0.0872313170315025,10.611423457878118,-1.3146455909830466,0.2545794515067986,-1.0876253389048094
0.3,1.9126452259036564,-2.420718917638112,2.0946822453626672,-0.0660833826855529,0.0570061949300353,0.0269960919167418,-0.3177516657211911,0.2590908733047455,0.042283319744826,1.922451824639472,-2.427562054348601,2.0938967022244226,-0.3468686272675628,0.315461907286027,0.0482756737913947,1.080432624093464,-0.7203148161229328,0.8021625374859106,0.0708271440440642,10.611423457878118,-1.2952140224549773,0.2488657963131021,-1.1074861029504257
0.32,1.9061790270865957,-2.415381286836267,2.0955380371107086,-0.0615355698686105,0.067766884561226,0.0271231874421967,-0.3282042713621342,0.2741881407235798,0.0431477738307937,1.9155144520941207,-2.421252816202881,2.0948622157002506,-0.3868686278636092,0.3554619078820734,0.0508300625082116,0.9191459746248382,-0.5226302820471568,0.7548633709417135,0.0432227042983894,10.591591992549183,-1.2814722347952494,0.2450000288165045,-1.1234374707021253
0.34,1.8998670354963076,-2.4100351463636462,2.09635938741579,-0.0583965790049683,0.0752761227664513,0.0273597190022353,-0.3358461481894365,0.2880635075299439,0.043211049076773,1.908577079548769,-2.4149435780571604,2.0958277291760785,-0.4268686284596558,0.3954619084781199,0.0533844512250285,0.7920354935411119,-0.3820938413651137,0.6937683403182071,0.0031637622989636,10.57437304333962,-1.2723099072458597,0.2423630396796955,-1.1365840038700084
0.36,1.893073110178572,-2.40411696039203,2.0972191629258914,-0.0558758576692786,0.0804520520059847,0.0277276969226814,-0.3432470311319331,0.3030617007435958,0.042722537773671,1.900639706988517,-2.4076343398965387,2.096857102369827,-0.4668686290557022,0.4354619090741664,0.0559388399418454,0.8365965444822113,-0.3700441471248317,0.7499096606825961,-0.0244255651550985,10.544051181012946,-1.2678758628960924,0.2407297191831743,-1.1465039007580322
0.38,1.8861322955230708,-2.397897667248309,2.0980662838384183,-0.0537228212329708,0.0832824162323443,0.0282057005001912,-0.3506457258650166,0.3180920411013446,0.0419974778517722,1.8917023344133637,-2.399325101721016,2.097950335281496,-0.5068686296517486,0.4754619096702127,0.0584932286586624,0.8384174481030793,-0.3699347366541733,0.7515170178874375,-0.0362529960949431,10.529311173913811,-1.2662461157512794,0.239538926020125,-1.1531516349833444
0.4,1.8793963385365315,-2.391712642021873,2.0988576538547585,-0.0518180511092613,0.0843311565077078,0.0287370068338072,-0.3581668792209269,0.3321601575458891,0.041333339634972,1.86860000922982,-2.381993065193241,2.100166157731007,-0.4506457273551327,0.4180920425914607,0.0282827480435012,0.7983118558423764,-0.3760576677955152,0.7034058222272266,-0.0332069108400109,10.528640562975852,-1.2662522831217145,0.2384072023142308,-1.157900987854868
0.42,1.8721312848912968,-2.384909149531077,2.099615482785151,-0.0495315109848276,0.0844321669666777,0.0293629938273367,-0.368041825308246,0.347178282002755,0.0341874301992271,1.86860000922982,-2.381993065193241,2.100166157731007,-0.4506457273551327,0.4180920425914607,0.0282827480435012,0.967112511672296,-0.4937473043659518,0.750906222843295,-0.3572954717872434,10.537923888566183,-1.271484649584827,0.2373753814394319,-1.1623255161375912
0.44,1.8646711493594772,-2.377835892532489,2.1002212943776484,-0.0475038477978918,0.0838153248009631,0.0299985725077462,-0.3775151861346677,0.3595729046827579,0.0267943851559998,1.86860000922982,-2.381993065193241,2.100166157731007,-0.4506457273551327,0.4180920425914607,0.0282827480435012,0.8631748834077755,-0.4736680413210875,0.6197311340001427,-0.3696522521613638,10.145751364993885,-1.2700433339492592,0.2354150696724097,-1.1586061327939898
0.46,1.8570196879210847,-2.370520830545807,2.1006844394039943,-0.0463732795753743,0.0823451760078905,0.0306039551364738,-0.3872308355052945,0.371390301708434,0.0199110950284785,1.8640935519562687,-2.377812144767327,2.1004489852114423,-0.470645727653156,0.4380920428894839,0.0255398020818471,0.8387854286631561,-0.48578246853134,0.5908698512838095,-0.3441645063760656,10.160027423872634,-1.2701403915825067,0.2345259997669393,-1.1544055237345754
0.48,1.849566579674723,-2.3633584864800707,2.1010026636924057,-0.0463494802888287,0.0802543106834357,0.031132309102887,-0.3969051753770075,0.3820962193867454,0.0139239524404385,1.8550806374091664,-2.3694503039154977,2.101014640172312,-0.5106457282492024,0.4780920434855303,0.0200539101585387,0.7811136307505387,-0.4837169935856478,0.5352958839155653,-0.299357129401999,10.184168882860831,-1.270610503929337,0.2348265265455983,-1.1503787916289654
0.5,1.8415159582405156,-2.3556011541458157,2.101219344903105,-0.0476300357261836,0.0774513929706962,0.0316241422567211,-0.4077472146281831,0.393201264890237,0.008076803728936,1.8460677228620637,-2.3610884630636684,2.101580295133182,-0.5506457288452489,0.5180920440815768,0.0145680182352303,0.8292481516607061,-0.5421019625587831,0.5552522751745809,-0.2923574355751274,10.210682888409792,-1.2714726881012446,0.2365533139356778,-1.1458893304979227
0.52,1.833238165483592,-2.347616014469557,2.101324781881788,-0.0502882762330953,0.0742344656065059,0.0320457579190175,-0.4196136743792996,0.4050752285130974,0.0027702390948584,1.8350548082851583,-2.350726622182037,2.1018716554978867,-0.5906457294412953,0.5580920446776233,0.0090821263119219,0.8802890254875435,-0.5933229875558249,0.5936981811430209,-0.2653282317038806,10.26441569634244,-1.2730625142833454,0.2398184648819972,-1.1415503101634128
0.54,1.824708947239089,-2.339368924642568,2.101327405388849,-0.0535826451921898,0.0709507671282561,0.0324387699767021,-0.4328204747098875,0.4191955985085994,-0.0022518675312398,1.8240418937082532,-2.3403647813004054,2.1021630158625912,-0.6306457300373418,0.5980920452736698,0.0035962343886136,0.9987817313429772,-0.6603400165293954,0.706018499775099,-0.2511053313049152,10.26441569634244,-1.2750677673868216,0.2436344637092257,-1.1378570247814943
0.56,1.8163423505784275,-2.3312489960634903,2.101239165652674,-0.0563274891081029,0.0683303504069529,0.032823525208422,-0.4472665988125,0.4346280376144451,-0.0067761392758494,1.8120289791164472,-2.329002940403873,2.102317228929213,-0.6706457306333882,0.6380920458697161,-0.0018896575346947,1.0808789399867924,-0.7223062051306239,0.7716219552922843,-0.2262135872304776,10.28518546862415,-1.2772149609244967,0.2473531437526447,-1.135290418575407
0.58,1.807221982457763,-2.322377382046137,2.1010555752235285,-0.0583932038926809,0.0668753179751516,0.0332187435747939,-0.4640014078297952,0.4515516465102359,-0.0113229579746695,1.79901606450974,-2.316641099492439,2.1023342946977523,-0.7106457312294346,0.6780920464657626,-0.0073755494580031,1.2115443978482336,-0.8367404508647619,0.8461804447895405,-0.2273409349410031,10.314351908980823,-1.2762292935957025,0.2499885979973896,-1.1339808614983982
0.6,1.7977641221378269,-2.3131595105652543,2.100782662258277,-0.0594444267146562,0.0671014059335652,0.0335867381404056,-0.4807518650263526,0.4692831806828421,-0.0157244812328245,1.7840219120662733,-2.299799799720625,2.100489427324795,-0.5640014093199114,0.551551648000352,-0.0436573713541002,1.23931284125527,-0.8375228598278689,0.8865767086303128,-0.2200761629077519,10.34602000535051,-1.2722763473367142,0.2514817182659456,-1.1352414216510966
0.62,1.7879368275755283,-2.3035259147521834,2.100381435063808,-0.0572967009163792,0.0699046960259275,0.0340221621295899,-0.5005035423647607,0.4922276434181015,-0.0240936885625269,1.7840219120662733,-2.299799799720625,2.100489427324795,-0.5640014093199114,0.551551648000352,-0.0436573713541002,1.570525994068414,-0.9875838669204025,1.1472231367629675,-0.4184603664851217,10.34602000535051,-1.27172362138481,0.2505699207654359,-1.1427548567992396
0.64,1.7782715275668362,-2.29400687354674,2.099842333203544,-0.0525468921242745,0.0748336241550187,0.0345002493455912,-0.5155838077664915,0.5081602863194937,-0.0321918884888735,1.7840219120662733,-2.299799799720625,2.100489427324795,-0.5640014093199114,0.551551648000352,-0.0436573713541002,1.1692351735825044,-0.7540132700865398,0.7966321450696118,-0.4049099963173305,10.156406713670547,-1.2596070134872306,0.2451044983632517,-1.1471314795517031
0.66,1.7678223977555063,-2.2837052604997825,2.099100633082756,-0.0474593911651973,0.0809466532695706,0.0349771311744559,-0.528282319502039,0.5211775604804249,-0.0416124357510362,1.778381897973074,-2.2942842832406214,2.100052853611254,-0.5840014096179346,0.5715516482983751,-0.0501242540299864,1.0240218962470022,-0.634925586777374,0.6508637080465562,-0.4710273631081327,10.036104590718423,-1.2480271834349077,0.2396280488216773,-1.152797461157587
0.68,1.7571485759386134,-2.2731638063011457,2.0981591840603278,-0.0432019906019501,0.0870375795514501,0.0354132032899332,-0.5383097534652275,0.532454250321947,-0.0521211157934571,1.767101869786676,-2.2832532502806147,2.099179706184172,-0.624001410213981,0.6115516488944216,-0.0630580193817587,0.9194366779473866,-0.5013716981594252,0.5638344920761096,-0.5254340021210429,10.036104590718423,-1.2383233228646602,0.2352930053120794,-1.1574593407596747
0.7000000000000001,1.746297337608661,-2.26240645878044,2.0969976878639445,-0.0399948699807681,0.0924272639473304,0.0358155858901634,-0.5462392278770406,0.5428912458595846,-0.0635513922939589,1.7558218416002778,-2.2722222173206075,2.09830655875709,-0.6640014108100275,0.6515516494904681,-0.075991784733531,0.8695669341376039,-0.3964737205906565,0.5218497768818775,-0.5715138250250894,9.922107156591665,-1.2298681740999189,0.2318393695040278,-1.160600778615824
0.72,1.7358578074920403,-2.2519984881795376,2.095675575923865,-0.0379172972995426,0.096483343369382,0.0361741591670728,-0.5523158048407804,0.552405134289094,-0.0750551795662202,1.742541813384077,-2.259191184330798,2.096786723062419,-0.704001411406074,0.6915516500865145,-0.0889255500853033,0.8058783752075229,-0.3038288481869877,0.4756944214754699,-0.5751893636130656,9.922107156591665,-1.223574486739945,0.2295513634032963,-1.1618437694662362
0.74,1.7247533419651244,-2.240850381728688,2.09404246218816,-0.0366787069204522,0.0994563934671271,0.0365300225929987,-0.5578531400952492,0.5619909561835955,-0.0876748955751251,1.7292617851678769,-2.246160151340989,2.0952668873677487,-0.7440014120021204,0.731551650682561,-0.1018593154370756,0.8393558471514029,-0.2768667627234433,0.4792910947250761,-0.6309858004452461,9.888744699928791,-1.2194545938715604,0.2283567628037103,-1.161175461800934
0.76,1.713538033088554,-2.229505071402475,2.092154893625572,-0.0362580568957833,0.1012252510999093,0.0368649742148429,-0.5634568307690794,0.5720735591000345,-0.100448966141515,1.714981756936775,-2.232129118336278,2.093423707539284,-0.7840014125981668,0.7715516512786074,-0.1147930807888479,0.8605770005840047,-0.2801845336915076,0.5041301458219516,-0.6387035283194953,9.853680269075085,-1.2175421995660445,0.2281349629634364,-1.1595965019721346
0.78,1.702777453341029,-2.218536039284986,2.0901259672752843,-0.0362950191751982,0.1021006560072815,0.0371735633153423,-0.5690047494632835,0.582030555497309,-0.1124756863006448,1.699701728690772,-2.217098085316666,2.0912571835770244,-0.8240014131942133,0.8115516518746538,-0.1277268461406202,0.8284974002355932,-0.2773959347102062,0.4978498198637215,-0.6013360079564899,9.85971255755794,-1.2163676883770551,0.2283877384532351,-1.1569729142813423
0.8,1.6913334585239082,-2.2067824190342487,2.0877443181935926,-0.036595235854637,0.1024643974732936,0.0374917915388156,-0.5751381984746875,0.5927946592450973,-0.125046702311297,1.6743272158678648,-2.189434511510121,2.084502182960252,-0.6690047509533996,0.6820305569874251,-0.1356340316721296,0.8824901838104479,-0.3066724505702001,0.5382051873894178,-0.6285508005326124,9.85971255755794,-1.215847512244316,0.2289393966961233,-1.1539422732228055
0.8200000000000001,1.679752501982566,-2.1947707000944345,2.085186016267576,-0.0358115071509661,0.1030485599870738,0.0378683152807565,-0.5825325604406667,0.6075358196314462,-0.1297521999305484,1.6743272158678648,-2.189434511510121,2.084502182960252,-0.6690047509533996,0.6820305569874251,-0.1356340316721296,0.8574965105829315,-0.3697180982989601,0.7370580193174436,-0.2352748809625687,9.862351679513267,-1.2121203914328118,0.2283231473945899,-1.1542933566786162
0.84,1.6680376650623925,-2.1824893041939646,2.0825428839171995,-0.0335763320597189,0.1041509417184841,0.0383165234285149,-0.5885095774296285,0.6197601857537436,-0.1344148931032346,1.6743272158678648,-2.189434511510121,2.084502182960252,-0.6690047509533996,0.6820305569874251,-0.1356340316721296,0.7192019306163684,-0.2988508494480901,0.611218306114869,-0.2331346586343111,10.359855959534798,-1.2098965516106974,0.2264126351041416,-1.1571684499893724
0.86,1.6568065024456335,-2.1706154359722283,2.079932321031822,-0.0312233317018566,0.1051023459979835,0.0387509071120398,-0.5934350300909049,0.6295056835418287,-0.1401442161864452,1.6676371683583309,-2.1826142059402467,2.0831458426435305,-0.6890047512514228,0.7020305572854483,-0.1402657007464265,0.6165629611966972,-0.2462726330638209,0.4872748894042544,-0.2864661541605293,10.298738214005423,-1.2088161498455423,0.2242037646107456,-1.158949019574165
0.88,1.6448884332086762,-2.157930978523139,2.0770557867982413,-0.0291935822966519,0.105719419622211,0.0391770546512038,-0.5981453157827797,0.6385352830166034,-0.1472580079557963,1.6542570733392628,-2.168973594800498,2.080433162010088,-0.7290047518474693,0.7420305578814947,-0.1495290388950204,0.6211410695478532,-0.2355142845937408,0.4514799737387387,-0.3556895884675531,10.155372855000678,-1.208240173591213,0.2224064986464975,-1.15929121088535
0.9,1.6328786639281945,-2.145074187960393,2.07402743661919,-0.02792449381668,0.105767976270314,0.0395540839153305,-0.6026840908999114,0.6468228664967464,-0.1552145698838726,1.6408769783201949,-2.1553329836607498,2.077720481376645,-0.7690047524435157,0.7820305584775412,-0.1587923770436143,0.6176394523092416,-0.2269387558565816,0.4143791740071456,-0.3978280964038141,10.155372855000678,-1.2082896090343471,0.2213633648539889,-1.1581297002174114
0.92,1.620777892009114,-2.132058225328961,2.0708350695319404,-0.0276589359199785,0.1052065715520381,0.0398662010691871,-0.6072551785251904,0.6545023218883051,-0.1636187195220381,1.6254968832713246,-2.139692372491199,2.074544633835773,-0.8090047530395622,0.8220305590735877,-0.1680557151922082,0.6133893713001514,-0.2285543812639512,0.3839727695779393,-0.420207481908276,10.110832002767893,-1.208661232264643,0.2212984074179222,-1.1557994562826712
0.94,1.6091969143660725,-2.1195536046888104,2.067647892260968,-0.0285547471704114,0.1040759718911809,0.040090559893158,-0.6116367595095497,0.6615399460464754,-0.1714477994991541,1.6101167882224543,-2.124051761321648,2.071368786294901,-0.8490047536356087,0.8620305596696342,-0.1773190533408021,0.5701335348018012,-0.2190790492179628,0.3518812079085109,-0.3914539988558008,10.083865478364714,-1.2092676452308162,0.2224371590585654,-1.1522192414976002
0.96,1.5969095308879642,-2.1062349718104416,2.0641353126244635,-0.0305314473803636,0.1023400455348957,0.0402655280063882,-0.6169522818782456,0.6700149834399084,-0.1793777629910969,1.5937366931586827,-2.107411150137196,2.067961355300314,-0.889004754231655,0.9020305602656804,-0.186582391489396,0.6382894285818553,-0.2657761184347962,0.4237518696716513,-0.3964981745971402,10.090647077297945,-1.211167546841564,0.2247713820207123,-1.1480176785983431
0.98,1.584505550316759,-2.0927293113926324,2.06046986135762,-0.0329470287385154,0.1003570328277759,0.0404163616273334,-0.6232531159807956,0.6802210303893936,-0.1867685523994578,1.57635659808001,-2.089770538937843,2.064322340852012,-0.9290047548277016,0.942030560861727,-0.1958457296379899,0.7044282660457589,-0.3150417051275,0.5103023474742618,-0.3695394704180454,10.106797169107269,-1.2133533162409502,0.2274583112150267,-1.1441859052744745
1.0,1.572594687141749,-2.079693347586181,2.0568552049392634,-0.034891730109044,0.0985965004985311,0.0405794694190238,-0.6302483822562385,0.691312970171442,-0.1933449345356911,1.5533428945177192,-2.058718259873163,2.0511314337376474,-0.7232531174709117,0.7802210318795098,-0.2159248200424327,0.7335081465033354,-0.3497633137721445,0.5545969891024183,-0.3288191068116619,10.13621990548836,-1.2154337349109714,0.2299313733843615,-1.1409459440451253
1.02,1.5598636928254113,-2.0656918422158017,2.052935981674596,-0.0347690378458201,0.0985060313492252,0.0408359388647385,-0.6422366358712505,0.7078040873523014,-0.1981106101000564,1.5533428945177192,-2.058718259873163,2.0511314337376474,-0.7232531174709117,0.7802210318795098,-0.2159248200424327,1.0468844661607517,-0.5994126807505995,0.8245558590429691,-0.2382837782182692,10.164013457891995,-1.216863215415961,0.2302994906579491,-1.141483809182065
1.04,1.5469156288712242,-2.051389591236377,2.0489200827319425,-0.0319441334904896,0.1008694256115709,0.0411864324868327,-0.6516677292367962,0.7213806575671305,-0.2032866145547076,1.5533428945177192,-2.058718259873163,2.0511314337376474,-0.7232531174709117,0.7802210318795098,-0.2159248200424327,0.8661117176530918,-0.4715546682772853,0.6788285107414582,-0.2588002227325595,10.266622273037685,-1.2113670680832658,0.2276120545236983,-1.146038523979949
1.06,1.5338043691455852,-2.0368497094574254,2.0447843743710226,-0.0280976624126222,0.1043306758484353,0.0415680704634566,-0.6588044942998569,0.7317325623788141,-0.2100210738467171,1.5461103633430102,-2.050916049554368,2.048972185537223,-0.7432531177689349,0.8002210321775329,-0.2217560735710276,0.7131765047153718,-0.3568382531530356,0.5175952405841788,-0.3367229646004721,10.266622273037685,-1.2057688941860738,0.223659140720747,-1.1505302420117758
1.08,1.5212358654336835,-2.022868966155672,2.0407164223737344,-0.0247215302649777,0.1078337461941166,0.0419029338897773,-0.663772936800654,0.739530106771584,-0.217852232431562,1.531645300993592,-2.0353116289167774,2.0446536891363745,-0.7832531183649813,0.8402210327735794,-0.2334185806282176,0.6058344745512895,-0.2484221250398544,0.3898772196384958,-0.3915579292422463,10.170037637422864,-1.2008398720414135,0.2199815556549132,-1.1542213695099843
1.1,1.5079197205253627,-2.0080039219074397,2.036261029098948,-0.0219269836361366,0.1111418207261283,0.0422077738350759,-0.6675391037148042,0.7467063468744574,-0.227333628081977,1.5171802386441735,-2.019707208279187,2.040335192735525,-0.8232531189610278,0.8802210333696259,-0.2450810876854075,0.6236571548515971,-0.1883083457075107,0.358812005143666,-0.4740697825207501,10.083553046109955,-1.1968736004467055,0.2171004034750809,-1.156281736937148
1.12,1.4945404857276516,-1.9930014569574304,2.031605290850646,-0.020039731228325,0.1136366182232194,0.0424595576354335,-0.6702617754043465,0.7533964105062603,-0.2377614976187278,1.500715176264953,-2.0021027876117947,2.035433570981817,-0.8632531195570743,0.9202210339656725,-0.2567435947425975,0.6342522282225391,-0.1361335844771161,0.3345031815901456,-0.5213934768375394,10.013090061666844,-1.194330543340883,0.2152498051414579,-1.1565441035493338
1.14,1.481785963383343,-1.9786292398275245,2.0269854334907,-0.0191064606477801,0.1150752141265896,0.0426478629361182,-0.6722766268018134,0.7592636466647558,-0.248011673288319,1.4842501138857327,-1.984498366944402,2.0305319492281093,-0.9032531201531208,0.9602210345617188,-0.2684061017997874,0.5990621577743659,-0.1007425698733466,0.2933618079247746,-0.5125087834795622,9.966201476830063,-1.1928765413862723,0.214235021470576,-1.1551454969534407
1.16,1.4683162982026434,-1.9633752224814756,2.021911281513729,-0.0189312570915807,0.1156962606857683,0.0427957694119802,-0.6746481439906777,0.7658492636635632,-0.2588585260816516,1.466785051491611,-1.9658939462621083,2.0253387647979717,-0.9432531207491672,1.0002210351577652,-0.2800686088569774,0.6454623547355168,-0.1185758594432151,0.3292808499403721,-0.5423426396666292,9.94678949189074,-1.1929045314050093,0.2141315478318657,-1.152382567961615
1.18,1.4547955042097265,-1.9479844469780645,2.0166226418652804,-0.0192922830719639,0.1156639839332557,0.0429078111431496,-0.677377536042499,0.7728831726101953,-0.2694523640708925,1.448319989082588,-1.9462895255649133,2.019854017691404,-0.9832531213452136,1.0402210357538115,-0.2917311159141673,0.6502977383174938,-0.1364696025910605,0.3516954473316069,-0.5296918994620425,9.942189428602433,-1.193423917883108,0.2145414937300967,-1.149159278372956
1.2,1.4412157090738285,-1.9324475243447143,2.0111255038086444,-0.0199277345071892,0.1152264362595519,0.0429987465678462,-0.6805121453649852,0.7804191632048837,-0.2797220728264312,1.4209266274076016,-1.9093402883475548,2.003150023661736,-0.7773775375326151,0.8728831741003115,-0.2786988028125765,0.6559036662716514,-0.1567304661243107,0.3767995297344173,-0.5134854377769366,9.95402827196449,-1.1943052330115869,0.2152540193006705,-1.1455294964780176
1.22,1.4282394058453112,-1.9175033507690784,2.005815213598362,-0.0193343302217288,0.115379604947308,0.0431478002172507,-0.6850179368685394,0.791720012918142,-0.2787492856156717,1.4209266274076016,-1.9093402883475548,2.003150023661736,-0.7773775375326151,0.8728831741003115,-0.2786988028125765,0.6102410922589708,-0.2252895751777117,0.5650424856629144,0.0486393605379747,9.968546365214934,-1.190546302976096,0.2145208904781822,-1.1467048054925686
1.24,1.4145060690309104,-1.901570299828281,2.0002472422969846,-0.0171711819765492,0.1164280559207219,0.04338268760301,-0.6879800010165555,0.8009128076325812,-0.2781898586146221,1.4209266274076016,-1.9093402883475548,2.003150023661736,-0.7773775375326151,0.8728831741003115,-0.2786988028125765,0.4837206250726961,-0.148103207400807,0.4596397357219617,0.027971350052483,10.651279168598194,-1.188981391662389,0.2125029684228251,-1.151623383595555
1.26,1.4007266714317943,-1.885475084169024,1.994672543019932,-0.0146128948395737,0.1175346638562785,0.0436315738278912,-0.6898192296909105,0.8080830717791404,-0.2793059857168172,1.4131528520322754,-1.900611456606552,2.00036303563361,-0.7973775378306382,0.8928831743983346,-0.2805480905609133,0.3743033187010775,-0.0919614337177465,0.3585132073279595,-0.0558063551097581,10.483211599188508,-1.1882907162409737,0.210164693983078,-1.1549927725262643
1.28,1.3876095626423108,-1.870067335469975,1.9893430520410784,-0.0125600773104936,0.1182095558670423,0.043835172672268,-0.6909034954299951,0.8135735309946904,-0.2816354989761966,1.3976053012816232,-1.8831537931245452,1.9947890595773583,-0.8373775384266847,0.9328831749943812,-0.2842466660575868,0.3030981962013099,-0.05421328695423,0.2745229607775012,-0.1164756629689678,10.408585148985368,-1.1881312130741002,0.2080397241345096,-1.1568788882032692
1.3,1.3737833696144046,-1.8537444941514425,1.9836756894726064,-0.0111344931008265,0.1182562493585451,0.0439933232357137,-0.6917350984110923,0.8185109085139298,-0.285015153862185,1.3820577505309708,-1.8656961296425392,1.989215083521107,-0.8773775390227312,0.9728831755904276,-0.2879452415542604,0.3020402598745983,-0.0415801490548595,0.2468688759619697,-0.1689827442994229,10.408585148985368,-1.1887813100117903,0.2066645263603513,-1.157083899511541
1.32,1.359941816975107,-1.837329857524658,1.9779342648130396,-0.0107545829334422,0.1174619574302057,0.0440750414234804,-0.6924381396437765,0.822799611614948,-0.2889735140964218,1.3645101997505162,-1.8462384661307305,1.9834561786900216,-0.9173775396187775,1.012883176186474,-0.291643817050934,0.2939211501726422,-0.0351520616342138,0.2144351550509071,-0.1979180117118367,10.35475988802682,-1.189914108300975,0.2063404644721778,-1.1561199465417344
1.34,1.3460884950153995,-1.8208343255270292,1.972115690971956,-0.0117220149502933,0.1156051433596566,0.0440647633490725,-0.692973567862288,0.8267304332746231,-0.2926736506228284,1.3469626489700617,-1.826780802618922,1.977697273858937,-0.957377540214824,1.0528831767825204,-0.2953423925476076,0.2712427538727931,-0.0267714109255745,0.1965410829837588,-0.185006826320333,10.33881847127941,-1.1916337379196127,0.2072956519097799,-1.1537064992596422
1.36,1.3329113080400938,-1.805079261370252,1.966525978196626,-0.0137003252117335,0.1128243344511107,0.0439902197519591,-0.694181396886445,0.8315451008982379,-0.2955236327841442,1.3284150981747056,-1.8063231390922123,1.9718459046404344,-0.9973775408108704,1.0928831773785668,-0.2990409680442812,0.2861916909926708,-0.0603914512078473,0.2407333811807355,-0.1424991080657883,10.33881847127941,-1.1953331677065104,0.2095556150036852,-1.1498440417474087
1.38,1.319004818708111,-1.7883806721462872,1.9605910987566693,-0.0163306999635519,0.1090340964754747,0.0438890783638096,-0.6965521373341007,0.8382495528920288,-0.2977763608411128,1.3088675473644489,-1.7848654755506017,1.965902071034516,-1.0373775414069168,1.1328831779746131,-0.3027395435409548,0.3729774473941163,-0.1185370223827864,0.3352225996895497,-0.1126364028484289,10.37524931720236,-1.2001593473263676,0.2124429749165806,-1.1453070975232793
1.4,1.3050351305521135,-1.7715286408237056,1.95462003327036,-0.0186868648383391,0.1046853222688394,0.0438229589839442,-0.7004545779754061,0.84653594337036,-0.2991782042084569,1.284177211841406,-1.7464681945016858,1.9457022807146136,-0.7965521388242168,0.938249554382145,-0.3014157922785903,0.4632992417025297,-0.1951220320652702,0.4143195239165564,-0.0700921683672056,10.415684632785087,-1.2053882205040858,0.2150628987022678,-1.1412210476387807
1.42,1.2909179123314305,-1.7544520135706096,1.948657001902933,-0.0187215160379943,0.1018941390245311,0.0438898967369511,-0.7113551051189625,0.8601634427493839,-0.2968829310358209,1.284177211841406,-1.7464681945016858,1.9457022807146136,-0.7965521388242168,0.938249554382145,-0.3014157922785903,0.8800547003876102,-0.5450263571778191,0.6813749689511983,0.1147636586318001,10.744139187941984,-1.209944101398459,0.2154662509065875,-1.140039876293632
1.44,1.277304283425888,-1.7380055100074094,1.9430395778566432,-0.0160430908709689,0.1025333569821148,0.0440702855014774,-0.7206820336928789,0.8701724021485825,-0.294564841191982,1.284177211841406,-1.7464681945016858,1.9457022807146136,-0.7965521388242168,0.938249554382145,-0.3014157922785903,0.6938018546419638,-0.4663464286958185,0.5004479699599274,0.1159044921919427,10.744139187941984,-1.2057566959024342,0.2124570214900755,-1.1459852749234345
1.46,1.2628118672627338,-1.720524528198901,1.9371613068768527,-0.0121849913145512,0.1052207567507887,0.0442918938980772,-0.727815304820473,0.8771933244433361,-0.2934568992055433,1.2762116904531635,-1.7370856989578642,1.942688122791828,-0.81655213912224,0.958249554680168,-0.3021436785660857,0.5034988636880162,-0.3566635563797049,0.3510461147376797,0.0553970993219354,10.70204153172108,-1.200917281213843,0.2083394636161796,-1.1531946640423405
1.48,1.2482025658948257,-1.702930408137588,1.9312872125638008,-0.008710878027224,0.1087700512744592,0.044472708919698,-0.7326210987157578,0.8820283781583329,-0.2940142107514333,1.2602806476766792,-1.7183207078702214,1.936659806946256,-0.8565521397182865,0.9982495552762146,-0.3035994511410768,0.3419941357320452,-0.2402896947642396,0.2417526857498408,-0.0278655772945002,10.51667124436699,-1.1957521685177837,0.2045697550761258,-1.1596860030689502
1.5,1.2335183414568591,-1.6852511048484218,1.925387889266635,-0.0060815630663994,0.1122961028194939,0.0445915703644001,-0.7355228533651799,0.8858982528089104,-0.2958965014302727,1.244349604900195,-1.6995557167825786,1.930631491100684,-0.896552140314333,1.038249555872261,-0.3050552237160677,0.2595145856029628,-0.1450877324711053,0.1934937325288765,-0.0941145339419691,10.51667124436699,-1.191355044598497,0.2018005477162523,-1.164696521614834
1.52,1.219529077304847,-1.6683893850651867,1.9197398121321396,-0.0044713759317481,0.1150671785476972,0.0446406955298547,-0.7369260809491365,0.8890298237391168,-0.2985453226790306,1.2264185620939083,-1.678790725665133,1.9245303866263628,-0.9365521409103794,1.0782495564683074,-0.3065109962910587,0.2167489224376994,-0.0701613791978306,0.1565785465103164,-0.1324410624378963,10.445827857100085,-1.187826570516609,0.1998651766196698,-1.168413726402119
1.54,1.2047848110829746,-1.6505810216063062,1.913736269271896,-0.0038579500454169,0.1170195314634145,0.0446129879830441,-0.7374710162899099,0.8917455326455932,-0.3016813174792215,1.2084875192876217,-1.658025734547688,1.9184292821520412,-0.976552141506426,1.118249557064354,-0.3079667688660497,0.2092038048002683,-0.0272467670386689,0.1357854453238216,-0.1567997400095444,10.399947580720436,-1.1855838152486984,0.199108180640757,-1.1704174600434838
1.56,1.1900304543637448,-1.632712551567788,1.907670566892929,-0.0043029448066097,0.1179461178362422,0.044506084268979,-0.7380060051796072,0.8950147077383824,-0.3047222297185373,1.1895564764664337,-1.6362607434153418,1.9122917833633453,-1.0165521421024724,1.1582495576604004,-0.3094225414410407,0.2248380870016989,-0.0267494444848692,0.1634587546394617,-0.152045611965787,10.384846353486864,-1.1849814545884092,0.1994670800454666,-1.1706753661214233
1.58,1.1752637449336252,-1.6147721373340544,1.901548421532228,-0.005482834271427,0.1180461492473063,0.0443434022568131,-0.7387298172254387,0.8988851890879791,-0.30733837917045,1.1696254336303449,-1.6134957522680942,1.9061178902602745,-1.0565521426985187,1.1982495582564467,-0.3108783140160317,0.2363724164851397,-0.0361906022915747,0.1935240674798333,-0.130807472595637,10.393979151276652,-1.185087741057944,0.2006118707095671,-1.1702729093031752
1.6,1.161218708884196,-1.5976496752129057,1.8956887508481848,-0.0070239415708345,0.1175670775814265,0.04415728036824,-0.739731238854476,0.9032804676908732,-0.3093375518108485,1.1383272540723532,-1.5698278778796555,1.8861815025737052,-0.7961419833738629,0.9988851905780952,-0.3054276234104136,0.2465664744155241,-0.0500710814518634,0.2197639301447063,-0.0999586320199252,10.418582649223936,-1.1858090007549775,0.2022562134279869,-1.169502090090887
1.62,1.1463206882768953,-1.579480478829298,1.8895104836267296,-0.0071742579556533,0.1194700605251057,0.0440405619132233,-0.7496047420873243,0.913021141279204,-0.3082455832496613,1.1383272540723532,-1.5698278778796555,1.8861815025737052,-0.7961419833738629,0.9988851905780952,-0.3054276234104136,0.6956277441672621,-0.4936751616424151,0.4870336794165431,0.0545984280593603,10.447774065618432,-1.1853984443781096,0.2024940171863745,-1.172309086134111
1.64,1.131264208469514,-1.5611420942927223,1.8833592171687257,-0.0051388088021262,0.1255609617109282,0.0440429826225812,-0.7549685921419186,0.9202356918657364,-0.3069767038390411,1.1383272540723532,-1.5698278778796555,1.8861815025737052,-0.7961419833738629,0.9988851905780952,-0.3054276234104136,0.453956722971747,-0.2681925027297138,0.3607275293266099,0.0634439705310102,10.690889321291252,-1.1750255245003294,0.1999156760621032,-1.1819365994879714
1.66,1.116145371851324,-1.5426800525047062,1.8772190696839528,-0.0022194597261724,0.1336735477786823,0.0441042919971281,-0.7562379043354648,0.9254016179242482,-0.3071305387071691,1.1303658342386147,-1.5598390259738746,1.8831272263396013,-0.8076244166035477,1.0188851908761185,-0.3050454722584063,0.2660902603128774,-0.06346560967731,0.258296302925598,-0.0076917434063988,10.658560436528203,-1.1653651052831064,0.1967371510968702,-1.1927651150364451
1.68,1.101790153730201,-1.5250676224801143,1.8713688452712505,0.0003375356394324,0.1421567462806364,0.0441583349469428,-0.7544956738312596,0.928433041679655,-0.3086990739027042,1.1144429945711374,-1.5398613221623123,1.877018673871393,-0.8305892830629173,1.0588851914721649,-0.3042811699543918,0.1916063658536686,0.0871115252102594,0.1515711877703385,-0.0784267597767562,10.573500564635651,-1.1554127471412594,0.193642482812648,-1.203404752249811
1.7,1.086746730928317,-1.5064753078287334,1.865166431959592,0.0022934173080812,0.1511294922752429,0.044174263497402,-0.7496900443200657,0.9308025488072458,-0.311529419987588,1.09852015490366,-1.5198836183507507,1.8709101214031847,-0.853554149522287,1.0988851920682112,-0.3035168676503772,0.3029830770306236,0.2402814755596949,0.1184753563795382,-0.1415173042441875,10.49769134764938,-1.1460331767419305,0.1913878081901418,-1.21295670076034
1.72,1.0718368191467422,-1.487842000408668,1.858896039515027,0.0032403485560471,0.1592298379482385,0.0441206674714761,-0.741495243803503,0.9325897810552845,-0.3153867653644496,1.0814490719132144,-1.4979059145093865,1.8648397840501767,-0.8765190159816567,1.1388851926642576,-0.3027525653463626,0.46159524469789,0.4097400258281369,0.089361612401928,-0.1928672688430832,10.40700427783031,-1.138507107779279,0.1903037571897025,-1.2204932631145111
1.74,1.057849854331156,-1.4701116183052765,1.8528638907292372,0.0029515192519782,0.1653729109210827,0.0439764043627664,-0.7313062273355629,0.9338520601884228,-0.3193896806849755,1.0643779889227685,-1.4759282106680225,1.8587694466971696,-0.8994838824410264,1.1788851932603042,-0.3019882630423481,0.5509826137393316,0.5094508233970008,0.0631139566569183,-0.2001457660262939,10.40700427783031,-1.1332833149652528,0.1906081609868923,-1.2260583901912483
1.76,1.0433493084833212,-1.4514129800605204,1.8464342675081444,0.0014613686123348,0.1698896001553101,0.043724622240939,-0.7193432835085763,0.9360221967310318,-0.3233451532136023,1.0467327842708385,-1.4529505068117567,1.8527182169017624,-0.922448748900396,1.2188851938563503,-0.3012239607383335,0.6392716178314292,0.5981471913493297,0.1085068271304556,-0.1977736264313384,10.406285559181017,-1.131238551170843,0.1923631129826044,-1.2292253942567166
1.78,1.0290976958833924,-1.432659139815273,1.83993359711098,-0.000856954119168,0.1723561264820343,0.0434007514160939,-0.7066204609776887,0.939328287476035,-0.3265166998370748,1.0285134579574244,-1.4289728029405904,1.846686094663956,-0.9454136153597656,1.2588851944523969,-0.300459658434319,0.6761271277495043,0.6361411265443817,0.1653045372501604,-0.158577331173626,10.434505045258447,-1.131872887727231,0.1949388100339371,-1.2303818706080158
1.8,1.015796694264494,-1.4147639032687995,1.833708863940876,-0.0032247807186992,0.1728885649669608,0.0430770379295949,-0.6942768160057082,0.9442032435360797,-0.3285541574890108,0.993766672834508,-1.3856927254414713,1.823607762119126,-0.7361228416170034,1.0393282889661513,-0.2994888041629653,0.6713456663021972,0.6171822485990242,0.2437478030022255,-0.1018728825968012,10.485217714713144,-1.1351784938804292,0.197955918437866,-1.23098745667437
1.82,1.0019863087096952,-1.395761343311412,1.827160085511025,-0.0034955224715371,0.1736316356250205,0.0428866337139094,-0.6872962963883464,0.9552301883993732,-0.3260309484863456,0.993766672834508,-1.3856927254414713,1.823607762119126,-0.7361228416170034,1.0393282889661513,-0.2994888041629653,0.6646197236345484,0.3490259808680895,0.5513472431646904,0.1261604501332613,10.547260340731556,-1.1395632429524811,0.1986844785366229,-1.23527541115713
1.84,0.9883360211423524,-1.3765678214679342,1.8206806864141805,-0.0007934558915649,0.1760733304948288,0.042893451947634,-0.6778330725506938,0.9633252118876686,-0.3220254736386777,0.993766672834508,-1.3856927254414713,1.823607762119126,-0.7361228416170034,1.0393282889661513,-0.2994888041629653,0.6540753768352492,0.4731611918826317,0.4047511744147636,0.2002737423833944,10.84620200111749,-1.1385155829597504,0.1957080713223583,-1.2427011468778968
1.86,0.9749020205961118,-1.357249918405667,1.8142824642278408,0.0030441236434302,0.1789142686264954,0.0429772918255015,-0.6659871934234803,0.9678628535823752,-0.3180271245183785,0.986405444418338,-1.3752994425518097,1.8206128740774965,-0.7420233177448663,1.0593282892641744,-0.2940832250281435,0.6650222555183549,0.5922939563606733,0.2268820847353247,0.1999174560149613,10.915357322660384,-1.138383419995399,0.1917424351273396,-1.250821873401452
1.88,0.9623767094412584,-1.3388398149891645,1.808275524691675,0.0063475746432724,0.1812129925402787,0.0430298936476652,-0.6531144456120221,0.9699732943272312,-0.3144931662644415,0.9716829875859978,-1.3545128767724868,1.814623097994237,-0.7538242700005922,1.099328289860221,-0.2832720667584997,0.6757411806592808,0.6436373905729098,0.1055220372428,0.1766979126968493,10.91866503807978,-1.139317896478458,0.1879350613902571,-1.258258240257887
1.9,0.9494673767113456,-1.3194292875528737,1.8020247493415544,0.0089483129166834,0.1827079117312704,0.0430129226911146,-0.6385642444934432,0.9711433431637404,-0.3107675075495436,0.9569605307536576,-1.3337263109931636,1.8086333219109776,-0.765625222256318,1.1393282904562674,-0.2724609084888559,0.7532560981014492,0.7275100559289482,0.0585024418254698,0.1862829357448941,10.915931829948931,-1.1418663209390656,0.1851625196079266,-1.2643863195923604
1.92,0.9368574004798116,-1.300003139391302,1.7958516360212935,0.0104532952031438,0.1829119501567164,0.0428996067479522,-0.6233445289119899,0.971649362747085,-0.3067257931202893,0.9416480263085314,-1.3109397451840383,1.8031841037412009,-0.7774261745120439,1.1793282910523135,-0.2616497502192121,0.7877678175177991,0.7609857790726648,0.0253009791672254,0.2020857214627136,10.929722017962376,-1.1458588243291916,0.1836933228333716,-1.2687485625598696
1.94,0.9251640873432206,-1.2815445405053054,1.79006934068882,0.0107120887426234,0.1816789825225795,0.0426874042385223,-0.6084284332712047,0.9715233081867588,-0.3021320701848294,0.926335521863405,-1.2881531793749128,1.7977348855714237,-0.7892271267677697,1.2193282916483603,-0.2508385919495683,0.7803974777717462,0.745804782039261,-0.0063027280163108,0.2296861467729949,10.957738639325726,-1.1516002988225702,0.1835181815784697,-1.2713990209482156
1.96,0.9131610950941734,-1.2621108884076329,1.7840881337741812,0.0097781326052061,0.1786086813231996,0.0423566796697036,-0.5927825097055056,0.9719264517844904,-0.29616729795336,0.9107279936118856,-1.2643666135508864,1.7925559463583876,-0.8010280790234956,1.259328292244407,-0.2400274336799245,0.8374603822829432,0.7822961782849525,0.0201571798865762,0.2982386115734703,11.012343949761998,-1.1597197698837147,0.1848188832891089,-1.2724035368566533
1.98,0.9014658659760236,-1.242661682250731,1.778241132075454,0.0078750713300222,0.1735342725418036,0.0419428039717534,-0.5778199370886363,0.973036602792455,-0.2887460590305628,0.8948254415539728,-1.2395800477119587,1.7876472861020924,-0.8128290312792215,1.299328292840453,-0.2292162754102807,0.8369375749194392,0.7481286308434643,0.0555075503982316,0.371061946139864,11.08411668401277,-1.1707242699369502,0.1873307761907846,-1.2723165010355402
2.0,0.890046071721765,-1.2231785778365196,1.7725615033660038,0.0053721580405257,0.1668262359951025,0.0414886316133676,-0.5653191787156572,0.9753861709519028,-0.2795635400735108,0.8725748691215919,-1.1940098521111082,1.763803829123926,-0.6239663969661273,1.0730366042825712,-0.2590743211063446,0.7843916190783111,0.6250379186489574,0.1174784079723989,0.4591259478525955,11.16823703474256,-1.183581076260438,0.1904830075114164,-1.2718909999464445
2.02,0.8793732894122217,-1.2045554408645,1.76727234410931,0.004868382504405,0.1600754061478095,0.0411987441925895,-0.5588649416218341,0.9839248437196044,-0.2776540470258922,0.8725748691215919,-1.1940098521111082,1.763803829123926,-0.6239663969661273,1.0730366042825712,-0.2590743211063446,0.5436273374198373,0.3227118546911545,0.4269336383850741,0.0954746523809307,11.25851635372237,-1.203287749487497,0.1923483784217211,-1.2773855575348927
2.04,0.8682566068360045,-1.1848193017241726,1.7617570794098765,0.006707683187401,0.153294067122748,0.0410494326127712,-0.5533046650583481,0.9891325464050108,-0.2738318375030619,0.8725748691215919,-1.1940098521111082,1.763803829123926,-0.6239663969661273,1.0730366042825712,-0.2590743211063446,0.4261634908062119,0.2780138281743005,0.2603851342703134,0.1911104761415177,10.792354918417004,-1.213568400166178,0.1901518791134855,-1.2747059219752217
2.06,0.8572354623414659,-1.1650017664848071,1.7563367809987638,0.0095143233929647,0.1469404533760013,0.0409451357836644,-0.549234523785318,0.9921185311901572,-0.2683267901856825,0.8663352051519306,-1.1832794860682825,1.7612130859128623,-0.6331956889416255,1.0930366045805944,-0.2531399735215009,0.3734558243157265,0.2035070636515035,0.1492992392573278,0.2752523658689693,10.930428563442549,-1.2229426625826425,0.1869866169303622,-1.2729728711359751
2.08,0.8468268608379346,-1.146146645138849,1.7513014746091842,0.0119758204830638,0.1414779134655161,0.0408117258511874,-0.5467468641251618,0.9926438735881536,-0.261981177811909,0.853855877212608,-1.1618187539826312,1.7560315994907356,-0.6516542728926219,1.133036605176641,-0.2412712783518137,0.3418012273898664,0.1243829830078091,0.0262671198998143,0.3172806186886728,11.082461678277468,-1.2318877094460343,0.1838155593155838,-1.271037989638616
2.1,0.835906434930338,-1.126301829725265,1.7461400205818356,0.0137094500207499,0.1365486051986902,0.0406010779663252,-0.5455854499649035,0.9919699442351892,-0.2544578915653591,0.8413765492732855,-1.1403580218969798,1.7508501130686087,-0.6701128568436183,1.173036605772687,-0.2294025831821264,0.3821089490314351,0.0580707080129139,-0.0336964676482143,0.3761643123274982,11.082461678277468,-1.238963769608242,0.1815729918483401,-1.2698601826798834
2.12,0.8249939789351179,-1.106480218567175,1.741137187100779,0.0142012337556947,0.1327602895369184,0.0403080896299075,-0.545843694245885,0.990355331648896,-0.2461702584061741,0.8279742921364132,-1.116897289781526,1.7462620614049662,-0.6885714407946147,1.2130366063687337,-0.2175338880124391,0.4223698831998403,-0.0129122140490711,-0.0807306293146625,0.4143816579592493,11.184209738535174,-1.2440227768060248,0.1807100299704873,-1.2694267909449086
2.14,0.8140636778964638,-1.0866996823911688,1.7363051722584255,0.0129903883009813,0.1304493478384894,0.039915462586506,-0.5472391795048192,0.9880620991794596,-0.2374473388453795,0.8145720349995408,-1.0934365576660725,1.7416740097413237,-0.7070300247456112,1.2530366069647805,-0.2056651928427518,0.4563321704933613,-0.069774262946709,-0.1146616234718234,0.4361459780397286,11.184209738535174,-1.246604439598335,0.181680290306251,-1.2699721502487964
2.16,0.8036496944923515,-1.067939763715818,1.73188115921639,0.0103374207119309,0.1297771766350276,0.0394614426343066,-0.5487173637867818,0.9870558752387631,-0.2286837832513773,0.8007083132638935,-1.0689758255357171,1.7373826754569233,-0.7254886086966075,1.2930366075608266,-0.1937964976730646,0.447206389823087,-0.0739092140981334,-0.0503111970348191,0.4381777797001107,11.211615571511174,-1.2453077666153487,0.1843819136777639,-1.2717881253232044
2.18,0.7926671559615536,-1.0481852486939516,1.7274100940988388,0.0068677628730861,0.1302285398909689,0.03895282734276,-0.549347235423211,0.988621648117852,-0.2188699476204604,0.7863831269294713,-1.0435150933904611,1.7333880585517651,-0.7439471926476039,1.333036608156873,-0.1819278025033773,0.4978949507123032,-0.0314935818214567,0.0782886439544439,0.4906917815458461,11.236772174853286,-1.2434423695936505,0.1880667396487374,-1.2759880890399091
2.2,0.7816821077983321,-1.0283781435375683,1.723140678304967,0.003638669759422,0.1313566142298665,0.0384682268228358,-0.549035557477315,0.9919914581453154,-0.2085602233814067,0.765199794190393,-0.998754166288059,1.716466596717816,-0.5674309493719376,1.088621649607968,-0.1776359572790354,0.5425476399554265,0.0155838972947963,0.1684905013731696,0.5154862119526828,11.27542065851867,-1.2417233838174535,0.1916351806127194,-1.282213306217919
2.22,0.7706373708950192,-1.008416924018704,1.7190442771810222,0.003509048914608,0.1348430493306905,0.0382082121636685,-0.5546670305925409,1.0027063270227314,-0.2016451180671625,0.765199794190393,-0.998754166288059,1.716466596717816,-0.5674309493719376,1.088621649607968,-0.1776359572790354,0.6970304620581828,-0.2815736557612913,0.5357434438708009,0.3457552657122081,11.311234469523695,-1.244827778418755,0.1924710122066029,-1.294483620820969
2.24,0.7600815340178488,-0.98930155418129,1.7152858842693837,0.0065406687886121,0.1409056958512707,0.038198923287585,-0.5557840210625611,1.0085567945510585,-0.1943464199293483,0.765199794190393,-0.998754166288059,1.716466596717816,-0.5674309493719376,1.088621649607968,-0.1776359572790354,0.4710271555787913,-0.0558495235010114,0.2925233764163537,0.3649349068907126,11.125583898496188,-1.233042525391747,0.1881349100212038,-1.3068634391178806
2.26,0.7489865583994364,-0.9691075774376444,1.7114793397527217,0.0105873699815603,0.1486262440575236,0.0382801406940457,-0.5533005803822744,1.0104469013441977,-0.1867285312251067,0.7595254846966736,-0.9878679497919792,1.7146902371450254,-0.5710476921616829,1.108621649905991,-0.1693891592107504,0.4116193921943677,0.1241720340143359,0.0945053396569473,0.3808944352120785,11.178339099163168,-1.2222259591165234,0.1828857465299314,-1.320630774763442
2.28,0.7379815999020484,-0.948902231057034,1.7078207529500744,0.0139800679407186,0.1565802527907336,0.0383435913551633,-0.5470827166338904,1.0101686178189462,-0.1795563917691631,0.7481768657092349,-0.96609551679982,1.7111375179994448,-0.5782811777411736,1.148621650502038,-0.1528955630741804,0.4748127412185702,0.3108931874191978,-0.0139141762625638,0.3586069727971819,11.18490004222076,-1.2126081091611345,0.1786593422086436,-1.3331842137131824
2.3000000000000003,0.7271371387220495,-0.9287141987757032,1.7043025048359357,0.0162044304288062,0.1637010196810913,0.0383313308144128,-0.5376457295603649,1.009007030138828,-0.1726563746995005,0.7368282467217961,-0.9443230838076606,1.7075847988538642,-0.5855146633206643,1.1886216510980845,-0.1364019669376105,0.5874015801096483,0.4718493536762735,-0.0580793840059157,0.3450008534831295,11.17777465817835,-1.2047978741969834,0.1756845576138607,-1.345215088529689
2.32,0.7170336603456486,-0.9095626291754344,1.7010890107001504,0.0171185208386465,0.1690561817637201,0.038219950371078,-0.5264271958122554,1.0072302326231206,-0.1659687309330265,0.7251179534553829,-0.9205506507856988,1.704856759515112,-0.5927481489001549,1.2286216516941306,-0.1199083708010405,0.6590468268957722,0.5609266874054775,-0.0888398757853625,0.334382188323698,11.187611893715257,-1.1998954751332738,0.1743751747149524,-1.3556990302425005
2.34,0.7066438932019321,-0.889445356234372,1.697848093055847,0.0164688134215924,0.172876609202429,0.0379585522997856,-0.513209459711662,1.00476516414312,-0.1584516901650322,0.7134076601889696,-0.8967782177637372,1.7021287201763595,-0.5999816344796456,1.2686216522901772,-0.1034147746644705,0.7702126526870868,0.6608868050296701,-0.123253424000036,0.3758520383997155,11.222301358673576,-1.1985788802699402,0.1752308989927084,-1.3637846210625204
2.36,0.6965264379600254,-0.8693682806430796,1.694766553836798,0.0141540624545929,0.1747603776528905,0.0375461182215357,-0.4993319933081012,1.0032026126730558,-0.1500366941279739,0.7015165297830691,-0.8720057847268744,1.6998130207410218,-0.6072151200591362,1.3086216528862236,-0.0869211785279005,0.8152266543456884,0.69387332017804,-0.0781275735032061,0.4207498018529168,11.274946895567156,-1.2003605973262803,0.1782659144983731,-1.3704067736414307
2.38,0.6866904684501187,-0.8492999633558131,1.691867698170174,0.0108487854507316,0.1747330827626431,0.0370394460339537,-0.4851518698927184,1.003984333678905,-0.1402750253079953,0.6894445622376812,-0.8462333516751104,1.6979096612090985,-0.6144486056386269,1.34862165348227,-0.0704275823913306,0.8616512722056046,0.7090061707691386,0.0390860502924583,0.4880834409989293,11.343120882623223,-1.2038644937653689,0.1823667859900922,-1.376724293483547
2.4,0.6776091575541235,-0.8301978958122476,1.6893078156533132,0.0078175097945945,0.1729030390517804,0.036555170988156,-0.4716416132248717,1.0066608706165063,-0.1296781848448006,0.6624328749554828,-0.7991007466718679,1.6848539469047743,-0.5092012041207572,1.103984335169021,-0.1040469683109345,0.8688842169872818,0.675512833392336,0.1338268468800696,0.5298420231597323,11.430983679711062,-1.2105388254484906,0.186671091577884,-1.3823593569866042
2.42,0.6682933159842899,-0.809960077588413,1.6867248338659169,0.0072431028864769,0.1691306969338318,0.036224675088796,-0.4609035983891924,1.0162666001733978,-0.1297320117671991,0.6624328749554828,-0.7991007466718679,1.6848539469047743,-0.5092012041207572,1.103984335169021,-0.1040469683109345,0.7203781997481956,0.5369007417839633,0.4802864778445714,-0.0026913461199207,11.524784935479149,-1.2292327632313458,0.1886207596233599,-1.391411786090066
2.44,0.6591802876822997,-0.7895729160247825,1.684143241276568,0.009793680455078,0.1636396015320963,0.0360915651165329,-0.4512730809892108,1.0217466607862864,-0.128190187383466,0.6624328749554828,-0.7991007466718679,1.6848539469047743,-0.5092012041207572,1.103984335169021,-0.1040469683109345,0.5593638175252212,0.4815258699990804,0.2740030306444319,0.0770912191866507,10.768965615128764,-1.2411600553612132,0.1853886688624416,-1.3875589475149115
2.46,0.6502348085344817,-0.769116426996023,1.6816206454468303,0.0133116172937912,0.157087792199564,0.0359894646448146,-0.4440521321509916,1.0234831073041568,-0.1241398644088609,0.6573408629142752,-0.7880609033201778,1.6838134772216649,-0.514011070966365,1.1239843354670442,-0.0968013569115223,0.4229730039618871,0.3610474419109583,0.0868223258935207,0.2025161487302557,10.942551129884125,-1.2531951793514242,0.1811017774288982,-1.3841696805817012
2.48,0.6418466464156476,-0.7496782565214393,1.6793158037161595,0.0161552303234419,0.1506491653814657,0.0358271432497774,-0.4394596274023279,1.0227824881786935,-0.1186659417621227,0.64715683883186,-0.7659812166167973,1.6817325378554462,-0.5236308046575805,1.1639843360630908,-0.082310134112698,0.3589770054193507,0.2296252374331869,-0.0350309562731632,0.2736961323369126,11.067463558089912,-1.2648432310611435,0.1770956537100628,-1.3803051474440955
2.5,0.6330894120384383,-0.729243879707325,1.677016298226439,0.0180945725986503,0.144221593643906,0.0355667000525927,-0.4366721081055988,1.0209005550125825,-0.1115027255094992,0.6369728147494449,-0.7439015299134168,1.6796515984892275,-0.533250538348796,1.2039843366591372,-0.0678189113138737,0.3956753825839921,0.1393759648364523,-0.0940966583055646,0.3581608126311731,11.1621189202815,-1.2747144629596237,0.1743414737545692,-1.376466605519824
2.52,0.624367340142368,-0.7088564646782805,1.6748737625897738,0.0186716138683372,0.1385946369631431,0.035215182111907,-0.4358503087445435,1.0180804437695343,-0.1030521359571468,0.626307803982469,-0.7198218431802341,1.67829522026295,-0.5428702720400115,1.2439843372551835,-0.0533276885150494,0.4473277472819094,0.0410899680527654,-0.1410055621523853,0.4225294776176218,11.323054891046011,-1.2830664429197698,0.1732830720388976,-1.3734027454818087
2.54,0.6156404748087202,-0.6885332843473048,1.672908539907843,0.0174777680304551,0.1343046352039541,0.0347675940491921,-0.4370273826389812,1.0145732216280705,-0.0938626730894045,0.6156427932154931,-0.6957421564470514,1.6769388420366724,-0.552490005731227,1.28398433785123,-0.0388364657162251,0.4953088377471092,-0.0588536947218831,-0.1753611070732019,0.4594731433871152,11.323054891046011,-1.2889971845260977,0.1743352428053785,-1.371653300862892
2.56,0.6073095968227142,-0.6692823577145762,1.67121990914029,0.0147066423832311,0.1320785530044854,0.0342720643775127,-0.4398775462865777,1.0123412200984172,-0.0843494414251171,0.6047372891062368,-0.6706624696989675,1.6759447443803657,-0.5621097394224426,1.3239843384472765,-0.0243452429174008,0.5089372268385751,-0.1425081823798274,-0.1116000764826652,0.4756615832143693,11.368761092091518,-1.2913368884259302,0.1775503722711709,-1.3720917884995911
2.58,0.5984809630886768,-0.6490342279799032,1.669645927550941,0.0110675255699683,0.1319184697513575,0.0337448343897927,-0.4425818863964834,1.012773750776069,-0.0735348058010756,0.5935912916547,-0.6445827829359825,1.6753129272940293,-0.5717294731136581,1.3639843390433228,-0.0098540201185765,0.5578012233267805,-0.1352170054952833,0.0216265338825905,0.540731781202073,11.419026816357473,-1.288228741308548,0.1816081044725004,-1.3770487926040498
2.6,0.5896129045158114,-0.6287545640654718,1.6682954140195745,0.0076842995088791,0.1333475429324706,0.0332606033366333,-0.4438879988141766,1.0151145549700469,-0.0620903611597905,0.5763518687688527,-0.5983955404410998,1.6659691872608873,-0.4667655974335232,1.0417103846162723,-0.0498044923956811,0.587708701376871,-0.0653056208846591,0.1170402096988931,0.5722222320642536,11.507288873701327,-1.2844539314162549,0.1853454718503168,-1.3843543472906925
2.62,0.5811372161825573,-0.6091559090705025,1.6671085554867575,0.0140114072241765,0.1359969427682816,0.0334821849514973,-0.4477626298643875,1.0418882321227363,-0.063415138375927,0.5763518687688527,-0.5983955404410998,1.6659691872608873,-0.4667655974335232,1.0417103846162723,-0.0498044923956811,1.3542503357246176,-0.1937315525105454,1.3386838576344706,-0.066238860806821,10.72023340218675,-1.2910929707057257,0.1783185047614889,-1.407443507109481
2.64,0.5721666685898571,-0.5882585269883986,1.6658260533764604,0.0288719992068559,0.1398009267136897,0.0343267142308623,-0.4488439805437998,1.0455046542437316,-0.0647120322014214,0.5763518687688527,-0.5983955404410998,1.6659691872608873,-0.4667655974335232,1.0417103846162723,-0.0498044923956811,0.1995605286855054,-0.0540675339706142,0.1808211060497666,-0.0648446912747215,10.72023340218675,-1.2853736994411462,0.1584497821250145,-1.4118630666894565
