t,x,y,z,roll,pitch,yaw,v_x,v_y,v_z,ref_x,ref_y,ref_z,ref_v_x,ref_v_y,ref_v_z,a_com,a_x,a_y,a_z,thrust,wind_x,wind_y,wind_z
0.0,-2.39421973528275,-0.7015283338547424,2.8583085655879974,0.0219808863774461,0.1366997898208233,0.0266020487829208,0.0071127749915179,-0.0054997703616588,0.0320215768081375,-2.39401185946109,-0.7015888214722913,2.859277567260922,0.1069768454745172,0.097062113784261,-0.0677735556612596,1.662994605666534,0.3556387495758985,-0.2749885180829434,1.6010788404068763,10.562617319621497,-1.2851701843080374,0.1538970253221355,-1.18608691033185
0.02,-2.3941832991533656,-0.7018931696414118,2.858705371528041,0.0124977828338865,0.1390296534311878,0.0259724952921706,-0.0026378866965058,-0.0270301164398763,0.0099497699130313,-2.39401185946109,-0.7015888214722913,2.859277567260922,0.1069768454745172,0.097062113784261,-0.0677735556612596,1.6169383609285874,-0.4875330844011927,-1.076517303910876,-1.1035903447553104,10.562726306823606,-1.297101869209192,0.1651813694270405,-1.1759258672903226
0.04,-2.394322795404097,-0.7024588819707244,2.8585857067969864,-0.0040395400862956,0.1450135235290977,0.0248540686128665,-0.0103660582067879,-0.0276574554088314,-0.021023203860883,-2.39401185946109,-0.7015888214722913,2.859277567260922,0.1069768454745172,0.097062113784261,-0.0677735556612596,1.596436103852805,-0.3864085755141015,-0.0313669484477552,-1.5486486886957167,9.243225195943523,-1.2881009967222032,0.1822307883234024,-1.1643241122630807
0.06,-2.394577815171264,-0.7029517132762813,2.8578474296027383,-0.0210181684417146,0.1527399130765114,0.023604310106581,-0.0144084018091172,-0.0212018632966572,-0.0512170428525439,-2.3929420910063453,-0.7006182003344487,2.8585998317043093,0.1269768457725404,0.1170621140822842,-0.0877735559592828,1.5569867728824818,-0.2021171801164674,0.3227796056087143,-1.509691949583045,8.805592633258584,-1.2765423858585303,0.1981796850632526,-1.151166740216949
0.08,-2.394864762129995,-0.7032625402932687,2.8566052828734665,-0.0365749287911209,0.1606947074027941,0.0223398697036976,-0.0153656018865603,-0.0115307950987868,-0.0780417308783698,-2.390802554096855,-0.6986769580587635,2.857244360591084,0.1669768463685869,0.1570621146783307,-0.1277735565553293,1.426542743627934,-0.0478600038721544,0.4835534098935201,-1.3412344012912958,8.875645231810722,-1.2661249401186665,0.2141523633774289,-1.1404352856688311
0.1,-2.395160563227822,-0.7033588253906646,2.854762584474954,-0.0522040372030797,0.1691454311757935,0.0209486358128406,-0.013929408845871,0.0017380856337404,-0.1047683479027228,-2.3886630171873646,-0.6967357157830782,2.8558888894778587,0.2069768469646333,0.1970621152743771,-0.1677735571513757,1.4936849600154911,0.0718096520344657,0.6634440366263635,-1.3363308512176486,8.977135449561501,-1.258366675062666,0.2292998791463739,-1.1323115537542623
0.12,-2.3954043348838003,-0.7031582085767575,2.8524024492392552,-0.067071786414672,0.177367751448228,0.01951943358971,-0.0103206970390624,0.017986573226163,-0.1298654059322549,-2.384523480248072,-0.6927944734775907,2.852533418334831,0.2469768475606798,0.2370621158704235,-0.2077735577474222,1.505737752468384,0.1804355903404298,0.8124243796211283,-1.2548529014766094,9.064301664250706,-1.2528252787660077,0.2436756010459531,-1.1261138104497668
0.14,-2.39555763034934,-0.7025922280662572,2.849547582768872,-0.0808572446084853,0.1852112313417049,0.0181022474135786,-0.0050251144613394,0.0378601897859629,-0.154398712751487,-2.3803839433087792,-0.6888532311721032,2.849177947191804,0.2869768481567263,0.27706211646647,-0.2477735583434687,1.6006927980487204,0.2647791288861509,0.9936808279899968,-1.2266653409616035,9.200980921654264,-1.2502204036828723,0.2565028492272085,-1.1223647439607105
0.16,-2.395592029627423,-0.7016409224632334,2.846381327635718,-0.0921010928288694,0.1922639302425068,0.0168527358556801,0.0012816883777068,0.0608422240340885,-0.1776511351471709,-2.375244406354585,-0.6839119888517144,2.844822476033875,0.3269768487527727,0.3170621170625164,-0.2877735589395151,1.6648008946266812,0.3153401419523119,1.1491017124062772,-1.162621119784195,9.23148093592772,-1.249735586861663,0.2682514613169339,-1.1201288450589388
0.18,-2.3954860141176884,-0.7001473311511384,2.8425709478202577,-0.101572977353813,0.199261231072328,0.0156966380587714,0.0091383620913483,0.0869972493431684,-0.2021402420706642,-2.369104869385491,-0.6779707465164245,2.8394670048610453,0.3669768493488191,0.3570621176585629,-0.3277735595355615,1.8340726734998316,0.3928336856820789,1.307751265453999,-1.2244553461746646,9.23148093592772,-1.2503972010335374,0.2777363861026233,-1.1198418464650104
0.2,-2.395209764757764,-0.698113494704031,2.838274130002848,-0.1086505408282306,0.2058299829058376,0.0147263395468297,0.0182367285491347,0.1147029041644604,-0.2262643380101553,-2.395029096013121,-0.69579746868398,2.8324639357167243,0.1091383635814645,0.1761496301672575,-0.3021402435607804,1.8923236946770767,0.454918322889316,1.3852827410645974,-1.2062047969745568,9.251540208127151,-1.251304630482122,0.284589632263775,-1.120654555544719
0.22,-2.3947471437395684,-0.6954851621519413,2.8338453010858053,-0.1080587708712253,0.2116719227624333,0.0143651837286312,0.0301931931059628,0.15743720132526,-0.2383887213873198,-2.395029096013121,-0.69579746868398,2.8324639357167243,0.1091383635814645,0.1761496301672575,-0.3021402435607804,2.300096666883088,0.5978232278414087,2.13671485803998,-0.6062191688582241,9.291988191274868,-1.2514326730501808,0.2847827265953371,-1.127099103998806
0.24,-2.3940016854274733,-0.6919864660786527,2.8289471069636263,-0.1001589723136804,0.2173999853546792,0.014590944638425,0.0438376214626758,0.1889277016798809,-0.2507968628320064,-2.395029096013121,-0.69579746868398,2.8324639357167243,0.1091383635814645,0.1761496301672575,-0.3021402435607804,1.824680802138556,0.6822214178356486,1.574525017731046,-0.6204070722343275,10.07838654022362,-1.257270676659075,0.2780116554283715,-1.1384244786185271
0.26,-2.3929772720639204,-0.6879472907644205,2.8237848918551194,-0.0904645129971077,0.2227297171552728,0.0150462266185557,0.0580035242989949,0.2130338592458304,-0.2648904747553557,-2.3939377123773062,-0.6940359723823074,2.8294425332811164,0.1291383638794877,0.1939801063320753,-0.3221402438588036,1.565574601231438,0.7082951418159555,1.2053078782974722,-0.7046805961674674,9.95296785748178,-1.2617808397761108,0.2694623881063395,-1.1516935495692675
0.28,-2.391665663679244,-0.6834744255211227,2.8183186180547386,-0.081038772992356,0.2277040716999309,0.0155742880658204,0.0725424928256395,0.2330040948304099,-0.2810507226754478,-2.391754945105677,-0.6905129797789622,2.823399728409901,0.1691383644755341,0.2296410586617109,-0.36214024445485,1.4759281215232058,0.7269484263322298,0.9985117792289748,-0.8080123960046037,9.82643779551654,-1.2646605440512773,0.2613559116533709,-1.1636625635575744
0.3,-2.390146597349434,-0.6788817771733829,2.812809395823158,-0.0730185598925107,0.2321326213006793,0.0160818784150697,0.0867036083619221,0.2495379866103196,-0.2980876857967174,-2.389572177834048,-0.6869899871756171,2.8173569235386853,0.2091383650715806,0.2653020109913466,-0.4021402450508965,1.3821766195182985,0.7080557768141281,0.8266945889954885,-0.8518481560634811,9.621209008767435,-1.2673967625336189,0.2535002134894358,-1.1737482131406984
0.32,-2.3882530054835884,-0.6737267068815306,2.8066445427171995,-0.0657707872575958,0.2365082042396416,0.0165946533587891,0.1019746577846911,0.265178735354323,-0.3175950083742952,-2.3853894105326163,-0.6816839469557902,2.809314118637668,0.249138365667627,0.3009629633209822,-0.4421402456469429,1.4649006842542025,0.7635524711384505,0.7820374372001698,-0.975366128878888,9.537401130372018,-1.2689741326293271,0.2465814392530246,-1.1810498026408838
0.34,-2.386048208241962,-0.668271741419101,2.800080971501808,-0.0597406968870219,0.2406090694570226,0.0170747873704128,0.1178142297683422,0.2796349238267462,-0.3378342314245109,-2.3812066432311845,-0.6763779067359632,2.8012713137366494,0.2891383662636735,0.3366239156506179,-0.4821402462429894,1.47436390983694,0.791978599182553,0.7228094236211569,-1.0119611525107874,9.537401130372018,-1.2686767492760331,0.2408258045633005,-1.1878728740803588
0.36,-2.38352022968346,-0.6625302019366304,2.7931079100952614,-0.0545888315317642,0.2444485150332042,0.0175373236279402,0.1342642026472096,0.2938038719187973,-0.3584804555453804,-2.376023875914852,-0.6701803427078954,2.7922285088207306,0.32913836685972,0.3722848679802534,-0.5221402468390358,1.4980214185717504,0.8224986439433736,0.708447404602558,-1.0323112060434736,9.509603138113562,-1.2682793179151242,0.2362779037672096,-1.1945947869549058
0.38,-2.3808084259846654,-0.6568182615058469,2.7860979116785924,-0.0501754625964273,0.2478659111454803,0.0179778523205802,0.1504254857186414,0.306712213732742,-0.3783967532481095,-2.3698411085836177,-0.6630912548715867,2.78218570388991,0.3691383674557664,0.4079458203098891,-0.5621402474350823,1.4356803901672446,0.8080641535715873,0.6454170906972312,-0.9958148851364534,9.499800629877427,-1.2680661696835682,0.2320041804061834,-1.201036235433827
0.4,-2.377617174261636,-0.6505485401718059,2.7783051906117837,-0.0459253608987051,0.2512350036919271,0.0184453606456247,0.1679098761614405,0.3195328191721104,-0.3998609446199577,-2.373287151698733,-0.6414826508192097,2.767178074016187,0.2504254872087575,0.3600476307947861,-0.4783967547382256,1.525437104763362,0.8742195221399574,0.6410302719684208,-1.0732095685924092,9.490533435389809,-1.2676180946329632,0.2281128742125924,-1.2068751572460108
0.42,-2.3740211621143934,-0.64393389450374,2.770262850817603,-0.0392164054401294,0.25429717650743,0.0191198400664217,0.191150833699901,0.3397613461535172,-0.4022680027322274,-2.373287151698733,-0.6414826508192097,2.767178074016187,0.2504254872087575,0.3600476307947861,-0.4783967547382256,1.5452583440139314,1.1620478769230251,1.0114263490703406,-0.1203529056134855,10.697525174488874,-1.2648826903414625,0.2208530098140765,-1.206970331204413
0.44,-2.3701692421558302,-0.6373467614260013,2.7625835862995483,-0.0306049186779561,0.2568939042706979,0.0199498668628964,0.2131654557868525,0.3521655815052745,-0.4060729479175418,-2.373287151698733,-0.6414826508192097,2.767178074016187,0.2504254872087575,0.3600476307947861,-0.4783967547382256,1.2776797800665127,1.100731104347573,0.6202117675878666,-0.1902472592657217,10.697525174488874,-1.2699685970426449,0.2131750449140141,-1.2229443965502034
0.46,-2.365669760446945,-0.6302067928417525,2.7543819157778,-0.0215754654476953,0.2594036365582013,0.0208444073462903,0.2356196886186535,0.3610295766945217,-0.4140925078594793,-2.370782896826646,-0.6378821745112618,2.7623941064688045,0.2704254875067808,0.3707147142071949,-0.4983967550362488,1.2718847475715465,1.1227116415900489,0.4431997594623593,-0.4009779970968741,10.456623107299492,-1.2735978835193895,0.204592093272025,-1.236625698029908
0.48,-2.360727422344909,-0.622918885589971,2.7459817217094247,-0.0133820458636358,0.2617497411948514,0.0216958598921832,0.2574985532948843,0.3673021138159121,-0.4256784729522382,-2.3657743870824706,-0.6306812218953661,2.75282617137404,0.3104254881028272,0.3920488810320126,-0.5383967556322953,1.2769730112561803,1.0939432338115422,0.3136268560695182,-0.5792982546379472,10.22025267180834,-1.2760271709359243,0.1965145070058712,-1.2469768600388125
0.5,-2.355351503181561,-0.6155253291398675,2.7373195360105456,-0.0062764898020758,0.2639672351078212,0.0224805161769042,0.279015146720855,0.3717883623749082,-0.4400774047149071,-2.360765877338296,-0.6234802692794704,2.743258236279276,0.3504254886988737,0.4133830478568303,-0.5783967562283417,1.3137917021902792,1.0758296712985338,0.2243124279498076,-0.719946588133441,10.032241638369667,-1.2773833340653986,0.1896443239132941,-1.2531882859320274
0.52,-2.3498478764802835,-0.6084312274778597,2.728802346659846,-0.0005703208232964,0.265970197980593,0.0231574068568898,0.2992526066525609,0.3748089678857939,-0.4558374324276974,-2.353757367564318,-0.6152126083223338,2.7316903011547087,0.3904254892949201,0.4347172146816479,-0.6183967568243882,1.2913726375912122,1.0118729965852946,0.1510302755442838,-0.7880013856395168,9.887076666388566,-1.2784499510616831,0.1834889277942376,-1.2575293165050732
0.54,-2.34363874549089,-0.6009122127178954,2.719500641561817,0.0043550523288386,0.2679746962024608,0.0237956449404027,0.3206263353884724,0.3770424830579981,-0.473542370987946,-2.346748857790341,-0.6069449473651972,2.7201223660301417,0.4304254898909666,0.4560513815064656,-0.6583967574204347,1.392201242208695,1.068686436795574,0.1116757586102107,-0.8852469280124314,9.77428098989003,-1.2792540590215635,0.1784852149524157,-1.2598477593686306
0.56,-2.3369999413680125,-0.593351730292548,2.7098390507462486,0.0084135950440842,0.2698705179506713,0.0243720677340816,0.3422185420034296,0.3789340570444592,-0.4917498029644573,-2.338740348001462,-0.5981439322374402,2.707554430890674,0.470425490487013,0.4773855483312832,-0.698396758016481,1.415372758170566,1.07961033074786,0.0945786993230529,-0.9103715988255628,9.724243563205164,-1.2800312463785863,0.1744294310570641,-1.261200480791676
0.58,-2.329927111443456,-0.5857585784556618,2.6998085899273483,0.0118273620570376,0.2716570529223794,0.0249001466064453,0.3640193186285471,0.3803479773683609,-0.5103877222523028,-2.329731838197682,-0.5888095629390627,2.6939864957363047,0.5104254910830595,0.4987197151561009,-0.7383967586125275,1.43583169933044,1.0900388312558766,0.0706960161950848,-0.9318959643922736,9.68303673128139,-1.280843592931541,0.1712495825212194,-1.2620183855466378
0.6,-2.322802299383831,-0.5785232049619732,2.689930424672497,0.0145874710813895,0.2732554363283382,0.0253635401640537,0.3848984929990506,0.3812507380295183,-0.5284878988155245,-2.3117261455120284,-0.5667411795872438,2.674289203814733,0.4640193201186632,0.4010914852602543,-0.6103877237424189,1.3823632760828668,1.043958718525173,0.0451380330578732,-0.9050088281610856,9.68303673128139,-1.2818258431324403,0.1684699228900748,-1.2623792803681275
0.62,-2.3148018636272663,-0.5708022545167263,2.6793958836806078,0.0200609818004646,0.2747135727186033,0.0260255468471862,0.4144184629068109,0.3891731658753186,-0.5228166448134485,-2.3117261455120284,-0.5667411795872438,2.674289203814733,0.4640193201186632,0.4010914852602543,-0.6103877237424189,1.5543138424100924,1.4759984953880172,0.3961213922900108,0.283562700103801,11.273297796332372,-1.280169840378342,0.1623999614159021,-1.2572639067282885
0.64,-2.306209051974249,-0.5630001285622329,2.6689728299162363,0.0281308156004263,0.275846480503355,0.0268569128744022,0.4433366068251118,0.3900948285268834,-0.5199373331870772,-2.3117261455120284,-0.5667411795872438,2.674289203814733,0.4640193201186632,0.4010914852602543,-0.6103877237424189,1.45378724815962,1.4459071959150442,0.0460831325782395,0.1439655813185614,11.273297796332372,-1.286970813288279,0.1547947446679259,-1.2721231371433517
0.66,-2.2975169929839745,-0.5556161521016943,2.659071729457496,0.0358154870932914,0.2764672998939563,0.027622097663298,0.4700931807413717,0.3870824573564608,-0.5224141324902916,-2.3070859523108416,-0.5627302647346413,2.668185326577309,0.4840193204166865,0.4052401868386329,-0.6303877240404421,1.351964461989546,1.3378286958129926,-0.1506185585211289,-0.1238399651607158,10.621852497812142,-1.292263978550555,0.1462718539042858,-1.2825576348973118
0.68,-2.2878292559337705,-0.5479305729635381,2.648556255945676,0.0430435554110411,0.2764485080150325,0.0283223774182801,0.4971452207271733,0.3816645993176448,-0.529167146736271,-2.2978055659084684,-0.5547084350294361,2.6559775721024605,0.524019321012733,0.4135375899953903,-0.6703877246364885,1.4201841909841963,1.3526019992900815,-0.2708929019408002,-0.3376507122989702,10.380972145334454,-1.297849105109036,0.1385515717311106,-1.288441403373413
0.7000000000000001,-2.277611447825732,-0.540370227630015,2.6378682206840294,0.0490998063629959,0.2757022602151511,0.0288824486509781,0.5231867557773773,0.3747489426371396,-0.5394119186671522,-2.2885251795060952,-0.5466866053242311,2.643769817627612,0.5640193216087794,0.4218349931521477,-0.710387725232535,1.441304276522995,1.3020767525101975,-0.34578283402526,-0.5122385965440623,10.189096371036612,-1.303186241088487,0.1323429888383038,-1.2901891490189872
0.72,-2.266882419545593,-0.5329600545912304,2.6269433464129004,0.0538991805579412,0.2741111740133681,0.0292826750428755,0.5483289473780002,0.366844942482682,-0.5525100877660577,-2.27724479307392,-0.5382499054611881,2.629562063122961,0.6040193222048259,0.430132396308905,-0.7503877258285815,1.4715341065259249,1.257109580031146,-0.3952000077228762,-0.6549084549452744,10.189096371036612,-1.3084739993027792,0.1271035003195376,-1.2877567460432957
0.74,-2.2562306646259302,-0.5260734248271928,2.616311065318121,0.0573737446320262,0.2717388477279744,0.0295113170710604,0.5715617747016625,0.3586795061712721,-0.5659755243337959,-2.265964406641744,-0.5298132055981452,2.615354308618311,0.6440193228008724,0.4384297994656624,-0.790387726424628,1.4033500967030486,1.1616413661831138,-0.4082718155704962,-0.6732718283869121,10.03734810786591,-1.3147611776361732,0.1232114717372168,-1.2821298318105585
0.76,-2.2445456090740348,-0.5189934684847832,2.6048336316012874,0.0600612205545702,0.2681540616094685,0.0295911517856954,0.5956129142493245,0.3498745091145544,-0.5810610734888041,-2.2536840201946675,-0.5211690706561832,2.600146554098759,0.6840193233969187,0.4467272026224197,-0.8303877270206743,1.4862360848954037,1.2025569773831013,-0.4402498528358861,-0.7542774577504074,9.97343989646015,-1.321878361793762,0.1204345900992128,-1.274131141438938
0.78,-2.232386311327537,-0.51209275304502,2.5930449925151957,0.0618805021485466,0.2631219341246492,0.0294934163027418,0.6188434952296258,0.3407561119374324,-0.5970174505753966,-2.2404036337326896,-0.5123175006353025,2.583938799564306,0.7240193239929652,0.4550246057791771,-0.8703877276167208,1.4810562358428658,1.1615290490150645,-0.4559198588560992,-0.7978188543296238,9.90984079269674,-1.331322764790573,0.1186593945660442,-1.264990775251355
0.8,-2.219785006637044,-0.5053799533034636,2.5809273723690502,0.0627772153731171,0.2567874092013581,0.0292250382716287,0.6397945953565369,0.3311120509110101,-0.6138500614103659,-2.201444136566056,-0.4950549474481484,2.563194119986425,0.7188434967197419,0.35196049527344,-0.6970174520655127,1.4276670630181447,1.0475550063455574,-0.4822030513211173,-0.8416305417484671,9.84660257194264,-1.3413910799854254,0.1178927187544456,-1.2547345269081018
0.8200000000000001,-2.207394259223362,-0.499158228559033,2.5693679354841823,0.0640134270647914,0.2505222214450717,0.0289634929768135,0.6636350240117794,0.3239350774861148,-0.600594263074851,-2.201444136566056,-0.4950549474481484,2.563194119986425,0.7188434967197419,0.35196049527344,-0.6970174520655127,1.4103112914523532,1.1920214327621248,-0.3588486712447658,0.6627899167757467,9.77341624752262,-1.3494557117060613,0.1166676855833265,-1.234359098827121
0.84,-2.1938888981787925,-0.4927817852285964,2.5574739658972194,0.0662609999758003,0.2446986997240874,0.0287780074159868,0.6853311031816326,0.313947495310046,-0.5900185581394828,-2.201444136566056,-0.4950549474481484,2.563194119986425,0.7188434967197419,0.35196049527344,-0.6970174520655127,1.306060090451654,1.0848039584926583,-0.4993791088034355,0.5287852467684095,11.779739872406935,-1.3632150468755218,0.1142738255162296,-1.2414334535565692
0.86,-2.1799848151458368,-0.4866241295320764,2.5457153758613766,0.0682056825237764,0.2399861756348049,0.0286176545315536,0.7038059793435264,0.3024616566880487,-0.5866253837279941,-2.194255701598858,-0.491535342495414,2.5562239454657703,0.7388434970177651,0.3542013719406415,-0.7170174523635359,1.1008623558768142,0.9237438080946904,-0.5742919310998684,0.1696587205744337,11.285260887961158,-1.3717299715602589,0.1121837798970539,-1.2423252374154972
0.88,-2.1657414941014066,-0.4807050621240673,2.533957757156436,0.0692377918666298,0.2364969973436282,0.0284564389120197,0.7195343022981727,0.2902133043223103,-0.5892365227244225,-2.179878831664464,-0.4844961325899451,2.5422835964244603,0.7788434976138116,0.3586831252750446,-0.7570174529595823,1.0052615648422218,0.7864161477323162,-0.6124176182869201,-0.1305569498214198,10.844933865737405,-1.378567378322652,0.111037530735744,-1.2397058298989636
0.9,-2.151939853718733,-0.4753143580122873,2.522697857225217,0.0689677874300115,0.2345222800577371,0.0282969732386966,0.7324595098787535,0.2780511754778464,-0.595838006043573,-2.1655019617300693,-0.4774569226844763,2.52834324738315,0.818843498209858,0.3631648786094476,-0.7970174535556288,0.9467813251266948,0.64626037902904,-0.6081064422231913,-0.3300741659575223,10.507662053972126,-1.3828013421016272,0.1114277101742915,-1.2354352929849786
0.92,-2.137158563459797,-0.4698896490188269,2.510676536094953,0.0670242661781714,0.2339956971030201,0.0281137156304617,0.7451353083936053,0.2652539903866492,-0.6060829531086483,-2.149125091765872,-0.4701936251122874,2.512402898312037,0.8588434988059045,0.3676466319438506,-0.8370174541516753,1.0361017742163137,0.6337899257425894,-0.639859254559863,-0.5122473532537697,10.252461656506966,-1.3832663013382631,0.1136724724348332,-1.23023659996802
0.94,-2.1221192590784685,-0.464709468310515,2.498433735353785,0.0633826870476995,0.2346727572134792,0.0278878763353558,0.758271067986429,0.2539865222390507,-0.617684175756471,-2.1327482218016747,-0.4629303275400984,2.496462549240925,0.898843499401951,0.3721283852782537,-0.8770174547477217,1.0417441930027236,0.6567879796411824,-0.5633734073799218,-0.5800611323911353,10.048616751449115,-1.3817761409280072,0.1178160828076555,-1.2242076556605497
0.96,-2.10680479570517,-0.459726926586827,2.485950240202084,0.0590165550820276,0.2359258283525579,0.0276431066493126,0.7725709330622114,0.2450982041805443,-0.6300588906728437,-2.1153713518225765,-0.4555549861345494,2.479522200154911,0.9388434999979972,0.3766101386126567,-0.917017455343768,1.0447749857699618,0.7149932537891202,-0.4444159029253242,-0.6187357458186327,9.97344270852318,-1.3801254041617832,0.1224926901265154,-1.2198059302929316
0.98,-2.091982424626263,-0.4551419738470576,2.4738544243459173,0.054744129659422,0.2370824023251185,0.0273953275469742,0.7869514126490466,0.2381157735979846,-0.6425478615228835,-2.096994481828577,-0.4480676008956403,2.461581851053996,0.9788435005940438,0.3810918919470598,-0.9570174559398146,1.014306318230334,0.7190239793417597,-0.3491215291279811,-0.6244485425019874,9.926825716075657,-1.3790117798824697,0.1275438521933956,-1.2165913812620015
1.0,-2.0760812058496096,-0.4504458248207565,2.4608560596255065,0.0503511037150515,0.2379261750933035,0.027118414998078,0.8023849814031238,0.2319789576153049,-0.656661799739186,-2.05263485399381,-0.4432361851671584,2.441727031269773,0.8869514141391627,0.2537331190577438,-0.7425478630129996,1.0897921898987295,0.7716784377038599,-0.3068407991339852,-0.705696910815129,9.819993959664316,-1.3786226618306865,0.1324571486029201,-1.2134686101609924
1.02,-2.059782816379427,-0.4458428215339355,2.447898049599324,0.0472342997899126,0.2380184818812963,0.0268932653748153,0.8270042587770603,0.2280792551122077,-0.6367844041559542,-2.05263485399381,-0.4432361851671584,2.441727031269773,0.8869514141391627,0.2537331190577438,-0.7425478630129996,1.594072891369598,1.2309638686968272,-0.194985125154859,0.9938697791615936,9.819993959664316,-1.376800818542034,0.1356787413999043,-1.202386559627734
1.04,-2.042997834170884,-0.441336099600055,2.435331689165716,0.0453425770427048,0.2372240857419793,0.0267128418833272,0.8500963659666465,0.2227238652739233,-0.6210494556121355,-2.05263485399381,-0.4432361851671584,2.441727031269773,0.8869514141391627,0.2537331190577438,-0.7425478630129996,1.4225981692417218,1.1546053594793104,-0.2677694919142229,0.7867474271909314,12.111181697196116,-1.382065834927125,0.1379934231446123,-1.2189558022221425
1.06,-2.0266425731996054,-0.4371587434884985,2.423611513880485,0.043747283639619,0.2356900170895847,0.0265215743962564,0.8702728659936746,0.217364363081841,-0.6134162425589191,-2.043765339852419,-0.440698853976581,2.434301552639643,0.906951414437186,0.2568565881496957,-0.7625478633110228,1.1113970471926229,1.0088250013514044,-0.2679751096041127,0.3816606526608201,11.58497986594648,-1.386377588311361,0.1399439690801222,-1.2312981241546903
1.08,-2.009031287003345,-0.4328681141102423,2.4113706871452085,0.041971905649707,0.2331071373179796,0.0262746089967878,0.8896379736654954,0.2120996342305886,-0.6113094548759022,-2.026026311569636,-0.4356241915954261,2.419450595379383,0.9469514150332324,0.2631035263335994,-0.8025478639070692,1.0089144157951817,0.968255383591038,-0.2632364425626227,0.1053393841508487,11.117811933871964,-1.3917783029053827,0.1420279966890807,-1.2377924273075829
1.1,-1.991053888683069,-0.4286770300146829,2.3991110881284743,0.0400313000307076,0.2294745323240601,0.025978828242067,0.9070084117952616,0.2074064668784829,-0.6146947221701707,-2.0082872832868524,-0.4305495292142712,2.404599638119123,0.9869514156292788,0.2693504645175031,-0.8425478645031157,0.9154479439986578,0.8685219064883065,-0.2346583676052824,-0.1692633647134289,10.750481164034682,-1.3978578301540008,0.1441773433434051,-1.23924041848861
1.12,-1.9736742274586472,-0.4247763862167045,2.3873610305136173,0.0380705122532173,0.2251072869426738,0.0256627006424425,0.9214327759938128,0.2035259452649972,-0.6219354301518485,-1.9885482549742668,-0.4251625199239211,2.387748680829061,1.0269514162253253,0.2755974027014068,-0.8825478650991622,0.8299828049440449,0.721218209927571,-0.1940260806742866,-0.3620353990838876,10.44495349693807,-1.4051552967702037,0.146556977745308,-1.2363286416081087
1.14,-1.9551077608008076,-0.4207439296072994,2.374822036559376,0.0359479671501052,0.219861800993773,0.0253146879015454,0.9341921123475532,0.2000073519836742,-0.6316309336317546,-1.9688092266616808,-0.4197755106335711,2.3708977235389983,1.0669514168213718,0.2818443408853105,-0.9225478656952086,0.8203413170688786,0.6379668176870135,-0.1759296640661503,-0.4847751739953054,10.19250796920005,-1.4136237035644732,0.1490256228805588,-1.229618591979201
1.16,-1.9363088610751285,-0.416775216787531,2.3620692621556416,0.0338507574422544,0.2144024089878125,0.0249766575274149,0.9448696597872154,0.1970960992363655,-0.6432063217950946,-1.9480701983341944,-0.4142323278886234,2.353046766234035,1.1069514174174182,0.2880912790692141,-0.962547866291255,0.8007418794732509,0.5338773719831102,-0.1455626373654345,-0.5787694081670014,9.933544922297187,-1.4213497233739634,0.1513800275552048,-1.2206466477620488
1.18,-1.9173180103889311,-0.4128590945852047,2.349062912998699,0.0318468952177493,0.2089669294588366,0.0246622780255012,0.9535379652089744,0.1946996094583534,-0.6567969385024016,-1.9263311699918064,-0.4085329716890782,2.3341958089141706,1.1469514180134646,0.2943382172531179,-1.0025478668873014,0.8148428447037298,0.4334152710879557,-0.1198244889006036,-0.6795308353653495,9.933544922297187,-1.4282525206796743,0.1534820247772025,-1.2113453691889569
1.2,-1.8991342547380885,-0.4091788114969962,2.3364374973818336,0.0300601999529874,0.2040295331289759,0.0243935785794786,0.9600047221228932,0.1928401755207634,-0.671474056093019,-1.8696411121284824,-0.4031241141122871,2.316223066073579,1.037679629415956,0.2077246427460574,-0.7567969399925177,0.8073014002229691,0.3233378456959312,-0.0929716968794999,-0.7338558795308703,9.809736289914326,-1.4350307208320874,0.1555309129770618,-1.2004632680369067
1.22,-1.879779165344578,-0.4053092334748628,2.3231988574722573,0.029565892415429,0.1985573754217717,0.0242110190123757,0.975311888981912,0.193857418459304,-0.6497780749455904,-1.8696411121284824,-0.4031241141122871,2.316223066073579,1.037679629415956,0.2077246427460574,-0.7567969399925177,1.3285892314739691,0.7653583429509447,0.0508621469270276,1.0847990573714328,12.145037708497512,-1.435785208553047,0.1555357939693781,-1.1746116414123189
1.24,-1.8611325522550923,-0.4016228472499662,2.311015264733146,0.0311146594208913,0.1928564541918233,0.0241598433231677,0.9864848152240728,0.1939404893110931,-0.6339906593660662,-1.8696411121284824,-0.4031241141122871,2.316223066073579,1.037679629415956,0.2077246427460574,-0.7567969399925177,0.9670621389804585,0.5586463121080409,0.0041535425894564,0.7893707789762061,12.145037708497512,-1.4470627515643673,0.1543023448507367,-1.1874464174969144
1.26,-1.841315134144645,-0.3977560585787791,2.298428619757215,0.0341917363598107,0.1869509118851867,0.0241908618684979,0.9944272791125514,0.1923718512207459,-0.6258741654344999,-1.8592643158343227,-0.4010468676848265,2.308655096673654,1.0545079622573523,0.2103296494035982,-0.7767969402905409,0.5731946262383887,0.3971231944239262,-0.0784319045173592,0.4058246965783163,11.518659607453628,-1.4578616844183658,0.151314541120785,-1.1928283222066958
1.28,-1.8213763136950696,-0.3939485725314661,2.2859222860051323,0.0376000231423015,0.1815855602760193,0.0242367533735117,0.9988391992153858,0.1884031641495575,-0.6254438162225546,-1.838510723246004,-0.3968923748299053,2.2935191578738032,1.0881646279401451,0.2155396627186798,-0.8167969408865874,0.2974925062376971,0.220596005141721,-0.1984343535594207,0.0215174605972645,10.9703758614678,-1.4668348909118951,0.1478080381375759,-1.1927009936041084
1.3,-1.8013840888101358,-0.3902346763807584,2.273358522662263,0.0405988800239515,0.1773323506133292,0.0242725024482341,0.9999825551945312,0.1832449515846806,-0.6311656354946421,-1.8177571306576843,-0.3927378819749842,2.278383219073953,1.1218212936229377,0.2207496760337614,-0.8567969414826339,0.3894022198894522,0.0571677989572749,-0.2579106282438445,-0.286090963604374,10.52353791778296,-1.4731505914070302,0.1447951124111773,-1.189857616689909
1.32,-1.7823999702162772,-0.3868087907675734,2.261265978478689,0.0428491084425283,0.1750191791397375,0.024320446742589,0.9982765314313036,0.1777743450300528,-0.6413898905992749,-1.7953207047852258,-0.388322888454309,2.2612472802443,1.1554779593057305,0.225959689348843,-0.8967969420786803,0.58603209297965,-0.0853011881613796,-0.273530327731393,-0.5112127552316381,10.177228853560337,-1.476780825571561,0.1422573619158,-1.1849190817204582
1.34,-1.7624644152485232,-0.3833177835381004,2.248306022382749,0.0445905057633327,0.1749471336607062,0.0244213458738052,0.9956631218360762,0.1717053546945055,-0.6541422403270432,-1.772884278912767,-0.3839078949336337,2.244111341414648,1.189134624988523,0.2311697026639246,-0.9367969426747268,0.7181312153511802,-0.1306704797613744,-0.303449516777364,-0.6376174863884143,9.91149797471553,-1.4752794831210732,0.1403183902426576,-1.1769556629707971
1.36,-1.7425663414931172,-0.3799518814758846,2.235076998416336,0.0456349548472794,0.1767759434620045,0.0245561819088457,0.9944876812934108,0.1652408697245951,-0.6681584010207857,-1.7496064363982384,-0.3793626510800815,2.2259754025700937,1.2227912906713156,0.2363797159790062,-0.9767969432707732,0.7739896429997514,-0.0587720271332636,-0.3232242484955211,-0.7008080346871282,9.791180251446349,-1.4711872092414722,0.1391383855897076,-1.1699700448589307
1.38,-1.7226760534778824,-0.3767204605608902,2.2215567470057223,0.0457614180126242,0.1797170423445301,0.024677044216336,0.994788302666646,0.1583499460381854,-0.6831476210434299,-1.72548717724164,-0.3746871568936522,2.2068394637106388,1.2564479563541084,0.2415897292940878,-1.0167969438668196,0.8250029080997276,0.0150310686617582,-0.3445461843204822,-0.7494610011322067,9.667250832841091,-1.4663526129221818,0.1389488835561864,-1.1643866128687277
1.4,-1.7037610966125163,-0.3737802291999157,2.208427300042567,0.0448414789624871,0.182992903819403,0.0247395388346753,0.996362536547144,0.151630049407102,-0.6981393687085546,-1.67293663834455,-0.368802963258981,2.1873993659535507,1.0758469762272656,0.1745319980097402,-0.7480769871551852,0.825208641947187,0.0787116940248966,-0.3359948315541705,-0.7495873832562394,9.667250832841091,-1.4610002743936743,0.1398940273564606,-1.1607342107286462
1.42,-1.68368199867766,-0.3708344479855756,2.1947296324530274,0.0427454212029586,0.1852718529032576,0.0246714038235147,1.0118111885888603,0.143327875924569,-0.6686100646222921,-1.67293663834455,-0.368802963258981,2.1873993659535507,1.0758469762272656,0.1745319980097402,-0.7480769871551852,1.7172410534481324,0.7724326020858152,-0.4151086741266505,1.4764652043131266,9.622111919671624,-1.4496329837443291,0.1415826023101042,-1.135463204164215
1.44,-1.663287372891168,-0.3680462835606475,2.181648704374576,0.0396364328375678,0.1851119584341254,0.0244291816727605,1.026604022454258,0.1363074310253807,-0.6415842638819487,-1.67293663834455,-0.368802963258981,2.1873993659535507,1.0758469762272656,0.1745319980097402,-0.7480769871551852,1.5799592447342954,0.7396416932698879,-0.3510222449594161,1.351290037017172,12.14468122953167,-1.4518592585389216,0.1448070397557828,-1.1572677292770008
1.46,-1.642619915290138,-0.3653791819122988,2.169011981629668,0.0360134463010788,0.182750584757881,0.0240745250269448,1.0392252263569506,0.1310183621486477,-0.6233909860639878,-1.6621781685822774,-0.3670576432788835,2.1799185960819987,1.092058710939389,0.1777684084040511,-0.7610628603775363,1.1382710521858062,0.6310601951346251,-0.2644534438366486,0.9096638908980436,12.14468122953167,-1.4565239532106524,0.1485077952229381,-1.1707094891721084
1.48,-1.622774644139236,-0.3629290174158948,2.157276103469615,0.0323755758670552,0.1785665499140322,0.0236737748660739,1.0489379457446328,0.1273291821904688,-0.6128330931507575,-1.6406612290577325,-0.3635670033186888,2.164957056338895,1.1244821803636371,0.184241229192673,-0.7870346068222385,0.7406349799917061,0.4856359693841128,-0.1844589979089456,0.5278946456615141,11.609064315462092,-1.4639812633285272,0.1527214829937265,-1.1775527899136562
1.5,-1.6017209318698022,-0.3604124427790927,2.145082852939525,0.0285290934815251,0.1725740203179528,0.0232293288535093,1.0555051122630483,0.1246552717097695,-0.6072599633629231,-1.619144289533187,-0.3600763633584939,2.149995516595792,1.156905649787885,0.1907140499812949,-0.8130063532669406,0.4509358296128126,0.3283583259207745,-0.1336955240349643,0.2786564893917209,11.17286099262492,-1.47417884706046,0.1570744392398039,-1.1788594932519385
1.52,-1.5805791465536814,-0.3579377272573842,2.132946309924116,0.024794120520227,0.1659721428552236,0.0228111604544294,1.0580697413297502,0.1230493875408935,-0.6068537192628918,-1.5960061765374292,-0.3562620823588681,2.133735389530453,1.1893291192121327,0.1971868707699168,-0.8389780997116427,0.1526533694553508,0.1282314533350925,-0.0802942084437985,0.0203122050015658,10.507120719119484,-1.4841894312178965,0.1612570607748941,-1.174997638283528
1.54,-1.5594205098698908,-0.3554850593388737,2.1207878577205888,0.0212667899009804,0.1596146203057616,0.0224496296638981,1.057497230459117,0.1223643151622004,-0.609077672718975,-1.5728680635416714,-0.3524478013592421,2.117475262465114,1.2217525886363805,0.2036596915585387,-0.864949846156345,0.1198234308875525,-0.0286255435316573,-0.0342536189346549,-0.1111976728041586,10.35952236022422,-1.4925804230571094,0.1649448246927315,-1.1676999533852734
1.56,-1.539352696766843,-0.353158623279928,2.1091752195700013,0.018208036802774,0.1542905039921989,0.0221720894026394,1.0548438430202818,0.1225559726894522,-0.6131609590213767,-1.5489193638103076,-0.3484716998399007,2.100565841738657,1.254176058060628,0.2101325123471606,-0.8909215926010471,0.2436720364326947,-0.1326693719417626,0.009582876362589,-0.2041643151200867,10.35952236022422,-1.4999233334239277,0.1684391184087229,-1.1588624540826284
1.58,-1.5183039406166874,-0.3506990255323337,2.096850330404183,0.0153453550106103,0.1498102600137353,0.0219515854771504,1.050039137312749,0.1234008528070407,-0.6191776717660825,-1.5241600773433377,-0.3443337778008437,2.083007127351084,1.2865995274848758,0.2166053331357825,-0.9168933390457492,0.387297855666027,-0.2402352853766443,0.0422440058794264,-0.3008356372352916,10.23985269613513,-1.5059274984190305,0.1715305201514809,-1.1504147415531445
1.6,-1.4973711481304066,-0.3482163248650931,2.0843877129844235,0.0128654645250924,0.1469993656393056,0.0218038771749054,1.0433899853161943,0.1248148413366586,-0.6268358651503426,-1.46580198375105,-0.3445289828919817,2.0658914468158787,1.1037393944054632,0.143941308163281,-0.6707729237733285,0.5120022259372972,-0.3324575998277179,0.0706994264808913,-0.3829096692130052,10.130842089261932,-1.5095698903099954,0.1740482307715409,-1.1431286590665994
1.62,-1.4764694934836056,-0.3456807838470317,2.0720902137859016,0.0114601799476976,0.1442540823064471,0.0217473967181306,1.047502682766042,0.1284108191915298,-0.600872540505473,-1.46580198375105,-0.3445289828919817,2.0658914468158787,1.1037393944054632,0.143941308163281,-0.6707729237733285,1.3265929704148127,0.2056348724923662,0.1797988927435601,1.2981662322434806,10.034630665340956,-1.4995237417558358,0.1743303344110552,-1.1208795232713966
1.64,-1.4565357168672983,-0.3432112459255083,2.0608906968563634,0.0113771696406519,0.1395339094948063,0.0217643596449206,1.050321804847552,0.1312561484641796,-0.5795144594345171,-1.46580198375105,-0.3445289828919817,2.0658914468158787,1.1037393944054632,0.143941308163281,-0.6707729237733285,1.0865207948007514,0.1409561040755069,0.1422664636324927,1.0679040535477968,12.286379156176736,-1.5092378206682302,0.1753248627892643,-1.1339529418447265
1.66,-1.435532917118843,-0.3405589997509244,2.04946884757056,0.0122093607370767,0.132981602838547,0.0218292754949016,1.0494074818317165,0.1337596586672341,-0.5640991041869239,-1.4547645898069952,-0.3430895698103489,2.0591837175781453,1.1144794458240062,0.1480493992345291,-0.6810919741747777,0.7822031822416464,-0.0457161507917747,0.1251755101527252,0.7707677623796594,11.801056593630165,-1.5211643308377465,0.1752798190475049,-1.1406661316872266
1.68,-1.414593813738556,-0.3378621289197424,2.038277748572108,0.0137934374387447,0.1259837522025174,0.0219341352373958,1.044373575335796,0.1357397681034653,-0.5557325464969954,-1.432689801918886,-0.3402107436470832,2.0457682591026787,1.1359595486610918,0.1562655813770252,-0.7017300749776761,0.4981474068185592,-0.2516953247960196,0.0990054718115585,0.4183278844964222,11.342862306412826,-1.5319576755026811,0.1743176422551769,-1.1412058828239495
1.7,-1.3948278773079494,-0.3352704688036238,2.027748660145056,0.0158176254858097,0.1197804273218592,0.0220637752651212,1.0364530413636217,0.1368944466240155,-0.5529809909579806,-1.4106150140307767,-0.3373319174838176,2.032352800627212,1.1574396514981775,0.1644817635195213,-0.7223681757805746,0.423199712826213,-0.3960266986087313,0.0577339260275103,0.1375777769507424,10.943814035159448,-1.5415870947435475,0.1725342302862387,-1.1368391084875815
1.72,-1.3742125845971471,-0.3325326084485933,2.016680037394702,0.0180861428115523,0.1144269347038304,0.0222138014016633,1.0253182114378745,0.1367754919113852,-0.5541904608222431,-1.3874662210008133,-0.3340422822134272,2.0179054371116005,1.1789197543352632,0.1726979456620174,-0.743006276583473,0.5600477770948026,-0.5567414962873607,-0.0059477356315146,-0.0604734932131256,10.625891420363589,-1.5490414022936287,0.1704738941862684,-1.129798422378515
1.74,-1.3538480551663497,-0.3298076702706784,2.005563077022896,0.0200689445594216,0.1111611859291929,0.0223708060270542,1.0115758856810904,0.1357614227097929,-0.5574950224047391,-1.3643174279708496,-0.3307526469430367,2.003458073595989,1.2003998571723489,0.1809141278045135,-0.7636443773863714,0.708519549489803,-0.6871162878391956,-0.0507034600796166,-0.1652280791248017,10.28180724343474,-1.5528076231573278,0.1685727038649716,-1.1218702769445388
1.76,-1.3337731381876987,-0.3271079726759208,1.994365576070455,0.0216501298797696,0.1107196535194237,0.0225522673759425,0.9969929949845964,0.1343174665521557,-0.5620608715678089,-1.340631632369959,-0.3272576071190839,1.9884947575603047,1.2218799600094348,0.1891303099470096,-0.7842824781892698,0.7674514463973836,-0.7291445348246994,-0.0721978078818602,-0.2282924581534895,10.28180724343474,-1.5510675194678063,0.166952270136611,-1.1150801250034164
1.78,-1.314959409937066,-0.3245741091844117,1.983636957015157,0.022720704519733,0.1124679032173573,0.022742239015481,0.9843877543408196,0.1325215215918345,-0.5670226046032765,-1.3164088341981413,-0.3235571627415687,1.9730154890045488,1.2433600628465205,0.1973464920895057,-0.8049205789921682,0.6832574637412946,-0.6302620321888386,-0.0897972480160561,-0.248086651773377,10.15810153239272,-1.5464689881726383,0.1656917300519684,-1.1104854659639645
1.8,-1.295397634735502,-0.3219474222679948,1.97223739255238,0.0232550481211251,0.1158543863063003,0.0229389635725232,0.972677054703743,0.1302754963743044,-0.5726841842096186,-1.265740022220025,-0.31794803310482,1.9552858267849933,1.022909144749097,0.1594161934342904,-0.5895475761182167,0.6599973464085993,-0.5855349818538302,-0.1123012608765072,-0.2830789803171085,10.15810153239272,-1.54023275086729,0.1650561786395952,-1.108055748664062
1.82,-1.2759596939120834,-0.3193861397972198,1.9610303119496717,0.0226293100757758,0.1184179947048911,0.0230381487458776,0.9718520909160284,0.1260929688664743,-0.5461742004626762,-1.265740022220025,-0.31794803310482,1.9552858267849933,1.022909144749097,0.1594161934342904,-0.5895475761182167,1.3425287146537592,-0.0412481893857286,-0.2091263753915065,1.3254991873471234,10.123669289467216,-1.5250122019988168,0.1647190540415619,-1.093486793357351
1.84,-1.2565354113684872,-0.3169093665270067,1.950369631436603,0.0203203611304842,0.1183262665207683,0.0229637574384436,0.9703750659541186,0.1220687525493342,-0.5214138513456845,-1.265740022220025,-0.31794803310482,1.9552858267849933,1.022909144749097,0.1594161934342904,-0.5895475761182167,1.2564342482801776,-0.0738512480954911,-0.2012108158570009,1.238017455849583,11.92856956421565,-1.5273715172774245,0.1673048014326411,-1.108087409694432
1.86,-1.2381280089091538,-0.3146125988086892,1.9406453958844132,0.0169060491796181,0.1164204471421391,0.0227820026313845,0.9671777890140328,0.1202917108089249,-0.5034161112341996,-1.255510930772534,-0.3163538711704771,1.949390351023811,1.0306134228307524,0.1647951278027816,-0.5940525704212047,0.9182852311500428,-0.1598638470042934,-0.0888520870204669,0.8998870055742458,11.92856956421565,-1.5312213789290314,0.1713190520549226,-1.1184148490115184
1.88,-1.2188386967807203,-0.3122077970145159,1.9307313090666909,0.0129601266511681,0.1130547092717136,0.0225639620749571,0.961733383632436,0.1204470435899955,-0.4891423782117238,-1.235052747877552,-0.3131655473017913,1.9375993995014469,1.0460219789940637,0.1755529965397639,-0.6030625590271809,0.7638801159687172,-0.2722202690798425,0.0077666390535309,0.7136866511237905,11.566169403656204,-1.5372315415335198,0.175809650821852,-1.1239246672844945
1.9,-1.199683185606347,-0.3097841354787644,1.9210562755341616,0.0090925275754452,0.108917425239294,0.0223681728916111,0.9539008031075632,0.1219995914911696,-0.4792421271421525,-1.2145945649825702,-0.3099772234331055,1.9258084479790825,1.0614305351573745,0.1863108652767463,-0.612072547633157,0.6359534061246226,-0.3916290262436395,0.0776273950587061,0.4950125534785632,11.27377736163453,-1.5437838852349908,0.180031233958658,-1.1256715392320822
1.92,-1.181655959491802,-0.3074422182332945,1.912009932369298,0.0056858669825218,0.1049793450043702,0.0222264835354349,0.9439947656728108,0.1244581172128739,-0.4734736632579754,-1.1933659542794228,-0.3062510061275706,1.9135669970264195,1.0768390913206856,0.1970687340137286,-0.6210825362391331,0.5861934449608945,-0.4953018717376078,0.1229262860852148,0.2884231942088561,11.018776388658807,-1.5503785830344952,0.18415564323224,-1.124568103617937
1.94,-1.1629066796206675,-0.3049185254844432,1.9025903049849084,0.0024519297615467,0.1016419114594062,0.0221304503903802,0.9313104388196536,0.1278036520568628,-0.4688442878873539,-1.1721373435762752,-0.3025247888220356,1.901325546073756,1.0922476474839966,0.207826602750711,-0.6300925248451092,0.6955499037311935,-0.6342163426578673,0.167276742199441,0.2314687685310762,10.812580041706497,-1.5553277519080704,0.1878190580198488,-1.1218375022292268
1.96,-1.144430905800833,-0.3023182836743651,1.89325119871776,-0.0003185785148398,0.099932776114829,0.0220893895323057,0.9168849998699492,0.1320144706815547,-0.4653379931539699,-1.150523518969045,-0.2985296247980761,1.888858845405944,1.1076562036473074,0.2185844714876933,-0.6391025134510853,0.7715542513962538,-0.7212719474852136,0.2105409312345943,0.1753147366691992,10.737796409208386,-1.5574492001964544,0.1907714886390868,-1.119971928704863
1.98,-1.1262468269224184,-0.2996266609556305,1.8839718455793464,-0.0025303248820447,0.100142725069409,0.0220984642475511,0.9024986503510232,0.136832672526305,-0.4627625979487127,-1.128524480457732,-0.2942655140556921,1.8761668950229813,1.1230647598106185,0.2293423402246757,-0.6481125020570614,0.7694393770153749,-0.7193174759463072,0.2409100922375145,0.128769760262859,10.678256216418047,-1.5563044488667206,0.193195441304548,-1.1191475009013103
2.0,-1.1092301824109092,-0.2969760487431441,1.8751985197435703,-0.0041195655843844,0.101713135923322,0.0221455880112367,0.8896291481964916,0.141842391323597,-0.4608709199567524,-1.0811218944048673,-0.2927850273293153,1.860833715681911,0.9309545038132424,0.1559158520597865,-0.4631307542444481,0.6969573404425476,-0.6434751077265766,0.2504859398646017,0.0945838995980136,10.623385479470926,-1.5535554689466924,0.1950772371847034,-1.1204950430067735
2.02,-1.0915102193842787,-0.2940161917774619,1.866220084574849,-0.0032684988797634,0.1031210547289136,0.0223763678614983,0.8831481508796977,0.1533524337382521,-0.4359704070466713,-1.0811218944048673,-0.2927850273293153,1.860833715681911,0.9309545038132424,0.1559158520597865,-0.4631307542444481,1.4093615095075562,-0.3240498658396984,0.5755021207327571,1.2450256455040554,10.587429661314673,-1.5423665292771442,0.1936385162549218,-1.1185167182395048
2.04,-1.0739208993225309,-0.2908515055342782,1.8577492181627604,0.0012196587464271,0.1031129121277253,0.022864759764745,0.8759693193769501,0.161542020724783,-0.412512186250603,-1.0811218944048673,-0.2927850273293153,1.860833715681911,0.9309545038132424,0.1559158520597865,-0.4631307542444481,1.2931483670405828,-0.3589415751373781,0.4094793493265442,1.1729110398034177,12.147001349472704,-1.5478627355966554,0.1905919465065987,-1.1359148005987434
2.06,-1.0573576569968377,-0.2877447917635395,1.8500948811482156,0.0066027054392978,0.1024185417584471,0.0233981674433471,0.8678338382291996,0.164848730757509,-0.3943891264485192,-1.0718123493667349,-0.2912258688087175,1.8562024081394664,0.9366456745056864,0.1597324879664829,-0.4632043855035951,1.0069330679541697,-0.4067740573875267,0.1653355016363017,0.9061529901041864,11.891109814103402,-1.5520827554146506,0.1856897896511874,-1.1492472719942264
2.08,-1.0401020983168987,-0.2844371022198141,1.8423748770450328,0.0120802922132939,0.1014694878923375,0.0239324591956617,0.8580951481238862,0.1656914440106295,-0.3787205276763852,-1.05319325929047,-0.2881075517675217,1.8469397930545772,0.948028015890574,0.1673657597798755,-0.4633516480218893,0.923386752769976,-0.4869345052656681,0.0421356626560204,0.7834299386067001,11.423620537054376,-1.5548910183641105,0.1806090387093156,-1.1582206912121449
2.1,-1.023052110090986,-0.2811314601046273,1.8349351633439028,0.0168567539780793,0.1006783118347531,0.0244070071289793,0.8473761282361453,0.1648744825139786,-0.3661582085480581,-1.0345741692142052,-0.284989234726326,1.8376771779696883,0.9594103572754616,0.1749990315932681,-0.4634989105401835,0.8267053213248492,-0.5359509943870466,-0.0408480748325404,0.6281159564163558,11.423620537054376,-1.5565163329645997,0.1760320860003235,-1.1642185851494788
2.12,-1.0062247912410271,-0.2778551950933176,1.8277181087928964,0.0207399684320303,0.1003248335126208,0.0248165311883197,0.835954711993588,0.1629575252938662,-0.3561629351381123,-1.015385962068696,-0.2814892540944606,1.8284071997588849,0.9707926986603492,0.1826323034066608,-0.4636461730584776,0.7649002623039532,-0.5710708121278663,-0.095847861005624,0.4997636704972885,11.247300142946187,-1.5568756459463595,0.1724131934562631,-1.167907689568915
2.14,-0.9904529676457178,-0.2747855376317281,1.82103809606282,0.0236057400021938,0.1005221796758183,0.0251528045585701,0.8248851551176913,0.1604336994457809,-0.3474901949988054,-0.9961977549231869,-0.2779892734625953,1.8191372215480808,0.982175040045237,0.1902655752200534,-0.4637934355767718,0.7143549675478548,-0.5534778437948307,-0.1261912924042638,0.4336370069653456,11.110590909916937,-1.5556632985484968,0.1693810921190191,-1.170261823056079
2.16,-0.9740758308050445,-0.2716084009225405,1.8141795495736412,0.0258760887761385,0.1012681085057948,0.0254631973844704,0.8134778625745915,0.1575090674886567,-0.338840609043511,-0.9767249892430554,-0.274298461035395,1.80986356177432,0.9935573814301248,0.1978988470334461,-0.4639406980950659,0.7305736315500981,-0.57036462715499,-0.146231597856207,0.4324792977647235,11.067584630924102,-1.5533988444064435,0.1671073378799792,-1.172500674642867
2.18,-0.9579237379773772,-0.2684942670826016,1.807487648616083,0.0274472191874911,0.1024610904651404,0.0257334922252955,0.8023867172062821,0.1541726376719163,-0.3307801500160522,-0.9569676650283018,-0.2704168168128601,1.800586220437602,1.0049397228150123,0.2055321188468387,-0.4640879606133601,0.7055428215855302,-0.5545572684154731,-0.1668214908370199,0.4030229513729388,11.040403060305836,-1.5508787915213829,0.165629642457967,-1.1747165169388851
2.2,-0.9427807775676132,-0.2656020226123212,1.8012746559179873,0.0282339989931902,0.1039047413378603,0.0259475265434086,0.792233662588492,0.1505343633563711,-0.3236211460088796,-0.917804402117063,-0.2607856351990058,1.7909486411152802,0.8145332637116737,0.1768974281705307,-0.3498166069586105,0.647249751722039,-0.5076527308895018,-0.1819137157772613,0.3579502003586282,11.008561352824472,-1.547848890057247,0.1648426413136927,-1.1769195116073978
2.22,-0.9269963906194642,-0.2626452703930618,1.7949387978694045,0.0278567021631888,0.104330324871149,0.0260561763984194,0.7867625278766492,0.1454740485152296,-0.3100468128736826,-0.917804402117063,-0.2607856351990058,1.7909486411152802,0.8145332637116737,0.1768974281705307,-0.3498166069586105,0.7742780853671336,-0.2735567355921398,-0.2530157420570778,0.6787166567598535,10.979541863715896,-1.54178094501218,0.1649933507908701,-1.1731775897885677
2.24,-0.911325913871989,-0.2597916054226003,1.7888622242810892,0.0257723587347881,0.1024087249482683,0.0259829392768386,0.7803600846871671,0.140336007776949,-0.2984451953350231,-0.917804402117063,-0.2607856351990058,1.7909486411152802,0.8145332637116737,0.1768974281705307,-0.3498166069586105,0.7106128885267071,-0.3201221594741066,-0.2569020369140307,0.5800808769329729,11.37844507009322,-1.544783397256399,0.1674795554686735,-1.1756797763710012
2.26,-0.8958036099432066,-0.257023950169219,1.7829846094814892,0.0221971909508461,0.0987660296311621,0.0257749841103478,0.7720157244464659,0.1372028375631485,-0.2898626297946073,-0.9096590694799463,-0.2590166609173005,1.787450475045694,0.816962573012752,0.1814423862702535,-0.3536238983471221,0.6186791063846683,-0.4172180120350588,-0.1566585106900206,0.4291282770207877,11.205212805596602,-1.5485219246961155,0.1712625777580328,-1.1750166390258692
2.28,-0.8812345004654141,-0.2544277732402424,1.7775358330776834,0.0184406394309528,0.094353292055049,0.0255530698451919,0.7618502851949275,0.136358809101678,-0.2841035633564849,-0.8933684042057128,-0.2554787123538899,1.780454142906522,0.8218211916149086,0.1905323024696993,-0.3612384811241454,0.5856948554050969,-0.5082719625769228,-0.0422014230735276,0.2879533219061203,11.02877705064202,-1.5545973611871156,0.1757437013983692,-1.1711685921044566
2.3000000000000003,-0.8661332509304028,-0.2516971659344463,1.7718979758481286,0.0146192218216057,0.0895105409933045,0.0253517161829505,0.7486068721028734,0.1368134207375949,-0.2800660352696666,-0.8770777389314793,-0.2519407637904793,1.7734578107673498,0.8266798102170653,0.199622218669145,-0.3688530639011688,0.692633191375761,-0.6621706546027062,0.0227305817958448,0.2018764043409171,10.756114837867244,-1.5602457695719425,0.1800223163253232,-1.165012542880113
2.32,-0.8513260200534648,-0.248946377302896,1.766320822706406,0.0111411390937589,0.0854313226895252,0.0252103949617915,0.732606991607297,0.1382621949934167,-0.2779179903002607,-0.860544142727138,-0.2479483194170964,1.7660807494893265,0.8315384288192219,0.2087121348685907,-0.3764676466781921,0.8104153563260716,-0.7999940247788162,0.0724387127910897,0.1074022484702924,10.653343547208353,-1.5647586362834565,0.1838971633552199,-1.1583782747752511
2.34,-0.8368672165087425,-0.2461582042561786,1.760771857053613,0.0080968725338958,0.0832391747923021,0.0251383846080171,0.7140535062432962,0.1404503201914159,-0.2770657434175785,-0.8440105465227967,-0.2439558750437135,1.7587036882113032,0.8363970474213785,0.2178020510680364,-0.3840822294552154,0.9350749111479688,-0.9276742682000404,0.1094062598999592,0.0426123441341103,10.653343547208353,-1.5665127668369492,0.1870780102663966,-1.1529157962692058
2.36,-0.8234821603271586,-0.2434613735092212,1.75550945747642,0.0056659514049418,0.0834958639237168,0.0251300252706191,0.6961570667207271,0.1432416813937826,-0.2768928281831678,-0.8273554848534015,-0.2397361827653444,1.7511362623638542,0.8412556660235352,0.2268919672674821,-0.3916968122322387,0.9056822630279122,-0.894821976128457,0.1395680601183349,0.0086457617205382,10.59414361095878,-1.563610450161536,0.1897091059286836,-1.1482318837479746
2.38,-0.8097463013723065,-0.2405606809186024,1.7499705618511534,0.0036010618530771,0.085730148665122,0.025169269411958,0.6786064054345732,0.146633167002968,-0.2770098584981857,-0.8105789577189524,-0.2352892425819893,1.7433784719469796,0.8461142846256918,0.2359818834669279,-0.399311395009262,0.8937863031973117,-0.8775330643076951,0.1695742804592739,-0.0058515157508959,10.545582000339891,-1.5584016440533612,0.1918052481779629,-1.1467152309904718
2.4,-0.7963460272006588,-0.2375871918909952,1.744427704818861,0.0020393273438709,0.089369655008765,0.0252477088841282,0.6625186268863857,0.1505048675483377,-0.2772701683251011,-0.7758159811005778,-0.233229022568454,1.7361200689262442,0.6969476617401485,0.1645118018581192,-0.2939538999738393,0.8274576196617633,-0.8043889274093718,0.1935850272684849,-0.0130154913457719,10.503435417759649,-1.5516344771797366,0.193393909023934,-1.1478438444367167
2.42,-0.7832356220158627,-0.2344805706212208,1.7390025325982277,0.0026757738678571,0.0937139153404836,0.0254803315232629,0.6495729652851898,0.1595207019850558,-0.2646116187809683,-0.7758159811005778,-0.233229022568454,1.7361200689262442,0.6969476617401485,0.1645118018581192,-0.2939538999738393,1.011328707004128,-0.6472830800597962,0.4507917218359039,0.6329274772066434,10.503435417759649,-1.5414510229911924,0.1926103275492605,-1.1508757949443231
2.44,-0.7710073960172907,-0.2313787131492886,1.7340855416068794,0.0062513936938628,0.0980186116795505,0.0259161141755902,0.6383960129566975,0.1658880034104999,-0.2536850480073894,-0.7758159811005778,-0.233229022568454,1.7361200689262442,0.6969476617401485,0.1645118018581192,-0.2939538999738393,0.8438849738943709,-0.5588476164246181,0.318365071272203,0.5463285386789446,11.352161309896474,-1.5366780387431775,0.1892542881177525,-1.1648539644291769
2.46,-0.7583536745162494,-0.2280310310803456,1.7291090641704905,0.0112040273668871,0.1025618061209071,0.0264721833618475,0.6276895976066922,0.1683062561660751,-0.2446596762700998,-0.7688465044831764,-0.2315839045498728,1.7331805299265055,0.7006159130012636,0.1680875288291494,-0.2973427082689701,0.7105149735103065,-0.5353207675002636,0.1209126377787625,0.4512685868644769,11.19133538223832,-1.5306938152874447,0.1843512720510882,-1.1768584504634303
2.48,-0.7459038858478055,-0.2246645238270732,1.7242868867772148,0.0159350253718372,0.1069637836538278,0.0270261133554442,0.6179310112651913,0.1682654395660411,-0.2380125849161958,-0.7549075512483734,-0.2282936685127104,1.727301451927029,0.7079524155234937,0.1752389827712099,-0.3041203248592315,0.5903716982683683,-0.487929317075042,-0.0020408300017024,0.3323545676952019,11.044968911714022,-1.524556912657159,0.1797534830039168,-1.1861204736415774
2.5,-0.7342490198604508,-0.221481597691683,1.719811651009986,0.0197624889618723,0.110913314916747,0.0275127634481783,0.6094572938457248,0.1669165548076026,-0.2334009163408761,-0.7409685980135704,-0.225003432475548,1.7214223739275525,0.7152889180457239,0.1823904367132704,-0.310897941449493,0.4870597089811203,-0.4236858709733282,-0.067444237921925,0.2305834287659819,10.92188156877546,-1.5181121205104304,0.1755557718787536,-1.1937546691146672
2.52,-0.7221468971688819,-0.2181666359259362,1.7151817002638432,0.0229838056595383,0.1147595038118349,0.0279695058015954,0.6012716094527025,0.1647547417037977,-0.229897707377628,-0.7266628196526559,-0.2213556237412826,1.7152044150985624,0.7226254205679541,0.1895418906553309,-0.3176755580397544,0.4581248135555761,-0.4092842196511126,-0.108090655190246,0.175160448162405,10.825745480011392,-1.5119716981834392,0.1722004794667976,-1.199573037817336
2.54,-0.7102007578067354,-0.2149006602991844,1.710613936550986,0.0253915021130417,0.1182456003305775,0.0283644193742288,0.5938108586215799,0.1620743960704138,-0.2270752448044134,-0.7123570412917414,-0.2177078150070172,1.7089864562695725,0.7299619230901843,0.1966933445973913,-0.3244531746300159,0.4207533441806909,-0.3730375415561315,-0.1340172816691909,0.1411231286607306,10.750779161512584,-1.5061742203481616,0.1696895354046997,-1.203793907993747
2.56,-0.6983959058045379,-0.2116913475274156,1.7060966748465536,0.0270549463896424,0.1213099751212569,0.0286965901205565,0.5870761726246156,0.1591194344304386,-0.2247912311851757,-0.6978678503677712,-0.2138812199242003,1.702599057025826,0.7372984256124143,0.2038447985394518,-0.3312307912202774,0.3850471139493673,-0.3367342998482125,-0.1477480819987622,0.1142006809618845,10.720476896577566,-1.501189081774276,0.1680457033702755,-1.2068041610399851
2.58,-0.687300537456071,-0.2087006225745874,1.7018425670006352,0.0279593102517373,0.1237876369061684,0.028950978719284,0.5812161061362084,0.1559242840658684,-0.2231237408796057,-0.6831952468807452,-0.2098758384928319,1.696042217367323,0.7446349281346445,0.2109962524815123,-0.3380084078105388,0.3439836079667756,-0.29300332442036,-0.1597575182285093,0.0833745152785017,10.666800439634244,-1.496722744154416,0.1670894186445283,-1.2088631082716943
2.6,-0.675736802182413,-0.2056209566766584,1.6973934886972806,0.0280742705833968,0.1259443800471553,0.0291438109389784,0.5754905066093091,0.1522717180423866,-0.2218932465579356,-0.6582397321492606,-0.200904408371294,1.690686379956655,0.5972227099732217,0.1715064627852102,-0.2144691539087996,0.3451008721156233,-0.2862799763449664,-0.1826283011740884,0.0615247160835039,10.666800439634244,-1.4929196790692942,0.1670686688545688,-1.2098351719337077
2.62,-0.6642232223445199,-0.2026088860902407,1.6931343281833295,0.0275132131624398,0.126473559277275,0.0292394881363243,0.5762397017859506,0.1491030249431033,-0.2032350325314688,-0.6582397321492606,-0.200904408371294,1.690686379956655,0.5972227099732217,0.1715064627852102,-0.2144691539087996,0.9470095828812816,0.0374597588320757,-0.1584346549641679,0.9329107013233404,10.637253438695552,-1.484334951185559,0.1672107569916378,-1.207254849286903
2.64,-0.6526947626155909,-0.1996641537585878,1.6892584807071485,0.0263164126398437,0.1242180546590008,0.0292123499576811,0.576324565671272,0.1456367491445101,-0.1853847046716796,-0.6582397321492606,-0.200904408371294,1.690686379956655,0.5972227099732217,0.1715064627852102,-0.2144691539087996,0.909198100653691,0.0042431942660681,-0.1733137899296605,0.8925163929894605,11.819253109107194,-1.4875648706979725,0.1687375227355926,-1.2157727082010643
