t,x,y,z,roll,pitch,yaw,v_x,v_y,v_z,ref_x,ref_y,ref_z,ref_v_x,ref_v_y,ref_v_z,a_com,a_x,a_y,a_z,thrust,wind_x,wind_y,wind_z
0.0,-1.5957381862680962,1.9955424355290248,2.159336514272171,0.0162137108474863,0.1365203742499251,0.0261144693296976,0.0053595453754414,-0.0086774843831882,0.006865839038063,-1.59558050068712,1.995280253209407,2.1595423061290067,0.0227827331238487,-0.1087541160843423,-0.0931387908660608,0.6147422377478283,0.2679772687720749,-0.4338742191594135,0.3432919519031517,10.54911629529397,-1.2846101884746466,0.1597369787398843,-1.166540647190717
0.02,-1.5957385399357344,1.995669434680202,2.159236099305216,0.023370230014954,0.1384348653192995,0.0266448579918418,-0.0046052288155578,0.0154007999123805,-0.0168774925437383,-1.59558050068712,1.995280253209407,2.1595423061290067,0.0227827331238487,-0.1087541160843423,-0.0931387908660608,1.762672894994422,-0.4982387095499696,1.2039142147784383,-1.1871665790900674,10.548209282194875,-1.3084939010755556,0.1549987976425379,-1.1840206281840655
0.04,-1.595912866257847,1.9959948251562367,2.158649145270647,0.0372878443304125,0.1433249910816298,0.0277437063916641,-0.0127147054231255,0.0170497128658217,-0.0436447441153002,-1.59558050068712,1.995280253209407,2.1595423061290067,0.0227827331238487,-0.1087541160843423,-0.0931387908660608,1.4008642702560414,-0.4054738303783819,0.0824456476720619,-1.3383625785780957,9.19186116028277,-1.300642112618901,0.1391121351256846,-1.1689347381413822
0.06,-1.596221115639877,1.9962888289030167,2.157480623886227,0.0526025222408355,0.1505725152380342,0.0290974462353194,-0.0172800552533794,0.0118942376549787,-0.0717832414609091,-1.5953526733558816,1.9941927120485636,2.158610918220346,0.0262823680603006,-0.1287541163823655,-0.113138791164084,1.4484443177000776,-0.2282674915126948,-0.25777376054215,-1.406924867280447,8.984126350609586,-1.2867995724682382,0.1226720870859223,-1.1568497132225757
0.08,-1.5965842716076777,1.9964405921956383,2.1557580244031582,0.0674160338016717,0.1587409188321814,0.0305612549766012,-0.0184924311071358,0.003224705306532,-0.0990377363595858,-1.5948970186934046,1.9920176297268768,2.156748142403025,0.0332816379332044,-0.168754116978412,-0.1531387917601305,1.4312914959342913,-0.0606187926878222,-0.4334766174223328,-1.3627247449338349,8.98702850237396,-1.2739244774628702,0.1073374135268947,-1.148055750163553
0.1,-1.596941027709276,1.9963889727388384,2.1535010090200077,0.0815479663140399,0.1671013367576033,0.0320896592063689,-0.0168772453995851,-0.0082477227600115,-0.1253229031871449,-1.5944413640309276,1.9898425474051895,2.154885366585704,0.0402809078061082,-0.2087541175744585,-0.1931387923561769,1.4362585297958252,0.0807592853775355,-0.57362140332718,-1.3142583413779545,9.037482777932835,-1.2628564153719606,0.0938870688955681,-1.140087877453111
0.12,-1.5972219241463863,1.9961029740851368,2.1508765978289683,0.0943340173392659,0.1746793619885953,0.0335507172255086,-0.0126480019755891,-0.0215285616304179,-0.1496347898367299,-1.5936357458748054,1.9856674650537005,2.15102259073858,0.0472801776790121,-0.2487541181705049,-0.2331387929522234,1.4011914693425933,0.2114621711997998,-0.6640419435203209,-1.2155943324792515,9.090182989645657,-1.2526719306442406,0.0807953835418228,-1.1321311741618252
0.14,-1.5974097597525876,1.995505549236749,2.147609850821425,0.1071353819762212,0.1818212570064907,0.0350353552104031,-0.0062434192627084,-0.0377816271593505,-0.1758056181966034,-1.5928301277186832,1.9814923827022115,2.1471598148914564,0.0542794475519159,-0.2887541187665514,-0.2731387935482698,1.5732872241392093,0.3202291356440366,-0.8126532764466294,-1.308541417993672,9.13485801533352,-1.2462710017023817,0.0686908621170471,-1.1266110467295078
0.16,-1.5974495680232286,1.9945593601387288,2.143817238517476,0.1192802829330496,0.1877962937631186,0.0364010947757494,0.0019973315819545,-0.056278384555541,-0.202156019800693,-1.5918495278157383,1.9763173003358208,2.142297039029432,0.0612787174248197,-0.3287541193625978,-0.3131387941443163,1.6616134277819803,0.412037542233148,-0.924837869809528,-1.3175200802044815,9.11208286859437,-1.2415486396153743,0.0574872000472233,-1.119589620414562
0.18,-1.597308969228045,1.9932203586392312,2.1394985793566814,0.1307859260968753,0.1923679528667475,0.0375828751157661,0.0115890093580898,-0.0769392805657617,-0.2283985501815357,-1.590693946165971,1.9701422179545296,2.136434263152506,0.0682779872977235,-0.3687541199586442,-0.3531387947403627,1.7374861922442808,0.479583888806767,-1.033044800511032,-1.3121265190421352,9.118917526505356,-1.2393366256624383,0.047639066288997,-1.1118165705819756
0.2,-1.5969676566724575,1.9914355261016816,2.134655951207783,0.1413260161352494,0.1955224822565154,0.0385162211383085,0.0219673950290821,-0.1005008923804691,-0.2545245218696016,-1.596729518760141,1.989373394610943,2.1280786518476047,0.036163050724667,-0.1769392820558778,-0.3283985516716519,1.8340030241853755,0.5189192835496158,-1.1780805907353715,-1.3062985844032953,9.156677119927735,-1.239035966141658,0.038396943202365,-1.1019762674368916
0.22,-1.596406576988497,1.9891186648107355,2.129705760992463,0.1455240591055958,0.1971615241765079,0.0387849158913827,0.0363808517406138,-0.1392411289380164,-0.2648363934994114,-1.596729518760141,1.989373394610943,2.1280786518476047,0.036163050724667,-0.1769392820558778,-0.3283985516716519,2.1300753269659234,0.7206728355765823,-1.9370118278773636,-0.5155935814904894,9.156677119927735,-1.2276826464413406,0.0346892556581202,-1.0835803897064265
0.24,-1.5955278280034515,1.985982653332364,2.124292587042092,0.1437087634696103,0.1975927675035113,0.0384133102851519,0.0505967746221227,-0.1718102949120994,-0.2760069643954658,-1.596729518760141,1.989373394610943,2.1280786518476047,0.036163050724667,-0.1769392820558778,-0.3283985516716519,1.862541737629088,0.7107961440754481,-1.6284582987041496,-0.5585285448027194,10.16395485301291,-1.229908065295667,0.0369075182302342,-1.0780593247615669
0.26,-1.5943744689093802,1.9822501421576288,2.1186339109518477,0.1388816274471227,0.1969411965768094,0.0376554670046232,0.0639370133032405,-0.1991451908581111,-0.2893045125241701,-1.596367888252894,1.987604001790384,2.1247946663308883,0.0410778589979824,-0.196939282353901,-0.3483985519696751,1.6598066835355287,0.6670119340558885,-1.3667447973005842,-0.6648774064352159,9.82723924702077,-1.2329926376139355,0.0415722692495539,-1.0725126069747783
0.28,-1.592964123638473,1.9780177361174096,2.1126876962290098,0.1333253604476541,0.1952179212897273,0.0366913372291192,0.0763303854242018,-0.2225478642652698,-0.3047100687936329,-1.5956446272384006,1.984065216149267,2.118226695297455,0.0509074755446133,-0.2369392829499475,-0.3883985525657215,1.5318387309882984,0.6196686060480627,-1.1701336703579368,-0.7702778134731358,9.82723924702077,-1.2372762980991712,0.0471499836947438,-1.0648439773995604
0.3,-1.591405877660372,1.973588315367873,2.106731786144474,0.1282977460542832,0.1926304594168098,0.0356692229116565,0.0869866519258945,-0.2425590611100724,-0.3214144826438854,-1.5949213662239072,1.9805264305081487,2.111658724264022,0.0607370920912441,-0.2769392835459939,-0.428398553161768,1.4080495880801251,0.5328133250846377,-1.0005598422401272,-0.8352206925126282,9.673624398627908,-1.2420203378191366,0.0523019240566152,-1.0561784808739998
0.32,-1.5895620274949258,1.968532149910439,2.1001016117352758,0.1236591639424066,0.1890798659247808,0.0345416425961028,0.0966933558152108,-0.262051135278511,-0.3407917199335025,-1.5937066243820823,1.9749876448372288,2.1030907532007865,0.070566708637875,-0.3169392841420403,-0.4683985537578144,1.4574278547846775,0.4853351944658149,-0.9746037084219296,-0.968861864480855,9.536627200972362,-1.2480579216231509,0.056788817022623,-1.0460791191039205
0.34,-1.5875415961065698,1.9630968588692672,2.0930724925695707,0.1198176280726756,0.1850019486566399,0.0334150662813055,0.104745755577129,-0.2806378491309179,-0.3611157998909842,-1.5924918825402574,1.9694488591663093,2.094522782137551,0.0803963251845058,-0.3569392847380869,-0.5083985543538609,1.4347258447828162,0.4026199880959098,-0.9293356926203478,-1.0162039978740849,9.34642561682449,-1.2540368566369304,0.0603398636925644,-1.0348260191397411
0.36,-1.5854877319901268,1.9575862170263607,2.086012103680516,0.1165718887619321,0.1809715798652283,0.0323635227061743,0.1109424133688272,-0.2984279175050751,-0.3810206617583999,-1.5910314002847668,1.9629100734804883,2.0849548110594145,0.0902259417311367,-0.3969392853341333,-0.5483985549499073,1.3702998088972145,0.3098328895849093,-0.8895034187078571,-0.9952430933707818,9.34642561682449,-1.2596914127404617,0.0636001660559183,-1.0219658459454612
0.38,-1.583215614855102,1.9514252622602315,2.078164699918262,0.1133167417557056,0.1769381064320852,0.0313020779261034,0.1158044788556703,-0.3166446363616272,-0.4026745578568305,-1.5893251776156103,1.955371287779766,2.074386839966377,0.1000555582777675,-0.4369392859301797,-0.5883985555459538,1.4356006956485523,0.2431032743421546,-0.9108359428276064,-1.0826948049215328,9.236152930211574,-1.263592650859532,0.0665381043963207,-1.009137589816671
0.4,-1.580863636176058,1.9449050522361613,2.0698775704555783,0.1101381776271544,0.1735709492223405,0.0303310334125092,0.1190370736041752,-0.3343572875103571,-0.4249498299586236,-1.5774253909123184,1.9355930304421496,2.0580309720254206,0.1446409321891674,-0.4166446378517433,-0.5026745593469466,1.4321098305765405,0.1616297374252437,-0.885632557436497,-1.1137636050896542,9.236152930211574,-1.2660242128154482,0.0693128587387921,-0.9969383126619604
0.42,-1.578446820140605,1.9380177131019063,2.061375179665868,0.1071978240978913,0.1721934265282506,0.029602154369155,0.1226508618785506,-0.3536006648145074,-0.422981650495331,-1.5774253909123184,1.9355930304421496,2.0580309720254206,0.1446409321891674,-0.4166446378517433,-0.5026745593469466,0.9839217018666012,0.1806894137187695,-0.962168865207516,0.0984089731646292,9.185022106224096,-1.2603604669940305,0.0719262750054012,-0.9779356732249384
0.44,-1.576082403635535,1.9311320844584323,2.053336839214201,0.1050249218443992,0.1736543633843843,0.0292501709678622,0.126304209019097,-0.3703254940720263,-0.4237014282748332,-1.5774253909123184,1.9355930304421496,2.0580309720254206,0.1446409321891674,-0.4166446378517433,-0.5026745593469466,0.856716025113284,0.1826673570273225,-0.8362414628759418,-0.0359888889751081,10.661949728932086,-1.258008899610461,0.0731928133808836,-0.9822771919606662
0.46,-1.5735049788190034,1.923546682539778,2.044800883847877,0.1034276627762955,0.1771405934334414,0.0291260272415865,0.1314836689005321,-0.3873540947160357,-0.4300908405265735,-1.5759789815904266,1.9314265840636324,2.053004226431951,0.1504082228558668,-0.4366446381497665,-0.5226745596449698,0.9455482979193142,0.2589729940717558,-0.8514300322004731,-0.3194706125870167,10.299818903274172,-1.2540362394768043,0.0740346362750213,-0.9872747372273386
0.48,-1.570807689812899,1.9156267353899457,2.036090146585901,0.1023425368844427,0.1816231275405228,0.0291319957148383,0.1381612071633366,-0.4037733634427579,-0.4408373224660149,-1.5730861629466433,1.9230936913065972,2.0429507352450123,0.1619428041892656,-0.476644638745813,-0.5626745602410163,1.036422665767054,0.3338769131402241,-0.8209634363361085,-0.5373240969720694,9.99284301699754,-1.2496221690501284,0.0745982660174129,-0.991859129075844
0.5,-1.567962505293288,1.907386032180881,2.027125349155175,0.1017835556034548,0.1863457654398499,0.0291909853279138,0.1461531465160714,-0.41951135012493,-0.4550988240554818,-1.57019334430286,1.9147607985495627,2.032897244058073,0.1734773855226644,-0.5166446393418594,-0.6026745608370627,1.1346208034100915,0.3995969676367408,-0.7868993341086039,-0.7130750794733465,9.766495504998602,-1.245198794700956,0.0748067417862141,-0.9948946947422648
0.52,-1.5651004709527732,1.899270700735112,2.0183201827761685,0.1018143406101886,0.1905951332362531,0.0292558677318836,0.1547739883152746,-0.4339959260570481,-0.4710477166298566,-1.5667237965924066,1.9044279057627256,2.020843752841332,0.1850119668560632,-0.5566446399379059,-0.6426745614331092,1.160268317684676,0.4310420899601569,-0.7242287966059052,-0.7974446287187409,9.59548627751792,-1.240893135422655,0.0745718300720821,-0.9966806327204996
0.54,-1.561901186270938,1.8904348411757383,2.0087123455222824,0.1025773699982693,0.1945425477762421,0.0293168384528928,0.1647517039479651,-0.4488912113618982,-0.4889440023975708,-1.5632542488819534,1.8940950129758884,2.0087902616245907,0.1965465481894621,-0.5966446405339524,-0.6826745620291557,1.2665912697466877,0.4988857816345268,-0.7447642652425063,-0.8948142883857091,9.466782180908012,-1.237585371936922,0.0737523161819567,-0.996825100166732
0.56,-1.558490738612009,1.8812884530459444,1.9987374861716571,0.1037971933656154,0.1977083102256822,0.0293252551542836,0.1757628413000815,-0.464948118107592,-0.5076268294570353,-1.5594963366381651,1.88276212017415,1.9957367703929485,0.2080811295228609,-0.6366446411299987,-0.722674562625202,1.349182555254233,0.550556867605817,-0.8028453372846911,-0.9341413529732224,9.411822132282396,-1.2354058630675906,0.0725553317582605,-0.9956586463727646
0.58,-1.5548532225163805,1.871810087875247,1.988382082583476,0.1048791875664709,0.199919166945209,0.02921927516313,0.1873675072310509,-0.4819796909922453,-0.5269504307365486,-1.555450059861042,1.8704292273575105,1.981683279146405,0.2196157108562597,-0.6766446417260452,-0.7626745632212485,1.4125723987678154,0.5802332965484699,-0.8515786442326617,-0.9661800639756636,9.383887247722669,-1.234433208004846,0.0715391585686703,-0.9932402745679764
0.6,-1.5511802140136035,1.862481827113987,1.978180241233361,0.1053337249423965,0.2010957270931155,0.0289749764926635,0.1985974433388886,-0.4989536462635745,-0.5459254435057597,-1.545484847154828,1.8477111033256348,1.9620345610466488,0.2268888735888542,-0.5819796924823615,-0.6124991445398399,1.391292323822466,0.5614968053918867,-0.8486977635664611,-0.9487506384605549,9.355758036455882,-1.2345021962753495,0.0709960411145197,-0.989235863784561
0.62,-1.5470312396309918,1.852246475056271,1.967342063924418,0.1037806354870273,0.2017258201854515,0.0285048820520755,0.2159989915063968,-0.5234601700144488,-0.5353111492039238,-1.545484847154828,1.8477111033256348,1.9620345610466488,0.2268888735888542,-0.5819796924823615,-0.6124991445398399,1.5937744731487726,0.8700774083754109,-1.2253261875437127,0.5307147150917957,9.323284017908918,-1.2293099543638764,0.0723640033260757,-0.9754470344155636
0.64,-1.5425302570852584,1.841546656144154,1.956732652013476,0.0998009436207213,0.2020334660041877,0.0278291972006226,0.2331096367128465,-0.5446121035268523,-0.526545168369796,-1.545484847154828,1.8477111033256348,1.9620345610466488,0.2268888735888542,-0.5819796924823615,-0.6124991445398399,1.4291788644869077,0.8555322603224863,-1.057596675620176,0.4382990417063859,10.906329551663475,-1.2300237013908013,0.075069954001775,-0.979795381566064
0.66,-1.5376971431634796,1.830465392688992,1.9462311647164048,0.0951234312551324,0.2017985979762387,0.0270541101848724,0.2492452346079412,-0.5622461526436698,-0.5239760308760262,-1.543215958418939,1.8418913064008111,1.9559095696012505,0.2347931468604149,-0.6019796927803847,-0.6296088873004981,1.201995918408638,0.8067798947547319,-0.881702455840877,0.1284568746884928,10.906329551663475,-1.2318183987618836,0.0783910792154867,-0.9816106244217444
0.68,-1.5328165188118437,1.8196348095125197,1.9362551889778823,0.0907510576109644,0.2009102278836652,0.0262673720403863,0.2636268363877904,-0.5768845809995201,-0.5262208729072837,-1.5386781809471624,1.830251712551164,1.9436595867104536,0.2506016934035362,-0.6419796933764311,-0.6638283728218147,1.0321741256067491,0.7190800889924589,-0.7319214177925137,-0.112242101562876,10.25033545146107,-1.2345199790549088,0.0819392698233171,-0.9809892572575264
0.7000000000000001,-1.5273946292953624,1.807951811802464,1.9256686279231028,0.0865736628609518,0.1991646574855899,0.0254079909368817,0.2777041484745809,-0.5906342931401063,-0.5324772289374429,-1.5341404034753852,1.8186121187015167,1.9314096038196569,0.2664102399466576,-0.6819796939724776,-0.6980478583431312,1.0324331580228217,0.7038656043395264,-0.6874856070293089,-0.3128178015079585,10.25033545146107,-1.2382068936873254,0.0851795012086623,-0.9780231082041286
0.72,-1.5217026283185175,1.796006028689887,1.914920540420104,0.0829579909524504,0.1965078971720993,0.0245249788876526,0.2906802716308789,-0.6032739838445806,-0.5421340678026696,-1.528812198676452,1.8049725248220672,1.917448646652794,0.2822187864897789,-0.7219796945685241,-0.7322673438644477,1.0263967192820005,0.648806157814899,-0.6319845352237174,-0.4828419432613362,10.010938490938315,-1.2427664012179167,0.0879575957679374,-0.972840671389285
0.74,-1.5157623152257471,1.7838170339783084,1.9039597381734792,0.0799400000677857,0.1929027530039005,0.023623115784312,0.3025817373033879,-0.6150953258983354,-0.553421045780282,-1.5234839938775189,1.7913329309426176,1.9034876894859316,0.2980273330329003,-0.7619796951645705,-0.7664868293857643,1.0109214669954418,0.5950732836254496,-0.5910671026877368,-0.5643488988806178,9.815148225885425,-1.2479993613216604,0.0902247789983343,-0.9652601227712662
0.76,-1.509594712774067,1.7713886780758552,1.8927611873389476,0.0772057877062715,0.188351007128972,0.0226849715853567,0.3134351430084164,-0.6270555169003075,-0.5658201766078,-1.5177605754150076,1.776693337048267,1.888671245181036,0.3138358795760216,-0.8019796957606169,-0.8007063149070808,1.0180631481881532,0.5426702852514259,-0.5980095500986049,-0.6199565413759045,9.726426209474994,-1.253530336161594,0.0921154495438362,-0.956602515819288
0.78,-1.5035501971241845,1.7593631236365457,1.8818826555253965,0.0746226449991621,0.1832578146362651,0.0217561805297463,0.3220576962538469,-0.6380844981977934,-0.5786134802878352,-1.5116419432889183,1.761053743139015,1.8729993137381076,0.3296444261191429,-0.8419796963566634,-0.8349258004283973,0.9482292338619664,0.4311276622715243,-0.5514490648742987,-0.6396651840017586,9.653847318566475,-1.2604507698047958,0.0941057151140248,-0.94599025113822
0.8,-1.497033920717458,1.7464850319014964,1.8701574425944096,0.0719030346602717,0.1775625211360655,0.0207784700260184,0.3289183354411056,-0.6490508361240673,-0.5932603218300849,-1.4874473123114922,1.727458898726656,1.8529519815110047,0.3596111519344556,-0.7380844996879096,-0.6209252976954432,0.9770605210716932,0.3430319593629383,-0.5483168963136942,-0.7323420771124856,9.577429518467396,-1.267030133796757,0.0960285757191243,-0.9349245152868648
0.8200000000000001,-1.490324797692132,1.733349131642108,1.8585088893069208,0.0686042903462167,0.1717409154698253,0.0197801728943222,0.3417969832187446,-0.6636949614947383,-0.5688605288217949,-1.4874473123114922,1.727458898726656,1.8529519815110047,0.3596111519344556,-0.7380844996879096,-0.6209252976954432,1.5617777333057117,0.6439323888819487,-0.7322062685335473,1.2199896504144991,9.48790029081374,-1.26340432767292,0.0978560618871494,-0.915665737434642
0.84,-1.4833734243268786,1.719945025596867,1.847374910907099,0.0649118783293867,0.1659038492279313,0.0187891225012418,0.3524088282799231,-0.6758398192420147,-0.5462752420381422,-1.4874473123114922,1.727458898726656,1.8529519815110047,0.3596111519344556,-0.7380844996879096,-0.6209252976954432,1.3876274755890732,0.5305922530589258,-0.6072428873638236,1.1292643391826396,11.588082035489606,-1.270215400024321,0.1001760544921895,-0.9159609752596836
0.86,-1.476601847687173,1.70700583950676,1.837145054130339,0.0616810935317329,0.1605795089221277,0.0179150539016096,0.3597218082753891,-0.685609943129249,-0.5316341300407138,-1.4838512007921476,1.7200780537297768,1.8467427285340503,0.3671218430705774,-0.7580844999859327,-0.6293876611769649,0.9530177827659244,0.3656489997732964,-0.4885061943617153,0.7320555998714173,11.151166669326813,-1.2767388961243364,0.1023643751632549,-0.9147049730719262
0.88,-1.4693509704993513,1.69319882856222,1.8266247485754852,0.058827975101146,0.1554623392085695,0.0170947592404742,0.3647763567952665,-0.694630497251007,-0.5213876250848435,-1.476658977753459,1.7053163637360187,1.8343242225801413,0.3821432253428209,-0.7980845005819792,-0.646312388140008,0.7278559631102061,0.2527274259938705,-0.4510277060878975,0.5123252477935158,11.151166669326813,-1.2826276733387867,0.1041734604183001,-0.9121878914146848
0.9,-1.4620262092051397,1.679219991233291,1.8162601323425671,0.0566104956190725,0.1512479045424472,0.0163981800676193,0.3672817941178864,-0.7028760534903793,-0.5157629903245893,-1.4694667547147695,1.6905546737422603,1.8219057166262325,0.3971646076150644,-0.8380845011780257,-0.6632371151030513,0.5145457464125229,0.1252718661309965,-0.4122778119686143,0.2812317380127105,10.82066396457958,-1.2874690383781189,0.1055158035657285,-0.9094858491541704
0.92,-1.45467641100418,1.6650842225104794,1.805964778720148,0.0550623045397137,0.1484451163423063,0.0158480826043494,0.3675202596963303,-0.7104048995375845,-0.5140302409865511,-1.4615234625624682,1.6737929837187,1.8086409743241716,0.4121859898873078,-0.8780845017740722,-0.6801618420660945,0.3864673624741518,0.0119232789221962,-0.3764423023602581,0.0866374669019065,10.33841004291844,-1.2905023209265991,0.1063140936206225,-0.9075407818372222
0.94,-1.447701808077611,1.6515218633377011,1.7962037710768175,0.0543368504873735,0.1474914722051737,0.0154847473667254,0.3668241538612841,-0.7169368058647976,-0.5135372356680724,-1.453580170410167,1.6570312936951397,1.7953762320221105,0.4272073721595514,-0.9180845023701186,-0.6970865690291377,0.3293684025719547,-0.03480529175231,-0.3265953163606561,0.0246502659239367,10.269525571898155,-1.2900606051980108,0.1064478378327073,-0.9065910915490694
0.96,-1.440365337615492,1.6371073866548105,1.7859302958183838,0.0542917610637664,0.1479861329822499,0.0152438759585427,0.3670080004609306,-0.7241780123671536,-0.5138789719754024,-1.4452613437010595,1.6392696036566778,1.7816883715459733,0.4422287544317949,-0.958084502966165,-0.7140112959921809,0.3625798356421403,0.0091923299823215,-0.3620603251178023,-0.0170868153665015,10.269525571898155,-1.2880989669053762,0.1060038535993343,-0.9074708151490812
0.98,-1.4330140688000563,1.622543630065042,1.775641356190026,0.0547046936308385,0.1493921419604967,0.0150934977157245,0.3682226978879151,-0.7318299848227657,-0.5150338883523703,-1.436566982435146,1.6205079136033151,1.76757739289576,0.4572501367040383,-0.9980845035622112,-0.7309360229552241,0.3916695167432547,0.0607348713492272,-0.3825986227806055,-0.0577458188483925,10.220139841553646,-1.285658533656413,0.1052392641310844,-0.9092443624674869
1.0,-1.4256281837329237,1.6078217211378127,1.7653206455934527,0.0553117342235759,0.1512150213864301,0.0149883895434771,0.3703848658950204,-0.7399366690077626,-0.516980744141141,-1.4146029339056605,1.5859521308239035,1.7498896617724071,0.4065501645844159,-0.8318299863128819,-0.5325609265838623,0.4306493539658966,0.1081084003552668,-0.4053342092498413,-0.097342789438537,10.177767837423744,-1.2833097360643189,0.1044046332330907,-0.9112775835992072
1.02,-1.418506010968109,1.5936183085974414,1.7557321523219107,0.0542675749962038,0.1525090123075006,0.0147593844319537,0.3790886212428419,-0.7540356270133988,-0.492212094166518,-1.4146029339056605,1.5859521308239035,1.7498896617724071,0.4065501645844159,-0.8318299863128819,-0.5325609265838623,1.4899848955315096,0.4351877673910737,-0.7049479002818104,1.2384324987311512,10.139837329765214,-1.2741129417920305,0.104506904181209,-0.9063975455382572
1.04,-1.4108322845363883,1.578412465518636,1.7461371538568906,0.0509345860439606,0.1529019656366406,0.0143207377037783,0.3876943366317956,-0.7652699796780467,-0.4688710755277087,-1.4146029339056605,1.5859521308239035,1.7498896617724071,0.4065501645844159,-0.8318299863128819,-0.5325609265838623,1.3648005057943455,0.4302857694476858,-0.5617176332323948,1.1670509319404665,11.951007685293009,-1.2738781944260562,0.1067466061466117,-0.914476677378774
1.06,-1.40299804275854,1.563023418215577,1.7369513624115684,0.0471758081561702,0.152468056176641,0.0138261302235499,0.3951855011057864,-0.7730388054275651,-0.4508542603439522,-1.4105374322598163,1.577633830960775,1.7445640525065689,0.414215657923716,-0.851829986610905,-0.5360663342301607,1.0500926483748936,0.3745582236995365,-0.3884412874759213,0.9008407591878236,11.315180539389983,-1.2756050729306765,0.1093548872389982,-0.9211662776467078
1.08,-1.395427905148851,1.5482799408302157,1.728517213295785,0.0440531856628764,0.1514374515082943,0.0133758707332781,0.4012201567742324,-0.778647628959522,-0.437847171390949,-1.4024064289681282,1.5609972312345173,1.7339128339748917,0.4295466446023163,-0.8918299872069515,-0.5430771495227575,0.7698381867000988,0.301732783422301,-0.2804411765978454,0.6503544476501588,11.315180539389983,-1.2781573091028224,0.1118154172415317,-0.926131135636614
1.1,-1.3873468778670286,1.5326567347975608,1.7198730479211295,0.0415399822688731,0.1498523074132798,0.012952856625662,0.4064685510502399,-0.7835134846193669,-0.427400192495839,-1.3942754256764398,1.5443606315082596,1.7232616154432143,0.4448776312809167,-0.931829987802998,-0.5500879648153544,0.633169728062207,0.262419713800377,-0.2432927829922437,0.5223489447555019,11.054414837529292,-1.2810485404370742,0.1136755105032584,-0.9288855443622982
1.12,-1.3791726913484106,1.5169433442827862,1.7114070805770103,0.0399156923452543,0.1479100884972982,0.0125949707813863,0.4105948065030138,-0.7876950218270381,-0.4198321430658248,-1.3853778730508215,1.5257240317521996,1.7122598561469071,0.460208617959517,-0.9718299883990444,-0.5570987801079512,0.4790266424110019,0.206312772638692,-0.2090768603835613,0.3784024715007106,10.68834585303648,-1.284026454537937,0.1148241448771575,-0.9300344787409272
1.14,-1.3709266733801648,1.5011544929111909,1.703077298543913,0.0393792022735536,0.145791099113216,0.0123206649727386,0.4137302062859237,-0.7911601378905628,-0.4135130529841421,-1.3764803204252032,1.5070874319961396,1.7012580968506,0.4755396046381173,-1.011829988995091,-0.5641095954005481,0.3929652039073837,0.1567699891454971,-0.1732558031762365,0.3159545040841316,10.62720625377642,-1.2864172481698404,0.1150690826220474,-0.929740062068094
1.16,-1.3630420277617898,1.4860856722885611,1.695273551314001,0.0398077954023746,0.1437519502865901,0.0121340717184501,0.4160156482569156,-0.7949104634593255,-0.4082450231906669,-1.36719949313262,1.4874508322251785,1.690081067171978,0.4908705913167176,-1.0518299895911374,-0.5711204106931448,0.3429297478326618,0.1142720985495976,-0.1875162784381323,0.2634014896737618,10.582737113939402,-1.2886690027841217,0.1145010223368868,-0.9290607562598566
1.18,-1.3547032429381165,1.470142430702991,1.6871610666806014,0.0410307080454701,0.1416850706889786,0.0120010455260739,0.4176693235588875,-0.7992681890026537,-0.4033052082051236,-1.3575353911730714,1.4668142324393163,1.6787287671110414,0.5062015779953178,-1.0918299901871835,-0.5781312259857416,0.339581308403176,0.0826837650985901,-0.2178862771664125,0.246990749277165,10.582737113939402,-1.2906305082482568,0.1132735182261962,-0.9281585535222244
1.2,-1.3463394050179496,1.454104479083492,1.6791404706368502,0.0428405068718741,0.1398400611182807,0.0119217466543298,0.4185683825557296,-0.8043531704646607,-0.3990260708812393,-1.333819776760172,1.4301790212528585,1.6669958062703452,0.4529409532500114,-0.8992681904927698,-0.3883445746143061,0.335322083173091,0.0449529498421058,-0.2542490731003488,0.213956866194212,10.507315272453525,-1.292176163532943,0.1115582452063225,-0.9272706524580868
1.22,-1.337907426742309,1.4378868142094932,1.6714253679464053,0.0430439375329232,0.1376354562479044,0.011719056039411,0.4247533262577656,-0.8167532917783586,-0.3715111941857784,-1.333819776760172,1.4301790212528585,1.6669958062703452,0.4529409532500114,-0.8992681904927698,-0.3883445746143061,1.5403611400887454,0.3092471851017991,-0.6200060656848971,1.3757438347730466,10.507315272453525,-1.2832587487521192,0.1105027342627664,-0.920863849801188
1.24,-1.3297831374229845,1.422267900373748,1.664625401553965,0.0406410107814737,0.1344852172448926,0.011315312059779,0.4299559781408199,-0.8265065299381373,-0.3459351682766671,-1.333819776760172,1.4301790212528585,1.6669958062703452,0.4529409532500114,-0.8992681904927698,-0.3883445746143061,1.3931316722775589,0.2601325941527177,-0.4876619079889344,1.2788012954555672,12.121025523465503,-1.286000559977006,0.1122418414786346,-0.9265301171272484
1.26,-1.3211429398638004,1.4056645433439308,1.6579525774870187,0.0368855283263654,0.1302307674529976,0.0107961201457799,0.4336048866010415,-0.8330255946467514,-0.3228411432724348,-1.329290367227672,1.4211863393479307,1.6631123605242022,0.4599952791882362,-0.919268190790793,-0.3853524478961426,1.2136172466250232,0.1824454230110794,-0.3259532354307037,1.154701250211615,11.882051842263536,-1.289902651420939,0.1151332678590623,-0.9297776316611798
1.28,-1.3124534089113344,1.3889624903485878,1.6517021993574112,0.0334218801826149,0.125339173464651,0.0103094812446552,0.4349607858053571,-0.8369287213144341,-0.3035042611970809,-1.320231548162672,1.4032009755380754,1.655345469031916,0.4741039310646858,-0.9592681913868396,-0.3793681944598157,0.9886706590573804,0.0677949602157806,-0.1951563333841333,0.9668441037676944,11.626926025335706,-1.29510944970678,0.1177874897580287,-0.9307000725152502
1.3,-1.30419844742204,1.373038078791213,1.6460891011557233,0.0309621787618789,0.120597934205542,0.0099323849558012,0.4337832062062078,-0.8393770572921785,-0.2883022472260024,-1.3111727290976716,1.38521561172822,1.64757857753963,0.4882125829411354,-0.999268191982886,-0.3733839410234887,0.772143561051176,-0.0588789799574634,-0.1224167988872204,0.7601006985539255,11.196446544639002,-1.3006044767249747,0.1199096277868849,-0.9302303355310212
1.32,-1.2955590710314506,1.356232756802962,1.6404702186699929,0.0294106949611224,0.1161731320792627,0.0096502016648178,0.4300305800886728,-0.8411758550853351,-0.2744854071384907,-1.3014084774388488,1.3652302478885625,1.6401108987191602,0.502321234817585,-1.0392681925789324,-0.3673996875871617,0.7214966151731764,-0.1876313058767509,-0.0899398896578307,0.6908420043755831,11.196446544639002,-1.3049120479051357,0.1211382165323859,-0.929124935749516
1.34,-1.2870208747727088,1.3393999557732776,1.6351151235595769,0.0292120836489919,0.113152080296785,0.0095201219089929,0.4239117851831381,-0.8422465198926016,-0.2617150270808304,-1.2916442257800262,1.3452448840489044,1.6326432198986902,0.5164298866940347,-1.0792681931749788,-0.3614154341508347,0.710050316954025,-0.305939745276737,-0.0535332403633237,0.6385190028830146,11.063884252886057,-1.3069735292707685,0.1212351958687835,-0.9284986285168528
1.36,-1.2786189949666302,1.3225389515321315,1.6300094520657502,0.0303100060093477,0.1121778269172326,0.0095494325091406,0.4168415256668665,-0.843909523277626,-0.2495071174973876,-1.2815272578242922,1.3242595201943457,1.6253251474141286,0.5305385385704842,-1.1192681937710252,-0.3554311807145077,0.7102591187087052,-0.3535129758135774,-0.0831501692512226,0.6103954791721419,11.018877546071051,-1.305440205082234,0.1201793774169112,-0.931288852277972
1.38,-1.2707595067693422,1.306482977472333,1.625382298942244,0.0323067598910847,0.11289549842063,0.0097003140986637,0.4110176409252168,-0.8461830955028292,-0.2381866569975734,-1.2710575735716472,1.3022741563248854,1.6181566812654753,0.5446471904469338,-1.1592681943670715,-0.3494469272781808,0.646605733958277,-0.2911942370824844,-0.1136786112601595,0.5660230249907097,10.971504203791484,-1.3019298362805165,0.1182406116303333,-0.9364344852766512
1.4,-1.2625924155730477,1.289521023183864,1.6207432797906387,0.0350238904071642,0.114794387046284,0.0099476692360201,0.4061633238193723,-0.8501198890778999,-0.2263293895599779,-1.2502086247230817,1.2641738226971917,1.6134729660923652,0.4614594014950277,-0.9461830969929452,-0.2554158824840903,0.6701819329545436,-0.2427158552922276,-0.1968396787535353,0.5928633718797746,10.971504203791484,-1.2977285464565804,0.1157823577498301,-0.9428871475001904
1.42,-1.2545319319231922,1.272404332675975,1.6163323569538588,0.0357809691106265,0.1180779226491272,0.0101177777771912,0.400378520489636,-0.860742987618207,-0.2153855252032837,-1.2502086247230817,1.2641738226971917,1.6134729660923652,0.4614594014950277,-0.9461830969929452,-0.2554158824840903,0.8156015252844424,-0.2892401664868121,-0.5311549270153537,0.54719321783471,10.97501437405208,-1.2941650531045794,0.1150645443680036,-0.9484173323594524
1.44,-1.2469691926238236,1.2559791610448654,1.6123282202121574,0.0340858584998027,0.1227201727172634,0.01017111886544,0.3962937879496218,-0.8675968847182471,-0.2066643946768072,-1.2502086247230817,1.2641738226971917,1.6134729660923652,0.4614594014950277,-0.9461830969929452,-0.2554158824840903,0.5910140925587783,-0.2042366270007117,-0.342694855002007,0.4360565263238261,10.945780456901048,-1.286408278159232,0.1163666163877664,-0.9579166518043496
1.46,-1.2390696856380727,1.2385724392292283,1.608275282900486,0.0312609768669071,0.1285478951816448,0.0101853109985539,0.3941242368366625,-0.8724671843062446,-0.1991765525288721,-1.2455940307081312,1.254711991727262,1.6109188072675242,0.4715477536089899,-0.9661830972909684,-0.2588617275813937,0.4596045858697025,-0.1084775556479678,-0.2435149793998725,0.3743921073967537,10.83402749180459,-1.278569482405431,0.1187116768537154,-0.968314481158239
1.48,-1.231191202748452,1.2210981692151304,1.6043534914519906,0.0286148584735186,0.1346961358823844,0.0102169186789423,0.3940300443802406,-0.8748757698148376,-0.1934022450666176,-1.2363648426782303,1.235788329787403,1.6058104896178425,0.4917244578369142,-1.006183097887015,-0.2657534177760005,0.3128609237332873,-0.0047096228210918,-0.1204292754296509,0.2887153731127218,10.732736648498758,-1.2720455908934414,0.1209340758091772,-0.9782224710973472
1.5,-1.2236899326637096,1.2044656655917845,1.600722060781012,0.0268729471054125,0.1403646006396691,0.0102933142932883,0.3956963449844611,-0.8760327724717331,-0.1891679691987917,-1.22713565464833,1.216864667847544,1.600702171968161,0.5119011620648386,-1.0461830984830611,-0.2726451079706073,0.2347568155376008,0.0833150302110258,-0.0578501328447722,0.2117137933912979,10.582421152421375,-1.2659957467255183,0.122658541646043,-0.9877805884083346
1.52,-1.2157435204662412,1.1869423535144266,1.5969773626268662,0.0261609212177878,0.1458195823314744,0.0104404868488039,0.3989648156159218,-0.8763590235746757,-0.1855788134830105,-1.2168976314070332,1.195941005877883,1.5952492698087486,0.532077866292763,-1.0861830990791077,-0.2795367981652141,0.2432662060532519,0.1634235315730342,-0.0163125551471299,0.1794577857890611,10.582421152421375,-1.2609002176386566,0.1234148633870836,-0.99623256375427
1.54,-1.2077168432880454,1.1694213938063145,1.593297004113993,0.0270659608139231,0.1505120682526488,0.0106885667285189,0.4035723402223894,-0.8759874400098571,-0.1826561051678682,-1.2066596081657364,1.1750173439082217,1.5897963676493363,0.5522545705206873,-1.1261830996751545,-0.2864284883598209,0.2734482640292731,0.2303762303233786,0.0185791782409294,0.1461354157571134,10.520319485588516,-1.257207707291793,0.1228271814651857,-1.003378513168478
1.56,-1.1999935744879442,1.1527741547769548,1.5898513627730235,0.0293730842923486,0.1540647219449568,0.011011991459989,0.4091425778329566,-0.8765100106968918,-0.1801986938375292,-1.1959171673187416,1.1530936819236592,1.584171173235059,0.5724312747486117,-1.1661831002712006,-0.2933201785544276,0.3055302669442273,0.278511880528362,-0.0261285343517381,0.1228705665169499,10.520319485588516,-1.2547111336069705,0.1208476219606331,-1.0098073183674996
1.58,-1.1917416689654023,1.1352185282548377,1.5862733589427045,0.0326765128144799,0.1567209578894219,0.0113931734901856,0.4157302095230966,-0.8792824110437445,-0.1777416669312098,-1.1846703088660486,1.1301700199241955,1.5783736865659166,0.5926079789765359,-1.206183100867247,-0.3002118687490344,0.3778891245674526,0.3293815845069964,-0.1386200173426333,0.1228513453159718,10.513252002201623,-1.2536389271045678,0.1180393506232065,-1.0145726559666983
1.6,-1.1833522639553555,1.1175843703040258,1.5827439792627185,0.0358518913692146,0.1582324276318843,0.0117358392775589,0.4227756506959612,-0.8839481409807644,-0.1753159241717768,-1.1709551584892477,1.0912544077026505,1.577386275596144,0.4680996960636525,-0.9792824125338606,-0.1864341205465772,0.4395779370613371,0.3522720586432298,-0.2332864968509929,0.121287137971647,10.517360360572638,-1.253197587660506,0.1154282152393661,-1.0174109353677532
1.62,-1.1751958586924476,1.1006643015880957,1.5795573512330885,0.0362158339905308,0.1576119664825821,0.0118060173588388,0.43522943311454,-0.8957602685051282,-0.1601926926224479,-1.1709551584892477,1.0912544077026505,1.577386275596144,0.4680996960636525,-0.9792824125338606,-0.1864341205465772,1.1438260200700945,0.6226891209289431,-0.5906063762181946,0.7561615774664465,11.418020957207773,-1.247434029920116,0.1146426724681294,-1.0172823714209107
1.64,-1.166363902943838,1.082657057108514,1.5765094908263593,0.0333451413634623,0.1538204051663857,0.0115527033489422,0.447036941830899,-0.9040071711303648,-0.1454991202745138,-1.1709551584892477,1.0912544077026505,1.577386275596144,0.4680996960636525,-0.9792824125338606,-0.1864341205465772,1.028748916574153,0.5903754358179497,-0.4123451312618209,0.7346786173967029,11.418020957207773,-1.253678764197781,0.117515173531811,-1.0164426879655457
1.66,-1.1573313237970086,1.0645314364897225,1.5737250291615357,0.0293638522453177,0.1475717155261018,0.0111726741846289,0.4551524805342821,-0.9079719237295922,-0.1337829510325484,-1.166274161528611,1.0814615835773116,1.5755219343906783,0.4785735933717637,-0.9992824128318838,-0.1881726112696506,0.7396787365565672,0.4057769351691526,-0.1982376299613786,0.5858084620982736,11.258289937541122,-1.2636844607530924,0.1215054348726786,-1.012669429194932
1.68,-1.1481831908508426,1.0463570152059691,1.571143253096467,0.0259017111059611,0.1402837168830168,0.0108396780366211,0.4589374902722253,-0.9094132642737696,-0.1250960044623252,-1.156912167607338,1.0618759353266345,1.5717932519797466,0.4995213879879861,-1.0392824134279304,-0.1916495927157976,0.47923585528038,0.1892504868971634,-0.0720670272088663,0.4343473285111587,11.04566719709237,-1.273323740218073,0.1248262627552557,-1.0074017783132296
1.7,-1.1394605234098658,1.0290782456031582,1.5688234042796962,0.0236457632602422,0.1335276881864985,0.0106325285365233,0.4589527099542331,-0.9096531080810012,-0.1195152330675108,-1.147550173686065,1.0422902870759572,1.5680645695688151,0.5204691826042085,-1.0792824140239767,-0.1951265741619446,0.2792971806685757,0.0007609841003869,-0.0119921903615816,0.279038569740718,10.847878113231673,-1.282120386284818,0.127284180533033,-1.0009825389014582
1.72,-1.1303098806734968,1.0108914859871905,1.5664770359852342,0.0225030025069795,0.1274623634737742,0.010547696793399,0.4559342603522588,-0.9091610100458448,-0.1154957442832363,-1.1371407900339807,1.0207046387954777,1.5641620380855763,0.5414169772204309,-1.119282414620023,-0.1986035556080916,0.2525345944755514,-0.1509224800987141,0.0246049017578242,0.2009744392137274,10.683552676570798,-1.2888632985617652,0.1285411672342631,-0.994580923877888
1.74,-1.121251700543529,0.9927234003868872,1.5641987306685103,0.023015146213283,0.1234212272981231,0.0106336985445411,0.4499885754256561,-0.90795344716719,-0.1125297093295389,-1.1267314063818965,0.999118990514998,1.5602595066023373,0.5623647718366532,-1.1592824152160697,-0.2020805370542385,0.3376638146844061,-0.2972842463301345,0.0603781439327377,0.1483017476848688,10.569214645046486,-1.2929776243862965,0.1283401654279738,-0.9898570665203142
1.76,-1.1127733411817715,0.9754776670830768,1.5620851229949622,0.0249900539089969,0.1222065563323108,0.010880372431686,0.4430414368235637,-0.9075805394293996,-0.110114685236091,-1.1157983278644068,0.9765333422196174,1.5562700505829448,0.5833125664528757,-1.199282415812116,-0.2055575185003855,0.3682191477555174,-0.3473569301046197,0.0186453868895208,0.1207512046723924,10.492478433405267,-1.2922912819789794,0.1265992585098707,-0.9892381383946848
1.78,-1.1039782833865788,0.957315795171754,1.5599089894368408,0.028163989817685,0.123404215594941,0.0112795091840423,0.4371045721352693,-0.9089919903792184,-0.1076443133610755,-1.1043415544815116,0.9529476939093356,1.5521936700273984,0.604260361069098,-1.2392824164081624,-0.2090344999465324,0.3291705231021196,-0.2968432344147204,-0.070572547490938,0.1235185937507779,10.492478433405267,-1.2887591546394863,0.1238291283974287,-0.992309745920294
1.8,-1.0952823540753616,0.9390991607386088,1.5577839496830383,0.031402919871465,0.1262913913790778,0.0117370919727533,0.4330402044849358,-0.912583565567771,-0.1049996958817096,-1.0821230547798153,0.9118661956527933,1.554526773768787,0.4922452127218839,-1.0089919918693344,-0.1290297129857808,0.3017138476448857,-0.2032183825166761,-0.1795787594276343,0.1322308739682948,10.487148607696328,-1.283312446221523,0.120974030095634,-0.997060501170246
1.82,-1.0866269824176409,0.920728587208393,1.555775802322715,0.0320127972893283,0.1297724787693073,0.0120378563180447,0.4327877481853244,-0.923154310655423,-0.0959293469529056,-1.0821230547798153,0.9118661956527933,1.554526773768787,0.4922452127218839,-1.0089919918693344,-0.1290297129857808,0.6965551226959499,-0.0126228149805673,-0.5285372543825995,0.4535174464401998,10.501804164161513,-1.274019556926718,0.1201895837750945,-1.0024360684472602
1.84,-1.078401606141002,0.9031223931781028,1.5540263489948754,0.0299064474097125,0.1330585145054799,0.0121375459720592,0.433148102616692,-0.9294826880637174,-0.0887041627169278,-1.0821230547798153,0.9118661956527933,1.554526773768787,0.4922452127218839,-1.0089919918693344,-0.1290297129857808,0.4805764850204352,0.0180177215683779,-0.3164188704147197,0.361259211798888,10.920279150001988,-1.2696934184723947,0.1223252876041696,-1.008737202297219
1.86,-1.0697293908475372,0.884493050395241,1.5523117330458176,0.0266251653042266,0.136437877249845,0.0121641260261285,0.4341351827514372,-0.9328511627051218,-0.0832412177367265,-1.0772006026525964,0.9017762757340998,1.553236476638929,0.5032733408392068,-1.0289919921673576,-0.1333067929107219,0.3246718206855186,0.0493540067372622,-0.168423732070222,0.2731472490100639,10.803666611207518,-1.2661084786402153,0.1255534869123744,-1.0143244817203767
1.88,-1.0610314709635875,0.8658267845229409,1.5506836004035418,0.023746960231511,0.1396314068694506,0.0122119976990989,0.4356725728739796,-0.9337463663170896,-0.0799468617990479,-1.067355698398159,0.8815964358967131,1.5506558823792136,0.5253295970738527,-1.0689919927634042,-0.141860952760604,0.1872013550958542,0.0768695061271196,-0.0447601805983854,0.1647177968839334,10.670770645094308,-1.2635474009945271,0.1284968479659782,-1.0192389967152018
1.9,-1.052297601622139,0.847157112647667,1.5491009171552463,0.0219072855743209,0.1425627160884658,0.0123263080928398,0.4376943232464056,-0.9334852171069578,-0.0784950167727248,-1.0575107941437212,0.8614165960593264,1.548075288119498,0.5473858533084985,-1.1089919933594503,-0.1504151126104861,0.1251352014704099,0.1010875186212983,0.013057460506588,0.0725922513161538,10.549686486447172,-1.261457386330459,0.1304313832840061,-1.0234742202664548
1.92,-1.04395858869738,0.8294334903772116,1.547612502634227,0.0213659421678132,0.1450715210439409,0.012515235658954,0.44003308102157,-0.9323976462140808,-0.0782617988702635,-1.0465630770775511,0.8392367561921373,1.545066985867288,0.5694421095431443,-1.148991993955497,-0.1589692724603682,0.1294892753083558,0.11693788875822,0.0543785446438405,0.0116608951230667,10.394874715668266,-1.259385910599447,0.1313082564419032,-1.02731807018542
1.94,-1.0351284505017566,0.8108052583068869,1.546045248094973,0.0224540410358942,0.1474228077108145,0.01282748160598,0.4428979413649636,-0.9306663887232468,-0.0785021070304994,-1.035615360011381,0.8170569163249484,1.5420586836150785,0.5914983657777902,-1.1889919945515437,-0.1675234323102504,0.1677976854622403,0.143243017169678,0.0865628745417013,-0.0120154080117972,10.394874715668266,-1.2577625560019683,0.1306157887361995,-1.0306011001161248
1.96,-1.0262334670011126,0.7922012417466537,1.5444709387176738,0.0252274278122758,0.149398105740602,0.0132533149898532,0.446478153010195,-0.9300870969380372,-0.0789270239495982,-1.024116236539345,0.7938770764428582,1.5388365273666216,0.613554622012436,-1.2289919951475898,-0.1760775921601325,0.1825790841334176,0.1790105822615739,0.0289645892604883,-0.0212458459549404,10.372642404454382,-1.2568707357567117,0.1285084642604949,-1.0336010578070487
1.98,-1.0172603062454504,0.7735803366150531,1.5428885742431813,0.0287311242523211,0.1508448398616493,0.0137197463581473,0.4506258889448772,-0.9321810077284584,-0.0792930469165695,-1.012065706661443,0.7696972365458669,1.5354005171219178,0.635610878247082,-1.2689919957436362,-0.1846317520100146,0.2330351292962418,0.2073867967341075,-0.1046955395210602,-0.0183011483485665,10.368371645572552,-1.256348077752848,0.1255631859595645,-1.035880787241242
2.0,-1.008655752333957,0.7558329255366456,1.5413794257508788,0.0318171882399473,0.1516845696247211,0.0141308849448717,0.4548633973011266,-0.9357903665916798,-0.0795437434269465,-0.9947290117982064,0.7269712862286302,1.5389239218973527,0.5123684591961036,-1.0057893316601525,-0.0893448068077815,0.2785982645904047,0.211875417812471,-0.1804679431610723,-0.0125348255188485,10.379070221607437,-1.2560151728216626,0.1227979918805655,-1.0371583392343957
2.02,-0.999469297298958,0.7369123815002899,1.5399076777377043,0.0295957162240424,0.1514142288033769,0.0141465042968349,0.4636239412321136,-0.9543253520533652,-0.0668676084985387,-0.9947290117982064,0.7269712862286302,1.5389239218973527,0.5123684591961036,-1.0057893316601525,-0.0893448068077815,1.2051734447319649,0.4380271965493509,-0.9267492730842708,0.6338067464203914,10.389971083779528,-1.24861598220615,0.124620296379365,-1.0360611773442463
2.04,-0.9901134924073554,0.7177378387599138,1.538702476852844,0.0212828361864573,0.1495129364327598,0.0137110693650307,0.4713319486264943,-0.961161243944884,-0.0544289436698162,-0.9947290117982064,0.7269712862286302,1.5389239218973527,0.5123684591961036,-1.0057893316601525,-0.0893448068077815,0.8075629676156173,0.3854003697190356,-0.3417945945759393,0.6219332414361227,11.294251856177652,-1.250770404844135,0.1322706550579629,-1.0352820527239903
2.06,-0.9811030185197191,0.6994765552528782,1.5377508344576067,0.0127322178639098,0.1466737512319041,0.0132699238425968,0.4766356705857447,-0.960746049629972,-0.0463522705482691,-0.9896053272062456,0.7169133929120286,1.538030473829275,0.5247169732463489,-1.0205109964464911,-0.0913551587860239,0.4835661838168889,0.2651860979625164,0.0207597157455941,0.403833656077358,11.12487802308442,-1.256804203916869,0.1412590180648476,-1.034095531500131
2.08,-0.971533582238743,0.6803046881992855,1.5368822352288751,0.0049478116168102,0.143174667118791,0.0129325426853953,0.4798443068555262,-0.956648267707574,-0.0410767882807883,-0.9793579580223234,0.6967976062788256,1.5362435776931191,0.5494140013468395,-1.0499543260191686,-0.0953758627425087,0.3705329828429387,0.1604318134890786,0.2048890961199034,0.2637741133740382,10.874931798064608,-1.26386554441013,0.1491545065365787,-1.0313602402104276
2.1,-0.961928147427727,0.6612394130380143,1.536085349888791,-0.0009095414406334,0.1399191896784367,0.0127737643248749,0.4804472648577469,-0.9505718204228906,-0.0388576148279005,-0.9691105888384012,0.6766818196456226,1.5344566815569636,0.5741110294473301,-1.0793976555918463,-0.0993965666989935,0.3248518922908617,0.0301479001110355,0.3038223642341742,0.1109586726443925,10.508889774927413,-1.26995717800431,0.1549675102248177,-1.0286811380075624
2.12,-0.9523357205926392,0.6423050097200849,1.535311436590661,-0.0048676630424089,0.137744562646237,0.0127760087195321,0.4787201946332095,-0.9436647444647616,-0.0386360092637465,-0.9576283682494546,0.6550938665337857,1.5324687502229837,0.5988080575478206,-1.108840985164524,-0.1034172706554783,0.3561585983726561,-0.086353511226872,0.3453537979064447,0.0110802782076986,10.508889774927413,-1.2747056255261713,0.1593151494958314,-1.0263817765580696
2.14,-0.9432668501882252,0.6244479794640209,1.5345729583175776,-0.0070578835992595,0.1372809362019766,0.0128954437207537,0.4762242344909818,-0.93678203620823,-0.0391152280226895,-0.946146147660508,0.6335059134219486,1.5304808188890038,0.6235050856483112,-1.1382843147372017,-0.1074379746119631,0.366848540255514,-0.1247980071113874,0.3441354128265794,-0.0239609379471528,10.399741298803749,-1.275410896006559,0.1619404705072631,-1.0261379207324963
2.16,-0.9337623291040325,0.6057866048520496,1.5337835092173595,-0.0080857234462218,0.1382278859527436,0.0131086769126367,0.4745145197527273,-0.9298183729742996,-0.0398172790625061,-0.9340465013690492,0.6111818770707949,1.5283923699561115,0.6482021137488018,-1.1677276443098792,-0.1114586785684479,0.3602381357668399,-0.0854857369127215,0.3481831616965247,-0.035102551990828,10.34980345697113,-1.2742037099655126,0.1633123842530868,-1.0277164218696124
2.18,-0.924280163433834,0.5872673473704096,1.5329800050576488,-0.0078488649821454,0.1401240268072925,0.0134083408892624,0.4739314621154725,-0.9226214678766784,-0.040507371271191,-0.921329429375078,0.588121757480324,1.5262034034243075,0.6728991418492923,-1.1971709738825569,-0.1154793825249327,0.3626693619849018,-0.0291528818627428,0.3598452548810582,-0.0345046104342446,10.34980345697113,-1.2723346877405388,0.1635354260690839,-1.0306229551154769
2.2,-0.9147966542099564,0.5688913219575923,1.5321645842133216,-0.0062928507959429,0.1424845990724554,0.0138020567050508,0.4745478690666745,-0.915505721061482,-0.0410090082713911,-0.9005835903280605,0.5411362739765757,1.5309546364940891,0.5284296056096016,-0.9647281484487114,-0.0424656471835206,0.3579994760730798,0.0308203475601009,0.3557873407598277,-0.0250818500100065,10.353764343579314,-1.270445120362979,0.1626308969382729,-1.03410597254316
2.22,-0.9057071455848128,0.5514226681963155,1.5314705681267993,-0.0080962637595546,0.143455344499219,0.0139611430246641,0.4819323396281843,-0.9217751317984744,-0.0320131075366169,-0.9005835903280605,0.5411362739765757,1.5309546364940891,0.5284296056096016,-0.9647281484487114,-0.0424656471835206,0.6609881740485893,0.3692235280754907,-0.3134705368496304,0.4497950367387128,11.001068279147148,-1.2628997779013629,0.1642791385146535,-1.0366268024028185
2.24,-0.895997346542362,0.5330038006842981,1.5309240820438246,-0.014360642016425,0.1419494580559334,0.0138617337156674,0.4884482957432129,-0.919021907644427,-0.0231935551934411,-0.9005835903280605,0.5411362739765757,1.5309546364940891,0.5284296056096016,-0.9647281484487114,-0.0424656471835206,0.5652929127218623,0.3257978057514321,0.137661207702372,0.440977617158789,11.001068279147148,-1.2663317783784154,0.1708406541831321,-1.0361380237775075
2.26,-0.8861786531647974,0.5147078345678402,1.5305279778464345,-0.0209879528189727,0.1385297154426315,0.013800329449036,0.4928878291445352,-0.9107107895126092,-0.0169661584844127,-0.8952992942719644,0.5314889924920886,1.5305299800222538,0.5393292343084275,-0.973149484563118,-0.0428573023659865,0.5647225230015783,0.2219766700661152,0.4155559065908976,0.31136983545142,10.907876060777198,-1.2730350707116012,0.1775983351039616,-1.0341766887496018
2.28,-0.8762991753129911,0.4966115873902982,1.5302278724212772,-0.0264024127372781,0.133914771897743,0.0138924042578266,0.4946581803901421,-0.8996943058342651,-0.0133239427113737,-0.8847307021597725,0.5121944295231143,1.5296806670785834,0.5611284917060791,-0.9899921567919312,-0.0436406127309183,0.5868619767573426,0.0885175622803435,0.5508241839171979,0.1821107886519473,10.745384651017048,-1.28180469214309,0.1836909654429487,-1.0305153851025588
2.3000000000000003,-0.8669092713751672,0.4796368800028623,1.5299922357761924,-0.0300544561533227,0.1292496611103381,0.014127644762482,0.4935257999366305,-0.8880790258665463,-0.0116368555686929,-0.8741621100475804,0.4928998665541401,1.528831354134913,0.5829277491037308,-1.0068348290207445,-0.0444239230958501,0.5895830671902486,-0.0566190226755802,0.5807639983859414,0.0843543571340426,10.602627499889422,-1.29047317054413,0.1882610788289454,-1.026100164626013
2.32,-0.8570785116637808,0.4620091160116733,1.5297669653576618,-0.0324077686586104,0.125053311988821,0.0144848594105447,0.4894143455784089,-0.8756104742333575,-0.0110151528059348,-0.8625035550655058,0.4727631699737252,1.527942875672996,0.6047270065013824,-1.0236775012495574,-0.0452072334607819,0.6571821495872664,-0.2055727179110789,0.6234275816594415,0.0310851381379055,10.430464144576945,-1.2979074738246683,0.1913241952231331,-1.0218681876258855
2.34,-0.8473605493620268,0.4446366148621873,1.5295480882210497,-0.0332322767152842,0.1227517804116486,0.0149028448443983,0.4825540686776788,-0.8625596232343319,-0.010887200591563,-0.8508450000834312,0.4526264733933103,1.527054397211079,0.6265262638990342,-1.040520173478371,-0.0459905438257138,0.737232125457479,-0.343013845036505,0.6525425499512794,0.0063976107185892,10.430464144576945,-1.3021608997894514,0.192783183299069,-1.0191162574732031
2.36,-0.8377861870529699,0.4275256885014263,1.5293317277461234,-0.0324240030445903,0.1229692040459057,0.0153577541651598,0.4755916842995596,-0.8494105014115542,-0.010759967057302,-0.8386414636664152,0.4320687100071751,1.526146335990039,0.6483255212966859,-1.0573628457071838,-0.0467738541906456,0.7439596583672544,-0.3481192189059623,0.657456091138886,0.0063616767130489,10.415021633755714,-1.3008796167064105,0.1926838428154296,-1.0204512945036093
2.38,-0.828804442536519,0.4115119560157063,1.5291317590090547,-0.0300791485869725,0.1249421923788746,0.0158469714473901,0.4704288110089242,-0.8371221615697979,-0.0102993257825605,-0.825892945814458,0.4110898798153196,1.5252186920098751,0.6701247786943375,-1.074205517935997,-0.0475571645555774,0.6668409612974563,-0.2581436645317708,0.6144169920878129,0.0230320637370738,10.409327494176068,-1.298167210314043,0.1910560272549475,-1.0247783258557135
2.4,-0.8194369376670456,0.394886480848731,1.5289368067794762,-0.0263999835789074,0.1281593993911319,0.0164198732192952,0.4667973562967506,-0.8264318076206579,-0.0091953815557054,-0.8052830019860727,0.3696558479372164,1.5286167927199268,0.5272295750629842,-0.8299389231715142,-0.0104393247531138,0.5672076862588936,-0.1815727356086788,0.5345176974569987,0.0551972113427548,10.463928718294484,-1.2943456518880776,0.1882591209038102,-1.0310413953680275
2.42,-0.8100939182701056,0.3782617138367988,1.5288096962254347,-0.0286620402720162,0.1312650465657098,0.0165887620989737,0.4677430620775812,-0.8342446759941121,-0.0034077063478226,-0.8052830019860727,0.3696558479372164,1.5286167927199268,0.5272295750629842,-0.8299389231715142,-0.0104393247531138,0.4884476838842582,0.047285289041532,-0.3906434186727092,0.2893837603941406,10.463928718294484,-1.286985717855366,0.1904031048458832,-1.0364109982526817
2.44,-0.8011982476186671,0.3624426364568087,1.5287955966813076,-0.0374987848947384,0.1333882205960461,0.0163048184183014,0.468552402731606,-0.8293472750458313,0.0015759800558528,-0.8052830019860727,0.3696558479372164,1.5286167927199268,0.5272295750629842,-0.8299389231715142,-0.0104393247531138,0.3516983740105269,0.0404670327012385,0.2448700474140419,0.2491843201837752,10.760735256044429,-1.2850378175973476,0.1997357727905832,-1.038912474548664
2.46,-0.7918227356728538,0.3459892881472041,1.528863444275778,-0.0478232765228068,0.1351140583896167,0.0159545248871355,0.4689441428211081,-0.8160639504936771,0.0048415188379702,-0.8000107062354429,0.3613564587055012,1.5285123994723957,0.5385897278737962,-0.8285022754918574,-0.0104673245472245,0.6842220308370272,0.0195870044751023,0.6641662276077098,0.1632769391058698,10.694580192467583,-1.2859897583687177,0.2104926667439194,-1.0420876643421624
2.48,-0.7824437941325051,0.3298524869978927,1.5289759862497478,-0.0569321483520783,0.1365735726165552,0.0157079704457351,0.4689395425959327,-0.7984568154918602,0.0061752513614652,-0.7894661147341832,0.344757680242071,1.5283036129773333,0.5613100334954202,-0.8256289801325439,-0.0105233241354458,0.8828789081444082,-0.0002300112587699,0.8803567500908438,0.0666866261747489,10.501667626293056,-1.287877858239406,0.2202282430096093,-1.0449565136799
2.5,-0.7730680114489407,0.3140964751333017,1.5290997575536924,-0.0639779531894088,0.1379696141421034,0.0156180093161772,0.4686904627065585,-0.7785255591629251,0.0061545186320946,-0.7789215232329235,0.3281589017786407,1.5280948264822711,0.5840303391170442,-0.8227556847732305,-0.0105793237236671,0.996641170992692,-0.0124539944687085,0.9965628164467556,-0.0010366364685264,10.447378025785838,-1.2898441181091125,0.2277146290372904,-1.047673860001118
2.52,-0.7641659906645093,0.2995086765735941,1.5292110098363,-0.0687389572653554,0.1393560252527753,0.0156724635059176,0.4684343884308407,-0.7585032903883384,0.0055779292641793,-0.7672409164505827,0.3117037880831761,1.5278832400077975,0.6067506447386681,-0.819882389413917,-0.0106353233118884,1.001610298738569,-0.0128037137858916,1.001113438729334,-0.0288294683957682,10.427742886891792,-1.2915186555219085,0.2336861982269779,-1.0506857467896211
2.54,-0.7547988623529759,0.2845657333736023,1.5293170279450048,-0.0719911779070037,0.1409476838502505,0.0158525130719111,0.4683516019110341,-0.7371550988365335,0.0050773873516821,-0.7555603096682418,0.2952486743877114,1.5276716535333243,0.6294709503602922,-0.8170090940546035,-0.0106913229001097,1.0677109608252855,-0.0041393259903266,1.0674095775902448,-0.0250270956248566,10.427742886891792,-1.2930740063996635,0.237912724087445,-1.0536763648294316
2.56,-0.7454271086432734,0.2700541919014628,1.5294160252745268,-0.0736395616315262,0.1426060320575922,0.0161486804161135,0.4688791049487069,-0.7153125913758351,0.0048748007350851,-0.7433116952453603,0.2788653930762297,1.5274586670691457,0.6521912559819162,-0.81413579869529,-0.010747322488331,1.09249076994115,0.0263751518836369,1.092125373034919,-0.0101293308298505,10.443528256955688,-1.294245674957338,0.2406266832250115,-1.0571753076492294
2.58,-0.7360384638931724,0.2559872853392988,1.5295156204255576,-0.0735214038683021,0.1441570809369268,0.0165847781774056,0.4699765682166563,-0.6927843072937425,0.0051074412398604,-0.7304950731819382,0.2625539441487308,1.527244280615261,0.6749115616035402,-0.8112625033359765,-0.0108033220765523,1.1278099694900157,0.0548731633974702,1.126414204104631,0.0116320252387614,10.469326944848037,-1.2957417291027145,0.2417410002005861,-1.061336181259062
2.6,-0.7270944462984658,0.2430445753043589,1.529619249140956,-0.0715077997454355,0.1454257119719384,0.0171541783207483,0.4714432549992727,-0.6710298856949131,0.0058043191493208,-0.7125396354823396,0.2213480699746117,1.5297709924875509,0.520611179614638,-0.6759282664881643,0.0058205314775561,1.0907470697171426,0.0733343391308233,1.0877210799414727,0.0348438954730215,10.501921903605762,-1.2978134833870256,0.2411328668640652,-1.066845065702729
2.62,-0.7176039588139125,0.2298316045338772,1.529750177075362,-0.0682045455080962,0.1451897901443478,0.0179513317897991,0.477552173542224,-0.6516557958862257,0.0073002572529325,-0.7125396354823396,0.2213480699746117,1.5297709924875509,0.520611179614638,-0.6759282664881643,0.0058205314775561,1.018469528863451,0.3054459271475657,0.9687044904343688,0.0747969051805875,10.538289117500426,-1.298565159106342,0.2393103181363166,-1.072523344847914
2.64,-0.7079962079588186,0.2169920973398738,1.529919479930684,-0.0648553437053023,0.1421004622416947,0.0189407492220856,0.4826897531426313,-0.6333700536456552,0.0096047224195755,-0.7125396354823396,0.2213480699746117,1.5297709924875509,0.520611179614638,-0.6759282664881643,0.0058205314775561,0.9566525664306949,0.2568789800203641,0.9142871120285224,0.1152232583321464,10.582958148628675,-1.3063924651229508,0.2375472563413704,-1.0726157048162868
