t,x,y,z,roll,pitch,yaw,v_x,v_y,v_z,ref_x,ref_y,ref_z,ref_v_x,ref_v_y,ref_v_z,a_com,a_x,a_y,a_z,thrust,wind_x,wind_y,wind_z
0.0,-1.6933500598875624,1.5240981324699576,2.962593189577128,0.0215152493714837,0.1367236775893904,0.0263527070692731,0.0068203590946614,-0.0050088832446005,0.0336459313899089,-1.6931511407536188,1.5240482959396755,2.963610803759897,0.0160332718784406,-0.1025502399862219,-0.0661521479023623,1.7346865052745346,0.3410179547330739,-0.2504441622300277,1.6822965694954468,10.564211747953776,-1.285095969778672,0.1541729485349742,-1.1872303910234367
0.02,-1.693303760044082,1.5242521274833236,2.96305431707332,0.0281911380075713,0.1382995534409408,0.0268471439101503,-0.0020231653072786,0.0164933170076523,0.0113722560397492,-1.6931511407536188,1.5240482959396755,2.963610803759897,0.0160332718784406,-0.1025502399862219,-0.0661521479023623,1.6098673494577165,-0.442176220097005,1.0751100126126427,-1.1136837675079856,10.564156681934946,-1.3084942637442096,0.1496781887669113,-1.2051531524256387
0.04,-1.693433361576307,1.5246090306823743,2.9629913481702523,0.0425848365228533,0.1428522044862882,0.0279856075006872,-0.0100431033549611,0.0172787469497726,-0.0165864195196587,-1.6931511407536188,1.5240482959396755,2.963610803759897,0.0160332718784406,-0.1025502399862219,-0.0661521479023623,1.4548400646796906,-0.4009969023841273,0.0392714971060196,-1.397933777970399,9.223496377903755,-1.3017158658514705,0.1339548368232309,-1.1892163015042083
0.06,-1.6936758477251044,1.5248854478851996,2.962411188514496,0.056901975965406,0.1491487004381467,0.029252448162277,-0.0147155122935238,0.0114881615817113,-0.0430644309290462,-1.6929908080348344,1.5230227935398133,2.9629492822808734,0.017903916529794,-0.1225502402842451,-0.0861521482003855,1.37517941773939,-0.2336204469281339,-0.289529268403065,-1.3239005704693736,9.008846688007909,-1.2888877632550133,0.1176343613458306,-1.174748745075723
0.08,-1.6939929684052422,1.5250206840500975,2.9612630633164394,0.0714913596554596,0.1568095193434592,0.0306940820671646,-0.016431239461195,0.0020238017832338,-0.070335441248121,-1.6926701425972657,1.5209717887400889,2.961626239322826,0.0216452058325007,-0.1625502408802916,-0.126152148796432,1.4458784785831853,-0.0857863583835611,-0.4732179899238785,-1.3635505159537429,9.024587391124896,-1.276032857620942,0.1023812422422044,-1.1636851841098492
0.1,-1.6943113316083411,1.524937128817068,2.9595777814574005,0.0854093656933098,0.164675583635716,0.0321921649309899,-0.0150760939062899,-0.0101998495328087,-0.0968053561210981,-1.6923494771596967,1.5189207839403644,2.960303196364779,0.0253864951352074,-0.202550241476338,-0.1661521493924784,1.4593752639004622,0.0677572777452557,-0.6111825658021283,-1.3234957436488504,9.05518650371414,-1.2641981576295402,0.0882957806079408,-1.1542508628695154
0.12,-1.6945730884448802,1.5245821664973789,2.9573708289492187,0.0986444410573127,0.1720725442809972,0.0336818832858241,-0.0110425662229396,-0.0249625580637674,-0.1225843338128066,-1.6918417472569929,1.5148697791108376,2.956980153376929,0.0291277844379141,-0.2425502420723845,-0.2061521499885249,1.4989684782976602,0.2016763841675177,-0.7381354265479361,-1.288948884585427,9.102802344759766,-1.254646791749663,0.0759911251918866,-1.1449214489209745
0.14,-1.6947275320480613,1.5239493285055994,2.9547947952981186,0.1105994880687479,0.1782774015169417,0.0350309598612466,-0.0053684461430071,-0.041142958249463,-0.1473012851486559,-1.6913340173542886,1.5108187742813108,2.95365711038908,0.0328690737406208,-0.282550242668431,-0.2461521505845714,1.5041016190649257,0.2837060039966239,-0.8090200092847782,-1.2358475667924649,9.143770496333673,-1.2476544932114908,0.0640566310628537,-1.1360653830590115
0.16,-1.694758049795147,1.5229287862583425,2.9515719902052977,0.1225516034463856,0.1837048577437585,0.036325603125758,0.0020643375148798,-0.0603111994538735,-0.1737007699961678,-1.6907327552190166,1.505767769436883,2.949334067386329,0.0366103630433275,-0.3225502432644774,-0.2861521511806178,1.673021625674205,0.3716391828943505,-0.9584120602205248,-1.319974242375596,9.137404779949977,-1.243249287730852,0.0530011153470392,-1.1276685972461808
0.18,-1.6946262290301848,1.5215024370042936,2.9478210722361906,0.1338743419677125,0.1878368262456851,0.0374379248205222,0.0106911726744213,-0.081604397424156,-0.2000736323669809,-1.690037960851177,1.499716764577554,2.944011024368677,0.0403516523460343,-0.3625502438605238,-0.3261521517766642,1.748821341862423,0.431341757977073,-1.0646598985141265,-1.3186431185406549,9.126844243041887,-1.2407502601181493,0.0432826738578012,-1.118471839544121
0.2,-1.6943137144514313,1.5196040539039866,2.9435414507212734,0.1437890681592931,0.1906815375265814,0.0382780824161663,0.0200398096300011,-0.1068410419022755,-0.2265031525540327,-1.6940916703964637,1.5174222171330858,2.937817390617841,0.0270880379231014,-0.1816043989142721,-0.300073633857097,1.8860042250482965,0.4674318477789906,-1.2618322239059758,-1.3214760093525888,9.138813422770909,-1.2395670613690148,0.0346098699502694,-1.1069094766213323
0.22,-1.6937868007346577,1.5171621510171454,2.93912533850944,0.1471605873056162,0.1917571976064936,0.0383952197347422,0.0347254557286038,-0.1461170707163507,-0.2366278592024422,-1.6940916703964637,1.5174222171330858,2.937817390617841,0.0270880379231014,-0.1816043989142721,-0.300073633857097,2.156840470140186,0.7342823049301358,-1.9638014407037585,-0.5062353324204751,9.15649048380601,-1.2267277895635251,0.0315778322653883,-1.0877276364491375
0.24,-1.692937548885428,1.5138821262887774,2.9342781040604144,0.1443228540377061,0.1908179077291258,0.0377378291491128,0.0492629960494346,-0.1790348813642273,-0.2475883425778836,-1.6940916703964637,1.5174222171330858,2.937817390617841,0.0270880379231014,-0.1816043989142721,-0.300073633857097,1.8808605292874363,0.7268770160415365,-1.6458905323938315,-0.5480241687720696,10.19223680961295,-1.2307455336678448,0.0348293256713974,-1.0800965356758483
0.26,-1.6918106304817666,1.5100104550323343,2.92918724849906,0.1387407227453201,0.1878908922755039,0.0365930313064517,0.0625364643135461,-0.2059175098063215,-0.2608077067974476,-1.6938207900172326,1.515606173143943,2.9348166542792704,0.0303674109728374,-0.2016043992122953,-0.3200736341551203,1.638301149120297,0.6636734132055754,-1.3441314221047078,-0.6609682109782008,10.01688668884617,-1.2362936753818552,0.0401504195985151,-1.0719069908214158
0.28,-1.6905115927736507,1.5058757358493506,2.9240861706046064,0.1330059875378379,0.1833978202999663,0.035250114037652,0.0732540970805971,-0.2278826763989138,-0.275408578809855,-1.6932790292587707,1.5119740851656576,2.9288151816021286,0.0369261570723095,-0.2416043998083418,-0.3600736347511667,1.4234831041255798,0.5358816383525491,-1.0982583296296158,-0.730043600620367,9.836561940390313,-1.245398306169318,0.0463376077909551,-1.0595135795898725
0.3,-1.6889574601818127,1.501098602975336,2.918397421034816,0.1274318402537664,0.1775767091301281,0.0337498357678689,0.0813132838509018,-0.2486804563694908,-0.292768113056789,-1.6927372685003086,1.5083419971873722,2.922813708924987,0.0434849031717815,-0.2816044004043883,-0.4000736353472132,1.4131981216142893,0.4029593385152345,-1.0398889985288484,-0.8679767123467019,9.672437353853638,-1.2550881890263712,0.0519003544537073,-1.045607093200767
0.32,-1.6872752711305954,1.4959217639705331,2.912339091056553,0.122669540666576,0.1715459930078945,0.0323086514498239,0.0863695596568753,-0.2680835305360888,-0.3121543620234433,-1.6918675704368729,1.5027099091792844,2.9148122362180424,0.0500436492712536,-0.3216044010004347,-0.4400736359432596,1.3945177133490296,0.2528137902986768,-0.9701537083299016,-0.9693124483327152,9.386669146922031,-1.2628148805338724,0.0564180787651626,-1.0313814803495172
0.34,-1.6855176710729871,1.4903666345957567,2.905882598695298,0.1187351606352098,0.1659825778149899,0.0310068568205939,0.0890682059846796,-0.2865936810495498,-0.3325025824039173,-1.6909978723734371,1.4970778211711966,2.906810763511098,0.0566023953707256,-0.3616044015964812,-0.4800736365393061,1.3819899028989755,0.1349323163902155,-0.92550752567305,-1.0174110190236978,9.386669146922031,-1.2688544357901097,0.0599084198917128,-1.0178508343455075
0.36,-1.6838167310438994,1.4847440492218615,2.899364079939559,0.1154492410605914,0.1616043392365815,0.0299255850752089,0.0897730134839964,-0.3042677302684626,-0.3526011057144425,-1.6899642056575148,1.4904457331482075,2.8978092907892528,0.0631611414701977,-0.4016044021925276,-0.5200736371353525,1.3386741656088013,0.0352403749658385,-0.8837024609456373,-1.0049261655262598,9.256024779357176,-1.2734428463372056,0.0630987521241249,-1.0039151049146018
0.38,-1.6820304003950697,1.4784677033450209,2.892081550334881,0.1121996300473273,0.1584735334825333,0.0289843239228424,0.088722415251548,-0.3223537200045571,-0.3746099149726795,-1.6887665702891057,1.4828136451103175,2.887807818052506,0.0697198875696697,-0.441604402788574,-0.560073637731399,1.4253021314317866,-0.0525299116224189,-0.9042994868047244,-1.1004404629118505,9.256024779357176,-1.2756233006919224,0.0660256899188339,-0.9914035628986374
0.4,-1.6802813040012363,1.471834525560453,2.8843498440510578,0.1090548330045636,0.1574309419065054,0.0282910085105325,0.0863926939524966,-0.3399369786919832,-0.3974315499303499,-1.677594279632492,1.462350017344793,2.873351054586247,0.1057000439445326,-0.4223537214946732,-0.4746099164627956,1.4451865014085277,-0.1164860649525673,-0.8791629343713081,-1.1410817478835238,9.19060760022512,-1.2738223885759845,0.0684867651087632,-0.9827248286319538
0.42,-1.6786308048946297,1.4651952294807158,2.8768133762869343,0.1063429105387778,0.1587212189865967,0.0279000955057381,0.0878272927906026,-0.3580905466832121,-0.3947743698507371,-1.677594279632492,1.462350017344793,2.873351054586247,0.1057000439445326,-0.4223537214946732,-0.4746099164627956,0.9201504097346762,0.0717299419052991,-0.9076783995614456,0.1328590039806398,9.135728664989074,-1.2614827581069243,0.0708439056554145,-0.9672951069915748
0.44,-1.6768490422098796,1.4578520294572843,2.8689089043149987,0.1042141418385213,0.162120889715252,0.0277500376948972,0.090505505645068,-0.3754120640466172,-0.3962051032318798,-1.677594279632492,1.462350017344793,2.873351054586247,0.1057000439445326,-0.4223537214946732,-0.4746099164627956,0.8792820734446959,0.1339106427232672,-0.8660758681702518,-0.0715366690571317,10.611397071775173,-1.2573683933617772,0.0720184036018778,-0.973688240185426
0.46,-1.674997745294641,1.4501657635450071,2.8609160574454267,0.1027842397554838,0.1667116319726619,0.0277637923520309,0.0946850129295462,-0.3923441028448769,-0.4032351919612212,-1.6765372791930468,1.458126480129846,2.868604955421619,0.1090955696831295,-0.4423537217926964,-0.4946099167608188,0.9401919571943714,0.2089753642239122,-0.8466019399129859,-0.3515044364670733,10.24671883344672,-1.2523854684784834,0.0727604194863727,-0.9798191598755516
0.48,-1.6730478516697984,1.4421482190809691,2.852732087932005,0.1018758759294708,0.1716508602788702,0.0278407544740125,0.1002414443943034,-0.4085906075831974,-0.4147985330735256,-1.6744232783141562,1.449679405699953,2.859112757092363,0.1158866211603233,-0.4823537223887428,-0.5346099173568652,1.0350527818839987,0.2778215732378603,-0.8123252369160228,-0.5781670556152196,9.947105677504624,-1.2480171744732502,0.0732046910150706,-0.9845709074754287
0.5,-1.6710809941006737,1.4342367426046496,2.8447112707188347,0.1015272329310681,0.1761450171961303,0.0279225867046253,0.1065870450524341,-0.4234226488968281,-0.428919258586326,-1.6723092774352657,1.4412323312700592,2.849620558763107,0.1226776726375172,-0.5223537229847893,-0.5746099179529117,1.07197363103013,0.3172800329065326,-0.7416020656815375,-0.7060362756400179,9.72356752842188,-1.24352722876277,0.073250550094388,-0.988341322452274
0.52,-1.668872140955626,1.425610564177607,2.835951907277067,0.1018389599373379,0.1803525350924633,0.0279975426995815,0.1140100059834875,-0.4384561582162954,-0.446392421100405,-1.6698557239825151,1.4307852568103634,2.838128360404049,0.129468724114711,-0.5623537235808358,-0.6146099185489582,1.2108036171133132,0.3711480465526731,-0.7516754659733643,-0.8736581257039522,9.55339283389003,-1.2400107414127932,0.072773519918326,-0.9903591758628908
0.54,-1.6665062360785046,1.4166845503374093,2.8268296075456654,0.1029445881061035,0.1838463260268274,0.0280513152308065,0.1222337637757649,-0.453458059107094,-0.4649939350858951,-1.6674021705297648,1.4203381823506678,2.826636162044991,0.1362597755919048,-0.6023537241768823,-0.6546099191450047,1.263629242614077,0.4111878896138676,-0.7500950445399307,-0.9300756992745046,9.412485516854758,-1.2369664124303474,0.0716550519364069,-0.9899655934164115
0.56,-1.6639674220288942,1.4074448492377014,2.817326521337719,0.1044659073081137,0.1864742528159675,0.0280410768602306,0.1311898878612374,-0.469706267447075,-0.4843618371008338,-1.6647788407900843,1.4088911078760709,2.8141439636710315,0.1430508270690987,-0.6423537247729286,-0.694609919741051,1.3410183270131637,0.4478062042736229,-0.8124104169990515,-0.9683951007469328,9.365214195038789,-1.2350429282523498,0.070274118295296,-0.9881218274372592
0.58,-1.6613858836062323,1.3983553742277874,2.8079334276803105,0.1057390998514593,0.1881126682499679,0.0279245526972396,0.140037548878722,-0.486166401958794,-0.5033888522740501,-1.6619857347634746,1.3964440333865726,2.8006517652821707,0.1498418785462925,-0.6823537253689751,-0.7346099203370975,1.3334583233326058,0.4423830508742302,-0.8230067255859508,-0.9513507586608128,9.335669517487077,-1.2340404205547844,0.0689793778258708,-0.9847838916380786
0.6,-1.6584874057495018,1.388442783136832,2.797647344548854,0.1064767224779664,0.1889837716549794,0.0276627112782354,0.1492819427224789,-0.5041583501812232,-0.5242302237668899,-1.6543840061622963,1.3740470541298475,2.782763985066608,0.1837566431253479,-0.5861664034489102,-0.6033888537641662,1.452180932321813,0.4622196921878471,-0.8995974111214583,-1.042068574641991,9.30503440432949,-1.2339515751985457,0.0682248093457059,-0.9801825217684298
0.62,-1.655400127035315,1.3781063269588187,2.787208100034196,0.1053145083345899,0.1905858417933519,0.0273399219552957,0.1594229085854209,-0.5283815158097233,-0.5172487506197838,-1.6543840061622963,1.3740470541298475,2.782763985066608,0.1837566431253479,-0.5861664034489102,-0.6033888537641662,1.3586223803938888,0.5070482931470999,-1.211158281425001,0.3490736573553032,9.258572433383051,-1.2291348016308308,0.0694762229618157,-0.9668783221378467
0.64,-1.6522693082064182,1.3678566604392866,2.777420797440977,0.1020306314367509,0.1939392858307536,0.0270670023486285,0.1698844283728431,-0.5487934810653988,-0.5134787519368622,-1.6543840061622963,1.3740470541298475,2.782763985066608,0.1837566431253479,-0.5861664034489102,-0.6033888537641662,1.1622226679199248,0.5230759893711092,-1.0205982627837784,0.1884999341460802,11.013500298041436,-1.2258089437791324,0.0715673378987213,-0.974960519431506
0.66,-1.6487447860313686,1.3566889497735903,2.767139053975949,0.0977927361093548,0.1984417776090144,0.0268108298654093,0.1821746036965617,-0.5666785910606513,-0.5151507492747821,-1.6525464397310428,1.3681853900953589,2.7767300965289663,0.192500461974673,-0.6061664037469334,-0.6233888540621894,1.088256798885301,0.6145087661859283,-0.8942554997626251,-0.0835998668959947,10.614998979993288,-1.2215344086404705,0.0746924149500548,-0.98203623673623
0.68,-1.6449621770900489,1.3451884975658477,2.756770017410799,0.0936005094437405,0.2030868950124487,0.0265550370702968,0.1955618809276212,-0.5823759997537623,-0.5218690014887509,-1.648871306868536,1.3564620620263803,2.764662319453683,0.2099880996733234,-0.6461664043429799,-0.6633888546582358,1.0848533819718449,0.6693638615529796,-0.7848704346555491,-0.3359126106984411,9.995023280098394,-1.218098547260557,0.0778253675379133,-0.9871738104373172
0.7000000000000001,-1.6411130338262363,1.3339885832290486,2.746752321933485,0.0899549536383319,0.2070852784334838,0.026282671690989,0.2089686022467531,-0.5957984800556884,-0.5322710665406544,-1.645196174006029,1.3447387339574022,2.7525945423784,0.2274757373719738,-0.6861664049390264,-0.7033888552542823,1.081788000636549,0.6703360659565935,-0.6711240150963027,-0.5201032525951721,9.995023280098394,-1.215589625190684,0.0809649677715295,-0.9904681076338026
0.72,-1.636782500474825,1.3219367139946323,2.7359624014921864,0.0866303861269888,0.2105883003788873,0.0259574526061113,0.2233767557739234,-0.608713475154124,-0.5463106770574233,-1.6406466592585895,1.3310154058586217,2.738526765273314,0.2449633750706241,-0.7261664055350728,-0.7433888558503288,1.1953060799620487,0.7204076763585157,-0.6457497549217817,-0.7019805258384471,9.781662293175032,-1.2143512510672565,0.0837276989321904,-0.991769961627748
0.74,-1.6321595001400668,1.3096346954160736,2.724874402038328,0.0838879188784809,0.2132521948816245,0.0255935160693274,0.2381849026473952,-0.6208995554923826,-0.5618274544449458,-1.63609714451115,1.3172920777598411,2.7244589881682284,0.2624510127692745,-0.7661664061311193,-0.7833888564463752,1.2334424878472576,0.7404073436735881,-0.6093040169129316,-0.775838869376122,9.53996934173756,-1.2139735691564035,0.0860078491419912,-0.9909058534298548
0.76,-1.6272346600565937,1.2970857915737122,2.713463762970989,0.0814100019835186,0.2149265244184715,0.0251621267127176,0.2534595198359171,-0.6332848761975726,-0.5784245750136273,-1.6311104388212443,1.302568749646159,2.7093912110482417,0.2799386504679249,-0.8061664067271657,-0.8233888570424216,1.2866375853340055,0.7637308594260955,-0.619266035259497,-0.8298560284340784,9.488774551318784,-1.2145981879027496,0.0879473005874576,-0.9885964963262204
0.78,-1.622272570842855,1.2849373929895629,2.7023073120348333,0.0790239597837673,0.2155221371906815,0.0246693864279513,0.2679867836970067,-0.6447567292334183,-0.5950713216051507,-1.6256865421888724,1.2868454215175766,2.6933234339133536,0.2974262881665752,-0.8461664073232121,-0.8633888576384681,1.2447479458189117,0.72636319305448,-0.5735926517922874,-0.8323373295761716,9.488774551318784,-1.2164950229741558,0.0900079809515211,-0.9846570800405308
0.8,-1.6167547983637027,1.2719207966897934,2.6902114262858103,0.0764561474234827,0.2151220546791422,0.0240696956228821,0.2829614443616943,-0.656200192926624,-0.6136673788766156,-1.6088732316580046,1.252699556527892,2.672553745954576,0.3020594771343446,-0.7447567307235344,-0.6950713230952669,1.3238265269323055,0.7487330332343806,-0.5721731846602851,-0.9298028635732424,9.434900490829024,-1.2193696424700464,0.0920845176672909,-0.9793746584253604
0.8200000000000001,-1.6108594059467989,1.2586530321494176,2.6780282761742047,0.0736120814184565,0.2131375658934979,0.0233384510767833,0.3061027091522812,-0.6698817880333067,-0.602173126776711,-1.6088732316580046,1.252699556527892,2.672553745954576,0.3020594771343446,-0.7447567307235344,-0.6950713230952669,1.4618669673635,1.157063239529346,-0.6840797553341327,0.5747126049952311,9.364594161910643,-1.2166448369594831,0.0941041455832279,-0.964471694518148
0.84,-1.604502542937429,1.245135623252107,2.666072395114321,0.0708855288636156,0.2088146964064167,0.0224594568546052,0.3281576766609265,-0.6812843811030869,-0.5941234854492676,-1.6088732316580046,1.252699556527892,2.672553745954576,0.3020594771343446,-0.7447567307235344,-0.6950713230952669,1.3050262890291515,1.102748375432261,-0.5701296534890099,0.4024820663721673,11.2913347263202,-1.2241744607785063,0.0959071505375096,-0.9639495219554822
0.86,-1.5980849662531529,1.2320915166651047,2.6548001033375286,0.0687222276107844,0.2025970885112391,0.0215246104224353,0.3458382433338624,-0.6912843648895407,-0.5927488165131017,-1.605852636886661,1.2452519892206566,2.665603032723623,0.3088740158218122,-0.7647567310215576,-0.71507132339329,1.0179536191417713,0.8840283336467969,-0.4999991893226918,0.0687334468082945,10.430860805570774,-1.2352079008194357,0.0975526557116147,-0.9582411055120312
0.88,-1.5910109910013737,1.2181640317183149,2.6429112288868493,0.0669224709743337,0.1946382867738195,0.0205001611796709,0.36022025179646,-0.7009772630327522,-0.5963955168297287,-1.5998114473439742,1.230356854606186,2.651701606261718,0.3225030931967473,-0.8047567316176041,-0.7550713239893365,0.8861332645716866,0.7191004231298814,-0.4846449071605752,-0.1823350158313474,10.430860805570774,-1.246689380703996,0.0987464466102735,-0.949073096531637
0.9,-1.5836932752321722,1.204051057097084,2.6308957933611894,0.0657346731676947,0.1860557267606729,0.0194984990979206,0.3705503294092672,-0.7099097612078304,-0.6048851505750676,-1.5937702578012871,1.2154617199917153,2.6378001797998123,0.3361321705716825,-0.8447567322136506,-0.795071324585383,0.8040116732118898,0.5165038806403566,-0.446624908753912,-0.4244816872669477,10.09835522402409,-1.2572371944442997,0.0993735380638804,-0.938288187951164
0.92,-1.576585025985702,1.1904849930648378,2.6192880610026883,0.0653310439749003,0.1779617713847081,0.018616010760571,0.3770012618372856,-0.7177386953430707,-0.6165120166943278,-1.5870476143898538,1.1985665853474423,2.6218987533081046,0.3497612479466176,-0.884756732809697,-0.8350713251814295,0.7715094857485355,0.3225466214009209,-0.3914467067620109,-0.5813433059630058,9.819565288385093,-1.2673246569229677,0.0993841603349352,-0.9256911081917149
0.94,-1.5689997268403744,1.1760493205691758,2.606811495021675,0.0659050743074085,0.1700346340964321,0.0178018922866015,0.3810134050296081,-0.725506252053521,-0.6305932540078918,-1.5803249709784202,1.1816714507031691,2.605997326816397,0.3633903253215528,-0.9247567334057436,-0.8750713257774759,0.8287241316123697,0.2006071596161257,-0.3883778355225187,-0.7040618656782016,9.592059113019786,-1.2757054772723515,0.098537258625776,-0.9125998883848924
0.96,-1.5613566886102723,1.1614484302695305,2.59403749159866,0.0673512681059733,0.1630330031435092,0.01710633211023,0.3829768797420139,-0.734227488840487,-0.6461392262542767,-1.573261600632613,1.163776316043995,2.5890959003097884,0.3770194026964879,-0.96475673400179,-0.9150713263735224,0.8966499555650957,0.098173735620291,-0.4360618393483007,-0.7772986123192438,9.47124765677654,-1.2821539892479143,0.0970783992966354,-0.90062964521094
0.98,-1.554077040501875,1.1474065878420698,2.581600530441128,0.069081863511591,0.1573913748817922,0.0165314348957092,0.3831496735402112,-0.743397440459908,-0.6622048654229499,-1.565857503352433,1.1448811813699196,2.571194473788278,0.390648480071423,-1.0047567345978363,-0.9550713269695688,0.9249630158785032,0.0086396899098645,-0.4584975809710456,-0.8032819584336603,9.38218451947796,-1.2874766301337777,0.0952698210655752,-0.8886762969206445
1.0,-1.5464278951415975,1.1324290294157422,2.5681664546645244,0.0709233424785516,0.1527364125463173,0.0160097570845016,0.3816352596509156,-0.7539106976355057,-0.6803999115589343,-1.5349195568248644,1.1102367158190745,2.54849028716998,0.4377105807252889,-0.8433974419500241,-0.762204866913066,1.0534250445083295,-0.0757206944647814,-0.5256628587798851,-0.909752306799222,9.30318288059243,-1.291631999855985,0.0935165896701177,-0.8777727547149857
1.02,-1.538831538374566,1.1171713542574355,2.5546861835723105,0.0712172809293763,0.1515810235404132,0.0156286186461355,0.3784838020870633,-0.7710916811568073,-0.6650420088362078,-1.5349195568248644,1.1102367158190745,2.54849028716998,0.4377105807252889,-0.8433974419500241,-0.762204866913066,1.1629521223772818,-0.1575728781926161,-0.8590491760650798,0.7678951361363262,9.222411124458633,-1.287149366259389,0.0929742485230006,-0.862156487882562
1.04,-1.5312697070593917,1.101584913184816,2.5415106871026567,0.0692403986358147,0.1549936217669714,0.0154209407294732,0.3783181280377551,-0.7864749198866465,-0.6538759106169914,-1.5349195568248644,1.1102367158190745,2.54849028716998,0.4377105807252889,-0.8433974419500241,-0.762204866913066,0.9504646641919802,-0.0082837024654086,-0.7691619364919633,0.5583049109608218,11.38819614827753,-1.2801060450331463,0.0934447684403356,-0.8735837025939622
1.06,-1.5240644788372322,1.0865132419463086,2.529121304900774,0.0659157822629766,0.160475895783848,0.0152767346761785,0.3804620967799246,-0.7987762312259225,-0.6507840726768098,-1.5305424510176115,1.101802741399574,2.5408682385008494,0.4486227621623044,-0.8633974422480473,-0.7822048672110892,0.6431918929867362,0.1071984371084772,-0.6150655669637961,0.1545918970090765,10.825924329259578,-1.2725771834924016,0.0954532696181295,-0.8850969277866015
1.08,-1.5164149564954266,1.070430969180399,2.5160861386283746,0.0621019157777091,0.1673778168264325,0.0151669114442737,0.384632237103142,-0.8087069549760563,-0.6531612611006283,-1.5217882394031057,1.0849347925605737,2.525624141162588,0.4704471250363355,-0.9033974428440936,-0.8222048678071356,0.5514987971862036,0.2085070161608665,-0.4965361875066909,-0.1188594211909255,10.388777029376795,-1.2657849039247164,0.0980265143636188,-0.8954239450112365
1.1,-1.5086653155010032,1.0541689472652076,2.502951515372198,0.0586175191154287,0.1747332544744526,0.0150946791312768,0.3903338787803877,-0.8169928785379956,-0.6603883540302905,-1.5130340277886,1.0680668437215732,2.5103800438243264,0.4922714879103665,-0.9433974434401402,-0.8622048684031821,0.6192659350068844,0.2850820838622869,-0.4142961780969678,-0.3613546464831085,10.062843826895914,-1.2599232528642943,0.1004047347192878,-0.904029279519876
1.12,-1.501185568748041,1.0385785088957038,2.490299468132916,0.0558284292957334,0.181775187737616,0.0150547771950613,0.3969096780745097,-0.8237905766859358,-0.6710512843861947,-1.5031885980303925,1.0491988948527704,2.493135946456263,0.5140958507843977,-0.9833974440361868,-0.9022048689992286,0.712649844316876,0.3287899647060999,-0.3398849073970089,-0.5331465177952077,9.619210980914431,-1.2544217320796966,0.1025943277907217,-0.9120124441923876
1.14,-1.4931623849911633,1.0220360343682235,2.4767450169727363,0.0535309632661479,0.1890256241493336,0.0150407773716,0.4052380204013838,-0.8301979617550519,-0.6839176383250952,-1.4933431682721852,1.0303309459839676,2.475891849088199,0.5359202136584287,-1.0233974446322331,-0.942204869595275,0.8306005854479579,0.4164171163437036,-0.3203692534558044,-0.6433176969450283,9.619210980914431,-1.2491515579100243,0.1043184160337068,-0.9183286934566174
1.16,-1.484958386869408,1.0053612173278976,2.46292021931004,0.0516211157919157,0.1959860977671596,0.0150346264183275,0.4149117195458456,-0.836920933282537,-0.6979327074480919,-1.482952129442127,1.0104629971002637,2.457647751705234,0.5577445765324598,-1.0633974452282795,-0.9822048701913214,0.9154247153907732,0.4836849572230906,-0.3361485763742566,-0.700753456149833,9.543493921483789,-1.244700567377105,0.1057077943317391,-0.9234198034295196
1.18,-1.4769738072751235,0.9893966317830314,2.449517614861131,0.0498732266887069,0.2022744119978629,0.0150148346710654,0.4252176602983581,-0.8431527885066911,-0.7121795025970027,-1.4720154815402182,0.9895950482016584,2.4384036543073684,0.5795689394064908,-1.103397445824326,-1.022204870787368,0.9327641801979516,0.5152970376256255,-0.3115927612077018,-0.7123397574455403,9.499508833863729,-1.2402942973869104,0.1071281020147176,-0.9279548076196988
1.2,-1.4683468199104597,0.9724685712616856,2.4351055992728305,0.0480554968712382,0.2085319947265018,0.0149763618790579,0.4370691986121174,-0.8492642529174662,-0.728335995998036,-1.4557129242602058,0.9472389923576968,2.413908639731281,0.4813648780489074,-0.9431527899968072,-0.8121795040871188,1.0474268908428748,0.5925769156879646,-0.3055732205387573,-0.8078246700516656,9.456594730998404,-1.235880131107082,0.1085170652831397,-0.9322293468041843
1.22,-1.459370875822108,0.9553919313281573,2.420676574124569,0.0457249217432292,0.21342943158723,0.0148363731742572,0.460285980153196,-0.8578133066990555,-0.7121167211761181,-1.4557129242602058,0.9472389923576968,2.413908639731281,0.4813648780489074,-0.9431527899968072,-0.8121795040871188,1.4791637345435895,1.1608390770539323,-0.4274526890794661,0.8109637410958936,9.399395453498984,-1.2247777748287114,0.109878763205842,-0.9281087075162257
1.24,-1.4499218390062725,0.938172118767816,2.406577159097317,0.0432218173220356,0.2161041799686583,0.0145842912245261,0.4832008097609723,-0.8637512232902621,-0.699161260235563,-1.4557129242602058,0.9472389923576968,2.413908639731281,0.4813648780489074,-0.9431527899968072,-0.8121795040871188,1.349251864534374,1.1457414803888122,-0.2968958295603285,0.6477730470277554,11.523961892649822,-1.226179751110843,0.1118199693846689,-0.9382089176465886
1.26,-1.440533590392831,0.9217163881946168,2.3933455512970614,0.0413130079818996,0.2167392754267346,0.0143024153671716,0.5037285190211875,-0.8682664322352779,-0.6942389354212347,-1.4508992754797168,0.9378074644577288,2.4057868446904096,0.4925943215990173,-0.9631527902948304,-0.832179504385142,1.079355410496039,1.026385463010762,-0.225760447250789,0.2461162407164152,11.057176124677426,-1.229436209890357,0.1134902669656102,-0.9456285072251814
1.28,-1.4302445317679875,0.904311241351488,2.3794608337646888,0.0399657319899969,0.2153859408810663,0.0139801618737873,0.5239438845451734,-0.8720679500791298,-0.6947231913280801,-1.4412719779187386,0.9189444086577926,2.3895432546086672,0.5150532086992371,-1.0031527908908768,-0.8721795049811885,1.028769951165948,1.010768276199292,-0.1900758921925982,-0.024212795342271,10.62524287913402,-1.2340321284303142,0.1145744164253824,-0.9481405638725072
1.3,-1.4195653175861769,0.8868401272297578,2.3655087775906165,0.0396122682966876,0.2117928029542549,0.0136500711078451,0.5427907440095883,-0.8750090562388662,-0.7003953315518748,-1.4316446803577605,0.9000813528578564,2.373299664526925,0.5375120957994568,-1.0431527914869232,-0.9121795055772348,0.9950218487960876,0.9423429732207445,-0.1470553079868153,-0.2836070111897348,10.286612459000024,-1.2399732297728954,0.1148065518609667,-0.9464126130058582
1.32,-1.409092141702942,0.8701939098452992,2.352112659735976,0.0404650365092625,0.2063295583905999,0.01334442656023,0.5582970030319331,-0.8772563142157044,-0.709360121392842,-1.4208944384417714,0.8792182970281179,2.3550560744153803,0.5599709828996765,-1.0831527920829696,-0.9521795061732812,0.9025819826686396,0.7753129511172407,-0.1123628988419112,-0.4482394920483579,10.00831102032953,-1.24891802971488,0.1140517959572153,-0.9395245121527452
1.34,-1.3977847949856597,0.8526269253451392,2.337810555138001,0.0428944794988144,0.1992506363558968,0.0130699472870675,0.5712933239676505,-0.8795780858278665,-0.7204125054746846,-1.4101441965257824,0.8583552411983795,2.336812484303836,0.5824298699998963,-1.123152792679016,-0.9921795067693278,0.8608864256912427,0.6498160467858727,-0.1160885806081035,-0.5526192040921307,9.783129307731542,-1.2578639238030416,0.1119203352183802,-0.9295362124755272
1.36,-1.3862463228187356,0.8349859259725619,2.323272849035229,0.0462766048321919,0.1915429931420624,0.0128131678845471,0.5816284273213135,-0.8846075821126795,-0.7328252244153107,-1.3988324824322875,0.8364921853537398,2.317568894177389,0.604888757100116,-1.1631527932750625,-1.032179507365374,0.8458513251583019,0.5167551676831472,-0.2514748142406542,-0.6206359470313061,9.666874423352963,-1.266488836110825,0.1089853798048776,-0.9178437328648988
1.38,-1.3745282052231524,0.8172235414593161,2.308471570308529,0.0494955146600262,0.1836538443740693,0.0125096711874048,0.5894385315179388,-0.8913350966475702,-0.7466242062691252,-1.3869592961612875,0.8136291294941991,2.297325304036043,0.6273476442003357,-1.2031527938711088,-1.0721795079614205,0.861204214430598,0.3905052098312656,-0.3363757267445311,-0.6899490926907226,9.576615027958724,-1.274059604881555,0.1063216294196784,-0.9058934907469556
1.4,-1.363274264013217,0.8002154472044587,2.294141726204817,0.0520670823386541,0.1763284702885941,0.0121743286445641,0.5946416470571894,-0.8985476422474443,-0.7610459528956072,-1.3450562786472555,0.7726567866269376,2.2711403599950724,0.6428161970972578,-0.9709974345467782,-0.8466242077592413,0.847171766974531,0.2601557769625284,-0.3606272799937082,-0.7210873313240995,9.48801946437743,-1.2812938917573078,0.1039498296069892,-0.8928498490977097
1.42,-1.3513080526920531,0.782021757521022,2.279097746165133,0.0503338841169127,0.1699839042236988,0.0115783815508041,0.6017828402315174,-0.919351486321276,-0.740739227807968,-1.3450562786472555,0.7726567866269376,2.2711403599950724,0.6428161970972578,-0.9709974345467782,-0.8466242077592413,1.4967962887333095,0.3570596587164021,-1.0401922036915812,1.01533625438196,9.39587582204149,-1.280293302636764,0.1048997374645255,-0.8692680656243947
1.44,-1.339225052151971,0.7634889902701962,2.2644613728970446,0.0430849676680497,0.1664635967089731,0.0107809800842312,0.6059901113647015,-0.93167865175458,-0.7244817176905927,-1.3450562786472555,0.7726567866269376,2.2711403599950724,0.6428161970972578,-0.9709974345467782,-0.8466242077592413,1.0415934586304898,0.2103635566592043,-0.6163582716652016,0.8128755058687653,11.728346419426089,-1.2837380014661608,0.1098937161152805,-0.8727313627787964
1.46,-1.327078525236111,0.7447871460703589,2.250043328694465,0.0344812833565987,0.1658356472384907,0.0100577871961247,0.608807982360656,-0.9375294907162728,-0.7181066824279632,-1.338628116676283,0.7629468122814698,2.26267411791748,0.6534917302131216,-0.9869299021266198,-0.8666242080572645,0.4550104067636055,0.140893549797727,-0.2925419480846347,0.3187517631314751,11.12273633663608,-1.2845847997129258,0.1163770841708673,-0.8782631069543386
1.48,-1.3154849947032692,0.7269516745928287,2.2363895735979438,0.0265831575910383,0.1670930331387053,0.0094771027216234,0.6116269148401732,-0.9395649935945718,-0.7194445571230491,-1.3257717927343378,0.7435268635905342,2.2457416337622957,0.6748427964448492,-1.0187948372863032,-0.906624208653311,0.1862764141765672,0.1409466239758572,-0.1017751439149561,-0.0668937347542975,10.535268967087177,-1.2843433536205022,0.1228536861238069,-0.8831200088405822
1.5,-1.3032191452713882,0.7081617406440781,2.221930417381402,0.019168544423514,0.1696522224368241,0.0089712359436495,0.6149455968436077,-0.9393412333554916,-0.7266650079682063,-1.3129154687923927,0.7241069148995987,2.2288091496071103,0.6961938626765768,-1.0506597724459863,-0.9466242092493574,0.3974878277754083,0.1659341001717273,0.0111880119540108,-0.3610225422578605,10.094231060493255,-1.283199187232216,0.1287062317450948,-0.8871235692296484
1.52,-1.2908818992555706,0.6893946309869183,2.20727502148824,0.0128944073087411,0.1729697580817076,0.0085628896833417,0.6187349674839352,-0.9374714179694192,-0.7387060078751017,-1.2989915915388612,0.703093719450679,2.209876665422123,0.7175449289083043,-1.0825247076056694,-0.9866242098454038,0.6380462721966607,0.1894685320163736,0.0934907693036168,-0.6020499953447667,9.518737490426249,-1.281506959664093,0.1337065527669058,-0.8904190293170234
1.54,-1.2790840265515608,0.6716138644446891,2.193104247060371,0.0080826994873694,0.1764731790589228,0.0082614417622147,0.6230772967960341,-0.934508181253795,-0.7523425758511477,-1.2850677142853295,0.6820805240017592,2.190944181237136,0.738895995140032,-1.1143896427653528,-1.0266242104414502,0.7307403469305324,0.217116465604944,0.1481618357812131,-0.6818283988023033,9.4194757666437,-1.279362324984512,0.1375379534881388,-0.8924633593610611
1.56,-1.2665644417565003,0.6529589520289443,2.177893061015899,0.0039568321107251,0.1801748437756725,0.0080131697279703,0.6287397732843996,-0.9311910609794573,-0.7681221052241688,-1.2706100603760049,0.6602707051738474,2.171011697037248,0.7602470613717596,-1.146254577925036,-1.0666242110374966,0.854488844470409,0.2831238244182743,0.1658560137168918,-0.7889764686510536,9.347680695484996,-1.2771062967232727,0.1408383375356837,-0.8941912500112673
1.58,-1.2539212958462271,0.6343750680124317,2.1623527605935102,0.0005279040068799,0.1835438799776273,0.0078183302238905,0.6353377078773358,-0.9274040391402396,-0.7851668972225754,-1.2556186298108871,0.6376642629669436,2.150079212822458,0.7815981276034871,-1.1781195130847193,-1.106624211633543,0.9332727489489888,0.3298967296468114,0.189351091960882,-0.8522395999203292,9.347680695484996,-1.275317506836941,0.1436043957239445,-0.8951918272460412
1.6,-1.2411386233555568,0.6158726563597763,2.1464576416799965,-0.0022987291119293,0.1863311454100644,0.007674392439225,0.6425900767908969,-0.923113351197377,-0.8034811499258409,-1.2221544104523605,0.5880048660554197,2.123094415732381,0.6873112891914227,-0.9571862207459362,-0.8364133987279503,1.0079914557679537,0.3626184456780534,0.2145343971431235,-0.9157126351632738,9.286691077167234,-1.2743025332114946,0.1458047628502257,-0.8952532730833487
1.62,-1.2287278780583064,0.5982377120559224,2.1314656745634606,-0.009129013977885,0.1870896937313157,0.0072676749545158,0.6631466587219921,-0.9301805890382028,-0.7737034176526171,-1.2221544104523605,0.5880048660554197,2.123094415732381,0.6873112891914227,-0.9571862207459362,-0.8364133987279503,1.8433883548539232,1.027829096554761,-0.3533618920412817,1.488886613661189,12.349454521156076,-1.2625560439096752,0.1502515277933347,-0.8822344769588816
1.64,-1.2152475485370509,0.5796606780760869,2.116274951739216,-0.0202606341627378,0.1846188666459992,0.0066382087638441,0.6835109815745416,-0.9263763751333066,-0.7474623155040787,-1.2221544104523605,0.5880048660554197,2.123094415732381,0.6873112891914227,-0.9571862207459362,-0.8364133987279503,1.6716557141402502,1.018216142627476,0.1902106952448023,1.3120551074269182,12.349454521156076,-1.2682987156046066,0.1600692844815836,-0.8914649240216823
1.66,-1.2013905160648295,0.5612344253602644,2.1015112614403826,-0.0316783058247125,0.1788643410494259,0.0061457333139158,0.7005362546847133,-0.9162457124991678,-0.7305518475288875,-1.215281297560446,0.5784330038479604,2.114730281745102,0.6977060054542401,-0.9631426570670756,-0.8466626990290252,1.3023576477130236,0.8512636555085829,0.5065331317069433,0.8455233987595623,11.77372517701042,-1.2798927540828693,0.1704618576752676,-0.8943850426258104
1.68,-1.187248164783871,0.5430538554754798,2.086992501776753,-0.0418329678989252,0.1707127511793081,0.005938071308429,0.7123591582317566,-0.9024891447661616,-0.7220667414780337,-1.2015350717766176,0.5592892794330416,2.098002013770543,0.7184954379798748,-0.9750555297093542,-0.8671612996311753,1.001275722228535,0.5911451773521648,0.6878283866503077,0.4242553025426865,11.184781879605907,-1.2928832382471032,0.1794016286948969,-0.8914660258086231
1.7,-1.1736417431792194,0.5260599404786392,2.073295058829492,-0.0498508047736371,0.161819954926519,0.00601894326278,0.7189762680950723,-0.887333485570148,-0.7201247181583195,-1.1877888459927892,0.5401455550181229,2.081273745795984,0.7392848705055096,-0.9869684023516327,-0.8876599002333252,0.8325436973264764,0.3308554931657881,0.7577829598006791,0.0971011659857135,10.702692478733296,-1.306702752527815,0.1872863980463486,-0.8838113121326544
1.72,-1.1592288107768245,0.5084951314092467,2.0588679424183205,-0.0565205829805285,0.1521981032428868,0.0063497307165339,0.7216327095102327,-0.8701862874538541,-0.7228615166265596,-1.173003148582679,0.5204061869710902,2.0635205477913177,0.7600743030311444,-0.9988812749939115,-0.9081585008354752,0.8783125156904231,0.1328220707580207,0.8573599058146975,-0.1368399234120076,10.32363739075663,-1.31955850766894,0.1934895135396019,-0.8732448718304149
1.74,-1.1448021822015306,0.4912862331800411,2.044357262997051,-0.06134905522845,0.1430979418916785,0.0068680126864836,0.7207385002192438,-0.8520077539122768,-0.7279956205523958,-1.158217451172569,0.5006668189240575,2.0457673497866518,0.7808637355567791,-1.0107941476361904,-0.9286571014376253,0.9455391518858792,-0.0447104645494467,0.908926677078864,-0.2567051962918065,10.03448541807029,-1.3301759635128856,0.1977899919015245,-0.8617253151755407
1.76,-1.1304208862753118,0.4744432630074913,2.029729688011966,-0.0645885612813747,0.134976061744386,0.0075004802731897,0.7173317549216831,-0.833580483915744,-0.7344572006786553,-1.1429120179493175,0.4806296290609679,2.027501686766931,0.8016531680824139,-1.022707020278469,-0.9491557020397752,0.9911132765426472,-0.1703372648780343,0.9213634998266385,-0.3230790063129762,9.914732033587825,-1.3397348245457408,0.2010018708993264,-0.8501348955086625
1.78,-1.1168419669398806,0.4587858657674398,2.015703019209912,-0.0663912877839658,0.1283656469499078,0.0081586094500122,0.712158712755319,-0.8158115007144492,-0.7416731443132818,-1.1270868489129258,0.4602946173818213,2.008723558732157,0.8224426006080486,-1.0346198929207475,-0.969654302641925,0.9931854960189794,-0.258652108318208,0.8884491600647415,-0.360797181731326,9.8337308752607,-1.3478083951304225,0.2030909875086004,-0.8396298254813201
1.8,-1.1033780491223044,0.4434680117908061,2.001530678162529,-0.0669679730939725,0.1229998497263106,0.0088438381984077,0.7052381045132872,-0.7976543216363058,-0.7497967151754273,-1.0812340313021147,0.4179952907317173,1.978619361994248,0.759280025224563,-0.8310434471977036,-0.7500631667550266,1.0530555233079435,-0.3460304121015889,0.9078589539071702,-0.4061785431072773,9.764104046967075,-1.354223433085134,0.2040614008310445,-0.8307670570035661
1.82,-1.0893153358157457,0.4276892425988877,1.986801420376292,-0.0677596030589927,0.1189113386571946,0.0094644084766262,0.7012449960610677,-0.7806786280952069,-0.7227509117522376,-1.0812340313021147,0.4179952907317173,1.978619361994248,0.759280025224563,-0.8310434471977036,-0.7500631667550266,1.6090327600132273,-0.1996554226109725,0.8487846770549423,1.352290171159487,11.898903988160782,-1.351170998774804,0.2038896575558915,-0.8163107218246167
1.84,-1.0760482047342836,0.4130390533457856,1.9732987249071927,-0.0690927182658653,0.1168242895810295,0.0099096220895766,0.6954183990491591,-0.7623165732632714,-0.7002941271389911,-1.0812340313021147,0.4179952907317173,1.978619361994248,0.759280025224563,-0.8310434471977036,-0.7500631667550266,1.4793761062994888,-0.2913298505954287,0.9181027415967769,1.1228392306623258,11.898903988160782,-1.3571052243430417,0.2067724979660299,-0.8230994212573969
1.86,-1.0622108839726778,0.3980153383917125,1.959491823386987,-0.0697905051236441,0.1167093561408566,0.0102996904650016,0.6888146870832184,-0.7411681212970708,-0.681772257077648,-1.073641231049869,0.4096848562597402,1.9711187303266973,0.7687042877184117,-0.8340898364943545,-0.7517411712433756,1.4438885889024493,-0.3301855982970392,1.0574225983100316,0.9260935030671548,11.545494969756874,-1.360386443489905,0.2089826729178034,-0.8315439830376081
1.88,-1.0485009952716655,0.3834287475344469,1.946012485292764,-0.068737322441455,0.1182070273784471,0.0107118925718045,0.6826676110672123,-0.7187960718847803,-0.6672274978419549,-1.0584556305453778,0.3930639873157862,1.9561174669915968,0.7875528127061093,-0.8401826150876562,-0.7550971802200734,1.3691650372369295,-0.3073538008003029,1.1186024706145214,0.7272379617846547,11.247213562766774,-1.362278210559746,0.2097543720549362,-0.8408749540039214
1.9,-1.034906904373209,0.3692945676300671,1.932792195716708,-0.0651519904349606,0.1208578807639258,0.0112343852743377,0.6772618225805134,-0.6966177709469737,-0.6554649484699383,-1.0432700300408866,0.3764431183718321,1.941116203656496,0.806401337693807,-0.846275393680958,-0.7584531891967714,1.2839948884049028,-0.2702894243349463,1.1089150468903295,0.5881274686008298,10.87962780356429,-1.3632862895574722,0.2085584549783349,-0.8499588226644489
1.92,-1.0220825047379638,0.356248478913591,1.92043725570656,-0.060085109068515,0.124067953692443,0.0118175101844032,0.6731062154453363,-0.6783216102004418,-0.645616992006976,-1.0271420032870104,0.3595176104982129,1.9259471398725607,0.8252498626815046,-0.8523681722742599,-0.7618091981734694,1.0594819668371809,-0.2077803567588521,0.9148080373265975,0.4923978231481163,10.87962780356429,-1.3629192266403876,0.205762404946534,-0.8596369981643437
1.94,-1.008654618004369,0.3428645809252709,1.9076378659950204,-0.0539620072334302,0.1278387444438952,0.0124838534718573,0.6700537031406,-0.6613925254879429,-0.6348119894317084,-1.0110139765331343,0.3425921026245938,1.9107780760886253,0.8440983876692022,-0.8584609508675616,-0.7651652071501672,1.015701507856848,-0.1526256152368177,0.8464542356249438,0.540250128763381,10.793893582039344,-1.3614140388040106,0.2021707024158049,-0.869521257926036
1.96,-0.9952710409899452,0.3297973390455533,1.8950596689051449,-0.047529793730192,0.1316443740220117,0.0131927212185915,0.6685710801322949,-0.6464509442075361,-0.6235360918378088,-0.9944147366545656,0.3255142752861421,1.8955251120802723,0.8629469126568997,-0.8645537294608634,-0.7685212161268652,0.938875509175562,-0.0741311504152519,0.7470790640203395,0.5637948796949788,10.826634832281345,-1.3596785402105156,0.1982801039873425,-0.8798617820093066
1.98,-0.981902279989672,0.3170103018234981,1.8827094290785769,-0.0410759697173156,0.1351065726250259,0.0139403461463721,0.6684193498049211,-0.6332427562684088,-0.6120669611295769,-0.9773442836513048,0.3082841284828578,1.880188247847502,0.8817954376445973,-0.8706465080541651,-0.771877225103563,0.8746716668700055,-0.0075865163686905,0.6604093969563685,0.5734565354115928,10.87428972701764,-1.3585579424827066,0.1945389532880165,-0.8897047889648333
2.0,-0.969194943053992,0.3050915038652549,1.871188083911575,-0.0350914105070345,0.1378582590535753,0.0146777233407749,0.6691998210498583,-0.622192258865199,-0.601292287452456,-0.948481312499426,0.2853481640100777,1.8521060810220975,0.71314837025146,-0.6332676702659582,-0.6078429126678119,0.7726839927663857,0.0390235622468593,0.5525248701604868,0.5387336838560464,10.87428972701764,-1.3580383168921726,0.1906654212998466,-0.8995084281303913
2.02,-0.9557367746580248,0.2926493794952083,1.8594260741619035,-0.0326921273203824,0.1389099986813661,0.0152540119115426,0.6766123951468643,-0.6211989773737827,-0.5748024509283667,-0.948481312499426,0.2853481640100777,1.8521060810220975,0.71314837025146,-0.6332676702659582,-0.6078429126678119,1.376266963508326,0.3706287048503009,0.0496640745708154,1.3244918262044658,10.87430260486144,-1.3523475431927616,0.1890697561360166,-0.9011623369294792
2.04,-0.9421329658325498,0.2802823430911312,1.8481956213371595,-0.0351855213019933,0.1369951577780563,0.0155949029322351,0.6831520958188422,-0.6150411847967965,-0.5498058195938591,-0.948481312499426,0.2853481640100777,1.8521060810220975,0.71314837025146,-0.6332676702659582,-0.6078429126678119,1.3280791320301102,0.3269850335988922,0.3078896288493116,1.249831566725379,11.923127557622138,-1.356257672181972,0.1923250034009886,-0.9077293795826624
2.06,-0.929107021232477,0.2686973667875054,1.837948276528968,-0.0393187917451094,0.1328226452067352,0.0159012406537662,0.6874198349923534,-0.6044636798569145,-0.530095846794663,-0.9413498287969112,0.2790154873074181,1.8460276518954195,0.7220941743407678,-0.6332726530654681,-0.6069981029754589,1.138617842113189,0.2133869586755599,0.5288752469940983,0.9854986399598032,11.71018703405025,-1.3640630352539236,0.1974524198952511,-0.9107351069602242
2.08,-0.9153430065541348,0.2567536236835542,1.8275326522974065,-0.0435227302642609,0.1266771459093051,0.0163396931272294,0.6883531053593319,-0.590512002662413,-0.51262982109643,-0.927086861391882,0.266350133902099,1.8338707936420635,0.7399857825193834,-0.6332826186644879,-0.6053084835907528,1.1186848794553277,0.0466635183489272,0.6975838597250761,0.8733012849116539,11.458101028680176,-1.374600497238024,0.2025171244769244,-0.909630159046152
2.1,-0.9016012412919908,0.2451054833535896,1.817432838571134,-0.0468515285832086,0.1199043782137274,0.0169046921631506,0.6855055517988282,-0.5751720141658921,-0.4983346885785425,-0.9128238939868528,0.2536847804967798,1.821713935388707,0.757877390697999,-0.6332925842635077,-0.6036188642060468,1.0580342882644356,-0.142377678025185,0.7669994248260426,0.7147566258943722,11.251737089384733,-1.384498960168801,0.2065795175090576,-0.9065596956294144
2.12,-0.8879527670534677,0.2337725236286121,1.807588586566672,-0.0490530705156914,0.1134690977951177,0.0175619034509196,0.6793817759937487,-0.5592132582093269,-0.4867689120103471,-0.897666346172893,0.2410189288115097,1.8096415581045864,0.7757689988766145,-0.6333025498625274,-0.6019292448213408,1.0319274555625275,-0.306188790253975,0.7979377978282631,0.5782888284097676,10.912525443564846,-1.3937174560759955,0.2098136857401427,-0.9022749484634636
2.14,-0.8744570714836571,0.2227638029204448,1.797961147878992,-0.0500758326010714,0.1081382163340614,0.0182646209709848,0.6703786042572004,-0.5426965860293157,-0.4765333940784117,-0.8825087983589329,0.2283530771262395,1.7975691808204652,0.7936606070552301,-0.6333125154615472,-0.6002396254366348,1.0707747061762216,-0.4501585868274149,0.8258336090005591,0.5117758965967723,10.912525443564846,-1.4014344472006712,0.2119710873372813,-0.8981884412821163
2.16,-0.8618268741402574,0.2126168501993266,1.7889959507580446,-0.0496872375328402,0.104852571769338,0.018943462611648,0.6595143597444441,-0.5264578127937327,-0.4676705189832935,-0.8669039603405077,0.2156869763009938,1.7855390440209618,0.8115522152338457,-0.633322481060567,-0.5985500060519288,1.0727069963197196,-0.543212225637818,0.8119386617791491,0.4431437547559119,10.84463140589105,-1.4070645769014316,0.2128998554243375,-0.8964160787523765
2.18,-0.8487701469798988,0.202269634742381,1.7797362557952323,-0.0475599922064859,0.1039070748932847,0.0196509686713001,0.6469837661702106,-0.5093069756650248,-0.4587778503228361,-0.8508518321176168,0.2030206263357727,1.773551147706076,0.8294438234124613,-0.6333324466595868,-0.5968603866672227,1.1513541434358578,-0.6265296787116736,0.8575418564353954,0.4446334330228674,10.8031513447595,-1.4085198668864265,0.2122477730390731,-0.8981887332906938
2.2,-0.8359535245514509,0.192252731446046,1.770652790717412,-0.043753150329098,0.1052456289863322,0.0203641049039769,0.6355593913723581,-0.4938120352591474,-0.4499972037024989,-0.8164209586713883,0.1768042859591297,1.7567973632790908,0.6642026428002784,-0.5071446118191698,-0.4547006779503459,1.0579570794398252,-0.5712187398926261,0.7747470202938672,0.4390323310168614,10.775189672209308,-1.408071670678848,0.2103172871557723,-0.9026962110648294
2.22,-0.8232650559833696,0.1825028328253023,1.7618530868131372,-0.039982302133453,0.1059310635671081,0.0210993128307232,0.6335197195881662,-0.4817267603923427,-0.4304436315611098,-0.8164209586713883,0.1768042859591297,1.7567973632790908,0.6642026428002784,-0.5071446118191698,-0.4547006779503459,1.153859082689432,-0.1019835892095921,0.6042637433402387,0.9776786070694544,11.422468444797232,-1.4005792637056729,0.2075966419798364,-0.905687526769119
2.24,-0.8112564716310671,0.1734651553995682,1.7538470041553864,-0.0368380230144175,0.1040805498033201,0.0218590665654058,0.6304487512515248,-0.4702845052081735,-0.4133074209164455,-0.8164209586713883,0.1768042859591297,1.7567973632790908,0.6642026428002784,-0.5071446118191698,-0.4547006779503459,1.0416402515775374,-0.1535484168320722,0.5721127592084568,0.8568105322332153,11.422468444797232,-1.4056348574094537,0.2064035542760453,-0.910519828931188
2.26,-0.7986989098334455,0.1641815347552133,1.745750152812219,-0.0336847468932193,0.1001622869664028,0.0227032568798502,0.625250057855577,-0.4587900170884361,-0.3973657034680122,-0.8097789322433855,0.171732839840938,1.7522503564995873,0.667646418126292,-0.5067121390499988,-0.4538852434758479,1.016474329933542,-0.2599346697973903,0.5747244059868706,0.7970858724216628,11.162062908397274,-1.412207622749585,0.2052238867837554,-0.9115374212321776
2.28,-0.7862732359154468,0.1551202341590034,1.7379467102242014,-0.0305979084415912,0.0949563403532295,0.0235628007777413,0.6173069862501417,-0.4480411437184286,-0.3837532380640391,-0.79649487938738,0.1615899476045546,1.7431563429405803,0.6745339687783191,-0.5058471935116569,-0.4522543745268518,0.953847314337957,-0.397153580271764,0.5374436685003758,0.6806232701986548,11.162062908397274,-1.4196612516184053,0.2040713577993183,-0.9096783785001524
2.3000000000000003,-0.7746469674175929,0.1467029387274152,1.7307668334206818,-0.0277320576668909,0.0897640399133196,0.0243579656377032,0.6067846604749131,-0.4386197647727217,-0.3726919628502879,-0.7832108265313744,0.1514470553681712,1.7340623293815731,0.6814215194303462,-0.5049822479733148,-0.4506235055778558,0.8969859674390097,-0.5261162887614301,0.4710689472853469,0.5530637606875638,10.913969592410467,-1.427253481661418,0.2028111086602147,-0.9064811069286756
2.32,-0.7626540138813755,0.1380271048051897,1.723420913167987,-0.0248331836061038,0.0850004939965926,0.0251424912754495,0.5928609734512957,-0.4295410382584126,-0.3625456496567651,-0.7695823961427675,0.1413474104087049,1.7250498592700163,0.6883090700823734,-0.5041173024349728,-0.4489926366288597,0.9737042760437112,-0.6961843511808674,0.4539363257154538,0.5073156596761386,10.913969592410467,-1.4337330025563422,0.2015320714564028,-0.9031413314914296
2.34,-0.7509695030154527,0.1295244405949192,1.716266992561693,-0.0221020122194766,0.082020169670458,0.0258498821924772,0.5761494526882511,-0.4212407308417601,-0.353388647252804,-0.7559539657541606,0.1312477654492386,1.716037389158459,0.6951966207344005,-0.5032523568966308,-0.4473617676798637,1.0392554094768476,-0.8355760381522304,0.4150153708326248,0.4578501201980528,10.829393329346203,-1.4376625849433526,0.2003127430834785,-0.9012661428332348
2.36,-0.7401949898316385,0.1215938045044907,1.709633276037782,-0.0196996245313339,0.0816902039809192,0.0264397029166162,0.5592230761170767,-0.4139929224917743,-0.3453458718622473,-0.742153346599253,0.1211697441282309,1.707065690770627,0.7020841713864276,-0.5023874113582888,-0.4457308987308676,1.00463822554474,-0.8463188285587231,0.362390417499292,0.4021387695278378,10.788097250205285,-1.43649467906757,0.198876393553687,-0.9019362214504424
2.38,-0.7291869782449769,0.1133889661513236,1.7028128334605763,-0.0173968526223799,0.0836330322953724,0.0269921740834001,0.5427402255981908,-0.4068897146014955,-0.3371324045241477,-0.7281805386780447,0.1111133464456817,1.6981347641065196,0.7089717220384547,-0.5015224658199469,-0.4441000297818715,0.9869156109750252,-0.8241425259442936,0.355160394513937,0.4106733669049789,10.746735983512735,-1.4328566699165548,0.1975608005178743,-0.9057394534313664
2.4,-0.7184914327722565,0.1053214939140715,1.6961547534750852,-0.015333247965301,0.0872737815370823,0.0274951639213314,0.527901636409172,-0.4002211446407708,-0.3290989491752314,-0.7020499669650674,0.0930444804212488,1.6859562132343688,0.5750530620962129,-0.3871061451016452,-0.3075230726630094,0.907179639438322,-0.7419294594509407,0.333428498036234,0.4016727674458153,10.726248444880184,-1.4275914609709262,0.1964229255479597,-0.9124089309537964
2.42,-0.7080550059831286,0.0973147578357046,1.689794655425532,-0.0157849511961921,0.0919281755514404,0.0278040241230843,0.516775836500398,-0.4001666693304971,-0.3066260463937074,-0.7020499669650674,0.0930444804212488,1.6859562132343688,0.5750530620962129,-0.3871061451016452,-0.3075230726630094,1.2538119382480486,-0.5562899954386968,0.0027237655136846,1.1236451390761986,10.714164364482713,-1.4168563033199728,0.1965947318126535,-0.91571683103295
2.44,-0.6983285436191344,0.0897343375002774,1.6841831342371882,-0.0196987875320279,0.096784183673665,0.0278339270200689,0.5077618866678014,-0.3970057499248103,-0.2853722015711636,-0.7020499669650674,0.0930444804212488,1.6859562132343688,0.5750530620962129,-0.3871061451016452,-0.3075230726630094,1.1650843561890591,-0.4506974916298312,0.1580459702843428,1.0626922411271915,11.688278343108324,-1.4102603806560754,0.2007209882505142,-0.9298817541683788
2.46,-0.6882613299378534,0.0818752292850637,1.6786918804798454,-0.0251071946555006,0.1020662806287993,0.0277475108804437,0.4996030604676261,-0.3888083113471909,-0.264975769022384,-0.6962994363441053,0.0891734189702324,1.6828809825077389,0.5815156293958172,-0.3831494312016752,-0.3016012062907817,1.172368228112891,-0.4079413100087636,0.4098719288809671,1.0198216274389795,11.576127754457048,-1.4050133657173554,0.2062157190596422,-0.9440661523368546
2.48,-0.6783431617644006,0.0742134765962972,1.6735886527103163,-0.0302650754419205,0.1072822603281452,0.0276535453481283,0.4927678037277758,-0.3777715936004696,-0.2464621030142537,-0.684798375102181,0.0814312960681995,1.6767305210544785,0.5944407639950261,-0.3752360034017351,-0.2897574735463263,1.1305813796240678,-0.3417628369925179,0.551835887336069,0.9256833004065156,11.471654478563323,-1.4006243960197329,0.2116872335516194,-0.958114106164935
2.5,-0.6685482601214315,0.0667924083830752,1.6688384555384097,-0.0345501380022179,0.1122321601603152,0.0276058889728577,0.4871847687102709,-0.3650688645260443,-0.2295045099105175,-0.6732973138602567,0.0736891731661666,1.6705800596012184,0.607365898594235,-0.367322575601795,-0.277913740801871,1.0955473173450947,-0.2791517508752422,0.6351364537212634,0.8478796551868062,11.37724448136305,-1.3968488539830493,0.2163018682190564,-0.9711033354257794
2.52,-0.6593354151525062,0.0599878007592356,1.6646292840171515,-0.037675223167633,0.1165535523147817,0.0276240953205554,0.4829458562153629,-0.3520554735921851,-0.214431773807953,-0.661149995888372,0.0663427216541307,1.665021784785181,0.6202910331934438,-0.3594091478018549,-0.2660700080574157,1.0179686836471027,-0.2119456247453993,0.6506695466929585,0.7536368051282244,11.308756588498,-1.393392512295452,0.2203887412326539,-0.9841603761037534
2.54,-0.6497137850871031,0.0530967390763048,1.6605061254430058,-0.0400225324492975,0.1206109619644369,0.0277164106569934,0.479521446268366,-0.3378834312632434,-0.1986905857678227,-0.6490026779164874,0.0589962701420948,1.6594635099691435,0.6332161677926527,-0.3514957200019147,-0.2542262753129603,1.0727981732054162,-0.1712204973498443,0.7086021164470879,0.787059402006518,11.262804996139494,-1.390515227021346,0.2236630101895,-0.9962764475046684
2.56,-0.6401491091137469,0.0464978914373091,1.6566954503411992,-0.0413332830653454,0.1240465849020797,0.0278989456150204,0.4771369811000172,-0.3229282083569715,-0.1831842677175942,-0.6365322315796225,0.0518476543250574,1.6542013284717176,0.6461413023918614,-0.3435822922019746,-0.242382542568505,1.083732284503636,-0.1192232584174418,0.7477611453135913,0.7753159025114239,11.276821798819585,-1.3883728469066714,0.2260880682640764,-1.008038586898223
2.58,-0.6306241016255273,0.0402054457219939,1.653192026655832,-0.0413677015959039,0.1267676209882781,0.0281964579724604,0.4754719335591351,-0.3072774456619055,-0.1679523807710743,-0.6237386568777773,0.0448968742030185,1.649235240292903,0.6590664369910703,-0.3356688644020345,-0.2305388098240497,1.095135991786215,-0.0832523770441073,0.7825381347532995,0.7615943473259958,11.279869166346543,-1.3873919587380024,0.2274979781622951,-1.020188243547264
2.6,-0.6216017558576633,0.0345213200021408,1.650143160461857,-0.0399251785736617,0.1286762065060562,0.0286081963803123,0.4743025224307305,-0.2920595200036897,-0.1537572317348218,-0.6068505049475705,0.0248415734388986,1.6447944076172782,0.5091442625975167,-0.2835607537804873,-0.1712344434804058,1.0421792550799995,-0.0584705564202259,0.7608962829107946,0.7097574518126232,11.28164900343927,-1.3876484035951098,0.2277685355761257,-1.0345000761405732
2.62,-0.6121200090974774,0.0288376943971925,1.647155745454295,-0.0368853368556241,0.1295353551537145,0.0291900653941567,0.4738078863131494,-0.2775169484543346,-0.146083577090558,-0.6068505049475705,0.0248415734388986,1.6447944076172782,0.5091442625975167,-0.2835607537804873,-0.1712344434804058,0.8225205586433045,-0.0247318058790579,0.7271285774677505,0.3836827322131919,11.28196778381698,-1.3916178920111488,0.2268525033044762,-1.0491762385935215
2.64,-0.6026603210946684,0.0234164700895356,1.6443027322588708,-0.033200328168497,0.1291156745294866,0.0298557872754039,0.4720576471845266,-0.265499435010228,-0.1395874486839519,-0.6068505049475705,0.0248415734388986,1.6447944076172782,0.5091442625975167,-0.2835607537804873,-0.1712344434804058,0.6886284387493776,-0.087511956431141,0.6008756722053338,0.3248064203303064,10.810988335119871,-1.3962299669158194,0.2250163821290317,-1.0574619629855022
