t,x,y,z,roll,pitch,yaw,v_x,v_y,v_z,ref_x,ref_y,ref_z,ref_v_x,ref_v_y,ref_v_z,a_com,a_x,a_y,a_z,thrust,wind_x,wind_y,wind_z
0.0,-1.0911941282795938,1.7120534650524395,2.300773533468986,0.0203390477717375,0.1366108482182061,0.0264651135631726,0.0047607064601067,0.0040573362551767,0.0087651845538491,-1.091046601488351,1.7122205408517557,2.3010526822414152,-0.0184509043767859,-0.0949429367653373,-0.0910537876894155,0.538411468465127,0.2380353230053364,0.2028668127588385,0.4382592276924582,10.545376224357824,-1.2873712220598568,0.1558197658126716,-1.1732741549049657
0.02,-1.0911452583470649,1.712165864217605,2.300804292315032,0.0234786739186459,0.1362719884550694,0.0266729608078395,0.0050214199637576,0.016824574910519,-0.0026018978819814,-1.091046601488351,1.7122205408517557,2.3010526822414152,-0.0184509043767859,-0.0949429367653373,-0.0910537876894155,0.854811262087166,0.0130356751825444,0.6383619327671134,-0.5683541217915324,10.545369604858934,-1.299574969991217,0.1540454339166631,-1.1939764200287584
0.04,-1.091140206736387,1.7121835218167694,2.300800430931272,0.0240013647884314,0.1361949528158279,0.0267069766317203,0.0050516106780669,0.0176575991643715,-0.0038613837600881,-1.091046601488351,1.7122205408517557,2.3010526822414152,-0.0184509043767859,-0.0949429367653373,-0.0910537876894155,0.0755173086763417,0.0015095357154683,0.0416512126926275,-0.0629742939053317,9.22293307168502,-1.302169796186406,0.1531290123820176,-1.1943956681057764
0.06,-1.0910580344140497,1.7125276486753034,2.300498958428768,0.0345761200004424,0.1337060081147255,0.0273505142994742,0.0050923717508383,0.0230218105966497,-0.0324581536079468,-1.0912311105321189,1.7112711114841022,2.300142144364521,-0.0230928634479453,-0.1149429370633605,-0.1110537879874388,1.454778051359242,0.002038053638568,0.2682105716139067,-1.429838492392935,9.214053290681932,-1.3097008294401964,0.1427502101404925,-1.175216385681264
0.08,-1.090981564294303,1.7129247445363145,2.299607249350841,0.048069418658331,0.1285034513918265,0.0280236640176817,0.0030042213791949,0.020383645929472,-0.064740871342862,-1.0916001286196546,1.7093722527487951,2.2983210686107327,-0.032376781590264,-0.154942937659407,-0.1510537885834852,1.622878730172058,-0.1044075185821699,-0.1319082333588846,-1.6141358867457607,8.59525923432011,-1.3195449885395043,0.1288748464760137,-1.1475870357564577
0.1,-1.0909747201104552,1.7132480624146866,2.2980508457195508,0.062131900585022,0.1216249219892158,0.0285316667750012,-0.0024194009791479,0.013493359308847,-0.0971912403400387,-1.0919691467071904,1.7074733940134883,2.2964999928569445,-0.0416606997325827,-0.1949429382554535,-0.1910537891795317,1.680712778297654,-0.2711811179171468,-0.3445143310312513,-1.622518449858834,8.596225980376857,-1.3276211680016077,0.1139501885673196,-1.11611301523606
0.12,-1.0911104201231012,1.7134144601525494,2.2957668158008566,0.0762863970565012,0.1142029822752158,0.0288627206715642,-0.0110260472646482,0.0031981819495451,-0.1294009317832636,-1.092802360701842,1.703574535248379,2.2926789170733537,-0.0509446178749015,-0.2349429388514999,-0.2310537897755781,1.7446555963935662,-0.4303323142750151,-0.5147588679650917,-1.6104845721612475,8.662616246827383,-1.33244600492714,0.1007778721624009,-1.0870164279179135
0.14,-1.091422081303744,1.7133562146353367,2.2930114798065797,0.0890765907046401,0.1078775308967621,0.0290553162332784,-0.0214014069068757,-0.0090636200196219,-0.158973180680424,-1.0936355746964936,1.6996756764832703,2.288857841289763,-0.0602285360172202,-0.2749429394475464,-0.2710537903716246,1.6826450755226403,-0.5187679821113707,-0.6130900984583573,-1.4786124448580198,8.741386468775545,-1.3344960664460026,0.0880852851322154,-1.0569853896048518
0.16,-1.0919842417350418,1.7130181769539998,2.289509249632109,0.101880755972335,0.1027125324892021,0.0292287564027402,-0.0343683995116167,-0.0243684414641195,-0.1896635639640585,-1.0947008866447034,1.69477681770326,2.284036765491271,-0.0695124541595389,-0.3149429400435928,-0.311053790967671,1.833221265120328,-0.6483496302370517,-0.7652410722248776,-1.5345191641817233,8.78407575598294,-1.3344801892465803,0.0766055594182807,-1.0293413447743676
0.18,-1.092779744515861,1.7123912928730245,2.2856178057182923,0.1134612788005623,0.1000456139510278,0.029498895560783,-0.0486981433955864,-0.0410747832878064,-0.2184231036179147,-1.095998296546471,1.688877958908349,2.2782156896778782,-0.0787963723018577,-0.3549429406396392,-0.3510537915637174,1.8107695449806465,-0.7164871941984851,-0.8353170911843444,-1.4379769826928124,8.78407575598294,-1.3330006869622928,0.066482103146303,-1.0103001436202528
0.2,-1.0939172457462585,1.7113664795636945,2.2809320932512023,0.1250816773612758,0.1001949081083486,0.0300310219872287,-0.0638861551168537,-0.0607649493320308,-0.2486317314412855,-1.09521465168564,1.7103375537086345,2.2746966505373964,-0.0567544729588465,-0.1410747847779225,-0.3184231051080309,1.9563611207196696,-0.7594005860633624,-0.9845083022112192,-1.5104313911685388,8.80120726751693,-1.3241847449029995,0.0563291852898255,-0.9945521807054432
0.22,-1.0953592898579505,1.70978342343957,2.275815185637909,0.1323289613140756,0.1042068118690645,0.0307318351132276,-0.0789433374341789,-0.0948537641150962,-0.2603601033780583,-1.09521465168564,1.7103375537086345,2.2746966505373964,-0.0567544729588465,-0.1410747847779225,-0.3184231051080309,1.9534077537335817,-0.7528591158662612,-1.704440739153271,-0.5864185968386406,8.796775095829162,-1.302026608573388,0.0501671456518446,-0.979110257245304
0.24,-1.0969650223849658,1.7077055034722228,2.2707560170213354,0.1349801550169754,0.1114936721963738,0.031566586864765,-0.0888673024250635,-0.1217353139747411,-0.2718140756829318,-1.09521465168564,1.7103375537086345,2.2746966505373964,-0.0567544729588465,-0.1410747847779225,-0.3184231051080309,1.5429649101305636,-0.4961982495442336,-1.344077492982245,-0.5726986152436719,9.983389714777331,-1.2855095689417768,0.0471449147771235,-0.982622083477975
0.26,-1.098818987340854,1.7049934660262906,2.2651597127959064,0.1358464776148457,0.120911679335486,0.0325470074862574,-0.0956049460583962,-0.1478810131059203,-0.2873455945650813,-1.0957821964152286,1.708926805860855,2.2715124194863163,-0.0583657388714985,-0.1610747850759457,-0.3384231054060541,1.5574189413694206,-0.3368821816666346,-1.3072849565589593,-0.7765759441074743,9.762801676876734,-1.2713077610889794,0.0463797636294721,-0.987136548908613
0.28,-1.1007749528463346,1.701767465814465,2.259222300441068,0.1352737603327423,0.1310352041620991,0.0335105362659674,-0.0993285920880638,-0.1732761678586536,-0.3057215020285738,-1.0969172858744054,1.7061053101652963,2.265143957384156,-0.0615882706968025,-0.2010747856719922,-0.3784231060021005,1.5783325059824795,-0.1861823014833785,-1.2697577376366675,-0.9187953731746246,9.410540968889109,-1.257955486272826,0.0469971595856896,-0.9926522705154084
0.3,-1.102778539005001,1.6980420534198362,2.2528932083057924,0.1333709055397138,0.1412564875569496,0.0343684021945226,-0.1005656930520519,-0.1978622294202839,-0.3263516122073682,-1.0980523753335825,1.7032838144697382,2.258775495281995,-0.0648108025221066,-0.2410747862680386,-0.418423106598147,1.6059314181313702,-0.0618550481994044,-1.2293030780815144,-1.031505508939723,9.296274579284727,-1.246099248589563,0.0487453558983946,-0.99796694133172
0.32,-1.1046847113644902,1.6940630705498316,2.246480329872836,0.1306278093177081,0.1507578910726557,0.0350552310951332,-0.0998020012509865,-0.2194445618267871,-0.3476204699522675,-1.0993485913840246,1.6984623187443777,2.250407033150032,-0.0680333343474106,-0.2810747868640851,-0.4584231071941934,1.515540008581571,0.0381845900532688,-1.0791166203251588,-1.0634428872449613,9.296274579284727,-1.2349988678743231,0.0516322248969145,-1.0024168078025415
0.34,-1.1066554722543784,1.6894560530810805,2.2392861400429687,0.1276843824004706,0.1603663603793996,0.0356824273246226,-0.09708879001612,-0.2400981586129111,-0.3707261578244178,-1.1006448074344668,1.6936408230190168,2.242038571018069,-0.0712558661727146,-0.3210747874601316,-0.4984231077902399,1.5554785336465042,0.1356605617433282,-1.0326798393061984,-1.1552843936075168,9.16135821842181,-1.2250605824800704,0.0546793559698923,-1.0056264625248474
0.36,-1.1085437618100014,1.684438892923031,2.2316227897325605,0.1248247417648,0.1692155473148893,0.0361796852471934,-0.091716389942599,-0.2604613304822015,-0.3944654235925685,-1.1020215867805414,1.6878193272787547,2.2326701088712047,-0.0744783979980187,-0.361074788056178,-0.5384231083862863,1.5867216125860917,0.2686200036760497,-1.018158593464523,-1.1869632884075358,9.139198838877746,-1.2160620462448073,0.057603142131471,-1.0079886498627209
0.38,-1.110047033411994,1.6798581985446812,2.224731276581492,0.1223199150521252,0.1757493425379395,0.0364450254218734,-0.0853501159885999,-0.2773353787729817,-0.4151283617166084,-1.103478929422249,1.6809978315235916,2.22230164670944,-0.0777009298233227,-0.4010747886522244,-0.5784231089823327,1.3713314348607035,0.3183136976999512,-0.8437024145390076,-1.033146906201993,9.139198838877746,-1.2093475298113352,0.0599813991584174,-1.0101468744104398
0.4,-1.1116639446049932,1.674113080028889,2.2161622346947567,0.119367429232579,0.1819850396803236,0.0365491210580295,-0.0767048754342117,-0.2961075715536236,-0.4406056689159576,-1.114314539211424,1.665991429606032,2.2039748584956618,-0.0587649114618179,-0.3773353802630978,-0.5151283632067245,1.6402961532653475,0.4322620277194114,-0.938609639032098,-1.2738653599674632,9.115813753408474,-1.2036569976379228,0.062592351726145,-1.0113769961750496
0.42,-1.113090350654298,1.6679747753462468,2.2072868365724982,0.116515661948114,0.1876913392006962,0.0365687446843862,-0.066004595836056,-0.3168185907619472,-0.4445963340498362,-1.114314539211424,1.665991429606032,2.2039748584956618,-0.0587649114618179,-0.3773353802630978,-0.5151283632067245,1.1825477879741342,0.5350139799077863,-1.035550960416176,-0.1995332566939262,9.052566687752003,-1.1925236384311113,0.0650145606543976,-1.007932896250769
0.44,-1.114234765583315,1.661777190237603,2.1987844007906907,0.1142869755841303,0.1934840452013633,0.0366415865425967,-0.0548180418517652,-0.3347018174765321,-0.4503622496595678,-1.114314539211424,1.665991429606032,2.2039748584956618,-0.0587649114618179,-0.3773353802630978,-0.5151283632067245,1.0933830191054337,0.5593276992145405,-0.8941613357292488,-0.2882957804865804,10.356491303055918,-1.190018833351806,0.0672183939345141,-1.011945753038828
0.46,-1.1152010880583445,1.6548901935452989,2.189673739667907,0.1125139355003498,0.1996531415321765,0.0367451310835743,-0.0422594581489479,-0.353082678979553,-0.4606039339111211,-1.1149021883260422,1.662218075803401,2.1988235748635945,-0.0534478705564615,-0.397335380561121,-0.5351283635047477,1.2252205827140026,0.6279291851408652,-0.9190430751510408,-0.5120842125776653,10.08618799366286,-1.1865727072045311,0.0686200023380232,-1.017068800722321
0.48,-1.115901714196839,1.6476406348527062,2.1803204156086244,0.1111099147182006,0.2055071286600942,0.0368194609099739,-0.0283326798225472,-0.3709271599979217,-0.4743549566033027,-1.1160774865552785,1.654671368198139,2.1885210075994603,-0.0428137887457487,-0.4373353811571674,-0.5751283641007942,1.3242651570290964,0.6963389163200323,-0.8922240509184359,-0.6875511346090823,9.855137012031264,-1.1825709261504511,0.069731661973163,-1.0215516872870236
0.5,-1.1162968238744562,1.6404299979049897,2.1711514320909853,0.1101066797508502,0.2102950631143377,0.0368109742888128,-0.0139556857537527,-0.3872094679914653,-0.4901000084449062,-1.1172527847845148,1.647124660592877,2.1782184403353257,-0.0321797069350359,-0.4773353817532139,-0.6151283646968406,1.341378180776721,0.7188497034397255,-0.8141153996771788,-0.7872525920801732,9.680396565396222,-1.1797940539333431,0.0705728216865543,-1.0243347181020377
0.52,-1.1164110729002688,1.6325134250858084,2.1611554971637537,0.1095402093598354,0.2142591149306298,0.0367031297932897,0.0017566355274953,-0.4036063259060133,-0.508752554899724,-1.1178963789232157,1.637577952957813,2.165915873041389,-0.0215456251243231,-0.5173353823492604,-0.6551283652928871,1.4693973924403307,0.7856160640624039,-0.8198428957274045,-0.932627322740892,9.547162362214294,-1.1787035232320435,0.0709961406550114,-1.0252936720983905
0.54,-1.116204912687751,1.6242721271764282,2.150777077560494,0.1096149757490092,0.2170222371936645,0.0364957779586287,0.0180291075833889,-0.419741427035646,-0.5281641230905034,-1.1185399730619163,1.6280312453227486,2.153613305747452,-0.0109115433136102,-0.5573353829453069,-0.6951283658889336,1.5016189720586512,0.8136236027946837,-0.8067550564816339,-0.9705784095389692,9.434755044992016,-1.178802918466494,0.0708251118572467,-1.0241614657436722
0.56,-1.1156675568289285,1.6156975921194754,2.140005280549924,0.1100189990520655,0.2184942040318639,0.0361577602049613,0.0347525622521561,-0.4368301610410411,-0.5480052963351293,-1.118917715155349,1.617484537672783,2.140310738438614,-0.0002774615028974,-0.5973353835413533,-0.7351283664849799,1.5535209378124872,0.8361727334383591,-0.8544367002697562,-0.9920586622312932,9.404565717619334,-1.180207334875479,0.070369052190129,-1.0212620500036331
0.58,-1.1148459919080784,1.6072273076105603,2.129401161347672,0.1102211938890468,0.2186690248571412,0.0356777281954939,0.0507864333139331,-0.4538096851119006,-0.567186021058104,-1.1190296052035142,1.6059378300079166,2.126008171114875,0.0103566203078153,-0.6373353841373998,-0.7751283670810264,1.5110339670215218,0.8016935530888503,-0.8489762035429727,-0.959036236148736,9.38937238069957,-1.1828758538193922,0.0700152653529377,-1.016426905746628
0.6,-1.113653609650259,1.5979589138650745,2.11783998162538,0.10989710203113,0.2174941445095085,0.0349736331738776,0.0675347171202683,-0.4720524485747481,-0.5879147226217697,-1.1123066702423818,1.5845368233549657,2.101041860294767,0.0757297664330871,-0.5538096866020168,-0.6671860225482201,1.6147619776103754,0.8374141903167587,-0.912138173142374,-1.0364350781832845,9.371197395798845,-1.1866131661159596,0.0701017478685265,-1.0096952550008105
0.62,-1.1120888919171223,1.5882741577480683,2.106099608339174,0.1080117761281642,0.2152792590580167,0.0340387558645361,0.0881883303227992,-0.4953411393319861,-0.5837752696425288,-1.1123066702423818,1.5845368233549657,2.101041860294767,0.0757297664330871,-0.5538096866020168,-0.6671860225482201,1.570087518638187,1.0326806601265457,-1.1644345378618997,0.2069726489620449,9.33480040136783,-1.1851933652199924,0.0714259989972062,-0.99484873483806
0.64,-1.1101195148194898,1.5781512096781156,2.09445210162677,0.1045615004183019,0.2125909181194787,0.0329476838984402,0.1075324116709842,-0.5153780694567455,-0.5815148949713334,-1.1123066702423818,1.5845368233549657,2.101041860294767,0.0757297664330871,-0.5538096866020168,-0.6671860225482201,1.397123245891241,0.9672040674092504,-1.001846506237969,0.1130187335597721,10.557574035760808,-1.192754367003456,0.0740396583703124,-0.9917716728904508
0.66,-1.107904833762878,1.5681882224636796,2.083374139116253,0.1010129343553508,0.2094102963601256,0.0318384986116098,0.1245162112922473,-0.5322402217022042,-0.5846295010773521,-1.111549372578051,1.5789987264889451,2.0943700000692846,0.0807184330569179,-0.57380968690004,-0.6871860228462433,1.206733606807955,0.8491899810631545,-0.8431076122729364,-0.1557303053009384,10.557574035760808,-1.2006937652472174,0.0769446787817711,-0.9869165951491344
0.68,-1.1052406630524092,1.5573731904062718,2.071607391783532,0.0974122366556265,0.2051432822798584,0.0306050211921932,0.1408400240559427,-0.5483178566612302,-0.5920344425677285,-1.1100347772493893,1.5679225327569049,2.0810262796183205,0.0906957663045795,-0.6138096874960864,-0.7271860234422898,1.2039418253135994,0.8161906381847668,-0.8038817479513016,-0.3702470745188202,10.233942421910797,-1.208307330836229,0.0796943164102729,-0.979205661355902
0.7000000000000001,-1.1022699881310978,1.5462492301732884,2.059650557673064,0.0941289730505176,0.1998414394457889,0.0293146249469843,0.1551213024480421,-0.563280688262704,-0.6031956822561273,-1.1085201819207275,1.5568463390248646,2.067682559167356,0.1006730995522411,-0.6538096880921329,-0.7671860240383362,1.1751750012536404,0.7140639196049708,-0.7481415800736912,-0.5580619844199386,9.756834692745542,-1.2165789828068536,0.0820714811266883,-0.9696829345205388
0.72,-1.0992093090188024,1.5354130562996622,2.0480580893859157,0.0913523052395612,0.1941966069653573,0.0280776857285014,0.1661473278122503,-0.5766534802637295,-0.6164552144485357,-1.1065067199296827,1.543770145263022,2.0523388386865893,0.1106504327999027,-0.6938096886881794,-0.8071860246343827,1.091123268925616,0.551301268210412,-0.668639600051274,-0.6629766096204193,9.756834692745542,-1.2250618598490604,0.0841872258810597,-0.9583256002652936
0.74,-1.0957858703462455,1.5237400099068203,2.035568871168608,0.0888691742373476,0.1881122805811247,0.0268166090708273,0.1754229029256684,-0.5899909945833341,-0.6318065576338547,-1.104493257938638,1.5306939515011793,2.0369951182058226,0.1206277660475643,-0.7338096892842259,-0.8471860252304292,1.1175747396748923,0.4637787556709058,-0.6668757159802308,-0.7675671592659528,9.58002913911696,-1.2326146159161364,0.0858248720353263,-0.9464394099822316
0.76,-1.0921970503157876,1.51179623602782,2.0227600524368152,0.0865767090225712,0.1822303370517543,0.0256087737949323,0.1828445065628248,-0.6036156965192603,-0.6483181489669692,-1.1022303626164016,1.5166177577244355,2.0206513977101546,0.1306050992952259,-0.7738096898802722,-0.8871860258264755,1.1328562924546746,0.3710801818578163,-0.6812350967963066,-0.8255795666557209,9.479853095040198,-1.2390682005436549,0.0872235887951199,-0.9346609842543502
0.78,-1.088478019511681,1.4995816360511114,2.009607869629506,0.0841479537965143,0.1767507699206323,0.0244486416999084,0.1885867977148141,-0.6169884585729507,-0.6660216479037911,-1.0997180339629735,1.5015415639327907,2.003307677199585,0.1405824325428875,-0.8138096904763187,-0.927186026422522,1.1458823534997988,0.2871145575994674,-0.6686381026845212,-0.8851749468410997,9.325423064781717,-1.2442992725051285,0.0886084604749879,-0.9239068503140218
0.8,-1.0848541429319374,1.4877349497488168,1.99677452643162,0.081665709067746,0.1720893098027908,0.0234019100406798,0.1924918001552692,-0.6292057724377771,-0.6839293327229943,-1.0790486796259402,1.4687322131224638,1.9763067872343163,0.2010288463538732,-0.7169884600630668,-0.7437456204031617,1.101359362010826,0.195250122022754,-0.6108656932413192,-0.8953842409601565,9.24760677438735,-1.249060227622916,0.0901988145887229,-0.9131249398436068
0.8200000000000001,-1.0809059369471885,1.474983418112178,1.9832330250373955,0.0785611471637864,0.167796525950511,0.022340074054222,0.2022765652894999,-0.645110604076311,-0.6674709877138664,-1.0790486796259402,1.4687322131224638,1.9763067872343163,0.2010288463538732,-0.7169884600630668,-0.7437456204031617,1.2445706273868635,0.4892382567115341,-0.7952415819266978,0.8229172504563953,9.24760677438735,-1.2427450757768694,0.0915921834770045,-0.8988139695137928
0.84,-1.0767748701206368,1.4619364528377046,1.970036261953816,0.0752795645378856,0.1642171171452429,0.0213485312069047,0.2101171553270645,-0.6587020205515155,-0.6535445192311448,-1.0790486796259402,1.4687322131224638,1.9763067872343163,0.2010288463538732,-0.7169884600630668,-0.7437456204031617,1.04898519810798,0.3920295018782313,-0.6795708237602227,0.6963234241360805,11.495147871482914,-1.2488738495280989,0.0936317263327634,-0.8961845794187445
0.86,-1.0725109777725788,1.4486335673611364,1.9570374843516287,0.0722861610526305,0.16156018053182,0.0204706577377954,0.2158139916434877,-0.6709000301459621,-0.6469807043644001,-1.0770383911624015,1.461562328521833,1.968869331030285,0.203517256081685,-0.73698846036109,-0.7592904149030358,0.7488809112389421,0.2848418158211588,-0.6099004797223306,0.3281907433372311,11.032172420686948,-1.2532515524501269,0.0953596369194718,-0.8940001392434564
0.88,-1.068370165153971,1.4357807371726894,1.9447559330607425,0.0697771394674535,0.1599421746232119,0.0197442684475713,0.2197525113132775,-0.681450112475244,-0.6461220349199264,-1.073017814235324,1.447222559320572,1.9539944186222216,0.2084940755373086,-0.7769884609571365,-0.7903800039027841,0.5646979005601585,0.1969259834894904,-0.5275041164640948,0.0429334722236884,10.607766651201928,-1.2556087996720335,0.0968229954679504,-0.8929671444229139
0.9,-1.0639383935166495,1.4220447939647936,1.931800876235479,0.0675689247146174,0.1591320460084158,0.0190882693095605,0.2232663937973939,-0.6916234915653247,-0.6496259412652332,-1.0689972373082466,1.4328827901193104,1.9391195062141584,0.2134708949929323,-0.8169884615531829,-0.8214695929025323,0.5659557666005175,0.1756941242058204,-0.5086689545040324,-0.175195317265342,10.01646814918513,-1.256200795193435,0.0979130987871626,-0.8925601058902516
0.92,-1.0594385321498196,1.4081121750928711,1.918735154243005,0.0658300644252627,0.1589138227721066,0.0185187716145112,0.2265632786178788,-0.7011620044348794,-0.6569148003919744,-1.064727819408388,1.4165430208882468,1.922690114356108,0.2184477144485559,-0.8569884621492294,-0.8525591819022805,0.6224551081236372,0.1648442410242465,-0.476925643477738,-0.3644429563370577,10.01646814918513,-1.2564677322932036,0.0986792286264012,-0.8916511674197491
0.94,-1.0551022824967349,1.3947060333027457,1.9061694021928688,0.0646856628903075,0.1590152501231055,0.0180446997354988,0.2297487968540169,-0.7095961312695099,-0.6654123841886411,-1.0604584015085292,1.4002032516571832,1.906260722498057,0.2234245339041795,-0.8969884627452759,-0.8836487709020288,0.6194573275795043,0.1592759118069053,-0.4217063417315259,-0.4248791898333381,9.810323169408548,-1.2561566647174975,0.0991084437962535,-0.8896933063475575
0.96,-1.050470491728128,1.3804178785309251,1.8927567439649144,0.0639033396557092,0.1592509304816019,0.0175941888941674,0.2332717279176405,-0.7187466708744801,-0.6754456404228757,-1.05606456312228,1.3828634824112185,1.8890540909150129,0.2284013533598031,-0.9369884633413224,-0.914738359901777,0.7014443117649781,0.1761465531811765,-0.4575269802485071,-0.5016628117117283,9.732518996155704,-1.2558876742659026,0.0992307688080892,-0.8874050965673926
0.98,-1.046003875883074,1.366672397645858,1.8798189593863968,0.0633008303598201,0.1594494474430406,0.0171841815265628,0.2367170233783093,-0.727644479134413,-0.6859564182045338,-1.0515463042496402,1.3645237131503525,1.8710702196069744,0.2333781728154267,-0.9769884639373688,-0.9458279489015252,0.7097843021250064,0.1722647730334398,-0.4448904129966458,-0.5255388890829049,9.67023829714708,-1.2557338997044485,0.0992612091841974,-0.8849080873110076
1.0,-1.0412319550997609,1.3520209270415686,1.8659724378268008,0.0626391432468215,0.1595353324503311,0.0167532748722452,0.2402756167406895,-0.7369824187480113,-0.698178909211341,-1.0341680247141585,1.3302901736891375,1.8455211384761705,0.2709995847699013,-0.8276444806245291,-0.704678699064481,0.7893826533397275,0.1779296681190131,-0.466896980679915,-0.6111245503403584,9.61297338462282,-1.2557852520635862,0.099340190919855,-0.881861277526784
1.02,-1.036341120189509,1.337113251168021,1.8522850145746217,0.0604244820525423,0.1601139083214613,0.0162559203423774,0.249067719811396,-0.7528153775858543,-0.6677898731126911,-1.0341680247141585,1.3302901736891375,1.8455211384761705,0.2709995847699013,-0.8276444806245291,-0.704678699064481,1.7688111664136168,0.4396051535353246,-0.7916479418921485,1.5194518049324923,12.417608541249136,-1.244912748375664,0.1000265571042271,-0.8716878538662342
1.04,-1.0315168446616492,1.322689466984367,1.8398760085151835,0.0566835476151534,0.1614036076776145,0.0157254529042065,0.2583524525739456,-0.7643158588227145,-0.6401779168793195,-1.0341680247141585,1.3302901736891375,1.8455211384761705,0.2709995847699013,-0.8276444806245291,-0.704678699064481,1.5659561441695664,0.4642366381274784,-0.5750240618430102,1.3805978116685824,12.417608541249136,-1.2449329675681016,0.1024979441250087,-0.8795412929799556
1.06,-1.026245778445961,1.3073054779966686,1.827319918048084,0.0526068970857004,0.1628981362200013,0.015176630731817,0.2682693901754927,-0.7734040424964717,-0.6171685589561016,-1.0314580288664594,1.322013728882892,1.8384743514855255,0.2778560970482197,-0.8476444809225523,-0.7084231552364705,1.3326395667243214,0.4958468800773524,-0.4544091836878594,1.150467896160895,11.56926393615504,-1.2442289340330492,0.1051068630815723,-0.8893366477091582
1.08,-1.0207767550967222,1.2917594215720758,1.8151640543581369,0.0490017361396329,0.1641044467600456,0.0146579485619238,0.2781004220083656,-0.7807681973478299,-0.5997959604102819,-1.0260380371710616,1.3054608392704017,1.824380777504236,0.2915691216048565,-0.8876444815185988,-0.7159120675804493,1.0638222875649366,0.4915515916436463,-0.3682077425679109,0.8686299272909814,11.230812933389643,-1.244327622650265,0.1073863280688669,-0.8966847154408832
1.1,-1.0151140791369544,1.27607970762269,1.8033030087001292,0.0460870542746302,0.1647579485538652,0.0141743744869417,0.2876097043349129,-0.7869786144091216,-0.5871598000323879,-1.0206180454756637,1.288907949657911,1.8102872035229465,0.3052821461614933,-0.9276444821146452,-0.7234009799244282,0.8495120357255517,0.4754641163273648,-0.3105208530645886,0.6318080188947028,11.230812933389643,-1.2451574383469284,0.1093564283409302,-0.9018330553456744
1.12,-1.0095627963946343,1.261076439560548,1.7922357131803868,0.0439936037825804,0.1647913669668236,0.0137492667027863,0.2961833492497435,-0.7921629719785821,-0.5784449012263072,-1.0145124025524337,1.2703550600156182,1.795819183924458,0.3189951707181301,-0.9676444827106916,-0.7308898922684071,0.6639548398307102,0.4286822457415323,-0.2592178784730226,0.4357449403040336,10.9693937116308,-1.2465172261949184,0.1107948197599719,-0.9050505845245832
1.14,-1.0035471796213242,1.2451832835266636,1.7807546906932183,0.0425632692820004,0.1642407669137591,0.013345352144064,0.3048480733594446,-0.7969633313474593,-0.5701430441392156,-1.008406759629204,1.251802170373325,1.7813511643259694,0.3327081952747669,-1.0076444833067382,-0.7383788046123859,0.6462231136807464,0.4332362054850519,-0.2400179684438619,0.4150928543545817,10.769217426276557,-1.2479133052666087,0.1115962436642953,-0.9064188648197388
1.16,-0.9973602615263126,1.229190544449597,1.769431772695301,0.0418189082808491,0.1630858352094313,0.0129784858132334,0.313350253142886,-0.8020751985202556,-0.5625888039017133,-1.001958291092058,1.2322492807161312,1.7666959219188814,0.3464212198314038,-1.0476444839027843,-0.7458677169563649,0.6234677069186707,0.4251089891720711,-0.2555933586398107,0.3777120118751143,10.724644672201975,-1.2496565677084233,0.1118499883760927,-0.90690061732105
1.18,-0.9910050339618638,1.2130941452113997,1.7582512590297652,0.0415089224972495,0.161166361475385,0.0126237752809463,0.3216516086979029,-0.8072976637584075,-0.5558272088638737,-0.9951669969409964,1.211696391044036,1.7518534567031938,0.3601342443880406,-1.0876444844988309,-0.7533566293003437,0.5956211351821135,0.4150677777508438,-0.2611232619075976,0.3380797518919787,10.682402887540777,-1.2518904301139002,0.1117745301418915,-0.9063797104350736
1.2,-0.9848176852588432,1.1977045085007492,1.7477472587706224,0.0414978456035929,0.1584959247280124,0.0122831262646689,0.329133014167482,-0.8123860544834864,-0.55018067498187,-0.9749224535269686,1.172729262023479,1.7304598985865716,0.3477093679977772,-0.9072976652485236,-0.5419026604614451,0.5332600042473057,0.3740702734789575,-0.254419536253947,0.2823266941001878,10.586874315041314,-1.255082665916192,0.1114672520363755,-0.904524857165444
1.22,-0.9780929914838338,1.1813420958700935,1.7370389020342376,0.0401532313040439,0.1538887410306839,0.0117718150350682,0.3430336700668144,-0.8232343723847404,-0.519684239586924,-0.9749224535269686,1.172729262023479,1.7304598985865716,0.3477093679977772,-0.9072976652485236,-0.5419026604614451,1.7613537460689317,0.6950327949666185,-0.5424158950626978,1.5248217697472977,10.586874315041314,-1.252704603497507,0.111809142968796,-0.8957648343876643
1.24,-0.9711078481000278,1.164792398218337,1.726959875246056,0.0369404481670054,0.14677724209404,0.0110635024212014,0.3542052833272854,-0.8307494531600971,-0.4900200450231974,-0.9749224535269686,1.172729262023479,1.7304598985865716,0.3477093679977772,-0.9072976652485236,-0.5419026604614451,1.6288384059018035,0.5585806630235529,-0.3757540387678337,1.483209728186327,12.309240610180495,-1.260758476418142,0.1140030877604416,-0.8951689043385435
1.26,-0.9643079035780676,1.148964395980179,1.7178885501338437,0.0338252822541057,0.1387051701930971,0.0103820259671558,0.360677784467234,-0.8350588482240957,-0.4662952456485209,-0.9714453598469908,1.1636562853709935,1.7250408719819572,0.352920919857752,-0.9272976655465468,-0.5391177507809594,1.248329145490989,0.3236250569974258,-0.2154697531999316,1.1862399687338292,12.018496961046369,-1.2701495411259005,0.1164113992105334,-0.891899041876791
1.28,-0.9570596954215664,1.132231651346789,1.7087913109763972,0.0312175424806748,0.1297889502724847,0.0097437416599216,0.3634638363973665,-0.8381264489909044,-0.4448268791644378,-0.9644911724870352,1.1455103320660234,1.7142028187727285,0.3633440235777018,-0.9672976661425932,-0.5335479314199879,1.0932326139902957,0.1393025965066296,-0.1533800383404338,1.0734183242041533,11.706681048442078,-1.2793265057799148,0.118281072465553,-0.8872331011676526
1.3,-0.94979568899745,1.115446743334629,1.7000877282143396,0.0295533019358512,0.1212461572188661,0.0092213903909189,0.3625589554972427,-0.8403452211704444,-0.4267388138879729,-0.9575369851270796,1.1273643787610528,1.7033647655634994,0.3737671272976515,-1.0072976667386395,-0.5279781120590165,0.9123045884924682,-0.0452440450061902,-0.1109386089770014,0.9044032638232448,11.4649610878796,-1.2869382227161008,0.1193480039078644,-0.8826944557641743
1.32,-0.942584297574774,1.0986269295272244,1.6917140070804333,0.0290981028096735,0.1137235450654278,0.008839105527277,0.3585583417719649,-0.8417345536041693,-0.4115249659981401,-0.9500616425811268,1.10721842542628,1.692805203322319,0.3841902310176012,-1.047297667334686,-0.522408292698045,0.789614340050337,-0.2000306862638912,-0.0694666216862427,0.760692394491641,11.25196670047626,-1.2930232293678376,0.1195181809204721,-0.878169054263441
1.34,-0.9358317308792564,1.0826274307064774,1.6840308476793062,0.0300776701274174,0.1079730471980279,0.0086257857489638,0.3523548270535008,-0.8425731654838318,-0.3979894275744253,-0.9425863000351736,1.0870724720915073,1.6822456410811388,0.3946133347375509,-1.087297667930733,-0.5168384733370736,0.7456501612129688,-0.3101757359232071,-0.0419305939831249,0.6767769211857372,11.086960382117468,-1.29731372736834,0.1185022829645662,-0.8741650637465075
1.36,-0.928873151239732,1.06575831443795,1.6762166466082602,0.0325516463245859,0.1039829471601096,0.0085645944586398,0.3437094178056887,-0.8444783388983526,-0.3841678781715673,-0.934850379896222,1.0659265187418334,1.671825324323983,0.4050364384575006,-1.127297668526779,-0.5112686539761021,0.8206826650679269,-0.4322704623906048,-0.0952586707260394,0.6910774701429034,11.037885515475864,-1.2995190143145394,0.1163314830242638,-0.8724551809796502
1.38,-0.9221045669295218,1.0488260493615926,1.6686739959257029,0.0357397880165147,0.1027197045601309,0.0086412818664368,0.333904897291813,-0.8488101381175652,-0.3708076826419224,-0.9268538821642714,1.0437805653772585,1.661544253050851,0.4154595421774504,-1.1672976691228254,-0.5056988346151307,0.8564285311293102,-0.4902260256937851,-0.2165899609606336,0.6680097764822424,11.021528949519052,-1.297263755807202,0.1134769473146559,-0.8750156300883286
1.4,-0.915844898504171,1.032641883762372,1.6617532231800691,0.0385575459255973,0.1037287034275897,0.0087836853744361,0.3257600434941925,-0.8544981278162855,-0.3583745405212892,-0.9054093220649312,1.0063855424557144,1.6501336117936067,0.3741037039651013,-0.9488101396076812,-0.3807937302749147,0.7957306283995,-0.4072426898810238,-0.2843994849360154,0.6216571060316617,10.98372101431778,-1.2925825029342155,0.1108831668583457,-0.8802718035745227
1.42,-0.909430658058132,1.015417556408713,1.6547510187976735,0.039027644188125,0.1072652293150157,0.0088667745876435,0.3164855088713491,-0.8669833891744497,-0.3423346388839372,-0.9054093220649312,1.0063855424557144,1.6501336117936067,0.3741037039651013,-0.9488101396076812,-0.3807937302749147,1.117113678400632,-0.4637267311421722,-0.6242630679082095,0.8019950818675986,10.98372101431778,-1.2863033851512138,0.1101926857838333,-0.8862773626521746
1.44,-0.9031770270112172,0.997980380287571,1.6480568089742382,0.0363880873241861,0.1133730033765034,0.0088386073320069,0.3097600591417297,-0.8758471985821429,-0.3280244347271204,-0.9054093220649312,1.0063855424557144,1.6501336117936067,0.3741037039651013,-0.9488101396076812,-0.3807937302749147,0.906339801469794,-0.3362724864809652,-0.4431904703846578,0.7155102078408387,11.219111143536791,-1.27615606241986,0.111872366797963,-0.8991673518652779
1.46,-0.8970260369101548,0.9804065044544455,1.6416213778981008,0.0326279634375209,0.1209556324058942,0.0087777410529791,0.3060418505832002,-0.8809039144630292,-0.3162515381317159,-0.9016682850252802,0.9968974410596376,1.6463256744908576,0.382143465299759,-0.9688101399057044,-0.3827909398015131,0.6670767284031428,-0.185910427926475,-0.2528357940443149,0.588644829770224,10.91953530869705,-1.2669272775331184,0.1145132221436633,-0.9127804857652236
1.48,-0.8912230116720788,0.963645255010949,1.6357056567360282,0.0294130377959345,0.128641179997161,0.0087479437345259,0.3052205071815809,-0.8833540276612777,-0.307077223281918,-0.8941862109459782,0.977921238267484,1.6387097998853593,0.3982229879690743,-1.008810140501751,-0.38678535885471,0.476565086401736,-0.0410671700809661,-0.1225056599124252,0.4587157424898958,10.91953530869705,-1.2580951322150822,0.1171890602369263,-0.9268136666842356
1.5,-0.8851045626361133,0.9459644730546244,1.6296508402472456,0.02692772241352,0.136545115005639,0.0087644605688471,0.3068767951026552,-0.8847829975746061,-0.2989834013801259,-0.8867041368666762,0.9589450354753304,1.631093925279861,0.4143025106383897,-1.0488101410977977,-0.3907797779079069,0.4192111570218036,0.0828143960537153,-0.0714484956664207,0.4046910950896043,10.805241280459995,-1.2502845241068838,0.1192309000152723,-0.9397972491368614
1.52,-0.8789279478751393,0.9282643724865712,1.623742964226391,0.0255930701134798,0.1437195497631472,0.0088400437703302,0.31080112062852,-0.8854059184410382,-0.2922397022843558,-0.8784180866539084,0.9379688326533744,1.6232783297217028,0.430382033307705,-1.0888101416938438,-0.3947741969611039,0.3913624877689503,0.1962162762932373,-0.0311460433216059,0.3371849547885053,10.727878811885605,-1.243958506317682,0.120345485656607,-0.95085269053895
1.54,-0.8729693872982209,0.911444422168718,1.6182482309409498,0.0256125833602034,0.1495313759493691,0.0089822897010362,0.3162429426870839,-0.8853000533603527,-0.2865137890925314,-0.8701320364411406,0.9169926298314184,1.6154627341635448,0.4464615559770203,-1.1288101422898904,-0.3987686160143008,0.3950022677551701,0.2720911029281986,0.0052932540342776,0.2862956595912208,10.672288045145253,-1.238801622594747,0.1204299422548103,-0.9608079180048548
1.56,-0.8665703401289673,0.8937352281361207,1.6125774920836164,0.027009577440674,0.1543699716616657,0.0092083316876838,0.3233954295453721,-0.8857330300095642,-0.2808870662889777,-0.86144399816164,0.8950164269945614,1.6075472781290567,0.4625410786463357,-1.1688101428859368,-0.4027630350674976,0.4555368990125236,0.357624342914406,-0.0216488324605745,0.2813361401776876,10.649156128476534,-1.2353545812866105,0.1193211451594324,-0.969034870520572
1.58,-0.8600166797842625,0.8760084985674832,1.607016521287005,0.0295667273854909,0.1577492450501254,0.0094911124663968,0.3315737362217191,-0.8871202087324105,-0.2755059670464223,-0.8523539718154064,0.8720402241428031,1.5995319616182386,0.478620601315651,-1.2088101434819831,-0.4067574541206946,0.4943814164178579,0.4089153338173529,-0.0693589361423163,0.269054962127771,10.642045355123628,-1.2337324494710749,0.1172158469188926,-0.9753919065820306
1.6,-0.8532926768471591,0.8582312410835504,1.601561479033352,0.0325677423275333,0.1596192827245629,0.0097725807350729,0.3402767310935523,-0.8906287210015712,-0.270268796739588,-0.8434379929731766,0.8316524881308627,1.5932412229346835,0.3771092484902624,-0.9871202102225266,-0.2657504785613244,0.5373074792537154,0.435149743591659,-0.1754256134580356,0.2618585153417146,10.64113716204156,-1.2334432609568136,0.114822211438862,-0.9795555846188522
1.62,-0.846692037450553,0.8412033032537032,1.596606762301672,0.0333492360924016,0.1592136897675101,0.0098312476780776,0.3542329643021571,-0.9010528210432874,-0.2507459548676908,-0.8434379929731766,0.8316524881308627,1.5932412229346835,0.3771092484902624,-0.9871202102225266,-0.2657504785613244,1.3082236637973788,0.697811660430242,-0.5212050020858117,0.9761420935948588,11.732050820435688,-1.226973001457207,0.1135990549676403,-0.9811469199158956
1.64,-0.8394563841991158,0.8230962454085305,1.591810089032359,0.0311192425852221,0.1553764457165875,0.0095803917070776,0.3682761502432967,-0.9088722130343134,-0.2301008203980902,-0.8434379929731766,0.8316524881308627,1.5932412229346835,0.3771092484902624,-0.9871202102225266,-0.2657504785613244,1.3082197251939676,0.7021592970569784,-0.3909695995512996,1.0322567234800295,11.732050820435688,-1.232967965276932,0.1157334955687106,-0.9825871264898768
1.66,-0.8319757535834615,0.8048687241548322,1.5873978748340367,0.0275564972760365,0.1487609206815976,0.0091825504456289,0.3785663731897725,-0.9131646532279638,-0.2122388321618115,-0.839666900488274,0.8217812860286374,1.5905837181490703,0.386216350943971,-1.00712021052055,-0.2637993808643048,1.0528109455847243,0.5145111473237873,-0.2146220096825191,0.8930994118139357,11.594975426390192,-1.2428937553268855,0.1191482735876189,-0.97982433965166
1.68,-0.8243384167481741,0.7865900308830007,1.5833100344984616,0.0243349085383171,0.1408115663667738,0.0088149682714645,0.3843214229432319,-0.914690743169176,-0.1974005353987032,-0.8321247155184687,0.8020388818241868,1.5852687085778436,0.4044305558513883,-1.0471202111165965,-0.2598971854702656,0.7994132207493383,0.2877524876729709,-0.076304497060603,0.7419148381554149,11.387098679262635,-1.2535128198032344,0.122142140316177,-0.9751580238463514
1.7,-0.8170161993883988,0.7692102218388575,1.579677453691416,0.0221747021209302,0.1331665347518907,0.0085623782684914,0.3859877324772835,-0.9149773204980096,-0.1857068023857902,-0.8245825305486635,0.7822964776197363,1.5799536990066172,0.4226447607588056,-1.0871202117126426,-0.2559949900762265,0.590766675189881,0.0833154767025806,-0.0143288664416874,0.5846866506456466,11.19197651570812,-1.2634707288565266,0.1244174153649005,-0.9697724237826676
1.72,-0.8093081279869566,0.7509172172174073,1.5760752412753534,0.021070341573274,0.1258992172213618,0.0084218975469089,0.3845775313785291,-0.9144467483114244,-0.1752115473966113,-0.8161296353334874,0.7605540733854834,1.5748337992050927,0.4408589656662229,-1.127120212308689,-0.2520927946821873,0.5301427903687636,-0.0705100549377196,0.0265286093292682,0.5247627494589471,10.912142628169022,-1.2710027286011336,0.1255571332705764,-0.9645699934683708
1.74,-0.8016580860358895,0.7326426287386789,1.572671812322218,0.0215433316963246,0.1201338877370844,0.0084359415753043,0.3803200290536203,-0.913209570866826,-0.1656903978165871,-0.8076767401183113,0.7388116691512306,1.5697138994035682,0.4590731705736403,-1.1671202129047356,-0.2481905992881481,0.5251409891667681,-0.2128751162454423,0.0618588722299084,0.4760574790012073,10.86296277319616,-1.2764462999244857,0.1252968264401488,-0.9601714836169688
1.76,-0.7941204270179155,0.7143856168908674,1.5694526871252534,0.0236345946506621,0.1167197807762707,0.0086141218890781,0.3736284945231498,-0.912716969747557,-0.1567015721320673,-0.7987684897804497,0.7160692649020766,1.564691554486895,0.4772873754810575,-1.207120213500782,-0.244288403894109,0.5608437336323465,-0.334576726523525,0.0246300559634538,0.4494412842259931,10.86296277319616,-1.278719320389521,0.123709088122042,-0.9585400214626844
1.78,-0.7870931669301929,0.6970343416957525,1.5665594033383292,0.0266410242441774,0.1161450274837515,0.0089155774477931,0.3667853129690509,-0.914072787190726,-0.1483300744775187,-0.7894048843199027,0.6923268606380214,1.559766764455072,0.4955015803884748,-1.2471202140968285,-0.2403862085000699,0.5448608714655319,-0.3421590777049427,-0.0677908721584463,0.4185748827274266,10.8432797143505,-1.2759617033610475,0.1209523168439613,-0.962061569736246
1.8,-0.7798190320583075,0.6787180344847505,1.5636860607342946,0.0298812723926548,0.1177570105158103,0.009300628162058,0.3612435186968969,-0.9175214413594144,-0.1394519310435376,-0.7687539012817404,0.6513307023362163,1.5591428996144532,0.4339406592434268,-0.9868658089888598,-0.1566090953755629,0.5509676264637376,-0.2770897136076977,-0.1724327084344223,0.4439071716990594,10.828982305714815,-1.2706487649855809,0.1180690326867882,-0.9679380066481816
1.82,-0.772666086350409,0.6601650954114138,1.5610064620719266,0.0277698674702146,0.1218661622104533,0.0093931388182789,0.3547373312962621,-0.9358367223510556,-0.1287899710292026,-0.7687539012817404,0.6513307023362163,1.5591428996144532,0.4339406592434268,-0.9868658089888598,-0.1566090953755629,1.1084419060580395,-0.32530937003174,-0.9157640495820628,0.5330980007167474,10.837602458980657,-1.2631933860968507,0.1198792257053845,-0.9741422197167536
1.84,-0.7656171151021309,0.6413635574640851,1.558533975228228,0.0196253371017736,0.1286271484429728,0.0091181506188936,0.3509287975893949,-0.9423869385908512,-0.1190760780958056,-0.7687539012817404,0.6513307023362163,1.5591428996144532,0.4339406592434268,-0.9868658089888598,-0.1566090953755629,0.6159747919069513,-0.1904266853433617,-0.3275108119897729,0.4856946466698514,11.014466613650256,-1.2518855135464628,0.1269916631315945,-0.9839168673355712
1.86,-0.7586107556097292,0.6225180170720829,1.5562288826704571,0.0108119812534291,0.1368887987355427,0.0087769729290394,0.3502764593362352,-0.941814847434246,-0.1119565258910609,-0.7644144946893061,0.6414620442463277,1.5575768086606976,0.447371728498302,-1.0014244133484866,-0.1582648995551717,0.358611409063089,-0.0326169126579872,0.0286045578302529,0.3559776102372326,10.737931848118023,-1.2432898245045385,0.134688254198995,-0.9957324040458638
1.88,-0.7519369020818102,0.6046652931781806,1.554149560715953,0.0035753376728042,0.1451778091768593,0.0084865089492597,0.3524987583839556,-0.9377627700975744,-0.1073151408218417,-0.7557356815044376,0.6217247280665504,1.5544446267531862,0.4742338670080523,-1.03054162206774,-0.1615765079143893,0.3274919814309895,0.111114952386021,0.2026038668335839,0.2320692534609598,10.737931848118023,-1.2354583280042903,0.141986616517677,-1.0083012663692374
1.9,-0.744838305552907,0.58597549929678,1.55204050308651,-0.002311429668057,0.1536283007011611,0.0082586888638523,0.3574515524463971,-0.931710105960972,-0.103926208157971,-0.7470568683195691,0.6019874118867733,1.551312444845675,0.5010960055178028,-1.0596588307869936,-0.164888116273607,0.4261741920145953,0.2476397031220739,0.3026332068301163,0.1694466331935346,10.624827868008651,-1.2290416764868484,0.147835514827447,-1.0200692767725985
1.92,-0.7376150960212633,0.5674180525819483,1.549987571701054,-0.0063691551722215,0.1612528286408968,0.0081349251776083,0.3647531656228022,-0.9246634269105928,-0.1015948092375637,-0.737034948209213,0.5807942352710335,1.5480146825202028,0.5279581440275531,-1.0887760395062471,-0.1681997246328246,0.520587796493025,0.3650806588202576,0.3523339525189684,0.1165699460203666,10.52418122488598,-1.2242238370698215,0.1521156846527923,-1.0306837770122164
1.94,-0.730224346077017,0.5490076473454705,1.547975901132172,-0.008700065647069,0.1676484635996535,0.0081308487512326,0.3739679511868571,-0.9171933138803195,-0.0997079354557741,-0.7270130280988569,0.5596010586552935,1.5447169201947306,0.5548202825373035,-1.1178932482255006,-0.1715113329920423,0.6005729646449575,0.4607392782027431,0.3735056515136503,0.0943436890894787,10.52418122488598,-1.2212710888752474,0.1547531627626232,-1.039408491431742
1.96,-0.7230157622694179,0.5316524879540403,1.546098743131049,-0.0096721793075058,0.1723242801882957,0.0082288481513318,0.3842973893356491,-0.9102085902098844,-0.0979907627969378,-0.7163195545257571,0.5376799518215724,1.541336367660278,0.5816824210470538,-1.1470104569447543,-0.1748229413512599,0.6293495435016899,0.5164719074396001,0.3492361835217672,0.085858632941814,10.522674897048091,-1.219726958970363,0.1563444500618121,-1.0470443205383464
1.98,-0.7152067525110674,0.5135284704400859,1.5441584545314606,-0.0094476527946212,0.1756344130030529,0.0084440141515955,0.3959983929052539,-0.902668645330904,-0.0961233711409894,-0.7049545274899136,0.5150309147698698,1.537873024916845,0.6085445595568042,-1.1761276656640078,-0.1781345497104775,0.7022310960621756,0.5850501784802398,0.3769972439490232,0.0933695827974229,10.536650168461165,-1.2200883420786628,0.1567616719151466,-1.0530741421936392
2.0,-0.7071588927901572,0.4955553258700598,1.542256806420688,-0.0078383758044353,0.1773209447262654,0.0087823410378916,0.4080947588012105,-0.895156957757788,-0.0941204089339782,-0.6954068328658046,0.4683950381735406,1.539352285974411,0.4645973338737674,-0.9092857117813208,-0.0964907741713849,0.7189564932728534,0.6048182947978292,0.3755843786557911,0.1001481103505598,10.553587464499287,-1.221857702821741,0.1559273429200682,-1.0569830888631857
2.02,-0.6992276127703183,0.4783707476276364,1.5405685699181668,-0.0129422547119348,0.1761037899971308,0.0086787858627154,0.4259281185080852,-0.9095346992610164,-0.0836496858703621,-0.6954068328658046,0.4683950381735406,1.539352285974411,0.4645973338737674,-0.9092857117813208,-0.0964907741713849,1.25934924727355,0.8916679853437359,-0.7188870751614229,0.5235361531808043,10.56890374922932,-1.218327895628792,0.1609420963815457,-1.058369092833391
2.04,-0.6905304494884464,0.46018627948797,1.539003434759433,-0.0253978607062339,0.170660911146899,0.0082004409525158,0.442147902591764,-0.9070452040969194,-0.0734563474154364,-0.6954068328658046,0.4683950381735406,1.539352285974411,0.4645973338737674,-0.9092857117813208,-0.0964907741713849,0.9658974204721358,0.81098920418394,0.1244747582048566,0.5096669227462852,11.176574802707364,-1.2300821740866343,0.1737204415058787,-1.051076617287795
2.06,-0.6815670329838821,0.4421617400566982,1.5376112092880387,-0.0385207314103714,0.1626612704700095,0.0078745708092365,0.4528921664245455,-0.8953853981804817,-0.0664011893389087,-0.6907608595270669,0.4593021810557274,1.5383873782326971,0.47831712206747,-0.9106091250714043,-0.096564254777464,0.8677060775432637,0.5372131916390771,0.5829902958218836,0.3527579038263853,10.81506945395722,-1.2455790009352912,0.1873653223931762,-1.0427585634215668
2.08,-0.672904387221469,0.4253083137621429,1.5363857768777716,-0.0493096735058198,0.1543489090922298,0.0078492173254314,0.4582071436237726,-0.879647982179445,-0.0628999462041711,-0.6814689128495915,0.441116466820101,1.5364575627492696,0.5057566984548755,-0.9132559516515713,-0.0967112159896222,0.8487843490936582,0.2657488599613539,0.7868708000518365,0.1750621567368819,10.625187290798747,-1.259879903247709,0.1987426558130631,-1.0345626612597008
2.1,-0.6637205303120535,0.4079155363230698,1.5351454262102306,-0.0583100499618355,0.1461609075194317,0.0080854826773675,0.4596979990923103,-0.8607914089195654,-0.0613936164109213,-0.6721769661721162,0.4229307525844746,1.5345277472658418,0.5331962748422809,-0.915902778231738,-0.0968581772017804,0.9487650322647132,0.0745427734268833,0.9428286629939776,0.0753164896624872,10.625187290798747,-1.2729856455305253,0.2083425613876379,-1.0255539546365364
2.12,-0.6545443080955037,0.3909161747188527,1.5339163939453593,-0.0648675176071159,0.1395331137862366,0.0084952315771111,0.4576938054511196,-0.8404922278011976,-0.0616260376465388,-0.6615130406752706,0.4046126970198399,1.5325905837218063,0.5606358512296863,-0.9185496048119048,-0.0970051384139386,1.019960251503037,-0.1002096820595321,1.0149590559183908,-0.0116210617808747,10.49623155180234,-1.2837023234321046,0.2152886073927117,-1.0185014278064917
2.14,-0.6454425557698712,0.3743324310576854,1.532674591615292,-0.0691218005042539,0.1354942182563951,0.0089552964586059,0.4525647271066255,-0.8194902565042552,-0.0625011097962768,-0.650849115178425,0.3862946414552051,1.5306534201777706,0.5880754276170918,-0.9211964313920716,-0.0971520996260968,1.081845638583431,-0.2564539172247054,1.0500985648471184,-0.0437536074869022,10.405762788137508,-1.2919010416611636,0.2203893117303614,-1.013483095775859
2.16,-0.636904517601609,0.3589666422153879,1.5314789682518986,-0.0714323795247417,0.1347388425519719,0.0093284642963554,0.4468327767249642,-0.7994610972109032,-0.0633003539251738,-0.6394992002718942,0.3679104152260661,1.5287125826034311,0.6155150040044971,-0.9238432579722384,-0.097299060838255,1.042426578174542,-0.2865975190830677,1.0014579646676014,-0.0399622064448455,10.386867373717903,-1.2934223360826156,0.223620204688643,-1.0136521840885806
2.18,-0.6280163750039818,0.3432027625310312,1.530207168603988,-0.0723368602529403,0.1366019129795884,0.0096538466426636,0.4425763142797125,-0.7781381615761346,-0.0638243869726561,-0.6274632959556784,0.3494600183324231,1.5267680709987876,0.6429545803919025,-0.9264900845524052,-0.0974460220504132,1.0874967439803858,-0.2128231222625815,1.0661467817384307,-0.0262016523741179,10.384386557639118,-1.2919436282402654,0.2254254393425671,-1.0179724755238848
2.2,-0.6191906253366041,0.3278731260175093,1.5289302776204363,-0.0714114085995322,0.1402213556881626,0.0099932455447355,0.440464658850427,-0.7560894816214938,-0.0638116881185422,-0.6058875592899962,0.3042958544522245,1.5270159492553552,0.5035396059545649,-0.7459003375235623,-0.0526096519862317,1.107478597598058,-0.105582771464277,1.1024339977320383,0.0006349427056941,10.405433180744694,-1.2897310771430737,0.2256378058402308,-1.02451020680232
2.22,-0.6103351428301651,0.3128681555124256,1.5277109928256412,-0.0722286604991267,0.1434727920223532,0.0102509521154748,0.4452213383904445,-0.7447296793381705,-0.0579210526419353,-0.6058875592899962,0.3042958544522245,1.5270159492553552,0.5035396059545649,-0.7459003375235623,-0.0526096519862317,0.682588262572832,0.2378339770008758,0.567990114166167,0.2945317738303442,10.445165755936614,-1.285144916130662,0.2270776419699862,-1.0309156015633087
2.24,-0.6018319600628721,0.2988700644554462,1.5266708711170949,-0.076319196348293,0.1449371419279259,0.010391907685113,0.4494631780213838,-0.7286335919482584,-0.0519420822279366,-0.6058875592899962,0.3042958544522245,1.5270159492553552,0.5035396059545649,-0.7459003375235623,-0.0526096519862317,0.884343428665819,0.2120919815469635,0.8048043694956042,0.2989485206999393,10.788869493024322,-1.286866684613537,0.2324135900958044,-1.0354412229816894
2.26,-0.5928040277783904,0.2845190364705535,1.5256911721762405,-0.0810333614116108,0.1454421659377283,0.0106061077684059,0.4530171377632035,-0.7072985232621234,-0.0463701849221589,-0.6008521632304505,0.2968368510769889,1.5264898527354929,0.5157322642895354,-0.7394527727130479,-0.0503667049889468,1.116760745722541,0.1776979870909883,1.0667534343067495,0.2785948652888843,10.799219052864828,-1.2907479494027243,0.2384261942264386,-1.0393261815726929
2.28,-0.5837145050920273,0.2706211835252147,1.5248159682567466,-0.0848900127259861,0.1453767811660564,0.0109457707507045,0.4556974111528495,-0.6837438867222527,-0.0414368431297455,-0.5907813711113592,0.2819188443265176,1.5254376596957684,0.5401175809594764,-0.726557643092019,-0.045880810994377,1.2107256390378327,0.1340136694822996,1.1777318269935333,0.2466670896206692,10.777992624884064,-1.2954878335320303,0.2437135455609587,-1.0425572720146763
2.3000000000000003,-0.5745798555507295,0.2572077282915905,1.5240353631054244,-0.0874189967031955,0.145132692025591,0.0114123384184792,0.4576230715795684,-0.659171713998238,-0.0368429088007181,-0.580710578992268,0.2670008375760464,1.5243854666560437,0.5645028976294173,-0.7136625134709901,-0.0413949169998072,1.2535988922670382,0.0962830213359439,1.2286086362007342,0.229696716451367,10.748300864503108,-1.3001295290823682,0.2476025429171235,-1.0455066092254313
2.32,-0.5658717726639374,0.2449261015812898,1.5233784800573866,-0.0885246539074789,0.1449914452187146,0.0119532825893331,0.4589392570621451,-0.6351376088922034,-0.0325161314187653,-0.5694205210396797,0.2527275873066266,1.5235575683160476,0.5888882142993582,-0.7007673838499612,-0.0369090230052374,1.2227955215258248,0.0658092741288363,1.2017052553017329,0.2163388690976424,10.755115734576975,-1.3045559869556118,0.2504370933288134,-1.04902653059583
2.34,-0.5566814646861716,0.2324952712116412,1.522779616247587,-0.088128631723092,0.145114410414259,0.012619944459646,0.4600469725515531,-0.6093719359949509,-0.0275708331958392,-0.5581304630870912,0.2384543370372068,1.5227296699760515,0.6132735309692993,-0.6878722542289323,-0.0324231290106677,1.3129669721354025,0.0553857744703983,1.2882836448626256,0.2472649111463039,10.788300421080748,-1.308405978286388,0.2518323699432378,-1.053913168126885
2.36,-0.5474670218760392,0.2205865612582619,1.522284054553372,-0.085726565098804,0.1455180889025231,0.0134110247297328,0.4613704900821161,-0.583033033338066,-0.0222011203489086,-0.5462307722177544,0.2245034650083127,1.5220139189859196,0.6376588476392402,-0.6749771246079034,-0.0279372350160979,1.3456627622486408,0.0661758765281489,1.316945132844244,0.2684856423465316,10.788300421080748,-1.31201997301615,0.2516486274898403,-1.0613731322898454
2.38,-0.5382226148748404,0.2091882306023785,1.5219042160891922,-0.0814110763761692,0.1460624207642205,0.0143289947369036,0.4630277733935012,-0.5587836280274189,-0.0160108697284537,-0.533721448431669,0.2108749712199444,1.521410315345652,0.6620441643091811,-0.6620819949868745,-0.0234513410215281,1.254092748402484,0.0828641655692574,1.212470265532356,0.3095125310227436,10.823710000561732,-1.3160882449852098,0.2495566012242943,-1.069285246275255
2.4,-0.5294063910159728,0.1987824387359449,1.5216658679111992,-0.0766554996148565,0.1465978571959608,0.0152477076093461,0.4649173089547241,-0.538033726650776,-0.0093838390574341,-0.5150712262051653,0.1812490492010076,1.5211036726027696,0.4983140024973049,-0.5319808050799167,-0.0098088723291236,1.0932134824591309,0.0944767780611449,1.037495068832145,0.3313515335509828,10.864585093244386,-1.318977529907042,0.2466599675099021,-1.0778413175304924
2.42,-0.5200135919847281,0.1882342599973528,1.5215168952440778,-0.0715413095278347,0.1447047710779744,0.016402756098749,0.474379480526402,-0.5180431259218236,-0.0060230349849892,-0.5150712262051653,0.1812490492010076,1.5211036726027696,0.4983140024973049,-0.5319808050799167,-0.0098088723291236,1.1185390162725926,0.4731085785838917,0.9995300364476212,0.1680402036222442,10.906616103800843,-1.3187794857097903,0.2435893701615019,-1.0868421368882
2.44,-0.5104486834641893,0.1780695318837991,1.5214375124021358,-0.0666180150165536,0.138030617253019,0.0178600914386444,0.4808431554856868,-0.4995305256378471,-0.0019639279580385,-0.5150712262051653,0.1812490492010076,1.5211036726027696,0.4983140024973049,-0.5319808050799167,-0.0098088723291236,1.0012140294535046,0.3231837479642424,0.9256300141988194,0.2029553513475351,10.737143301021206,-1.3344599000666957,0.2410735654696564,-1.0843286694091407
2.46,-0.5012970577946648,0.168744020639939,1.5214432748992528,-0.0622834395701883,0.1293576732834362,0.0193338802300304,0.4817684409483595,-0.4830735919533863,0.0023904190682333,-0.5100880861801923,0.1759292411502084,1.5210055838794785,0.5053712483180657,-0.5266202404904163,-0.0085684728492575,0.8524188487876413,0.0462642731336337,0.8228466842230442,0.217717351313592,10.737143301021206,-1.35147494135583,0.2388220344770253,-1.0800470429729767
2.48,-0.4916974084484761,0.1592543570964746,1.5215392984137723,-0.0581378967167039,0.1196858175342823,0.020840255439992,0.4778157537569424,-0.4668096652984496,0.006984966057515,-0.5001218061302461,0.16528962504861,1.520809406432896,0.5194857399595871,-0.5158991113114154,-0.0060876738895255,0.8678261754335813,-0.1976343595708529,0.813196332746835,0.2297273494640867,10.739276446633994,-1.3668043407777852,0.2367334245214169,-1.073900679521155
2.5,-0.4822230185219481,0.1500800593013429,1.52172407639727,-0.054428710790611,0.1109114484858773,0.0222176081295534,0.4696564673417584,-0.4514707442424706,0.011242717269418,-0.4901555260803,0.1546500089470117,1.5206132289863137,0.5336002316011086,-0.5051779821324146,-0.0036068749297934,0.8944060869496369,-0.4079643207592021,0.7669460527989502,0.2128875605951509,10.726009411103403,-1.3791936106231075,0.2348754095866748,-1.0684619394971226
2.52,-0.47295114106075,0.1412037622620822,1.5219889456670437,-0.0511315707641341,0.1041790980665339,0.023418155867663,0.4579199113244276,-0.4369360972156211,0.0150256618935796,-0.4794835214482779,0.1445464493043634,1.5205410914877175,0.54771472324263,-0.4944568529534137,-0.0011260759700614,0.9530390618601629,-0.5868278008665406,0.7267323513424712,0.189147231208077,10.701405094351683,-1.3884236237574523,0.2334689120969905,-1.0664362212871
2.54,-0.4643901687662679,0.1330335544701412,1.5223062999293129,-0.0483464574232331,0.100657130431478,0.0243640080322352,0.4438287266272284,-0.4238131985141519,0.0181827832393909,-0.4688115168162556,0.1344428896617151,1.520468953989122,0.5618292148841515,-0.4837357237744129,0.0013547229896706,0.9756271978729628,-0.7045592348599583,0.6561449350734605,0.1578560672905669,10.68376780157996,-1.39411186203264,0.23211518821289,-1.0669327136799889
2.56,-0.4556750028259466,0.1246981312516592,1.5227033477222285,-0.0457113255166281,0.1006046494559046,0.0251493236391377,0.4288740146055035,-0.4104454122788883,0.0213438491723249,-0.4577866498931954,0.1246073582485418,1.5204588364645193,0.575943706525673,-0.473014594595412,0.0038355219494026,1.0152997812429356,-0.747735601086244,0.668389311763179,0.1580532966467011,10.674554355777218,-1.3911239348919342,0.2305194701786616,-1.0710660218710804
2.58,-0.4472378683225452,0.1166262105105103,1.5231643942335045,-0.0432956668610523,0.1035068884266629,0.0257800740446872,0.4159383247340582,-0.397451492902014,0.0246018167710646,-0.4464089206790972,0.1150398550648436,1.52051073891391,0.5900581981671944,-0.4622934654164112,0.0063163209091347,0.931112729610869,-0.6467844935722666,0.6496959688437165,0.1628983799369847,10.659660126795645,-1.3854980790161953,0.2290820548032694,-1.0786541141656407
2.6,-0.4390335319040964,0.1088102606387519,1.5236940051999748,-0.0410474649432454,0.108385378485215,0.0263150815075781,0.4054891782676866,-0.3848281909126806,0.0281768236767881,-0.4264409520858422,0.0967536358654096,1.5243944850720577,0.4399847811753414,-0.3493417454325888,0.0354857366657599,0.8386195343622235,-0.5224573233185814,0.6311650994666684,0.1787503452861735,10.659660126795645,-1.3785665026236804,0.2278646924560123,-1.0884604435104193
2.62,-0.4313622689521996,0.1015467513325306,1.5242843610994623,-0.041307712957823,0.1127217309452675,0.0266689289324904,0.4025906007131869,-0.3798044953742556,0.0338450491454281,-0.4264409520858422,0.0967536358654096,1.5243944850720577,0.4399847811753414,-0.3493417454325888,0.0354857366657599,0.4054875111072502,-0.144928877724984,0.2511847769212538,0.2834112734320018,10.677168947547216,-1.36667976147802,0.2282562040862826,-1.0939772725955703
2.64,-0.423739990149848,0.0944020520718046,1.5249848813156617,-0.0452747205611736,0.1152508604984538,0.0268320480366051,0.3997695482467732,-0.3716995351799003,0.0395352125532532,-0.4264409520858422,0.0967536358654096,1.5243944850720577,0.4399847811753414,-0.3493417454325888,0.0354857366657599,0.5148462789466743,-0.1410526233206865,0.4052480097177652,0.2845081703912549,10.81657995061596,-1.3651528750030153,0.2332601969529141,-1.1026574548430397
