t,x,y,z,roll,pitch,yaw,v_x,v_y,v_z,ref_x,ref_y,ref_z,ref_v_x,ref_v_y,ref_v_z,a_com,a_x,a_y,a_z,thrust,wind_x,wind_y,wind_z
0.0,-0.3470548024388397,0.8269530109086115,2.0212317252042813,0.0118323244548456,0.136347001010304,0.0257815282331967,0.0042300447799592,-0.0055994078575967,0.0020989592621259,-0.346926336472345,0.8267127322443798,2.0212950215972034,0.0016252606542748,-0.107373066671105,-0.0978922702385216,0.3662385738157587,0.2115022389979607,-0.279970392879835,0.1049479631062996,10.543367783348003,-1.285163355355848,0.1642806438048875,-1.163339840893709
0.02,-0.3470330455674305,0.8271151797060105,2.021052853586859,0.0189493562272314,0.1369727669732612,0.0262909316627387,-0.0020276772693697,0.0177929436181957,-0.021084925595249,-0.346926336472345,0.8267127322443798,2.0212950215972034,0.0016252606542748,-0.107373066671105,-0.0978922702385216,1.6761963711732049,-0.3128861024664466,1.1696175737896206,-1.1591942428687514,10.543367783348003,-1.3077127447371135,0.1595303373463804,-1.179370873243879
0.04,-0.3471349590319467,0.8274966400783818,2.020377638116062,0.0330022103455625,0.1388122666942364,0.0273037560563818,-0.0081199497281467,0.0204458252734386,-0.0486774854548242,-0.346926336472345,0.8267127322443798,2.0212950215972034,0.0016252606542748,-0.107373066671105,-0.0978922702385216,1.419069170612325,-0.3046136229388529,0.1326440827621486,-1.379627992978762,9.151782714086494,-1.3058237852473529,0.1436641483631792,-1.1616746273319818
0.06,-0.3473524629380471,0.8278673417719155,2.019101583409171,0.0484806031026836,0.1417692687913901,0.0284628302620631,-0.0131097700739061,0.0161056235273238,-0.0774358176779193,-0.3469100838658023,0.8256390015776688,2.0203160988948183,0.0010964643111419,-0.1273730669691282,-0.1178922705365448,1.4754468226047996,-0.2494910172879678,-0.2170100873057436,-1.4379166111547526,8.935469825199107,-1.299230905617591,0.1272572001484908,-1.1449467366133008
0.08,-0.3476531120564554,0.8281110261410001,2.0172613173980136,0.0634368477862748,0.1453837916641176,0.0296402873368395,-0.0165212010954152,0.0081605942207731,-0.1051488326407809,-0.3468775786527168,0.8234915402442466,2.018358253490048,3.8871624876268135e-05,-0.1673730675651747,-0.1578922711325913,1.4515272565717223,-0.1705715510754534,-0.3972514653275308,-1.3856507481430789,8.996945047082136,-1.292218285768622,0.1126103069019663,-1.1317411032764977
0.1,-0.3479865702030071,0.8281679626571667,2.0150087155031886,0.0769916999930488,0.1490880753974799,0.0307554457129221,-0.0182825970083111,-0.0020316601929743,-0.1305808179063707,-0.3468450734396313,0.8213440789108245,2.016400408085277,-0.0010187210613894,-0.2073730681612212,-0.1978922717286377,1.3727440039440164,-0.0880697956447977,-0.5096127206873778,-1.27159926327949,8.996945047082136,-1.2848099498240664,0.0983565137796226,-1.1180756235831504
0.12,-0.3483591338551359,0.8279922304725612,2.0121205634898383,0.0905686542026424,0.1529807279721499,0.0319052511802326,-0.0187566569618692,-0.0152959320832375,-0.156875519114581,-0.3468654478608591,0.8171966175476001,2.0124425626507048,-0.0020763137476551,-0.2473730687572676,-0.2378922723246842,1.4727329639546456,-0.0237029976779063,-0.6632135945131608,-1.3147350604105184,9.04207373297504,-1.277996465069986,0.0852792578708927,-1.1043657407769318
0.14,-0.3487289400967716,0.8275258175067115,2.0087038296130064,0.103461353908297,0.1566453838627682,0.0330062762223403,-0.0181165510232578,-0.0309503589543228,-0.1835113856524678,-0.3468858222820869,0.8130491561843757,2.008484717216132,-0.0031339064339208,-0.2873730693533141,-0.2778922729207307,1.5451053382366189,0.0320052969305725,-0.7827213435542639,-1.3317933268943385,9.064839027014386,-1.2734446063329918,0.0731608710925374,-1.0943894871424853
0.16,-0.3490748498502977,0.8267222621424721,2.0047521898798832,0.1156978770592685,0.159904593402836,0.0340307612236407,-0.016465646125913,-0.0488792191347907,-0.2103246206031406,-0.3469326365204713,0.8079016948062501,2.003526871766658,-0.0041914991201865,-0.3273730699493605,-0.3178922735167771,1.614867705781826,0.0825452448672388,-0.8964430090233928,-1.340661747533639,9.043778549148556,-1.2698167433729357,0.0624926938647189,-1.0846829481870237
0.18,-0.349364946493,0.8256060903127285,2.000501337270463,0.1267399863433092,0.162524533330804,0.0349099398087693,-0.014140481640661,-0.0679284553824705,-0.2357965956146189,-0.3470058905760124,0.8017542334132234,1.997569026302283,-0.0052490918064522,-0.3673730705454069,-0.3578922741128235,1.594601284403698,0.1162582242625981,-0.9524618123839892,-1.2735987505739148,9.040119808353666,-1.266920855834986,0.0521119101277283,-1.0739771808158851
0.2,-0.3496170652780457,0.8240193481965589,1.995502304202684,0.1377765055469994,0.1647505873987707,0.0357193480471828,-0.0111758306076621,-0.089976448068177,-0.2627763647538424,-0.3500719705750331,0.8222096675436049,1.988711507489732,0.0016735451770183,-0.1679284568725866,-0.3357965971047351,1.7484357866549087,0.1482325516499482,-1.1023996342853282,-1.348988456961174,9.044542055889906,-1.2651247972464836,0.0425547785449326,-1.0627988256915046
0.22,-0.3498040444197451,0.8217975219143584,1.9901071100662773,0.1433640717192612,0.167443455251557,0.0361989665647037,-0.0073864036480391,-0.1290368223219728,-0.2742771355090027,-0.3500719705750331,0.8222096675436049,1.988711507489732,0.0016735451770183,-0.1679284568725866,-0.3357965971047351,2.0447128902927063,0.1894713479811487,-1.95301871268979,-0.5750385377580131,9.038288230995022,-1.2522087585190076,0.03824223721835,-1.045339808096822
0.24,-0.3499017918874317,0.8188684782440588,1.9845014570692063,0.1427244683161701,0.171349423758817,0.0363960361571744,-0.0023563537055967,-0.1612210995449946,-0.2857149444871888,-0.3500719705750331,0.8222096675436049,1.988711507489732,0.0016735451770183,-0.1679284568725866,-0.3357965971047351,1.7262333105733858,0.2515024971221213,-1.6092138611510902,-0.5718904489093068,10.083574177741866,-1.246906954878343,0.0389223754938811,-1.0430792231902546
0.26,-0.3498869550333635,0.8155264622307429,1.978938840672481,0.1390955802220253,0.175521615311166,0.0364114330601997,0.0037781606740448,-0.1881831455480314,-0.2991368627636179,-0.3500552351232629,0.820530382974879,1.9853535415186847,0.0048363505405541,-0.1879284571706098,-0.3557965974027583,1.536824714763401,0.3067257189820813,-1.348102300151839,-0.6710959138214567,9.91552847765888,-1.2418834480693874,0.0425728291289409,-1.043264033480807
0.28,-0.3497342649280184,0.8115079110037615,1.972786352150404,0.1341889926837239,0.1798207005253576,0.0363058964186101,0.0112470924178881,-0.2120314522903066,-0.3154990617670565,-0.3500217642197225,0.8171718138374273,1.97863760957659,0.0111619612676259,-0.2279284577666563,-0.3957965979988047,1.4935262234858508,0.3734465871921641,-1.1924153371137571,-0.8181099501719302,9.737856636316792,-1.2385571272021896,0.0475021318077996,-1.0423229257973614
0.3,-0.3494232966563338,0.8070405201201477,1.9662837151676769,0.1293843642714384,0.1836530978255525,0.036112882048463,0.0195146905429344,-0.2334548712550985,-0.3340271307466743,-0.3499882933161822,0.8138132446999756,1.9719216776344957,0.0174875719946977,-0.2679284583627027,-0.4357965985948512,1.4753011548593615,0.4133799062523111,-1.0711709482395957,-0.9264034489808864,9.580116119052946,-1.2358687881223134,0.0523409946567973,-1.0401076471888089
0.32,-0.348941136416905,0.8021629935982353,1.9593888156659376,0.1251112689033606,0.1867906523131345,0.035840104867769,0.0282819014676422,-0.2532976618208585,-0.3545201316766333,-0.3496385418762882,0.8084546755327215,1.9632057456625984,0.0238131827217694,-0.3079284589587491,-0.4757965991908976,1.492115454606508,0.438360546235391,-0.9921395282880024,-1.0246500464979518,9.452728784765895,-1.2334158569001608,0.0563264377908783,-1.0375010207655764
0.34,-0.3483168826801603,0.7971719824433502,1.9524508632412103,0.1216634309852547,0.1890654588736806,0.0355154118954963,0.0369648345978158,-0.2711867565529153,-0.3747586233903622,-0.3492887904363942,0.8030961063654675,1.9544898136907012,0.0301387934488412,-0.3479284595547957,-0.5157965997869441,1.4186345414889667,0.4341466565086831,-0.8944547366028399,-1.0119245856864467,9.346903435796776,-1.231809303193634,0.0599420296024508,-1.0330102380107578
0.36,-0.3474791845437431,0.7915504502906403,1.944724728609076,0.1184428956790156,0.1907147219769955,0.0350950304328529,0.0463158285256723,-0.2899665834248177,-0.3967993629963735,-0.3487808987283235,0.7967375371833123,1.9447738817039035,0.036464404175913,-0.3879284601508421,-0.5557966003829905,1.5214443689775723,0.4675496963928244,-0.9389913435951164,-1.1020369803005607,9.298858007473427,-1.2312026471518176,0.0631215543280205,-1.0273192997491316
0.38,-0.3464533961806855,0.7855559674900316,1.9365523057009268,0.115334357826485,0.1916136480171346,0.034580370625436,0.0557465529982099,-0.308436461902307,-0.4193309364620606,-0.348114866752076,0.7893789679862558,1.934057949702204,0.0427900149029847,-0.4279284607468885,-0.595796600979037,1.5311325692847426,0.4715362236268797,-0.923493923874466,-1.1265786732843563,9.253782121773838,-1.2307568438524352,0.0658913466477346,-1.0215010331241634
0.4,-0.3452400988408037,0.7791976147197223,1.9279236888881863,0.112207559564517,0.1918059997551526,0.0339734460669364,0.0650295057251735,-0.3263446709480417,-0.4423593238892668,-0.3436660685307749,0.7701341443949163,1.915585758877824,0.076127927282835,-0.4084364633924231,-0.4935895545188347,1.5306728831254943,0.4641476363481795,-0.8954104522867379,-1.1514193713603098,9.186037850746288,-1.2312722911181455,0.0687646868394172,-1.014712330886939
0.42,-0.3438676163837744,0.7728017484737343,1.9195475928577237,0.10911854226122,0.1914431354123607,0.0333219053968328,0.0792107288033577,-0.3460037904426574,-0.4367159971426051,-0.3436660685307749,0.7701341443949163,1.915585758877824,0.076127927282835,-0.4084364633924231,-0.4935895545188347,1.2444227618321555,0.7090611539092067,-0.9829559747307842,0.282166337333084,9.186037850746288,-1.223796613979584,0.0715071013736534,-0.9993883451482992
0.44,-0.3421304436734239,0.7656843930164368,1.9108699353509917,0.1061121740919262,0.1905589270412492,0.0325961333718701,0.093611946034088,-0.3647175524765736,-0.431741793445649,-0.3436660685307749,0.7701341443949163,1.915585758877824,0.076127927282835,-0.4084364633924231,-0.4935895545188347,1.2065888380135346,0.7200608615365179,-0.9356881016958112,0.2487101848478029,10.999031146463494,-1.2281143970056492,0.0738549774531888,-0.9986586906853075
0.46,-0.3401152876587842,0.7582008503443805,1.9022396535376696,0.1035492736762847,0.1890671598035422,0.0318362941727739,0.1071026109456677,-0.3826779001900275,-0.4317228448486088,-0.3429047892579466,0.7660497797609921,1.9106498633326356,0.08020420213976,-0.4284364636904463,-0.5084412781301896,1.1231345520395428,0.6745332455789843,-0.8980173856726947,0.0009474298520134,10.691671305718046,-1.2314490812695025,0.0754966154713287,-0.998611904291946
0.48,-0.3379593245261992,0.7507669779068475,1.89399827355993,0.1014007098224687,0.1868320735322114,0.0310507313679677,0.1190867644353017,-0.3989556605638694,-0.4357487181113532,-0.3413822307122899,0.7578810504931437,1.9007780722422587,0.08835675185361,-0.4684364642864927,-0.5381447253528991,1.0305254402233388,0.5992076744816999,-0.813888018692091,-0.2012936631372225,10.167694617978668,-1.2356505666406004,0.0770242103498791,-0.9959229988395006
0.5,-0.3354550191969935,0.7426159959726115,1.8852096899807569,0.0994490532059407,0.1834640456761612,0.0301455934935839,0.1305822967942096,-0.4153038101405724,-0.443014039992019,-0.3398596721666332,0.7497123212252952,1.890906281151882,0.09650930156746,-0.5084364648825392,-0.5678481725756088,1.06324287068693,0.5747766179453946,-0.8174074788351499,-0.3632660940332877,10.167694617978668,-1.24098061974451,0.0783081315582888,-0.9909619230844964
0.52,-0.3327352240775809,0.7341440293792163,1.8762482437229275,0.0978311662727172,0.1790287804900098,0.0291622907825304,0.1406643214509919,-0.431067460168042,-0.4528415168193656,-0.337929486135284,0.7395435919276444,1.87954931770037,0.10466185128131,-0.5484364654785857,-0.5975516197983185,1.056786620090054,0.5041012328391159,-0.78818250137348,-0.4913738413673318,9.980527046865973,-1.246854279173783,0.0792620822488263,-0.984188324192674
0.54,-0.3298320418031286,0.7253629339860231,1.867078395088478,0.0966371901581205,0.1737012040057396,0.0281265760764133,0.1488888934458801,-0.4462905662188797,-0.463595343242618,-0.3359993001039348,0.7293748626299936,1.8681923542488577,0.1128144009951601,-0.5884364660746322,-0.6272550670210282,1.018615880834863,0.4112285997444093,-0.7611553025418882,-0.53769132116262,9.828326658933292,-1.2532804396308086,0.0799357150870201,-0.9742374936520312
0.56,-0.3269425780925023,0.7167327086623043,1.858162082775224,0.0956950672853683,0.1683004822404513,0.0271276900276434,0.1546996770445918,-0.4613023030724886,-0.4743834658061194,-0.3338653003297394,0.7182061333174417,1.8560928046167775,0.1209669507090101,-0.6284364666706785,-0.6569585142437377,0.9688924577038748,0.2905391799355838,-0.7505868426804424,-0.5394061281750684,9.77134478482276,-1.2592658463621011,0.0803518271002818,-0.9634629181015784
0.58,-0.3238021310537586,0.7073388414310744,1.848547689986547,0.0945855726417675,0.1627104074288819,0.0260829752002815,0.158887334373825,-0.4772159662542336,-0.4864978374851009,-0.3315274868126976,0.7060374039899885,1.84325066880413,0.1291195004228601,-0.668436467266725,-0.6866619614664474,1.021688738003922,0.2093828664616631,-0.7956831590872515,-0.6057185839490775,9.724277131901545,-1.2645027728129656,0.0808143230608588,-0.9527869076804576
0.6,-0.3205972000886373,0.6976246708949038,1.8386823832523869,0.0931038986693506,0.1575800846221715,0.0250644655425104,0.1612498700594233,-0.4932980509192363,-0.499432230734085,-0.3158577643350674,0.6834780431183627,1.824222798112292,0.1620485856859468,-0.5772159677443498,-0.5054600140017531,1.0386452122325076,0.1181267842799121,-0.804104233250133,-0.646719662449205,9.664464482778383,-1.2688864140692295,0.081576988188804,-0.9424126943800148
0.62,-0.3172629966266577,0.687519895989412,1.8288963217633116,0.0897499454211037,0.1519776951553733,0.0238887422470868,0.1721121966354185,-0.5155903309046266,-0.4766012135376579,-0.3158577643350674,0.6834780431183627,1.824222798112292,0.1620485856859468,-0.5772159677443498,-0.5054600140017531,1.6853717926722835,0.54311632879976,-1.1146139992695148,1.1415508598213553,9.607397247845256,-1.2595719813342372,0.0832695913964747,-0.9212774113574798
0.64,-0.3139111361800349,0.6775476344581789,1.820054455347088,0.0851495717652008,0.1454171792458241,0.0225979804847138,0.1798188556405517,-0.5327165137739612,-0.4554145486361601,-0.3158577643350674,0.6834780431183627,1.824222798112292,0.1620485856859468,-0.5772159677443498,-0.5054600140017531,1.4156036718867089,0.3853329502566602,-0.8563091434667325,1.059333245074892,11.969142312857912,-1.2670188531204702,0.08627226280919,-0.9194084276355344
0.66,-0.3102614290636126,0.6667312994356984,1.8111338210924637,0.0802715158285237,0.1379750352935903,0.0212412898108783,0.1844322472061793,-0.5479114985436299,-0.4379698530950747,-0.3142372784782079,0.6777058834409192,1.8191681979722745,0.1626808359483711,-0.597215968042373,-0.5092524493050835,1.1795002611375602,0.2306695782813825,-0.7597492384834315,0.8722347770542677,11.621005605229584,-1.2745029949142856,0.0893752367426152,-0.915763136692082
0.68,-0.3065551282050714,0.6556312328334497,1.802512246096995,0.0758447084523321,0.1305576473615115,0.019969708004462,0.1857234180400671,-0.5613076445264888,-0.4252373392445851,-0.310996306764489,0.6661615640860322,1.8090589976922395,0.1639453364732198,-0.6372159686384194,-0.5168373199117444,0.9263378949784756,0.0645585416943858,-0.6698072991429493,0.6366256925244812,10.980598920192278,-1.281408808967807,0.0921698089963103,-0.9107260873189574
0.7000000000000001,-0.3028553801612443,0.6442786252723643,1.7940995077787725,0.0720480837576148,0.1236748363440466,0.0188286467364012,0.1840775307634166,-0.5733625638810765,-0.4166435194147856,-0.3077553350507701,0.6546172447311452,1.7989497974122042,0.1652098369980685,-0.6772159692344659,-0.5244221905184052,0.7447881659238889,-0.0822943638325232,-0.6027459677293845,0.4296909914899754,10.741703262705414,-1.286905200182534,0.094383764081647,-0.9053773240283268
0.72,-0.2993954474540339,0.6332799619873705,1.78623667863443,0.0690608781586186,0.1180153120278525,0.0178863026087374,0.1801247616213156,-0.583890628265259,-0.411442491547028,-0.3044511383108087,0.6410729253464559,1.788461353601836,0.1664743375229172,-0.7172159698305124,-0.532007061125066,0.6195062841679386,-0.1976384571050496,-0.5264032192091206,0.2600513933878778,10.741703262705414,-1.291395347341814,0.0962379071113629,-0.8996289497084298
0.74,-0.2958558634954698,0.6214933996057346,1.7780564166590505,0.0665930087016885,0.1134535703225258,0.0170660703985654,0.173902773672914,-0.594305251054305,-0.406894385703947,-0.3011469415708473,0.6275286059617666,1.777972909791468,0.1677388380477659,-0.7572159704265589,-0.5395919317317269,0.6478093250101443,-0.3110993974200782,-0.5207311394523018,0.2274052921540537,10.556156564208322,-1.2935837196844562,0.0975385886044611,-0.8943840977546629
0.76,-0.2924621813384059,0.6094942822742365,1.769957589653398,0.0645266017044961,0.1109579994961687,0.0164320888366423,0.1657588650460588,-0.6050329376190298,-0.4032085503396145,-0.2978111323177647,0.6129842865621761,1.7672948442159335,0.1690033385726146,-0.7972159710226052,-0.5471768023383877,0.6981974811729625,-0.4071954313427633,-0.536384328236239,0.1842917682166212,10.505136991037034,-1.2935522839180205,0.0984805860161855,-0.8916086531718185
0.78,-0.2893932385555986,0.5978975176003987,1.7623244711395136,0.062633302832959,0.110798094728905,0.0159913060125073,0.15799204015458,-0.6150527543721891,-0.400464534428575,-0.2944437105515609,0.5974399671476844,1.7564271568752323,0.1702678390974633,-0.8372159716186517,-0.5547616729450486,0.6485559343299241,-0.3883412445739378,-0.5009908376579664,0.1372007955519755,10.46328297500986,-1.2889904442304532,0.099236172885783,-0.8927544219655752
0.8,-0.286308208553193,0.5854899248234418,1.7543382821726694,0.0606566414686787,0.1123647737704348,0.0156475297929381,0.1511240632599426,-0.6251035788356822,-0.3983364498799224,-0.2814936365478696,0.5671448798817892,1.7423012444180848,0.1668427254753746,-0.68733786264045,-0.4030363761304402,0.6178934432154145,-0.3433988447318722,-0.5025412231746573,0.1064042274326326,10.410726292116124,-1.2835422690224434,0.1000790813824925,-0.89585037566869
0.8200000000000001,-0.2833286758879112,0.5727722413598643,1.7465551861128432,0.0553548741257715,0.115257889246489,0.0151581726097945,0.1474979467258063,-0.6443052996184064,-0.3790894796528334,-0.2814936365478696,0.5671448798817892,1.7423012444180848,0.1668427254753746,-0.68733786264045,-0.4030363761304402,1.3714049958521428,-0.1813058267068124,-0.9600860391362098,0.9623485113544468,10.362999407361713,-1.2662087308228416,0.1026555048556979,-0.8979304002290638
0.84,-0.2805476067296457,0.560421915646958,1.7395281313514803,0.0474748294067214,0.1188356130022425,0.0145372669247413,0.1455870437122971,-0.6543008359122202,-0.3616623366341667,-0.2814936365478696,0.5671448798817892,1.7423012444180848,0.1668427254753746,-0.68733786264045,-0.4030363761304402,1.0090436188800898,-0.095545150675462,-0.4997768146906889,0.8713571509333357,11.321785524146437,-1.2596713833690656,0.1086171880832257,-0.9083761133316428
0.86,-0.2776455716096779,0.547272479849102,1.7324542897463475,0.0391883636470977,0.1228854734078045,0.0138874451653607,0.1448455866034984,-0.6600107092747602,-0.3468226992586095,-0.2798252092931159,0.5602715012553847,1.7382708806567804,0.1686128625395335,-0.7017948842941022,-0.4035507444708133,0.7958756967932663,-0.0370728554399346,-0.2854936681270015,0.7419818687778607,11.321785524146437,-1.2549034185244632,0.1149298035363628,-0.9180115990525298
0.88,-0.274746606066212,0.5340416234898163,1.7256406798609414,0.0319162261994193,0.1267845801285775,0.0132935083275728,0.1451708970141091,-0.6628568370050244,-0.3354384163581724,-0.2764883547836084,0.5465247440025757,1.7302101531341716,0.1721531366678513,-0.7307089276014066,-0.4045794811515593,0.586958616678839,0.0162655205305381,-0.1423063865132079,0.5692141450218541,11.094109407968062,-1.2514051238621733,0.1206337756816581,-0.9262743584047618
0.9,-0.2718317393859842,0.5207758634779636,1.7190225025123191,0.0260322598194068,0.130217330561558,0.012778602629657,0.1463338706220522,-0.6638500937612171,-0.3269604909745517,-0.2731515002741009,0.5327779867497667,1.7221494256115628,0.1756934107961692,-0.759622970908711,-0.4056082178323054,0.4307385674824532,0.0581486803971506,-0.0496628378096331,0.4238962691810344,10.89727535197744,-1.249044396331405,0.1251131639357983,-0.9326766149563068
0.92,-0.2690349359532026,0.5081664736032321,1.7128723647977824,0.0217400539435382,0.1328889538195882,0.0123681274273345,0.1480057880071969,-0.6636880829284991,-0.3208591231345655,-0.2696376320581775,0.5175855273315925,1.7140372612549166,0.179233684924487,-0.7885370142160154,-0.4066369545130515,0.316418412752345,0.0835958692572386,0.008100541635897,0.3050683919993108,10.7473208745605,-1.2473355718327404,0.1287743100500157,-0.9379458784123942
0.94,-0.2660516907499234,0.4949028995798051,1.7065157741782215,0.0184948585705804,0.1350164820719703,0.0120190794604043,0.1502273093292345,-0.6628896369694897,-0.3151562470945063,-0.2661237638422541,0.5023930679134183,1.7059250968982709,0.1827739590528048,-0.8174510575233198,-0.4076656911937976,0.3086076313946563,0.1110760661018783,0.0399222979504731,0.2851438020029628,10.605882793987805,-1.245940940950667,0.1313509065060624,-0.9419183720691712
0.96,-0.2630202334759626,0.4816532527524464,1.7002672831598864,0.0162383073638382,0.1364238776095575,0.0117384992459971,0.1527790544243311,-0.662229323266282,-0.3100025927900615,-0.2625213887731228,0.4864777574125614,1.6977872141246058,0.1863142331811227,-0.8463651008306241,-0.4086944278745437,0.2894286177398284,0.1275872547548281,0.0330156851603813,0.2576827152222377,10.58093158016618,-1.2453008414855882,0.1331304863071962,-0.944941371628662
0.98,-0.2599361980067503,0.4684184513389711,1.6941165420670992,0.0146802897720586,0.1371174014295066,0.0115097067621173,0.1554264952181408,-0.6613851481786824,-0.3053299209373175,-0.2588305068507835,0.469839595829022,1.6896236129339224,0.1898545073094405,-0.8752791441379285,-0.4097231645552897,0.2718245600505865,0.1323720396904884,0.0422087543799798,0.2336335926372001,10.58093158016618,-1.2454001300813948,0.1342987927025391,-0.9469333654240976
1.0,-0.2569585135746215,0.4558641966527616,1.6883557889448848,0.0138091808728144,0.1371854916480096,0.0113402016363674,0.1578140243155052,-0.6602232889555386,-0.3012978258632157,-0.2521648732458433,0.4353491939300369,1.6788500460202334,0.1746902749626467,-0.6936447763553716,-0.2814261282133042,0.2413918118524409,0.1193764548682169,0.0580929611571912,0.2016047537050896,10.55851692885244,-1.246154791185896,0.1350128354461552,-0.9482080826622774
1.02,-0.2537580522799721,0.4425306675473017,1.682515470738388,0.0090111646005316,0.1368335453062872,0.0109034799239437,0.1621622776512273,-0.6709138018594297,-0.2821569579989763,-0.2521648732458433,0.4353491939300369,1.6788500460202334,0.1746902749626467,-0.6936447763553716,-0.2814261282133042,1.1175499942017737,0.2174126667861042,-0.5345256451945557,0.9570433932119704,10.535931098704168,-1.2363804643006002,0.1383531697253285,-0.94869152276306
1.04,-0.2504712228778583,0.4290996628208309,1.6770737094246468,0.0003810434002583,0.1362053939068671,0.0102289900429274,0.1662259510298825,-0.6710827379705016,-0.2631624856363259,-0.2521648732458433,0.4353491939300369,1.6788500460202334,0.1746902749626467,-0.6936447763553716,-0.2814261282133042,0.9712517195267988,0.2031836689327645,-0.0084468055535913,0.9497236181325196,11.550380181145556,-1.2373218477913497,0.145827039302663,-0.9529102283842104
1.06,-0.2471106273081919,0.4157304372879598,1.671982806322234,-0.0082391506568171,0.1353388456549932,0.009593553093405,0.1695605951136949,-0.6657865845887394,-0.2470098827696094,-0.2504179704962168,0.4284127461664832,1.6760357847381002,0.1785430309115479,-0.7000967019907094,-0.2766453696685015,0.8661346188363475,0.1667322041906171,0.2648076690881074,0.807630143335826,11.410804764741442,-1.2395848371940417,0.1531318854891458,-0.9566468465603126
1.08,-0.243863703678063,0.4031611059169016,1.6674196250525437,-0.0151782793072468,0.1343618008519916,0.0091143599530846,0.1720106666967376,-0.6578561708183986,-0.2341283810360631,-0.2469241649969639,0.4145398506393758,1.6704072621738342,0.1862485428093502,-0.7130005532613851,-0.2670838525788962,0.7662039549659714,0.1225035791521347,0.396520688517038,0.6440750866773121,11.098560519704732,-1.2424422134224968,0.15983601337642,-0.9602154612640916
1.1,-0.2404024317180506,0.3901091858408786,1.662864141778036,-0.0208660247555428,0.1332668463669875,0.0087588526896344,0.173936604730171,-0.647989046217426,-0.222167206227053,-0.2434303594977109,0.4006669551122683,1.664778739609568,0.1939540547071526,-0.7259044045320607,-0.2575223354892909,0.7812475408144398,0.0962969016716691,0.4933562300486305,0.5980587404505091,11.098560519704732,-1.2452047277179508,0.1651529659145613,-0.9631479465759988
1.12,-0.2369092562155063,0.377267313604185,1.6585323984118592,-0.0248303761103151,0.1321959082713957,0.0085546108179022,0.1752585040740704,-0.6371212696903724,-0.2115972378051466,-0.2395512784035679,0.3861488670216271,1.6596282928997823,0.201659566604955,-0.7388082558027363,-0.2479608183996855,0.7608879959584663,0.0660949671949739,0.5433888263526809,0.5284984210953164,11.009259294592084,-1.2478590066505633,0.168846170712445,-0.9655239830368187
1.14,-0.2335700179501144,0.3652730591771765,1.6546103556134026,-0.0271612127891085,0.1312628835733591,0.0084833125737084,0.1761598259682011,-0.6263577464156981,-0.2017725984855514,-0.2356721973094248,0.3716307789309859,1.6544778461899965,0.2093650785027573,-0.7517121070734121,-0.2383993013100802,0.7300502588887829,0.0450660947065334,0.5381761637337168,0.4912319659797604,10.938637425238994,-1.2500022641433122,0.171430807816082,-0.968068784438328
1.16,-0.2300386649548748,0.3528670118370708,1.6506839132912008,-0.0283436429062318,0.1303874013395992,0.0085157059825507,0.1769073646875512,-0.6149381721324577,-0.1913876586050349,-0.2316004784178367,0.3567900945585778,1.6495664374074508,0.2170705904005596,-0.7646159583440877,-0.2288377842204748,0.7726779200762032,0.0373769359675049,0.5709787141620182,0.5192469940258265,10.93345629981104,-1.2518944917234822,0.1729168767548023,-0.9712651449128026
1.18,-0.2264944217984294,0.340694549800953,1.6469649001895017,-0.0281179351896648,0.1296059486509732,0.0086617582661289,0.1774599927883026,-0.603018736771326,-0.1810354940026453,-0.2273361217288035,0.3416268139044028,1.6448940665521452,0.224776102298362,-0.7775198096147634,-0.2192762671308695,0.789850696494131,0.0276314050375675,0.5959717680565857,0.5176082301194803,10.94183628673636,-1.2537386881688233,0.1732025018532658,-0.9748447963621192
1.2,-0.222940952694271,0.3287635993351435,1.6434531525900504,-0.0261997226941906,0.1289039955930813,0.0089369434944844,0.177842129366744,-0.590927302496274,-0.1706567104212927,-0.2176214221590143,0.3105436129623867,1.6379131254893693,0.1841209790143546,-0.5992316781329172,-0.1669261283605745,0.7969754698562533,0.0191068289220733,0.6045717137525997,0.5189391790676275,10.944907341789076,-1.255430419338913,0.1721104239465975,-0.9786711002207936
1.22,-0.2195403220067475,0.3175128536900876,1.6402947111876875,-0.0270598943075369,0.1276574957822911,0.0090380660550858,0.1800926449316147,-0.5930888779171257,-0.162448824928576,-0.2176214221590143,0.3105436129623867,1.6379131254893693,0.1841209790143546,-0.5992316781329172,-0.1669261283605745,0.4390518559045895,0.1125257782435357,-0.1080787710425856,0.4103942746358377,10.82923741853483,-1.25679943459463,0.1732458569082625,-0.9821784157168654
1.24,-0.2159188363169175,0.3056918872725856,1.6371308890268732,-0.0330270051543413,0.1249559623297376,0.008862062102381,0.181785726071439,-0.5877680721297955,-0.1543845158269469,-0.2176214221590143,0.3105436129623867,1.6379131254893693,0.1841209790143546,-0.5992316781329172,-0.1669261283605745,0.4904349581216971,0.0846540569912138,0.2660402893665092,0.4032154550814529,10.82923741853483,-1.259800045093297,0.1790017293214992,-0.9814233495017316
1.26,-0.2122783276721034,0.2940529213258743,1.6341192690798236,-0.0398757106713877,0.1211110542052814,0.0087147588427743,0.1820157377190852,-0.5762902891893915,-0.147215660236437,-0.2157802123688708,0.3045512961810576,1.6362438642057635,0.185453176259565,-0.5984742664052355,-0.1641042552321604,0.676729076260707,0.011500582382308,0.5738891470202012,0.358442779525496,10.75188530225023,-1.2654432334078394,0.1856667363143369,-0.9786187978004914
1.28,-0.2086536802920639,0.2826810317346763,1.6312413824441132,-0.0458169368770933,0.116569565742315,0.0087164071474271,0.1802807982015044,-0.5617341368042823,-0.1409124115097509,-0.2120977927885837,0.2925666626183992,1.6329053416385522,0.1881175707499858,-0.5969594429498719,-0.1584605089753321,0.7978448030454501,-0.0867469758790373,0.7278076192554606,0.3151624363343028,10.709711955003511,-1.2719736385813725,0.191319824363645,-0.974969872110528
1.3,-0.2052638101882681,0.2721637491190111,1.628618856991794,-0.0501263942837755,0.1121769204451621,0.0088633405935689,0.1765085720727724,-0.5464224084704011,-0.1354380437994753,-0.2084153732082966,0.2805820290557408,1.6295668190713406,0.1907819652404067,-0.5954446194945084,-0.1528167627185037,0.8346367718417643,-0.1886113064366007,0.7655864166940585,0.2737183855137826,10.709711955003511,-1.2787970008919491,0.1960604053180228,-0.9709364072345272
1.32,-0.2017958069959845,0.2614126023770048,1.6259685763525749,-0.0532591037970916,0.108182796776323,0.009124832621778,0.1703259144924219,-0.5297500652794115,-0.1298727042456595,-0.2045997339034884,0.2686731366658507,1.6265104838169706,0.1934463597308275,-0.593929796039145,-0.1471730164616754,0.9316186003178442,-0.3091328790175263,0.8336171595494823,0.2782669776907914,10.68398373232867,-1.2844346164130307,0.1995123333445293,-0.967749876696002
1.34,-0.1984757061548198,0.2510015609785425,1.623427237265426,-0.0549772818372566,0.1056734218658449,0.009435357364432,0.1619418723361494,-0.5125368278397989,-0.1245256892476335,-0.2007840945986803,0.2567642442759605,1.6234541485626004,0.1961107542212483,-0.5924149725837814,-0.1415292702048471,0.993954570666773,-0.4192021078136237,0.860661871980628,0.2673507499012954,10.678408247137668,-1.2881739573233804,0.2016526239692315,-0.966763451752364
1.36,-0.1953342489076404,0.2409399434051481,1.6209919512722997,-0.0552151648317551,0.1052483631839254,0.0097540252029091,0.1529313034132685,-0.4947462301332266,-0.1192691905447964,-0.1969018454316116,0.2448932224724544,1.620538906964651,0.1987751487116691,-0.5909001491284179,-0.1358855239480188,1.0311722669903538,-0.4505284461440467,0.8895298853286132,0.2628249351418553,10.675777161555745,-1.2874195328489542,0.2025887230337099,-0.969600482499341
1.38,-0.1925068975903274,0.2317153015538798,1.6187764073720938,-0.0537802021074532,0.1064537290229296,0.0100970450106619,0.1453354398746406,-0.4774188078040229,-0.1142048913121728,-0.1929529864022825,0.2330600712553324,1.6177647590231223,0.2014395432020899,-0.5893853256730543,-0.1302417776911905,0.9792648188687224,-0.379793176931395,0.866371116460185,0.2532149616311839,10.672048389004884,-1.285074633074806,0.2019720308226589,-0.9748937578974656
1.4,-0.1896724515894886,0.2223538534796075,1.616551245430359,-0.0504232436202691,0.1088613061551535,0.010539850719556,0.1386917056292266,-0.4601918503360046,-0.1085433260897817,-0.1852401255965954,0.2078443611636786,1.6130661628064853,0.1585351063896333,-0.4542188826048719,-0.1048188268274573,0.965609378962304,-0.3321867122706989,0.8613478734009167,0.2830782611195515,10.6796975318357,-1.281893017775768,0.1996683228389761,-0.9817684394548746
1.42,-0.1869609756291302,0.2132344377560856,1.6144306855381594,-0.0484211243528508,0.1120689860873483,0.0108644525154029,0.1329383100855796,-0.4518609706656635,-0.1039279198578358,-0.1852401255965954,0.2078443611636786,1.6130661628064853,0.1585351063896333,-0.4542188826048719,-0.1048188268274573,0.5563431743295787,-0.2876697771823519,0.4165439835170537,0.2307703115972947,10.698078001569227,-1.278349237232872,0.1985169319483826,-0.988656785613259
1.44,-0.1844788194348388,0.2047459671076511,1.6124990189329325,-0.0490795189043172,0.1155985150717443,0.0109829589918765,0.1287656221202554,-0.4418408885353904,-0.0996542365924691,-0.1852401255965954,0.2078443611636786,1.6130661628064853,0.1585351063896333,-0.4542188826048719,-0.1048188268274573,0.5832618181529973,-0.2086343982662081,0.5010041065136583,0.2136841632683343,10.608756667305896,-1.2738960960160184,0.1996761888153092,-0.9953345152958822
1.46,-0.1819371072580388,0.1960351215278404,1.6105531369714428,-0.0512882836751555,0.1194484960929202,0.011003383818376,0.1257493299152347,-0.4296665505155455,-0.0951720933424065,-0.183654774532699,0.2033021723376299,1.6120179745382108,0.1611750396926319,-0.4495788975650417,-0.1029416139305142,0.6659619602529709,-0.1508146102510363,0.6087169009922455,0.2241071625031301,10.623269185488423,-1.2698848369575657,0.2023460165283657,-1.0022556753813023
1.48,-0.1794425202737402,0.1875925766526878,1.60869517469165,-0.0541480999853771,0.1231345171695988,0.010992350891277,0.1239457103468245,-0.4150385994249649,-0.0908713385946572,-0.1804840724049064,0.1942177946855325,1.6099215980016617,0.1664549062986289,-0.4402989274853813,-0.099187188136628,0.767669342973028,-0.0901809784205093,0.7313975545290258,0.2150377373874662,10.633267418223111,-1.2670191290586972,0.2057224320496672,-1.0089115889731346
1.5,-0.1769728585338551,0.1794654842288362,1.6069214104454326,-0.0565541984886498,0.1264327134949057,0.011040133572842,0.123149516884622,-0.3985958343826641,-0.0867254731371761,-0.1773133702771137,0.185133417033435,1.6078252214651123,0.171734772904626,-0.4310189574057209,-0.0954327623427418,0.8488030493835131,-0.0398096731101235,0.8221382521150428,0.2072932728740567,10.642082004291296,-1.2653216350768377,0.2086272131675431,-1.0147344804577298
1.52,-0.1746337470584083,0.1720589290735271,1.6053128711081197,-0.0580340017172342,0.1290907938537731,0.0111765229935755,0.1231219531137746,-0.3820686764259154,-0.0828016017270656,-0.1738786748190212,0.1765130378853206,1.6059165662182575,0.1770146395106231,-0.4217389873260604,-0.0916783365488557,0.8493298486628529,-0.0013781885423731,0.826357897837432,0.1961935705055255,10.642082004291296,-1.264522725253903,0.2109865713460904,-1.0203374517342243
1.54,-0.1721666687314582,0.1646071707565706,1.6037006087473304,-0.0585218421840271,0.1313455605092031,0.0114365475223018,0.1235995174143112,-0.3640789047167023,-0.0786276173609146,-0.1704439793609287,0.1678926587372062,1.604007910971403,0.1822945061166202,-0.4124590172464,-0.0879239107549695,0.9236911000161584,0.0238782150268325,0.899488585460656,0.2086992183075474,10.65292941855023,-1.2646772414681091,0.2123935112088645,-1.0255045311048323
1.56,-0.1696851589121809,0.1575246942601992,1.6021725546150096,-0.0574846807086434,0.1330203703010072,0.0118481441024592,0.1244982776602399,-0.3453297497970312,-0.07437942859278,-0.1668772872376862,0.1595042788410833,1.6021931163693952,0.1875743727226173,-0.4031790471667396,-0.0841694849610833,0.9622703466167865,0.0449380122964374,0.937457745983558,0.2124094384067291,10.665644943120242,-1.2656499681526934,0.2124494037781599,-1.0305820325308408
1.58,-0.1671832932472409,0.1508176143494383,1.6007312852456668,-0.0545989239888637,0.1341308485427039,0.0124310532792577,0.1256067692874224,-0.3267762264339734,-0.069940194048171,-0.1631785984492939,0.1513478981969519,1.6004721824122348,0.1928542393286144,-0.3938990770870792,-0.0804150591671971,0.9554695000536544,0.055424581359123,0.9276761681528856,0.2219617272304512,10.67884026030606,-1.2671049189409116,0.2109868476520783,-1.036073678798625
1.6,-0.1647850279542531,0.1447659556604318,1.599447859587381,-0.0506895794735428,0.1347125918183212,0.01309815242175,0.1267473490862313,-0.311511257918447,-0.065368756611889,-0.1609029547828698,0.1344788030277396,1.5972342755432585,0.1482912297932656,-0.312709795693915,-0.0653110640386092,0.7987775445818842,0.0570289899404427,0.7632484257763222,0.2285718718141031,10.694324162973317,-1.2692055270793825,0.2083094115149538,-1.0420321632703182
1.62,-0.1622467083390993,0.1386974136905916,1.598172689094521,-0.0459120214622627,0.1350826953946839,0.013861764669176,0.1270048284474521,-0.2965191189392688,-0.062473342883048,-0.1609029547828698,0.1344788030277396,1.5972342755432585,0.1482912297932656,-0.312709795693915,-0.0653110640386092,0.7635671998154628,0.0128739680610431,0.7496069489589113,0.1447706864420493,10.71254206078538,-1.2729955574967726,0.205257945749117,-1.047836876333844
1.64,-0.1597055955729991,0.1329026555913546,1.5969557307776077,-0.0409168662710066,0.1354921415556038,0.0146392065248521,0.1271209202881778,-0.2838383190929497,-0.0593629926260595,-0.1609029547828698,0.1344788030277396,1.5972342755432585,0.1482912297932656,-0.312709795693915,-0.0653110640386092,0.6528599405290461,0.005804592036282,0.6340399923159518,0.1555175128494207,10.613629482798387,-1.2748518684947217,0.2015516776096112,-1.0528990248057757
1.66,-0.1572885952027005,0.1276175046301825,1.595860223481428,-0.036437233838152,0.1359687710589338,0.0153553636600859,0.1273124335866595,-0.2731798714355961,-0.0561027668496383,-0.1594200424849371,0.1313517050708004,1.596581164902872,0.1528281218944342,-0.3098965095459033,-0.0643852380366969,0.5573783632356121,0.0095756649240885,0.5329223828676816,0.1630112888210622,10.613629482798387,-1.276315721532452,0.198057494990769,-1.058179770568781
1.68,-0.1547393098568895,0.1222609906692781,1.59477670267592,-0.0321799239747572,0.1365749061087729,0.0160730124926058,0.1276306550128475,-0.2630548845895409,-0.0524221068168966,-0.1564542178890718,0.1250975091569221,1.5952749436221,0.1619019060967715,-0.30426993724988,-0.0625335860328722,0.5388967474978368,0.0159110713093962,0.5062493423027614,0.1840330016370867,10.634949613513529,-1.2774744356091563,0.1949572718043751,-1.0634762640524684
1.7,-0.1521819627684974,0.1170979654645182,1.5937681999989617,-0.0284215230393848,0.1372796882607551,0.0167522166902892,0.128114088869417,-0.253763610360833,-0.0486179262062002,-0.1534883932932065,0.1188433132430438,1.5939687223413277,0.1709756902991087,-0.2986433649538566,-0.0606819340290475,0.502576549406973,0.0241716928284771,0.4645637114353951,0.1902090305348207,10.662894402923484,-1.278284391287489,0.1924080573504067,-1.0684750201559905
1.72,-0.1497417846206212,0.112358105729121,1.5928813597720308,-0.025302659671691,0.1380213228648054,0.0173633609139215,0.1287468840604202,-0.2456037616357353,-0.0449371954163628,-0.1500688794872243,0.1128704459439667,1.5927550836607467,0.180049474501446,-0.2930167926578332,-0.0588302820252227,0.448696278448715,0.0316397595501602,0.4079924362548809,0.1840365394918677,10.662894402923484,-1.2790034598492013,0.1901442065351652,-1.0736825129477272
1.74,-0.1471583443800781,0.1075306175158758,1.5920229069132203,-0.0224472600479412,0.138854432507116,0.0179747779257528,0.1295886950990399,-0.2375706934904593,-0.0411134047517787,-0.1466493656812421,0.1068975786448896,1.5915414449801657,0.1891232587037833,-0.2873902203618099,-0.056978630021398,0.4468226849040656,0.0420905519309816,0.4016534072638023,0.1911895332292055,10.670794330838362,-1.2796983780725932,0.1882794997842196,-1.0787905291867472
1.76,-0.1445548791056448,0.1028594403163672,1.59123980649857,-0.019960771928236,0.1396803546019036,0.0185594965838433,0.1307279727850777,-0.2299420382442397,-0.0373994436457562,-0.1430030072702015,0.101065375653213,1.5903740975996803,0.1981970429061205,-0.2817636480657865,-0.0551269780175733,0.4280415914622827,0.0569638843018929,0.3814327623109806,0.1856980553011238,10.672427277292629,-1.2803056931630616,0.1868140430526275,-1.0834945982865218
1.78,-0.1420580901794648,0.09855947874522,1.5905637153032626,-0.0178629556157301,0.1403827726466218,0.0190966426599177,0.132035432704591,-0.2230665938630098,-0.0339625453061703,-0.1391298042541025,0.095373836968937,1.5892530415192907,0.2072708271084578,-0.2761370757697631,-0.0532753260137486,0.3898507954242464,0.0653729959756627,0.3437722190614931,0.171844916979294,10.67091304726364,-1.2810983747892477,0.1855226497293493,-1.0881727631267326
1.8,-0.1394014593695896,0.0941705247431151,1.5899219456939293,-0.0158917991998569,0.1409938722563219,0.0196455735813319,0.1335597620083195,-0.2162036282177032,-0.0304035254078297,-0.1354563185442353,0.0874061490520695,1.588865588037954,0.1362958325490884,-0.2098449583798045,-0.039488921728665,0.3939876264289579,0.076216465186428,0.343148282265332,0.1779509949170336,10.670136937742429,-1.2820633689151817,0.1844532123808157,-1.0925713289109549
1.82,-0.1366683295874681,0.0899000861151654,1.5893298489750896,-0.0146387605276909,0.1399841813417927,0.0201660347766676,0.1397090576142915,-0.2110594059447794,-0.0290901710645402,-0.1354563185442353,0.0874061490520695,1.588865588037954,0.1362958325490884,-0.2098449583798045,-0.039488921728665,0.4062073327560351,0.3074647802985983,0.2572111136461913,0.0656677171644713,10.671387236481678,-1.2800719548445436,0.1837213928030371,-1.0941674251050115
1.84,-0.1339591790267613,0.0859393159808159,1.588785540109309,-0.0144158651205095,0.1359520006326941,0.0206346706644757,0.1448133583265045,-0.206047745862662,-0.0282387637460952,-0.1354563185442353,0.0874061490520695,1.588865588037954,0.1362958325490884,-0.2098449583798045,-0.039488921728665,0.3601927156443079,0.2552150356106522,0.2505830041058657,0.0425703659222519,10.538781430276686,-1.290299687688223,0.1846979104063552,-1.0933972247878136
1.86,-0.1310388591932036,0.0818759682922885,1.58822917992391,-0.0150026271308484,0.1293987012179026,0.0211046970044619,0.1465136255987822,-0.2005148671047076,-0.0274276963741796,-0.1340933602187444,0.0853076994682714,1.5884706988206674,0.1371479125179879,-0.2072006312831635,-0.0405941970131639,0.2922391419248443,0.0850133636138839,0.2766439378977206,0.0405533685957771,10.505465234406984,-1.303326862745263,0.1865360558767197,-1.0892839526132436
1.88,-0.1281274682908584,0.0779280272894577,1.5876869038656056,-0.0162569049806193,0.1219920372445983,0.0215487319825749,0.144258915452012,-0.194521726941258,-0.0268410317642758,-0.1313674435677627,0.0811108003006753,1.5876809203860942,0.1388520724557869,-0.2019119770898813,-0.0428047475821618,0.3215028080328986,-0.1127355073385114,0.2996570081724825,0.0293332304951914,10.505465234406984,-1.3148739913758012,0.188831366398194,-1.0831773795449693
1.9,-0.1252990259250733,0.0741075717840788,1.58715243933048,-0.0179229500264583,0.1149681379156889,0.0219709318574074,0.1386111486600116,-0.1878206367329693,-0.0266227825679112,-0.1286415269167809,0.0769139011330792,1.5868911419515208,0.1405562323935859,-0.1966233228965992,-0.0450152981511596,0.4383192684224534,-0.2823883396000176,0.3350545104144328,0.0109124598182326,10.483401266605142,-1.32349391203014,0.1912109742862857,-1.0769895830897724
1.92,-0.1227445233977676,0.0706104886041739,1.5866452945553813,-0.0196039420931058,0.1094755277362211,0.0223570480856541,0.1305012947001709,-0.1806468587789775,-0.0267661424732327,-0.1258304022689092,0.0729814346751473,1.5859908359884975,0.1422603923313848,-0.1913346687033171,-0.0472258487201575,0.5414179841988463,-0.4054926979920353,0.3586888976995911,-0.0071679952660792,10.441520404377115,-1.3305235152681183,0.1937419792963717,-1.0714324573123784
1.94,-0.120248113429186,0.06708521774427,1.586104712714176,-0.0211436569183517,0.1058105802428961,0.022748012957467,0.1194409127945297,-0.1722876900561165,-0.0273006737419271,-0.1230192776210375,0.0690489682172153,1.5850905300254745,0.1439645522691838,-0.1860460145100349,-0.0494363992891554,0.6937100859024368,-0.5530190952820618,0.4179584361430524,-0.0267265634347181,10.441520404377115,-1.3344736615823862,0.19594365569717,-1.0679062914619586
1.96,-0.1179906373934034,0.0637360335015905,1.5855498641973125,-0.0221043744312968,0.1051134803132432,0.0231206513638359,0.1071973212311547,-0.1630908975600337,-0.0281709039102189,-0.1201655489747208,0.0652487181141153,1.5841349602982262,0.1456687122069828,-0.1807573603167528,-0.0516469498581532,0.7668830209565132,-0.6121795781687471,0.459839624804137,-0.0435115084145915,10.427697635212098,-1.3318060497680375,0.1972580376287156,-1.0673670137335465
1.98,-0.1159648500489558,0.0605788812958984,1.5849751620948158,-0.0221074341660466,0.1070660968410234,0.0235005554832473,0.0963575114628711,-0.1532210045089876,-0.0292559692546752,-0.1172692163299591,0.0615806843658475,1.583124126806753,0.1473728721447817,-0.1754687061234707,-0.0538575004271511,0.7350061759152217,-0.5419904884141832,0.4934946525523079,-0.0542532672228115,10.406213260798722,-1.3266218012286408,0.1976261775277835,-1.0700379795744572
2.0,-0.1142220534787479,0.0577650323441896,1.5844084248019958,-0.0210043731888818,0.1105982383860853,0.0239001820453898,0.0879015192460713,-0.1436102666071446,-0.0303504829432162,-0.1111469744758123,0.052917831070449,1.583512363632082,0.0949845296463409,-0.1406912895446574,-0.0289506044149425,0.6423940527489785,-0.4227996108399884,0.4805368950921485,-0.0547256844270512,10.392133204770287,-1.31967351006723,0.196906410020006,-1.0753099985804997
2.02,-0.112510537297256,0.0549989027440077,1.583828480307671,-0.0185803446115232,0.1146123035118427,0.0244037066936793,0.0838427537692502,-0.1336890608828114,-0.0273935648981193,-0.1111469744758123,0.052917831070449,1.583512363632082,0.0949845296463409,-0.1406912895446574,-0.0289506044149425,0.5559839578301631,-0.2029382738410565,0.496060286216661,0.1478459022548449,10.387183330908556,-1.3084719661967985,0.1945669065848799,-1.0806206606715436
2.04,-0.1108657051097285,0.0524106503249626,1.5833121399564605,-0.0153422149491314,0.117821951688022,0.024981409226864,0.080831745996497,-0.1258601290478581,-0.0244234383395482,-0.1111469744758123,0.052917831070449,1.583512363632082,0.0949845296463409,-0.1406912895446574,-0.0289506044149425,0.4449157034142939,-0.1505503886376567,0.3914465917476656,0.1485063279285528,10.645616306387636,-1.305862417597312,0.192296764056041,-1.0882580228828718
2.06,-0.1093539610682254,0.0500799282933802,1.5828718072034382,-0.0122899384563071,0.1201755819270941,0.0255393947075737,0.0784348291634554,-0.1198879165517997,-0.0220870729770571,-0.1101971291793489,0.0515109181750024,1.5832228575879326,0.0947099332830348,-0.1381853465517913,-0.028889531446996,0.3423124870262633,-0.1198458416520831,0.2986106248029175,0.1168182681245561,10.625037895108107,-1.3038960838024714,0.1898714145260767,-1.0951282918940852
