t,x,y,z,roll,pitch,yaw,v_x,v_y,v_z,ref_x,ref_y,ref_z,ref_v_x,ref_v_y,ref_v_z,a_com,a_x,a_y,a_z,thrust,wind_x,wind_y,wind_z
0.0,-0.4681262778848009,0.7554086443320331,2.732482702769371,0.0228914083736513,0.1366605701342338,0.0264916028354831,0.0062577231034444,-0.0025616467811569,0.026207551579093,-0.4679368888393583,0.7554357256777455,2.7333026625968144,-0.0177464940211607,-0.0999810033130926,-0.0736100345136378,1.3532894114357223,0.3128861551722209,-0.1280823390578497,1.3103775789546537,10.559591133002868,-1.2857690183885704,0.1527462064265438,-1.1831073000792256
0.02,-0.4680124513966304,0.7555988500945698,2.732793752437669,0.0301225447276304,0.1358249569985579,0.0269576847292002,0.0050780343078256,0.0175954102713762,0.0038029553705984,-0.4679368888393583,0.7554357256777455,2.7333026625968144,-0.0177464940211607,-0.0999810033130926,-0.0736100345136378,1.5080322824290606,-0.0589844397809374,1.007852852626663,-1.1202298104247308,10.559985730886185,-1.3040190902241109,0.1463115382274487,-1.1954101380806863
0.04,-0.4679284331630858,0.7559705629475681,2.7325750562550484,0.0444855606848244,0.133136160996531,0.0278140803903126,0.0032949797129807,0.0177729901185535,-0.0243866807982059,-0.4679368888393583,0.7554357256777455,2.7333026625968144,-0.0177464940211607,-0.0999810033130926,-0.0736100345136378,1.4123264544890866,-0.0891527297422453,0.0088789923588657,-1.4094818084402194,9.003238365994548,-1.3090201890037376,0.1317305267718196,-1.1749799915140322
0.06,-0.467893082672694,0.7562526077602831,2.731847047890656,0.0586282435919675,0.1291604874924177,0.0285179994469271,0.0004058009751099,0.0116094505775391,-0.0507905337040042,-0.4681143537795699,0.7544359156446147,2.732566562251678,-0.0225249093583656,-0.1199810036111159,-0.093610034811661,1.3633598403613447,-0.1444589368935423,-0.3081769770507201,-1.320192645289913,9.003238365994548,-1.3133123830824294,0.1161455353055416,-1.1498297314510928
0.08,-0.4679349395800374,0.7563859435608283,2.730545582544607,0.0729698189239744,0.1241581458633673,0.0290677869791972,-0.004650053460363,0.0017236891007838,-0.0779110058963494,-0.4684692836599931,0.7524362955783528,2.7310943615614054,-0.0320817400327755,-0.1599810042071623,-0.1336100354077075,1.4652729745543682,-0.2527927217736472,-0.4942880738377687,-1.356023609617261,9.016528450558326,-1.3178349422454447,0.1016793398236544,-1.123949605847893
0.1,-0.4681027488590799,0.7562913602452713,2.728710735090837,0.0866074177679407,0.1192816397809429,0.0294671042629089,-0.0119534259309001,-0.0109840616866699,-0.1041940975005614,-0.4688242135404163,0.7504366755120909,2.7296221608711324,-0.0416385707071853,-0.1999810048032088,-0.1736100360037539,1.504681929673866,-0.3651686235268535,-0.6353875393726872,-1.3141545802105985,9.063064147094792,-1.320228020088911,0.0889180454359861,-1.101033875827432
0.12,-0.4684170759547398,0.7559415456101966,2.7264860225623706,0.0989263584894036,0.1155685632206603,0.0297896863427971,-0.0208184451747299,-0.0254474314159262,-0.1286544134544773,-0.46965698495456,0.7464370554160268,2.7261499601510573,-0.0511954013815952,-0.2399810053992552,-0.2136100365998003,1.4883587325339598,-0.4432509621914942,-0.7231684864628178,-1.2230157976957972,9.063064147094792,-1.3204536821651165,0.0766042137292244,-1.0773065839869482
0.14,-0.4689482231379652,0.7552527017949074,2.723637270267948,0.1112667874511438,0.1134494485760132,0.03018865680852,-0.0318933013120012,-0.0429401899664312,-0.154951293080765,-0.4704897563687037,0.7424374353199625,2.722677759430982,-0.0607522320560051,-0.2799810059953017,-0.2536100371958468,1.6734507150249325,-0.5537428068635649,-0.874637927525248,-1.3148439813143828,9.081274086915071,-1.317759046467299,0.0654041142900532,-1.0550127479427258
0.16,-0.4697074097174286,0.7541907001034281,2.7202592767786475,0.1230097195059566,0.1137153658911442,0.0307650653987074,-0.0431324737881799,-0.0626275445472851,-0.1815496909362577,-0.4715614485497076,0.7374378152089972,2.718205558696006,-0.070309062730415,-0.3199810065913481,-0.2936100377918932,1.7474164478027556,-0.5619586238089326,-0.9843677290426962,-1.329919892774635,9.041508950511345,-1.31010771569823,0.0546975687533231,-1.0394414126353986
0.18,-0.470675960246649,0.7527043877157422,2.7163455968362884,0.1339034540838409,0.1159342782477302,0.0315042348876574,-0.0528681376267986,-0.0850529215447262,-0.2084718994604624,-0.4728720614975719,0.7314381950831308,2.7127333579461284,-0.0798658934048248,-0.3599810071873945,-0.3336100383879397,1.8183000272759644,-0.4867831919309357,-1.1212688498720516,-1.3461104262102384,9.018532939463512,-1.3017253488638312,0.0455429627314658,-1.0277373363816364
0.2,-0.4717590941470136,0.7508403975968676,2.7121251531431123,0.1427315148868172,0.1192508924246113,0.0322612092569484,-0.0604543191589805,-0.1096331157475359,-0.2343742169889934,-0.4733193671279889,0.7484517416385059,2.7059220018632653,-0.0593313435342924,-0.1850529230348423,-0.3084719009505786,1.8252850124267597,-0.379309076609096,-1.2290097101404849,-1.2951158764265502,9.00616571727278,-1.2916493170180985,0.0376956761752026,-1.0160593415157104
0.22,-0.4730496099063312,0.7482144157578893,2.707304156670508,0.1461971278539066,0.1246895095834234,0.0329330996857033,-0.0677123427204436,-0.149916210134289,-0.245225844879901,-0.4733193671279889,0.7484517416385059,2.7059220018632653,-0.0593313435342924,-0.1850529230348423,-0.3084719009505786,2.117288612396487,-0.362901178073155,-2.014154719337655,-0.54258139454538,9.001168144912299,-1.2706180558108222,0.03504962272417,-1.002977167473288
0.24,-0.4744524041434023,0.7448549977305573,2.702287433638364,0.1432827296176115,0.1324489579663111,0.0334773934905682,-0.0718035947781442,-0.1830922514963413,-0.2560234427856628,-0.4733193671279889,0.7484517416385059,2.7059220018632653,-0.0593313435342924,-0.1850529230348423,-0.3084719009505786,1.7563998579414908,-0.2045626028850299,-1.6588020681026148,-0.5398798952880896,10.08977524841248,-1.2580900589331558,0.0372715135522154,-1.0067531357075403
0.26,-0.4758293989169067,0.741111993122051,2.6972925341203564,0.1380367569797211,0.1407199684737382,0.03390484944273,-0.0726872641756428,-0.208745074183319,-0.2691426015175708,-0.4739126805633318,0.7466012124081575,2.70283728285376,-0.0606239847157912,-0.2050529233328655,-0.3284719012486018,1.441319282156622,-0.0441834698749303,-1.2826411343488855,-0.6559579365953999,9.895109459274863,-1.2460248729018573,0.0421502444388015,-1.01226008107581
0.28,-0.4772688827165249,0.736693019919641,2.691737884183248,0.1321408172302245,0.1493369197504482,0.0342571339014652,-0.0710118453297633,-0.2316624256118733,-0.2857708243062073,-0.4750993074340177,0.7429001539474607,2.696667844834748,-0.0632092670787887,-0.245052923928912,-0.3684719018446482,1.4181941139328555,0.0837709422939744,-1.1458675714277151,-0.8314111394318258,9.692084971467011,-1.2360537388627335,0.0476168563693358,-1.0171086129094822
0.3,-0.4786514594438061,0.7318422997873859,2.6858224059449505,0.1267187255840426,0.1571589250581712,0.0344808680384439,-0.0672138048360047,-0.2522478712816441,-0.3050585873541678,-0.4762859343047035,0.7391990954867638,2.6904984068157365,-0.0657945494417863,-0.2850529245249584,-0.4084719024406947,1.4232036821987102,0.1899020246879317,-1.0292722834885415,-0.964388152398024,9.513528092890738,-1.2284003561899668,0.0528834824823781,-1.0193657983803146
0.32,-0.4799407471446638,0.7265982899470891,2.679495700278943,0.1220609391656103,0.1637329095287076,0.0345539904885725,-0.0618965495583919,-0.2712444438350266,-0.3266434660392824,-0.4776018252935393,0.7334980369962646,2.6823289687669227,-0.0683798318047838,-0.3250529251210048,-0.4484719030367411,1.4620618662648488,0.26586276388064,-0.9498286276691248,-1.0792439342557305,9.370499570484752,-1.223460119705828,0.0573649784208389,-1.0189433059061672
0.34,-0.4810562158568455,0.7212746886948656,2.673075624384308,0.1183870937974108,0.1686609746762932,0.0344833519217924,-0.0558250929623915,-0.2883246861611599,-0.3480733772000917,-0.478917716282375,0.7277969785057654,2.6741595307181085,-0.0709651141677813,-0.3650529257170514,-0.4884719036327876,1.4034229186855338,0.3035728298000206,-0.8540121163066627,-1.071495558040464,9.204475373273452,-1.220148602130125,0.0613899323167008,-1.0159386608250216
0.36,-0.4820999380377871,0.7153195969627237,2.6658692751123,0.1150344510844955,0.1724699736669522,0.0342578306387722,-0.0488998651219627,-0.3062495266004216,-0.3714504485680914,-0.4802982393302857,0.7210959200003652,2.664990092654393,-0.0735503965307789,-0.4050529263130978,-0.5284719042288339,1.5130648954682964,0.3462613920214387,-0.8962420219630868,-1.1688535683999857,9.204475373273452,-1.2184508089851578,0.0648321082227717,-1.0113597099041132
0.38,-0.4830019735448876,0.7090087246057639,2.6581892335208286,0.1118850130652991,0.1749685276461527,0.0338779351784797,-0.0417073739966156,-0.3238583539316248,-0.3953792665177166,-0.4817433944372712,0.7133948614800636,2.654820654575777,-0.0761356788937764,-0.4450529269091442,-0.5684719048248804,1.528390539942776,0.3596245562673583,-0.8804413665601585,-1.1964408974812573,9.124883410340772,-1.2173533636851668,0.067878018165572,-1.0060075515197058
0.4,-0.4837600978471588,0.7023509698289142,2.650024767532455,0.1087945511672076,0.176299191969694,0.0333592470396217,-0.0345664466885049,-0.3409336047917981,-0.4198285517638027,-0.4850873422447184,0.6928158069091827,2.638420270194943,-0.0223335193743707,-0.4238583554217409,-0.4953792680078327,1.5332356177395343,0.3570463654055309,-0.8537625430086626,-1.222464262304307,9.124883410340772,-1.2172041707481471,0.0706014674381268,-1.000041691471208
0.42,-0.4843544998187303,0.695699950606329,2.6420408102884743,0.1062008168287577,0.1781188182835713,0.0329423134007477,-0.0279775455620611,-0.3584103340541672,-0.4194113009900118,-0.4850873422447184,0.6928158069091827,2.638420270194943,-0.0223335193743707,-0.4238583554217409,-0.4953792680078327,0.9341089095662672,0.3294450563221923,-0.8738364631184575,0.0208625386895477,9.089992436871398,-1.2086256242023583,0.072579567746446,-0.9924901599183228
0.44,-0.4848340679544601,0.6883565673463119,2.6336223106385703,0.1043041568464769,0.1817162303447036,0.0327312941235969,-0.0201233701316872,-0.3751435837549574,-0.4228294785024986,-0.4850873422447184,0.6928158069091827,2.638420270194943,-0.0223335193743707,-0.4238583554217409,-0.4953792680078327,0.9399117707888248,0.3927087715186954,-0.8366624850395077,-0.1709088756243426,10.175077115393831,-1.2083685282299037,0.0741127519040329,-0.9948884020635318
0.46,-0.4851420501573899,0.6806822521531982,2.625075817009974,0.1032478618171456,0.1861359893582898,0.0326544864393716,-0.0108953082368665,-0.391513269618137,-0.4316443447131806,-0.4853106774384622,0.6885772233549653,2.6334664775148644,-0.0184587484499218,-0.4438583557197642,-0.5153792683058559,1.037816949064293,0.4614030947410337,-0.8184842931589803,-0.4407433105341002,10.175077115393831,-1.205792652944975,0.0747025568020317,-0.9987524671433864
0.48,-0.4852512754626009,0.6730932619236355,2.6167555579300847,0.1028555214607416,0.1903580832218362,0.0326180271212777,-0.0009909271911827,-0.4065519051652448,-0.4437317965645554,-0.4857573478259496,0.6801000562465305,2.623558892154708,-0.0107092066010238,-0.4838583563158106,-0.5553792689019024,1.0843936269594872,0.4952190522841903,-0.7519317773553913,-0.6043725925687415,9.697901093551993,-1.2025855308201747,0.0747403808162172,-1.002314778639096
0.5,-0.485154297599066,0.6648020453032787,2.6077186644014887,0.10315655273729,0.1943585417540742,0.0325766175935525,0.0102060758406156,-0.42181810007708,-0.4594569387303182,-0.486204018213437,0.6716228891380956,2.613651306794551,-0.0029596647521259,-0.5238583569118571,-0.5953792694979488,1.2305584912080525,0.5598501515899219,-0.7633097455917615,-0.7862571082881353,9.697901093551993,-1.2003132096318787,0.0741936939458303,-1.0045488604397057
0.52,-0.4848268810967244,0.6562074312015207,2.5983412867917792,0.1042661841928759,0.1976349473285337,0.0325111151516705,0.0219760740994872,-0.4369389470539265,-0.4775838734539269,-0.4862632115084795,0.6611457219998585,2.601743721404592,0.004789877096772,-0.5638583575079036,-0.6353792700939953,1.3188618528725995,0.5884999129435764,-0.7560423488423257,-0.9063467361804356,9.415672421035197,-1.198962260666524,0.0729534320750449,-1.0052395043796751
0.54,-0.4842580766421078,0.6473083468053513,2.588589769662276,0.1061689911247959,0.2000277852282396,0.0324032250861459,0.0342639009907008,-0.4523096371978969,-0.4966464638020043,-0.486322404803522,0.6506685548616213,2.589836136014633,0.0125394189456699,-0.60385835810395,-0.6753792706900418,1.369882436551579,0.6143913445606793,-0.7685345071985206,-0.9531295174038724,9.415672421035197,-1.1984209860403825,0.0711258622121422,-1.0042269831438424
0.56,-0.4834856925781803,0.6385520944571332,2.578967174529636,0.108235643619034,0.2014188032080415,0.0322183610483793,0.0463431335929216,-0.4686391723968603,-0.5152868019284296,-0.4861878595523421,0.639191387708483,2.576928550609773,0.0202889607945678,-0.6438583586999964,-0.7153792712860881,1.3784264448458976,0.6039616301110415,-0.8164767599481676,-0.932016906321262,9.379292498784707,-1.198809471384111,0.0689556499496945,-1.0014863560200185
0.58,-0.4824251919626884,0.6289871658148647,2.5684490384539016,0.1099472153585688,0.2019642509529869,0.0318823179812999,0.0589906244822422,-0.4868903308879146,-0.5355427538946272,-0.4858595757549397,0.6267142205404436,2.563020965190012,0.0280385026434658,-0.6838583592960429,-0.7553792718821346,1.5028035484702742,0.6323745444660314,-0.9125579245527148,-1.0127975983098836,9.359658073482931,-1.2001802953460554,0.0671943487242113,-0.9975321100596898
0.6,-0.4811127227831648,0.6190472184402804,2.55752034638522,0.1107706023764394,0.2016093599129854,0.0313745936277421,0.0715719858808867,-0.5060963206996115,-0.5563012576660377,-0.4794756607385763,0.604642649270469,2.5416719007591704,0.0942385576017777,-0.5811416134010563,-0.6355427553847434,1.5476402829129632,0.6290680699322225,-0.9602994905848456,-1.037925188570521,9.325702586764235,-1.201900676107595,0.0662051788455454,-0.9918816059098352
0.62,-0.4795361163292567,0.608630616193001,2.546454093458544,0.108525355556884,0.2017855053207565,0.0307038589381373,0.0857376193104675,-0.5336601011070354,-0.5492129121195306,-0.4794756607385763,0.604642649270469,2.5416719007591704,0.0942385576017777,-0.5811416134010563,-0.6355427553847434,1.5895532417920375,0.7082816714790413,-1.3781890203711955,0.3544172773253529,9.299750509698242,-1.1971331635892493,0.0678928649387066,-0.9783253376000068
0.64,-0.4777726225126439,0.5982724894810175,2.536049187547861,0.1034392360712906,0.2033345868475272,0.0300076687397359,0.0993313199479841,-0.5545599172699315,-0.5464096691091611,-0.4794756607385763,0.604642649270469,2.5416719007591704,0.0942385576017777,-0.5811416134010563,-0.6355427553847434,1.254441294003484,0.6796850318758276,-1.0449908081448025,0.1401621505184747,10.979458826936934,-1.1979627343916397,0.0719549563427359,-0.9813997056907368
0.66,-0.4756322631083238,0.5869913036452142,2.5251002532403386,0.0973770283283594,0.2056310601027745,0.0292891008500576,0.1140458475794982,-0.5722148769505675,-0.548869829057348,-0.4785332751625585,0.5988312331364584,2.535316473205323,0.1012881442256848,-0.5999918699036846,-0.6555427556827665,1.1557111573768546,0.7357263815757069,-0.8827479840318009,-0.1230079974093467,10.584457779263175,-1.1989828079123774,0.0768913481069094,-0.9838277300846384
0.68,-0.4731946024590574,0.5753863432779303,2.514049163034351,0.0914774593220787,0.2079354112911103,0.0285762540977971,0.1289930804492108,-0.5872796036651224,-0.5563052810528666,-0.4766485040105229,0.5872084008684373,2.522605618097628,0.1153873174734989,-0.6376923829089413,-0.695542756278813,1.124335034390666,0.7473616434856319,-0.7532363357277472,-0.3717725997759269,10.24008571763261,-1.1991694806740387,0.0816536966931151,-0.9859353823500296
0.7000000000000001,-0.4704579809178043,0.5635017758312837,2.5028021491173167,0.0860922795875003,0.2098096378275369,0.027856041985732,0.1438969315606192,-0.6004361061034801,-0.5679925837180346,-0.4747637328584874,0.5755855686004161,2.509894762989933,0.1294864907213131,-0.6753928959141979,-0.7355427568748595,1.1530517962658722,0.7451925555704161,-0.6578251219178821,-0.5843651332584021,9.960878933669846,-1.1994618950102005,0.0858043828514285,-0.9861297728974084
0.72,-0.4675841937792461,0.5519819539928619,2.491870665841235,0.0815818271265508,0.2110179544692357,0.0271650042121067,0.157813059927296,-0.611584355472171,-0.5820871028064759,-0.4721740030440611,0.5620777106821322,2.495183907852436,0.1435856639691273,-0.7130934089194546,-0.775542757470906,1.1364391328166044,0.6958064183338427,-0.5574124684345483,-0.7047259544220641,9.739543257296646,-1.2004897343515493,0.0896638349984775,-0.9844459455966744
0.74,-0.4642765782507377,0.5396384667531364,2.4800588456649555,0.0775539053171249,0.2116700167377918,0.0264414390954055,0.1721585092010572,-0.6222413986683561,-0.5984062450385574,-0.4695842732296348,0.5485698527638482,2.4804730527149386,0.1576848372169415,-0.7507939219247113,-0.8155427580669524,1.2100401726206411,0.7172724636880581,-0.532852159809255,-0.8159571116040765,9.565569946593314,-1.2024250576612905,0.0929120752481539,-0.9808648449518798
0.76,-0.4606827204879433,0.527081474568049,2.4679084418196573,0.0740084761453387,0.2116617116906501,0.0257076046819066,0.1864390833111875,-0.6328603977942407,-0.6158346993238093,-0.4666420640840132,0.5341194820204328,2.4647621975625404,0.1717840104647557,-0.7884944349299678,-0.8555427586629988,1.2454406430291818,0.714028705506517,-0.5309499562942299,-0.871422714262593,9.47883562222978,-1.2048935722880725,0.0957123613691392,-0.9760369894639732
0.78,-0.4568044860242995,0.5143163936379925,2.455397697423236,0.0706277214812459,0.2108628045237659,0.0249371709686902,0.2005933048252418,-0.6430150905758281,-0.6343285830407992,-0.4633473756071962,0.5187265984518861,2.4480513423952406,0.1858831837125698,-0.8261949479352245,-0.8955427592590453,1.2703183725890177,0.7077110757027161,-0.5077346390793658,-0.924694185849495,9.417790143178536,-1.2077919261443042,0.0981984427053883,-0.970465054456874
0.8,-0.4528600214232823,0.5020074949189425,2.4431602358802875,0.0674921763806536,0.2092158534824328,0.0241609826374765,0.2138295651675472,-0.6520612469775598,-0.6528642493600361,-0.4467748207830374,0.4821656391092011,2.423681268271196,0.241445672703202,-0.6690553670883317,-0.7343285845309153,1.2253595996604136,0.6618130171152703,-0.4523078200865893,-0.9267833159618432,9.356134494097205,-1.2118296235048345,0.1007232814484168,-0.9632488812589756
0.8200000000000001,-0.4484119861860438,0.4886631812665422,2.430175249513615,0.0581166933186014,0.2075369003195185,0.0229441903918201,0.2303396969585537,-0.6785419149272949,-0.6428711768147966,-0.4467748207830374,0.4821656391092011,2.423681268271196,0.241445672703202,-0.6690553670883317,-0.7343285845309153,1.6383465183798471,0.8255065895503246,-1.3240333974867513,0.4996536272619756,9.291711512247277,-1.2123549318217504,0.108388639524639,-0.9454743514494408
0.84,-0.4436435858150634,0.4749408834139769,2.417400862338079,0.0425315613105007,0.2072131795120791,0.0214154537999007,0.2457219857865555,-0.6910637125572855,-0.6355356763178489,-0.4467748207830374,0.4821656391092011,2.423681268271196,0.241445672703202,-0.6690553670883317,-0.7343285845309153,1.057378589975259,0.76911444140009,-0.6260898814995308,0.3667750248473822,11.198100118596813,-1.2135746055610617,0.1203598294442503,-0.948348248988497
0.86,-0.438575613380522,0.461071232207415,2.4046840318793783,0.025751007418896,0.207625067151197,0.0198747405025247,0.2603503931548819,-0.6947375940688235,-0.6364692002992289,-0.4443603640560054,0.4754750854383178,2.4163379824258864,0.2496161462787941,-0.6742634223908324,-0.7543285848289385,0.7555778823495597,0.731420368416319,-0.1836940755769012,-0.0466761990690012,10.705948712790814,-1.2156561256082707,0.1343122294146342,-0.9509989516189944
0.88,-0.4334970988770993,0.4478855173332581,2.3925214812761184,0.0105760317126533,0.2081662142543608,0.0185003696795283,0.2734952151316744,-0.6929592039710533,-0.6437384784560668,-0.4395314506019414,0.4620939780965512,2.401651410735268,0.2659570934299782,-0.6846795329958338,-0.794328585424985,0.7562926369185653,0.6572410988396254,0.0889195048885127,-0.3634639078418933,9.854881804438264,-1.2189112982740806,0.1477977056853721,-0.9512895217400826
0.9,-0.4278902409118207,0.4340825881533327,2.3795170689567438,-0.003864766103498,0.2086350572004595,0.0171928281658219,0.2864423928273313,-0.6873806219666079,-0.656545045431706,-0.4347025371478773,0.4487128707547845,2.38696483904465,0.2822980405811622,-0.6950956436008353,-0.8343285860210314,0.9523105391162702,0.6473588847828421,0.2789291002222693,-0.64032834878196,9.854881804438264,-1.2227873746334548,0.1599786091852892,-0.949526401185929
0.92,-0.4220333082398377,0.4204229259215317,2.3662100181401278,-0.0164669872576033,0.2089024855723613,0.0160503978748436,0.2985476208986239,-0.6789300036974908,-0.673677804392575,-0.429056576336254,0.4348109578827678,2.3702782673242293,0.2986389877323463,-0.7055117542058368,-0.8743285866170779,1.130797202640223,0.6052614035646303,0.4225309134558541,-0.8566379480434483,9.567456922257406,-1.2267240384138292,0.1700529685975256,-0.9464647044674248
0.94,-0.4159404601067465,0.4069585728813307,2.3525342654248007,-0.027101861800772,0.2089367936403684,0.0150869406190941,0.3101010847301905,-0.6682034052745707,-0.6930060084470542,-0.4234106155246308,0.4209090450107511,2.3535916956038085,0.3149799348835304,-0.7159278648108383,-0.9143285872131244,1.2471185911988245,0.577673191578329,0.536329921146006,-0.9664102027239608,9.345504243719006,-1.2314089282152745,0.1789405192760076,-0.9414489902183036
0.96,-0.4099398946430264,0.3943801760170247,2.339171928863438,-0.0355319751312888,0.2086986622748557,0.0143318273557985,0.3209041760179038,-0.6566084104956649,-0.7125630944527594,-0.417356131034228,0.4067467293736094,2.335905123868487,0.3313208820347145,-0.7263439754158396,-0.9543285878091708,1.2586007094468763,0.5401545643856642,0.5797497389452899,-0.9778543002852635,9.248203217439368,-1.236427461670221,0.1862402249412488,-0.9358344002587692
0.98,-0.4034058748198408,0.3813882514968297,2.324692671149069,-0.0428676839692103,0.2080985175218377,0.0136953567573518,0.3318705829605568,-0.6433293895041101,-0.7343705688021162,-0.4108931228650455,0.3923240109713426,2.317218552118264,0.3476618291858985,-0.7367600860208411,-0.9943285884052172,1.389388730003119,0.5483203471326525,0.6639510495777379,-1.0903737174678352,9.184145278983124,-1.2408649620419876,0.1921821907871599,-0.9307559636817992
1.0,-0.3966560767076684,0.3686732957636907,2.309765940062685,-0.0487542599994956,0.2070911882845274,0.0132171678094488,0.3425160502644246,-0.6289991146524669,-0.7572296827111433,-0.386812345671813,0.3492217820216242,2.287974142708963,0.3600701792910803,-0.6256186609332912,-0.8256761823198774,1.4501912288964125,0.5322733651933892,0.7165137425821588,-1.1429556954513589,9.114796615867816,-1.245586968329156,0.1968851313279356,-0.9251337504552496
1.02,-0.389608729214363,0.3561809821417246,2.2947227991212285,-0.0562467921568263,0.2051671289103489,0.0127154200278149,0.36150131131216,-0.6191071106952242,-0.7460010510140437,-0.386812345671813,0.3492217820216242,2.287974142708963,0.3600701792910803,-0.6256186609332912,-0.8256761823198774,1.208691491996486,0.94926305238677,0.4946001978621384,0.5614315848549822,9.058973458233597,-1.244591579982938,0.201546414104632,-0.9117836209549574
1.04,-0.3825723577269204,0.3445619337311484,2.2806057612945154,-0.0648882373260474,0.2020036770065389,0.0122660271778862,0.3780580786613086,-0.6040762415212652,-0.7406569568438941,-0.386812345671813,0.3492217820216242,2.287974142708963,0.3600701792910803,-0.6256186609332912,-0.8256761823198774,1.149579179175941,0.8278383674574313,0.7515434586979508,0.2672047085074791,11.056046446398796,-1.2541475365571055,0.2097681737003113,-0.910628701829122
1.06,-0.3748456947937739,0.3326846340667879,2.265788352817744,-0.0735654136995265,0.1970460679135957,0.0120083773821329,0.3934714510772296,-0.5844411342895444,-0.7416175017879598,-0.3832116438789022,0.3429655954122913,2.2797173808857645,0.365710098557185,-0.6220765152191274,-0.8439373050234297,1.2490317568246785,0.7706686207960473,0.9817553615860396,-0.0480272472032861,10.60315902264574,-1.2647283592017156,0.2177677228242839,-0.9076154971571812
1.08,-0.3668446536043543,0.3212260516392713,2.2508861900966552,-0.0808497383180943,0.1905338256582389,0.0120526598597242,0.4054859880896142,-0.5626834840745201,-0.7484420292134567,-0.3760102402930806,0.3304532221936255,2.263203857239367,0.3769899370893944,-0.6149922237907999,-0.8804595504305341,1.2887189541194255,0.600726850619232,1.087882510751215,-0.3412263712748442,9.908356477407324,-1.2768433303304103,0.2243100083727524,-0.90178965113542
1.1,-0.3586417794808582,0.3102150343354727,2.2358022953961183,-0.0865157326512964,0.1831870498726913,0.0123636189905535,0.4139211008365326,-0.5398615984176771,-0.7595178842412134,-0.368808836707259,0.3179408489749596,2.2466903335929693,0.3882697756216038,-0.6079079323624723,-0.9169817958376386,1.336660163039882,0.4217556373459191,1.1410942828421478,-0.5537927513878327,9.908356477407324,-1.289503384551047,0.2297089183110909,-0.8928798143995932
1.12,-0.350724209296562,0.300182823431371,2.2212353189194545,-0.0904272355873446,0.1760278534869813,0.0128451505505513,0.4189085791876105,-0.5176554033194094,-0.7732192963454017,-0.3610434411948269,0.3057826903277102,2.2283506976762166,0.3995496141538132,-0.6008236409341448,-0.9535040412447432,1.3282683602096348,0.2493739175538939,1.1103097549133856,-0.6850706052094147,9.666371487408467,-1.301533170155962,0.2336540184465403,-0.882530153588058
1.14,-0.3423144950680401,0.2900787282922579,2.205606355909798,-0.0931824383056458,0.1688055794765901,0.013474309606293,0.4216192774809229,-0.4941740705794205,-0.7889641295738691,-0.3532780456823948,0.2936245316804607,2.210011061759464,0.4108294526860226,-0.5937393495058172,-0.9900262866518476,1.4200533844504686,0.135534914665622,1.1740666369994437,-0.7872416614233713,9.474089498125975,-1.312220105851585,0.2362518128752581,-0.8712944189115184
1.16,-0.3338724215529341,0.2804518692720328,2.1896510909013176,-0.0944928778073974,0.1622331913128273,0.0141847570536969,0.4223586773910266,-0.4700393838697026,-0.8057136553442833,-0.3452306542066575,0.2816434803189195,2.190758369707533,0.422109291218232,-0.5866550580774896,-1.0265485320589522,1.4693335464906068,0.0369699955051844,1.2067343354858957,-0.837476288520711,9.332047693977984,-1.320233090517837,0.2377242746524671,-0.86268345585529
1.18,-0.3258551872200556,0.2717599224193536,2.1741748049599243,-0.0941211301819505,0.1567380319044732,0.0149246699258234,0.4214566284861876,-0.4464082624593438,-0.8224856028108561,-0.336901266767615,0.2698395362430864,2.170592621520425,0.4333891297504413,-0.5795707666491621,-1.0630707774660566,1.4496049575309455,-0.0451024452419512,1.1815560705179389,-0.8385973733286423,9.278819283039413,-1.3272580932413616,0.2380303874250811,-0.8554921087324663
1.2,-0.3174513770316698,0.2630978786177929,2.157530852763266,-0.0915991673904825,0.1519469776927922,0.015766564739663,0.4188454223897088,-0.4213139944875416,-0.8410281450818784,-0.3047823557957462,0.2494395092963864,2.1330505248193816,0.3965485198494507,-0.4350643921473683,-0.8111654421089852,1.56554028708267,-0.1305603048239401,1.2547133985901129,-0.9271271135511128,9.278819283039413,-1.3330855636097074,0.2366339739418439,-0.8496957580735991
1.22,-0.3089084455862514,0.2549913807457464,2.1410075556143027,-0.0862898225928767,0.1444615723588994,0.0170291792119859,0.435409557633339,-0.3913930972722653,-0.8075715129939386,-0.3047823557957462,0.2494395092963864,2.1330505248193816,0.3965485198494507,-0.4350643921473683,-0.8111654421089852,2.3921626706832493,0.8282067621815131,1.4960448607638148,1.6728316043969904,9.222121797222826,-1.3206612211567734,0.2317402296321286,-0.8405854534663633
1.24,-0.3000776984216806,0.2474424257126462,2.1252269721933774,-0.0792628452754338,0.1314556762956428,0.0188182038936837,0.4457688329668559,-0.3655806391351362,-0.7725820705710152,-0.3047823557957462,0.2494395092963864,2.1330505248193816,0.3965485198494507,-0.4350643921473683,-0.8111654421089852,2.234870612353051,0.5179637666758441,1.2906229068564534,1.7494721211461672,12.74112874975981,-1.3435883242603108,0.2290547443634585,-0.8334895820044291
1.26,-0.2915711880367342,0.2407229464889323,2.1108244050086813,-0.0717482460454596,0.116250393929012,0.0206884745045107,0.4484284602688611,-0.3436116638965116,-0.7450904375970925,-0.3008168705972517,0.2450888653749127,2.124938870398292,0.3915668981221033,-0.4327956180849732,-0.808901409968611,1.764581660049874,0.132981365100257,1.0984487619312282,1.3745816486961382,12.31480686887062,-1.3665561198099423,0.2252931966035518,-0.82124176928185
1.28,-0.2826377443634184,0.2340684954150636,2.0961823768138785,-0.0633106029852037,0.098926867989876,0.0226344213369903,0.444080023123411,-0.3234683382041036,-0.7207156839791334,-0.2928859002002627,0.2363875775319654,2.108715561556112,0.3816036546674086,-0.428258069960183,-0.8043733456878627,1.595925350301951,-0.2174218572725039,1.0071662846204004,1.2187376808979522,11.878026887467968,-1.388572316832381,0.2209840670054431,-0.8065409937036148
1.3,-0.2738641618317451,0.227786242611555,2.081980238459911,-0.0546351234903364,0.0816794686929381,0.0244193345220749,0.4329633398166294,-0.3061727347644913,-0.7008723929659989,-0.2849549298032737,0.227686289689018,2.0924922527139325,0.3716404112127138,-0.4237205218353929,-0.7998452814071143,1.428701109675806,-0.555834165339078,0.864780171980617,0.9921645506567268,11.537419926117764,-1.408113002660955,0.2162908900257111,-0.7908377100856682
1.32,-0.2653781218244924,0.2218205231581525,2.0681301660075038,-0.0459649168426643,0.0657268777178472,0.0259630847031978,0.4159327362100993,-0.2916143354731826,-0.6850845158053352,-0.2775221215790194,0.2192118792523101,2.0764953470857903,0.3616771677580191,-0.4191829737106027,-0.7953172171263659,1.370442915965618,-0.8515301803265068,0.7279199645654322,0.7893938580331827,11.007952270382702,-1.4224192098048376,0.2114917604920681,-0.7758219912096118
1.34,-0.2576775252288567,0.2163974657858448,2.055255157991022,-0.0379931392104608,0.0525839566019748,0.0271771835367545,0.3954274631251327,-0.2801567738028542,-0.6709579808846463,-0.2700893133547651,0.2107374688156023,2.060498441457648,0.3517139243033243,-0.4146454255858125,-0.7907891528456176,1.3704934627570078,-1.0252636542483289,0.5728780835164204,0.7063267460344469,10.965390661956915,-1.432497725079379,0.2062940227008466,-0.7612326767220822
1.36,-0.250027906887719,0.2109007883411536,2.0419879555739664,-0.0300824687695132,0.0414113456053294,0.0281991665946563,0.3705327172644266,-0.2702792931938776,-0.6565264099649748,-0.2629055862168782,0.2023764970820142,2.0446147374365244,0.3417506808486296,-0.4101078774610223,-0.7862610885648692,1.5211699723069756,-1.2447372930353056,0.493874030448832,0.7215785459835755,10.965390661956915,-1.4385280816747148,0.2012610156790289,-0.749764010525132
1.38,-0.2429078687620674,0.2055802003312185,2.0290022747743666,-0.022785583857653,0.0334164303999307,0.0289900521456284,0.3426093543914282,-0.2623872230228652,-0.6428014071473531,-0.2559709401653587,0.1941289640515458,2.02884423502242,0.3317874373939348,-0.4055703293362321,-0.7817330242841208,1.6049724826808187,-1.39616814364992,0.39460350855062,0.6862501408810839,10.946003979510351,-1.44152239173788,0.1965324740578916,-0.7415994470803825
1.4,-0.2363798113293095,0.2003974635327346,2.016282674559174,-0.0161988448302651,0.0295127047725095,0.0295807878378381,0.3117581693882108,-0.2562967346534884,-0.6298465179782778,-0.225777401042496,0.1924608391800753,1.996862204416999,0.3114043130573952,-0.2621431054917547,-0.6226698657313041,1.7005284605551902,-1.5425592501608687,0.3045244184688378,0.6477444584537639,10.922255312054403,-1.439782270949607,0.1923028397726473,-0.7390553767501843
1.42,-0.2307522723309618,0.1955427409945167,2.004540012009511,-0.0116254575403252,0.0301376182522271,0.0299327990505649,0.2827398456156592,-0.2542873829859203,-0.6068690232063182,-0.225777401042496,0.1924608391800753,1.996862204416999,0.3114043130573952,-0.2621431054917547,-0.6226698657313041,1.8534197276170503,-1.4509161886275794,0.1004675833784052,1.1488747385979825,11.624460073443515,-1.4281724731694536,0.1883022021614781,-0.7410880173636122
1.44,-0.2253954881902778,0.1904917319835884,1.9926460619703688,-0.0084015325582177,0.0344906179659842,0.0301518323640546,0.2549442684169039,-0.2507821614242687,-0.5838480331550033,-0.225777401042496,0.1924608391800753,1.996862204416999,0.3114043130573952,-0.2621431054917547,-0.6226698657313041,1.8130407282732055,-1.389778859937768,0.1752610780825836,1.151049502565743,11.624460073443515,-1.4192708021336735,0.1859766359814404,-0.7532492328362956
1.46,-0.2205631136263839,0.1855146031562832,1.9811926071820611,-0.0059559430249593,0.0414762342966096,0.0303058912104301,0.2301403833074602,-0.2470492198597168,-0.5627229136810761,-0.2226633579119221,0.1898394081251577,1.990635505759686,0.3051633047905885,-0.2620942819855326,-0.6186435574480943,1.639693753444937,-1.240194255472181,0.1866470782275933,1.0562559736963628,11.481770723458794,-1.409573920592441,0.1842298999004835,-0.7676131212923105
1.48,-0.2161927897592473,0.1806110135407028,1.9701438364522312,-0.0039854345902884,0.0501603343514378,0.0304306748279891,0.2085951496636543,-0.2434365033202528,-0.5432075807555296,-0.2164352716507742,0.1845965460153227,1.97818210844506,0.2926812882569753,-0.2619966349730883,-0.6105909408816748,1.4646646653377893,-1.077261682190296,0.1806358269731994,0.9757666462773262,11.355613324187289,-1.3980757855086352,0.1826394193384805,-0.7840457402624894
1.5,-0.2124073956982241,0.1760177529288921,1.95999725026984,-0.0024354766211885,0.0592054571180242,0.0305362212893912,0.1912772582045213,-0.2402090182642935,-0.5258429133660388,-0.2102071853896263,0.1793536839054876,1.9657287111304336,0.2801992717233622,-0.2618989879606441,-0.6025383243152551,1.2367878738130436,-0.865894572956652,0.1613742527979619,0.8682333694745359,11.258887116781809,-1.3869046718423952,0.1813482286055465,-0.8014883276957385
1.52,-0.2087442544208229,0.1712462466241775,1.9496634262947248,-0.0011336288638773,0.0688702097034666,0.0306353054995817,0.1762647830525431,-0.2371131639578695,-0.5085133045533404,-0.204603199955159,0.1741157041462747,1.9536779446441288,0.267717255189749,-0.2618013409481999,-0.5944857077488355,1.1567995350065183,-0.7506237575989061,0.1547927153212003,0.8664804406349202,11.185485160384816,-1.3763270951547415,0.1803312680149449,-0.8186958932680362
1.54,-0.2053489601373893,0.1665331218113233,1.939669146032052,-0.0002581095770332,0.0781119882833377,0.0307132096284778,0.1642630923824933,-0.2343440133700779,-0.4918268696661713,-0.1989992145206918,0.1688777243870618,1.941627178157824,0.2552352386561357,-0.2617036939357557,-0.5864330911824159,1.0369979305200696,-0.6000845335024942,0.1384575293895809,0.8343217443584544,11.110076529748769,-1.3665530637930263,0.1796469290155238,-0.8347082938621023
1.56,-0.202166146414041,0.1618726409890721,1.9300013231905813,8.105308817786536e-05,0.0865264015182769,0.0307573675181018,0.1547737817655831,-0.2317991883607824,-0.4758214383807808,-0.1937072794995649,0.16364218580316,1.929777727085679,0.2427532221225225,-0.2616060469233115,-0.5783804746159963,0.939011422911748,-0.4744655308455067,0.1272412504647768,0.800271564269528,11.110076529748769,-1.3574175675350666,0.1793459051558515,-0.850165384723241
1.58,-0.1992978523107516,0.1574920141241016,1.921106536240074,-0.0001505793019463,0.0935483993668994,0.0307596168578123,0.1477086948716295,-0.2294000968238924,-0.4612981516246432,-0.1887273948917783,0.1584090883945693,1.9181295914276948,0.2302712055889093,-0.2615083999108673,-0.5703278580495768,0.8163898444102715,-0.3532543446976788,0.1199545768444998,0.7261643378068755,11.08614401840805,-1.3497559432772777,0.1795434183638067,-0.8637891557804565
1.6,-0.1964064650255827,0.1529320882936566,1.912035389702393,-0.000984218643461,0.0997930085004699,0.0307166421608123,0.1418881975271065,-0.2266698129655328,-0.4466241424331382,-0.1919124175671701,0.146022009282907,1.898041628658842,0.1759483157211197,-0.2185272345221255,-0.4471770317603583,0.8010293144404808,-0.2910248672261542,0.1365141929179789,0.7337004595752539,11.058805072701034,-1.343580031751359,0.1802523695683912,-0.8754300956577172
1.62,-0.1936737831579462,0.148405818300004,1.903292376187777,-0.0031268306041371,0.1067445340081505,0.0305721723454287,0.1320384037221488,-0.2257799140488739,-0.4282385795222182,-0.1919124175671701,0.146022009282907,1.898041628658842,0.1759483157211197,-0.2185272345221255,-0.4471770317603583,1.0438382078098218,-0.4924896902478812,0.0444949458329443,0.9192781455459986,11.036414416296791,-1.337272275200519,0.1817664073102281,-0.8833366614104096
1.64,-0.1911058844045745,0.1439246390440402,1.8949078590692188,-0.0065228457271706,0.1157258415720432,0.0303122263680459,0.1257041920357456,-0.2220705622232374,-0.4112753294978395,-0.1919124175671701,0.146022009282907,1.898041628658842,0.1759483157211197,-0.2185272345221255,-0.4471770317603583,0.924166354132339,-0.3167105843201595,0.1854675912818265,0.8481625012189353,11.200987615876327,-1.3269197262587873,0.1845239848963207,-0.9019654822592718
1.66,-0.188750773540824,0.139759469304541,1.8872402466185083,-0.0098144713102747,0.1250234628666769,0.0300273632879212,0.1228367126253937,-0.2165276605632202,-0.3967227050185919,-0.1901529344099589,0.1438367369376857,1.8935698583412384,0.1815962398910177,-0.2163526620617721,-0.4443528077875013,0.7917150311434824,-0.143373970517599,0.2771450830008584,0.72763122396238,11.200987615876327,-1.3174258978082711,0.1875602415633993,-0.9203974922928392
1.68,-0.1863005401538345,0.1355023792318724,1.879456798437681,-0.0129072067225166,0.1349645537008098,0.0297223538652017,0.1226539622006471,-0.2094801074464309,-0.3824640189573409,-0.1866339680955365,0.1394661922472432,1.8846263177060312,0.1928920882308138,-0.2120035171410654,-0.4387043598417873,0.7953168092732399,-0.0091375212373255,0.3523776558394684,0.7129343030625512,11.125377829269382,-1.3084478065673608,0.1903937208605254,-0.9379772058689692
1.7,-0.183821312315906,0.1313970515559722,1.8719470634927284,-0.0154283398836681,0.1445241647217135,0.029437139072606,0.1255005648675204,-0.2015157672477715,-0.3692671423449225,-0.1831150017811141,0.1350956475568007,1.875682777070824,0.2041879365706099,-0.2076543722203586,-0.4330559118960733,0.7837273343874543,0.142330133343662,0.3982170099329676,0.6598438306209181,11.048674611088243,-1.3001040717136938,0.192848167676157,-0.9550066484557136
1.72,-0.1813844359627631,0.1276506506039279,1.86504918746523,-0.0172530756908931,0.1526957068070064,0.0292037520977834,0.1309566953301551,-0.1933687675020716,-0.3575187090340173,-0.1790312430497019,0.1309425601123935,1.8670216588329025,0.2154837849104059,-0.2033052272996519,-0.4274074639503593,0.7651285018585317,0.2728065231317356,0.4073499872849939,0.5874216655452624,11.048674611088243,-1.2934496485646625,0.1947842294171232,-0.9700034312880096
1.74,-0.178684055822922,0.1238788113646467,1.8580251592313315,-0.0185618210342321,0.1598997883234705,0.0290152781798959,0.1388755491981736,-0.1842773701685305,-0.3455359395337987,-0.1749474843182897,0.1267894726679864,1.858360540594981,0.226779633250202,-0.1989560823789452,-0.4217590160046452,0.8499242862671895,0.3959426934009233,0.4545698666770542,0.5991384750109269,11.027457671186312,-1.288621243346485,0.1963815168857847,-0.9836221806405664
1.76,-0.1758045633488176,0.1202978745734901,1.851236164425719,-0.0189883651315606,0.1653440699302597,0.0289180554420947,0.1485939225609303,-0.1744053694829354,-0.3339818126630318,-0.1705813293783826,0.1227451138465969,1.8498406335557025,0.2380754815899981,-0.1946069374582384,-0.4161105680589313,0.901943770559051,0.4859186681378385,0.4936000342797592,0.5777063435383478,11.032525957426516,-1.2864178522433891,0.1973182782971492,-0.9954005401802336
1.78,-0.1727193976487943,0.116919339626327,1.8446744439114624,-0.0182487759281971,0.168892272263797,0.0289404896320923,0.1592902523298426,-0.1641122551852709,-0.322775215421849,-0.1659327782299806,0.118809483648225,1.8414619377150667,0.2493713299297941,-0.1902577925375317,-0.4104621201132173,0.9299831909720048,0.5348164884456149,0.5146557148832248,0.5603298620591363,11.031315065606575,-1.2867642624231168,0.1973344673101029,-1.004983253396903
1.8,-0.1695867156887619,0.113900283458822,1.838645942433124,-0.0162857187976556,0.1705448474111693,0.0290843417529751,0.1697632246167454,-0.1543762327417057,-0.312359586443717,-0.1647548850323022,0.1087137268670635,1.82853568314037,0.1638213671576842,-0.1584403116473799,-0.3350117481770451,0.8845318091424721,0.5236486143451374,0.4868011221782597,0.5207814489066015,11.029687685340832,-1.28933255276223,0.1961748812586676,-1.0128771086376716
1.82,-0.166019733613009,0.1109202264952896,1.8324841448335187,-0.0127370982781651,0.1687287792895854,0.029391646872478,0.1864489376396227,-0.1447284989293538,-0.3044836524615605,-0.1647548850323022,0.1087137268670635,1.82853568314037,0.1638213671576842,-0.1584403116473799,-0.3350117481770451,1.0410597039640703,0.8342856511438664,0.4823866906175922,0.3937966991078262,11.027458557357932,-1.2909149069757797,0.1934144460356464,-1.020175469063218
1.84,-0.1621369431408072,0.1081011686648178,1.8264670184632343,-0.0085538453075722,0.1614972117239071,0.0297860239576729,0.2001291947820079,-0.1378578391638574,-0.2975637400389518,-0.1647548850323022,0.1087137268670635,1.82853568314037,0.1638213671576842,-0.1584403116473799,-0.3350117481770451,0.8400008765346123,0.6840128571192594,0.3435329882748222,0.3459956211304349,10.79267608727332,-1.3082081834825623,0.190631379230231,-1.0156063601518457
1.86,-0.1580421715533809,0.1053986101427029,1.8205812740923375,-0.0044924544623421,0.1509335507487312,0.0301528076566403,0.2080440527200084,-0.1328056735780579,-0.2912851583402771,-0.1631166713607253,0.1071293237505897,1.8251855656586,0.1647275901232525,-0.1573059229398018,-0.3374590547280843,0.5647785881033361,0.3957428969000254,0.2526082792899717,0.3139290849337367,10.79267608727332,-1.3253675101080282,0.187934485816039,-1.0080935300494414
1.88,-0.1540603048922832,0.1029115360034869,1.815099020460666,-0.0010192475575345,0.1396173560482886,0.0304292385845141,0.210328985597536,-0.1292291269798127,-0.2860707492755474,-0.1598402440175717,0.1039605175176421,1.8184853306950588,0.1665400360543891,-0.1550371455246454,-0.3423536678301628,0.3361646386763535,0.1142466438763811,0.1788273299122608,0.2607204532364848,10.719605907816913,-1.342793066566235,0.1852918943049503,-0.9981116744711092
1.9,-0.1498730030473828,0.1003571261451636,1.809427362143732,0.0021412720820695,0.1278111579149858,0.0306354804016346,0.2079398498614729,-0.1263916919946568,-0.2813957529119562,-0.156563816674418,0.1007917112846945,1.8117850957315176,0.1683524819855257,-0.152768368109489,-0.3472482809322412,0.2983898367065757,-0.1194567868031556,0.1418717492577936,0.2337498181795572,10.64804589929554,-1.3574251494682683,0.1828435794423102,-0.9866708678066888
1.92,-0.1457785466863171,0.0978511919324631,1.803839153584469,0.004774835087133,0.1171951049996868,0.0307655460814439,0.2014298633639031,-0.1243094751092872,-0.2776942701002264,-0.1531967670347074,0.0977363439225047,1.804840130112873,0.1701649279166623,-0.1504995906943327,-0.3521428940343197,0.3886403426105914,-0.3254993248784907,0.1041108442684825,0.1850741405864914,10.58300479067475,-1.3685552188989163,0.180641695198785,-0.9753384576323676
1.94,-0.1418505110411456,0.0953801873094002,1.7983134260304687,0.0068837490335364,0.1085495098826108,0.030837855312897,0.1917334763763736,-0.1228034392238257,-0.2750529877325713,-0.1498297173949969,0.0946809765603149,1.7978951644942285,0.1719773738477989,-0.1482308132791763,-0.3570375071363981,0.5080955551023703,-0.4848193493764738,0.075301794273077,0.132064118382752,10.519023544545234,-1.3754426540529492,0.1788025916717187,-0.9659353013559472
1.96,-0.1383230310261956,0.0930566479653009,1.793104904277414,0.0084462499694898,0.1026195837825745,0.0308728881867433,0.1800368727360042,-0.1217897255855693,-0.2733390604878039,-0.146417356607008,0.091682328633504,1.7908278335480314,0.1737898197789355,-0.1459620358640199,-0.3619321202384765,0.5932446768843476,-0.5848301820184698,0.0506856819128161,0.0856963622383716,10.415252719217278,-1.3799489680743569,0.1772111520390945,-0.9581181813270034
1.98,-0.1348730314723145,0.0906271549247802,1.7876508357107317,0.009608503080509,0.0994788289638168,0.0308915276889849,0.1655433090991697,-0.1212005591721402,-0.2721874287397111,-0.1429596846707406,0.0887404001420721,1.7836381372742829,0.1756022657100721,-0.1436932584488636,-0.366826733340555,0.7275588629810306,-0.7246781818417258,0.0294583206714577,0.0575815874046398,10.415252719217278,-1.3792890730338991,0.1758530486078401,-0.9538569320997088
2.0,-0.1317161234174347,0.0882040794672466,1.7822131372506418,0.0101246623907564,0.0998632093054802,0.0308945413450929,0.1513621038149599,-0.1210560634151342,-0.2716374814933114,-0.1265958660173561,0.0845671269661732,1.774041464273746,0.164105024573522,-0.1234185851414816,-0.2544133590579475,0.7096300168230568,-0.7090602642104926,0.007224787850301,0.0274973623199836,10.38165404148458,-1.3726939623139387,0.1748177613098136,-0.9535674973333094
2.02,-0.1289271434544249,0.0859234730816207,1.777213823136332,0.0105803949238539,0.1022175509266205,0.0309138053919621,0.1431120527484257,-0.1192237935316941,-0.2546618986882934,-0.1265958660173561,0.0845671269661732,1.774041464273746,0.164105024573522,-0.1234185851414816,-0.2544133590579475,0.9481441967024424,-0.4125025533267101,0.0916134941720041,0.8487791402509021,10.340488742538582,-1.3504024456747177,0.1726530176781479,-0.9561840707304716
2.04,-0.1261419001541635,0.0835511495913061,1.772299897029575,0.0112800115310528,0.1055999464664399,0.0309584859849827,0.136021212138286,-0.1181282728619451,-0.2377875807899759,-0.1265958660173561,0.0845671269661732,1.774041464273746,0.164105024573522,-0.1234185851414816,-0.2544133590579475,0.916818944271072,-0.354542030506981,0.0547760334874504,0.8437158949158724,11.410836367577758,-1.34423115256237,0.1719053330503749,-0.96879257163562
2.06,-0.1234830497010244,0.081196291228055,1.7677007124867028,0.0118945250857519,0.109420197920929,0.0310021463419099,0.1303674367824468,-0.1174121258192551,-0.2230786900735079,-0.1249548157716208,0.0833329411147583,1.7714973306831665,0.1638173676683924,-0.1238621903353499,-0.2508585451215948,0.7887165341078655,-0.2826887677919609,0.0358073521345002,0.7354445358234041,11.169013556477694,-1.33824836272375,0.1712548147997409,-0.980979245959505
2.08,-0.1209228592565051,0.0788529251362315,1.763375004627966,0.0122804736855637,0.1132521715967498,0.0310297324678978,0.1260385128764684,-0.1169355659923527,-0.2102438543806726,-0.1216727152801504,0.0808645694119287,1.7664090635020075,0.1632420538581333,-0.1247494007230864,-0.2437489172488893,0.6776793096931016,-0.2164461952989235,0.0238279913451169,0.6417417846417639,11.169013556477694,-1.333115098144397,0.1708529482482422,-0.9919158010725104
2.1,-0.1185596468294349,0.0766343554920733,1.7594897295018088,0.0123573718589732,0.1166216820562909,0.0310315225453925,0.1229883636136913,-0.1165922718174482,-0.1993906087685103,-0.1183906147886799,0.0783961977090991,1.7613207963208486,0.1626667400478742,-0.125636611110823,-0.2366392893761838,0.5639463665404311,-0.1525074631388512,0.0171647087452236,0.5426622806081124,11.07578578844823,-1.3282928544578425,0.1707097220718329,-1.0022629778820848
2.12,-0.1161253212052718,0.0743063395025514,1.7556123254285116,0.012093889096668,0.1196947864253401,0.03100194401272,0.1206500873280038,-0.1162002725613878,-0.1889764597695069,-0.1151372799877225,0.0758834654868826,1.756588010533325,0.1620914262376151,-0.1265238214985596,-0.2295296615034783,0.5340311291919362,-0.1169138142843778,0.0195999628030199,0.5207074499501737,11.004595740328114,-1.3242291324698463,0.1709003429810983,-1.011342712495058
2.14,-0.1137291304844516,0.0719876619322722,1.7519389939892025,0.0114769110741032,0.1221571107080485,0.0309383965608849,0.119079164832405,-0.1156511617169266,-0.178891210555094,-0.111883945186765,0.0733707332646662,1.7518552247458012,0.161516112427356,-0.1274110318862961,-0.2224200336307729,0.511081138185264,-0.0785461247799372,0.0274555422230635,0.504262460720642,10.950659269330572,-1.3207702539963824,0.1713646523661658,-1.0187896549344098
2.16,-0.1114770576085135,0.0697977037001304,1.7486338053299886,0.0106040728869952,0.1238975676085052,0.0308495867431765,0.1180354235662654,-0.1148687389734993,-0.16954094729584,-0.108644993231064,0.0708358207827563,1.747300179655095,0.1609407986170969,-0.1282982422740327,-0.2153104057580674,0.472040793251576,-0.0521870633069826,0.039121137171362,0.4675131629627016,10.950659269330572,-1.3181427436194624,0.172174381992871,-1.0258105864274127
2.18,-0.10912549441339,0.0675126136591614,1.745344448933981,0.0094636945344434,0.125130696291003,0.0307333751554713,0.1171565849212115,-0.1136489713531534,-0.1599039544387274,-0.1054204241206194,0.068278728041153,1.7429228752612067,0.1603654848068378,-0.1291854526617692,-0.208200777885362,0.4876777156578985,-0.0439419322526925,0.0609883810172975,0.4818496428556265,10.945664267209397,-1.3163876907621406,0.1732308397876146,-1.032053350469868
2.2,-0.1067906900269151,0.0652575285579464,1.7422441846745325,0.0082312021728115,0.1258098901729072,0.0306055331789711,0.1163219085567181,-0.1119106308965701,-0.1506156503078853,-0.1032676651673295,0.0618301650915037,1.737349251212045,0.1309496389580076,-0.1143225657138588,-0.1655721312424653,0.4743182101803029,-0.0417338182246707,0.0869170228291658,0.4644152065421097,10.94174132151784,-1.3155298618006928,0.1743546529055804,-1.0373971551614176
2.22,-0.1046181148072223,0.0631539220796871,1.739430956765945,0.0071799536593516,0.1267663907517546,0.0304952954428916,0.1126150363945627,-0.1096340969633327,-0.1459887721269082,-0.1032676651673295,0.0618301650915037,1.737349251212045,0.1309496389580076,-0.1143225657138588,-0.1655721312424653,0.3175354691894487,-0.1853436081077686,0.1138266966618659,0.2313439090488547,10.92844076397614,-1.3192110570116733,0.1758597008138663,-1.043753148204963
2.24,-0.1024014532685799,0.0609909071352025,1.7365536311603131,0.0063928316452288,0.1286890596177736,0.030408005165619,0.1093933195421722,-0.1067939111413447,-0.1420170700110196,-0.1032676651673295,0.0618301650915037,1.737349251212045,0.1309496389580076,-0.1143225657138588,-0.1655721312424653,0.2924915925191391,-0.1610858426195252,0.1420092910994021,0.1985851057944299,10.665539398030887,-1.3162065082500318,0.1765188216328433,-1.0485709610357872
2.26,-0.1002384861606891,0.0588887282762178,1.7337497258129644,0.006070084512866,0.1311906869210761,0.030356286454459,0.1071873802034046,-0.1035896708832428,-0.1386023318651551,-0.1019581687777494,0.0606869394343652,1.7356935298996203,0.1337082497653668,-0.1144572845859999,-0.1667057666032129,0.2588134492389505,-0.11029696693838,0.1602120129050928,0.1707369072932243,10.627482022210645,-1.312938512732685,0.1767664336437905,-1.05394976723963
2.28,-0.0981087073325179,0.0568531577800671,1.7310092616750423,0.0063315559518601,0.1339346051920147,0.0303466120692991,0.1059996272653383,-0.1001907025498965,-0.1356270823206357,-0.0993391759985892,0.058400488120088,1.732382087274771,0.1392254713800853,-0.1147267223302821,-0.1689730373247081,0.23353721665475,-0.0593876469033173,0.1699484166673155,0.1487624772259693,10.601677277511044,-1.310016250494505,0.1765191935425757,-1.0592823563263274
2.3000000000000003,-0.0960981807342472,0.054981941147624,1.728457861352534,0.0071635967082672,0.1365200139670862,0.0303784476954669,0.1057518731365219,-0.0970118590555526,-0.1331009580137699,-0.0967201832194291,0.0561140368058108,1.7290706446499218,0.1447426929948037,-0.1149961600745643,-0.1712403080462032,0.2033945186307648,-0.0123877064408188,0.1589421747171963,0.1263062153432873,10.58402913822738,-1.3073280523891178,0.1756951724183195,-1.064809301941319
2.32,-0.0939787201268679,0.0530741509603131,1.7258216127299106,0.0086268373458765,0.1390386373678217,0.0304523989303447,0.1062616473072798,-0.0939957157806172,-0.1306739986702638,-0.093825329359533,0.0538141136043195,1.7256458384889977,0.1502599146095221,-0.1152655978188465,-0.1735075787676984,0.1952378140572516,0.0254887085378942,0.1508071637467689,0.1213479671753073,10.572473249034374,-1.3051741503733154,0.1743019574234864,-1.0700078565715565
2.34,-0.0918420919453856,0.0512208932662567,1.723230208884997,0.0105906733900998,0.1412284979521936,0.0305592598636174,0.1074073245022831,-0.0915583300470935,-0.128609508533504,-0.0909304754996369,0.0515141904028282,1.7222210323280738,0.1557771362242406,-0.1155350355631287,-0.1757748494891935,0.1696728099454504,0.0572838597501672,0.121869286676185,0.1032245068379886,10.565330137065756,-1.303740064691472,0.1725329785823957,-1.0744195860584966
2.36,-0.0897852983332135,0.0494944779657363,1.7208033086261427,0.0126300469804029,0.1429096823835696,0.0306686889118468,0.1090310807552544,-0.0903436454908501,-0.1269619972198255,-0.0878976910993729,0.0492075312577299,1.7187395443991125,0.161294357838959,-0.1158044733074109,-0.1780421202106887,0.1306362934729311,0.0811878126485629,0.0607342278121703,0.0823755656839272,10.549613785425208,-1.3026528399350346,0.1704550244516393,-1.0781118557360183
2.38,-0.0875835176767872,0.0476927569430717,1.718279914031418,0.0145781726978023,0.144217562883389,0.0307629514753631,0.1110530723112981,-0.0898800725150894,-0.1254774036211511,-0.0847269761587409,0.0468941361690245,1.7152013747021135,0.1668115794536775,-0.1160739110516931,-0.1803093909321838,0.1275477156772371,0.1010995778021849,0.0231786487880338,0.0742296799337183,10.526736112168692,-1.3021518468307671,0.1685616097262411,-1.0810992629266003
2.4,-0.0853392566139448,0.0458942445173314,1.715783756870694,0.0161713810347389,0.1450576666214962,0.0308232446555965,0.1132494959754847,-0.0899715727171628,-0.1242224119099134,-0.0820308640612223,0.0431987533173173,1.7120060438503604,0.1117522303125235,-0.076265675950427,-0.1312289980565747,0.1265667155579778,0.1098211832093291,-0.0045750101036683,0.0627495855618852,10.526736112168692,-1.3021539543739264,0.1669993211885181,-1.0832374732325547
2.42,-0.0830016755999847,0.0440321805013825,1.713354102246018,0.0154587844546633,0.1442331785583571,0.0306939567774697,0.1204454321498581,-0.0957460551261214,-0.1185678314221148,-0.0820308640612223,0.0431987533173173,1.7120060438503604,0.1117522303125235,-0.076265675950427,-0.1312289980565747,0.5410647489210969,0.3597968087186695,-0.2887241204479272,0.28272902438993,10.517168177047097,-1.2946337704136457,0.1667325921524155,-1.0792187475856003
2.44,-0.0806473230473933,0.0421723797230437,1.7111503843935194,0.0115120380300847,0.1405797582307059,0.0303105541571979,0.1267447343959948,-0.0989025011512821,-0.1136779690388927,-0.0820308640612223,0.0431987533173173,1.7120060438503604,0.1117522303125235,-0.076265675950427,-0.1312289980565747,0.4288213917961261,0.3149651123068343,-0.1578223012580371,0.2444931191611071,10.82080200333803,-1.3021158511322055,0.1709981997724622,-1.0783576993328052
2.46,-0.0780714853984133,0.0402029799073204,1.708922377919716,0.0060913138626071,0.1343304482652851,0.0298275767783889,0.1300322737973001,-0.0976262279853989,-0.1094003577420576,-0.080913341758097,0.042436096557813,1.7106937538697946,0.1118920619127686,-0.0735427966374945,-0.1323793169436594,0.2771946379166616,0.1643769700652692,0.0638136582941623,0.2138805648417514,10.745242960593714,-1.3141623217139788,0.1767924668374229,-1.0751804483278562
2.48,-0.0754732230268804,0.0382894844629753,1.706769820897608,0.0008702891135713,0.1269866521765451,0.0294028077710118,0.1293198154000744,-0.0937745729182018,-0.1060995979144785,-0.0786782971518466,0.0409107830388044,1.708069173908663,0.1121717251132588,-0.0680970380116295,-0.1346799547178289,0.256114521082864,-0.0356229198612875,0.192582753359851,0.1650379913789544,10.610074149539289,-1.325319957256109,0.1820285806198255,-1.0704254176790016
2.5,-0.0729282105060017,0.036470457190373,1.7046725255395765,-0.0035798787237143,0.1197450329089557,0.0290814864335477,0.125087057818203,-0.0884628091981221,-0.1037790154094338,-0.0764432525455961,0.0393854695197959,1.7054445939475316,0.112451388313749,-0.0626512793857645,-0.1369805924919983,0.3588738417869321,-0.2116378790935708,0.2655881860039857,0.1160291252522371,10.553570654502437,-1.335162642383135,0.1866569573400997,-1.0644086576440164
2.52,-0.070617446597515,0.0348492645899456,1.7027154862425304,-0.006988980166607,0.113764340692732,0.0288671038469865,0.1183071301219833,-0.0826149174689757,-0.1023332570885787,-0.0741942247793211,0.0381324439320806,1.7027049820976916,0.1127310515142391,-0.0572055207598996,-0.1392812302661678,0.4534740190024856,-0.3389963848109821,0.2923945864573188,0.0722879160427569,10.553570654502437,-1.3428009809823696,0.19031944411354,-1.0587402647303787
2.54,-0.0683494922285506,0.0332665549142659,1.7006807058761564,-0.0097862387859916,0.1091588788523948,0.0287118690692129,0.1087000849926686,-0.076064192756533,-0.1012368892558498,-0.0719451970130461,0.0368794183443653,1.6999653702478517,0.1130107147147293,-0.0517597621340346,-0.1415818680403372,0.5839720301511442,-0.4803522564657353,0.3275362356221354,0.0548183916364415,10.490628381394345,-1.347695999383172,0.1930960431420267,-1.054509994714455
2.56,-0.0662994541813851,0.0318202626590785,1.698663334513034,-0.0118039516510158,0.1071945457414783,0.0286015882184422,0.0969303704820624,-0.0690789149628378,-0.1005527339253218,-0.0696891776667589,0.0357625367222967,1.6971682424536574,0.1132903779152195,-0.0463140035081696,-0.1438825058145067,0.6851794546550487,-0.5884857255303112,0.3492638896847602,0.0342077665264013,10.490628381394345,-1.3476615756874748,0.1949141679737646,-1.0528316566912304
2.58,-0.0644811949712998,0.0305178478981321,1.696656265296114,-0.0130664576177539,0.1080423644240258,0.0285184260417683,0.0858667392647964,-0.0616228692559172,-0.1001910992125632,-0.0674261667404594,0.0347817990658746,1.6943135987151088,0.1135700411157097,-0.0408682448823046,-0.1461831435886761,0.6673217607736632,-0.5531815608633014,0.3728022853460314,0.0180817356379314,10.47189830915795,-1.3431053283159045,0.195805942240643,-1.0541809386112997
