t,x,y,z,roll,pitch,yaw,v_x,v_y,v_z,ref_x,ref_y,ref_z,ref_v_x,ref_v_y,ref_v_z,a_com,a_x,a_y,a_z,thrust,wind_x,wind_y,wind_z
0.0,-1.0913353818021625,1.7145212217518184,2.3028939009568345,0.0185959838936237,0.1363778561130796,0.0263371376261397,0.0043162343183172,0.0059464377347129,0.0061697984664322,-1.0912027949266632,1.7147183759813285,2.3030843350498458,0.001735978669834,-0.0935781730608934,-0.0936981956779643,0.4797301677501309,0.2158117159158609,0.2973218867356484,0.3084899233216132,10.545353641217844,-1.287927907773306,0.1577222003082845,-1.1715006312158305
0.02,-1.091325870372825,1.714842774226497,2.302796121189453,0.027504459622755,0.137447209773586,0.0269763988422049,-0.0028465345512393,0.0230719803815816,-0.0164270346985595,-1.0912027949266632,1.7147183759813285,2.3030843350498458,0.001735978669834,-0.0935781730608934,-0.0936981956779643,1.4621955562739195,-0.3581384434778303,0.8562771323434325,-1.1298416582495892,10.545995270014828,-1.3091205418055891,0.1498992944263314,-1.1843895951607024
0.04,-1.0914578861890731,1.7153165323289252,2.3021756501063413,0.0423056672291665,0.1404717789486884,0.0280867242063806,-0.0096907027467134,0.0227649704788928,-0.044506418595059,-1.0912027949266632,1.7147183759813285,2.3030843350498458,0.001735978669834,-0.0935781730608934,-0.0936981956779643,1.4451545707771931,-0.3422084097737007,-0.0153504951344409,-1.4039691948249775,9.177498324971566,-1.3043772607608533,0.1339215216071551,-1.1680134885344904
0.06,-1.0917052643592804,1.7157117157653023,2.300992242659689,0.0574212042243779,0.1449233300761409,0.0293104686268948,-0.0144302894390891,0.0164268369335176,-0.0723814112704042,-1.0911854351399648,1.7137825942507192,2.302147353093066,0.0012048539736985,-0.1135781733589166,-0.1136981959759875,1.4488364603226478,-0.2369793346187882,-0.316906677268757,-1.39374963376726,8.984508207506678,-1.2954708918529148,0.1186956890865601,-1.152845744576274
0.08,-1.0920234804350326,1.715943928803132,2.299260194758983,0.0719640400893699,0.150141613220771,0.030584528068423,-0.016925706532139,0.0068007930405149,-0.0993956825458099,-1.0911507155665685,1.7119110307895014,2.300273389179507,0.0001426045814275,-0.1535781739549631,-0.1536981965720339,1.439321611071954,-0.124770854652494,-0.4813021946501331,-1.3507135637702825,9.00580298930845,-1.285861595815184,0.1037090089436841,-1.1406298031326667
0.1,-1.0923511730306683,1.7159600425428867,2.297122427263313,0.0851384489385529,0.1552977521863892,0.0318101335055199,-0.0172995488070254,-0.0048769719346025,-0.1242892567043754,-1.0911159959931716,1.7100394673282835,2.298399425265948,-0.0009196448108435,-0.1935781745510095,-0.1936981971680804,1.3749545331106174,-0.0186921137443181,-0.5838882487558762,-1.2446787079282755,9.048346433493409,-1.2767370641663778,0.089907502695722,-1.128644060915731
0.12,-1.092685151015885,1.715711827281677,2.2943640465567854,0.0983348626587935,0.1605296167208093,0.033079971768704,-0.0159388139036949,-0.019611377275497,-0.1502315779994081,-1.0911343888893883,1.7061679038372632,2.294525461322586,-0.0019818942031145,-0.233578175147056,-0.2336981977641269,1.4932835752140563,0.0680367451665228,-0.7367202670447272,-1.2971160647516342,9.088141434672252,-1.268832321504069,0.0772660696130068,-1.1164150845197636
0.14,-1.0929757834325509,1.7151443172176992,2.2910841226394005,0.1108649819829043,0.1652630145573281,0.0342884854184828,-0.0131285086805186,-0.0366653949432937,-0.176476438399611,-1.0911527817856053,1.7022963403462432,2.2906514973792245,-0.0030441435953856,-0.2735781757431025,-0.2736981983601734,1.571249527833716,0.1405152611588129,-0.8527008833898315,-1.3122430200101454,9.089445827307827,-1.2635582811754376,0.0655315437330739,-1.1074433332465403
0.16,-1.0931967989386715,1.7142123540587857,2.287277359400938,0.1227533045394119,0.169292539215999,0.0353951426106054,-0.009093676239737,-0.0559279032227967,-0.202894583458032,-1.0911977309166287,1.697424776840322,2.2857775334209616,-0.0041063929876566,-0.3135781763391489,-0.3136981989562198,1.647150939023868,0.2017416220390822,-0.9631254139751544,-1.320907252921051,9.087380699314965,-1.2596608461048422,0.055200582308629,-1.0984449275185717
0.18,-1.0933229941316294,1.712948547894669,2.283171013369412,0.1334246766083755,0.1723586337957008,0.036315987610975,-0.004405608445947,-0.0763128561295693,-0.2280316438386063,-1.0912692362824592,1.6915532133194993,2.2799035694477974,-0.0051686423799276,-0.3535781769351953,-0.3536981995522662,1.635081105960147,0.2344033896895017,-1.0192476453386274,-1.2568530190287142,9.087380699314965,-1.2570034238843184,0.0452053226392403,-1.0882217170467738
0.2,-1.0933540340251773,1.711159479974633,2.2783281422105697,0.1433339701581385,0.1747883845318183,0.0370791856984801,0.0010448773767057,-0.1013652143319885,-0.2548984168472582,-1.0935432745539266,1.7091329050881907,2.2717694311774816,0.01145013976043,-0.1763128576196854,-0.3280316453287224,1.8568467485926825,0.2725242911326382,-1.252617910120961,-1.3433386504325948,9.092427096488793,-1.2555501610000928,0.0367813365614268,-1.0766021230088243
0.22,-1.0932509241121613,1.708698390534295,2.273093852531721,0.1472690245308597,0.1768877062260702,0.0373573973223073,0.0091790728980005,-0.1416268358261385,-0.2660599509212339,-1.0935432745539266,1.7091329050881907,2.2717694311774816,0.01145013976043,-0.1763128576196854,-0.3280316453287224,2.1282288087758383,0.4067097760647406,-2.013081074707497,-0.5580767036987844,9.08701547795863,-1.2425022348235324,0.0338754891001423,-1.0585133182294304
0.24,-1.0929961588641144,1.7056786093540697,2.267934561254363,0.1448330464297998,0.1789318075824997,0.0371722781657686,0.0172596944715636,-0.1734088739376057,-0.2764296784275782,-1.0935432745539266,1.7091329050881907,2.2717694311774816,0.01145013976043,-0.1763128576196854,-0.3280316453287224,1.7196843024881945,0.4040310786781548,-1.5891019055733615,-0.5184863753172148,9.97666268868943,-1.2405010099063578,0.0364955720435855,-1.05474528347224
0.26,-1.09256050827853,1.7019166081112564,2.2622692711759096,0.139541273567478,0.1809115488853691,0.0367370482362159,0.0258809847083329,-0.2005722895181218,-0.2896114467939851,-1.0934287731563224,1.707369776511994,2.2684891147241943,0.0146212894017054,-0.1963128579177086,-0.3480316456267456,1.569981535410566,0.4310645118384658,-1.3581707790258066,-0.6590884183203471,9.97666268868943,-1.239749688117613,0.0417162959007503,-1.0521610199234437
0.28,-1.0919526320412665,1.6976566168378693,2.2563148897383107,0.133740153131267,0.1825106647663945,0.0361916647656209,0.0344566100432897,-0.2239072492666252,-0.3052505470805676,-1.0931997703611136,1.7038435193596002,2.26192848181762,0.0209635886842562,-0.2363128585137551,-0.388031646222792,1.468539371385396,0.4287812667478378,-1.1667479874251665,-0.7819550143291221,9.788362018462976,-1.239757756241007,0.0474882366394593,-1.047940466663281
0.3,-1.091175534679547,1.6929567721181689,2.2500217323364287,0.1283179003843667,0.1836357838691817,0.0355927369015898,0.0427962404877428,-0.2449330813565179,-0.3232532606892989,-1.092970767565905,1.7003172622072065,2.2553678489110456,0.027305887966807,-0.2763128591098016,-0.4280316468188385,1.4454521336768746,0.4169815222226553,-1.0512916044946377,-0.9001356804365646,9.626384394012348,-1.2401915090089677,0.0525866183933322,-1.0430687733463324
0.32,-1.0902860759382869,1.6881180767854824,2.243691489714087,0.1238038190059605,0.1842844937842497,0.0350028110977255,0.0503853666908282,-0.2634448163658581,-0.3421759655835939,-1.0924246498065688,1.6947910050250103,2.246807215974669,0.0336481872493578,-0.316312859705848,-0.4680316474148849,1.3769058883044314,0.3794563101542691,-0.9255867504670098,-0.946135244714752,9.48881585341951,-1.2406248037398857,0.0571671282944553,-1.037867023358008
0.34,-1.0891976754846542,1.6826562810429684,2.236628991365881,0.1198394581522398,0.1846100458235745,0.0343833986394219,0.0580250616914449,-0.2818451114605234,-0.3631206848190984,-1.0918785320472326,1.6892647478428144,2.238246583038292,0.0399904865319086,-0.3563128603018945,-0.5080316480109315,1.4453520878382204,0.3819847500308337,-0.9200147547332616,-1.0472359617752252,9.373101246887927,-1.2410884260445616,0.0609908153241374,-1.0310082525552269
0.36,-1.087957898224075,1.6768247781874348,2.229139615861349,0.1163919232993642,0.1846279146035227,0.0337554720009087,0.065538702856201,-0.3003246168246789,-0.3847688228537405,-1.091173856805833,1.6827384906457172,2.228685950087014,0.0463327858144594,-0.3963128608979409,-0.5480316486069778,1.4718940199819823,0.3756820582378095,-0.9239752682077772,-1.0824069017321023,9.304691747217475,-1.2415763519033165,0.0641281487433398,-1.0236360804800526
0.38,-1.0865698767869152,1.6706269008957202,2.221210584637209,0.1130925900065888,0.1843479052724136,0.0330972984812337,0.0728439982673041,-0.3184270327113678,-0.4070106027583003,-1.090310624082369,1.6752122334337187,2.2181253171208346,0.0526750850970102,-0.4363128614939873,-0.5880316492030243,1.4796634543883749,0.3652647705551521,-0.9051207943344464,-1.1120889952279944,9.22257719974914,-1.242057038072158,0.0671820128690153,-1.015740334099221
0.4,-1.085118754814589,1.664409052481673,2.21326062514074,0.1099945891818714,0.1838463656780955,0.0324443887276631,0.0795026724612619,-0.3350706987537347,-0.428679972626824,-1.08292767687355,1.654705549260152,2.200860054499294,0.087709883755993,-0.4184270342014839,-0.5070106042484165,1.4061571319112938,0.3329337096978885,-0.8321833021183445,-1.0834684934261845,9.22257719974914,-1.2425141824745758,0.0700924784788759,-1.0078053766741772
0.42,-1.083422336123631,1.6575144934014356,2.20467112877343,0.1070605507770185,0.1833815294709497,0.0317847162946435,0.0900123052348201,-0.3536761789074046,-0.4279724240578405,-1.08292767687355,1.654705549260152,2.200860054499294,0.087709883755993,-0.4184270342014839,-0.5070106042484165,1.0690146137461405,0.5254816386779132,-0.9302740076834932,0.0353774284491792,9.180202289012414,-1.237193502435205,0.0727633672641145,-0.991582950608095
0.44,-1.0815154764438255,1.6502609290349877,2.1960987018697145,0.1048970557470139,0.1832026034962765,0.0312070438384331,0.1000968850118253,-0.3708864457299453,-0.4297085086098235,-1.08292767687355,1.654705549260152,2.200860054499294,0.087709883755993,-0.4184270342014839,-0.5070106042484165,1.0011318881064857,0.5042289888502596,-0.8605133411270366,-0.0868042275991548,10.274123163700096,-1.2389914419629842,0.0740782608765826,-0.9930073759989676
0.46,-1.0794138875802004,1.6426664472107066,2.187431013970007,0.1034207692207535,0.1830811342560008,0.0306794526568538,0.1095431064762367,-0.3877471809261385,-0.4369394834807127,-1.08205057803599,1.6505212789181372,2.19578994845681,0.0906830608537308,-0.4384270344995072,-0.5270106045464397,1.031749108182659,0.4723110732205687,-0.8430367598096594,-0.3615487435444597,10.274123163700096,-1.2405959129900144,0.0749513119916722,-0.9928853980294592
0.48,-1.0772481250769117,1.635144903930846,2.179023870864221,0.1024907836199825,0.1828317433645368,0.0301931517444152,0.1179267853737337,-0.4031770095001396,-0.4476390089869545,-1.0802963803608705,1.6421527382341077,2.185649736371841,0.0966294150492064,-0.4784270350955536,-0.5670106051424861,1.0281604054549511,0.4191839448748513,-0.7714914287000552,-0.5349762753120879,9.983545260887697,-1.242408839471799,0.0754473242974725,-0.991335315941292
0.5,-1.0748035600815224,1.626918258172647,2.169922678597573,0.102108801105907,0.1823733733025862,0.0296980866241765,0.1260300120845864,-0.418697054218961,-0.4620472982137348,-1.0785421826857504,1.6337841975500778,2.1755095242868734,0.102575769244682,-0.5184270356916001,-0.6070106057385326,1.1337249111273024,0.4051613355426357,-0.7760022359410673,-0.720414461339014,9.576002563417203,-1.244069286785883,0.0754360366748365,-0.9883521051484884
0.52,-1.072204292239267,1.618385522414372,2.160502951996401,0.1024619958434846,0.1817265378271167,0.0292293185483094,0.1334540564018801,-0.4338713611771797,-0.479175587538352,-1.0764906673008567,1.6234156568362457,2.1633693121721027,0.1085221234401576,-0.5584270362876466,-0.6470106063345791,1.202865662569164,0.3712022158646841,-0.7587153479109376,-0.8564144662308593,9.434389895185632,-1.2451591863292106,0.0748388498908737,-0.9840687413043924
0.54,-1.0696017226286698,1.6099985101707626,2.1512265011505347,0.1035044355336327,0.18097605324377,0.0288127285826391,0.1400988330514153,-0.4482872528832527,-0.4964200008435743,-1.074439151915963,1.6130471161224138,2.151229100057332,0.1144684776356331,-0.598427036883693,-0.6870106069306255,1.1719009990660072,0.3322388324767597,-0.7207945853036496,-0.8622206652611181,9.434389895185632,-1.246335705551042,0.0736080827565859,-0.9784053608442796
0.56,-1.0667289024394664,1.6008628213734255,2.1410987093997567,0.1050548485719334,0.180065898983543,0.0283847241400839,0.1467957721162835,-0.4645267573262113,-0.5154738291441651,-1.0722389776761825,1.6016785753936806,2.13808888792766,0.1204148318311087,-0.6384270374797394,-0.7270106075266719,1.2957805276162897,0.3348469532434076,-0.8119752221479287,-0.9526914150295356,9.376836275803726,-1.2474639085763644,0.0719759573492838,-0.9722311153943122
0.58,-1.063724830505271,1.5913899104583866,2.130581721193685,0.106502878584326,0.1790104943097896,0.0279247628036039,0.1532433729392981,-0.4819106864356765,-0.5352781908229157,-1.0698901445815152,1.5893100346500462,2.123948675783087,0.1263611860265843,-0.6784270380757859,-0.7670106081227184,1.356452440337128,0.3223800411507341,-0.8691964554732617,-0.990218083937533,9.284620924835508,-1.2484938573134927,0.0704411967399964,-0.9655460006020914
0.6,-1.060594522850118,1.581557054467858,2.119660163300265,0.1072535997865193,0.177766011823312,0.0273875698553614,0.1594251821135805,-0.5003426763780396,-0.5558452739005871,-1.0560626618583058,1.5672943761366027,2.10381781165254,0.181062296755383,-0.5819106879257927,-0.6352781923130318,1.4150600024614273,0.309090458714116,-0.9215994971181556,-1.0283541538835703,9.24403799229276,-1.2494506339993077,0.0695406412360961,-0.958739961428476
0.62,-1.0574996259008742,1.571810284542419,2.1091685487139578,0.1059955845124906,0.1776759567023258,0.0268528089160582,0.1663754769748721,-0.5241350819737016,-0.5474790526510741,-1.0560626618583058,1.5672943761366027,2.10381781165254,0.181062296755383,-0.5819106879257927,-0.6352781923130318,1.3080317472095124,0.3475147430645822,-1.189620279783099,0.4183110624756514,9.24403799229276,-1.2445799740377754,0.0704747611401102,-0.9453263382720616
0.64,-1.0540920118307713,1.5610934093194686,2.098271460618488,0.1023739206674065,0.1795852451128787,0.0263406603870372,0.1741915422364388,-0.5457098733459521,-0.5430286124489901,-1.0560626618583058,1.5672943761366027,2.10381781165254,0.181062296755383,-0.5819106879257927,-0.6352781923130318,1.168726782573165,0.3908032630783348,-1.0787395686125243,0.222522010104198,11.003127664863314,-1.2424963742495785,0.0727155937604736,-0.9503971531977328
0.66,-1.0505194913637343,1.5499851466379726,2.0873922006147247,0.0979293442788536,0.1826326887809474,0.0258824225146213,0.1828432403407849,-0.5637877720961062,-0.5450786861476858,-1.054252038890752,1.5614752692573448,2.0974650297294093,0.1866260815186,-0.6019106882238159,-0.655278192611055,1.0073047025101844,0.432584905217305,-0.9038949375077044,-0.1025036849347849,10.584045031334426,-1.239124498480475,0.0755973234817366,-0.9554433150811592
0.68,-1.046957505375996,1.5391214698768545,2.076970536067728,0.0937117479849722,0.1858422710918941,0.0254704482406959,0.1917535811098711,-0.5787878434359733,-0.5518232767586564,-1.0506307929556444,1.549837055498829,2.084759465883149,0.1977536510450339,-0.6419106888198624,-0.6952781932071015,0.9352617485655216,0.4455170384543086,-0.7500035669933569,-0.3372295305485273,10.221799906680644,-1.2360632941202885,0.0788531331051299,-0.9592418813810664
0.7000000000000001,-1.0430200143109083,1.527396687930567,2.0658215723428754,0.089650003453098,0.1890814223321429,0.025042251991143,0.2015654204528023,-0.5928803244487701,-0.5628960757969577,-1.0470095470205367,1.5381988417403132,2.072053902036888,0.2088812205714679,-0.6819106894159088,-0.735278193803148,1.021612806950531,0.4905919671465614,-0.7046240506398405,-0.5536399519150637,9.939783028786223,-1.233796625069845,0.0819287815213866,-0.9614209568548414
0.72,-1.0388830110902778,1.5154033366320825,2.054411809469803,0.0861313649028657,0.1918849019838443,0.0246074421681917,0.2116553091027828,-0.6058128561999793,-0.577507447921505,-1.0428319226091074,1.524560627951995,2.0573483381608253,0.2200087900979018,-0.7219106900119553,-0.7752781943991944,1.0983492452619932,0.5044944324990253,-0.646626587560456,-0.7305686062273664,9.535095641614134,-1.2323387568434556,0.0846287092308071,-0.9618425876755836
0.74,-1.0345403619612703,1.503160244370158,2.0426935466086977,0.0831737144127316,0.1940992224517387,0.024158787957572,0.2220866433250112,-0.6179405800937768,-0.5935785231255362,-1.038654298197678,1.5109224141636768,2.0426427742847624,0.2311363596243358,-0.7619106906080018,-0.8152781949952409,1.1337701251947494,0.5215667111114194,-0.6063861946898785,-0.8035537602015586,9.535095641614134,-1.231496277335434,0.0867841878889301,-0.9605267812214824
0.76,-1.0302178226719174,1.4913020840398696,2.031252683693378,0.0806093393750098,0.1955499421255601,0.0236959277029556,0.2323408018353787,-0.6295887730206348,-0.6098937332200399,-1.0341984845480878,1.4962842003604575,2.026937210393798,0.2422639291507697,-0.8019106912040481,-0.8552781955912873,1.1258488415911367,0.5127079255183727,-0.5824096463428963,-0.8157605047251881,9.460135044534582,-1.2313324579605454,0.0888301510383968,-0.9578184543165128
0.78,-1.025457824684069,1.4785855077654428,2.018863407418177,0.0779448417315043,0.1963365261635149,0.0231546681981101,0.2430573524513567,-0.6413615738189441,-0.6282058888027842,-1.0294644816603369,1.4806459865423371,2.0102316464879326,0.2533914986772037,-0.8419106918000946,-0.8952781961873337,1.213237752697429,0.5358275307989019,-0.5886400399154668,-0.915607779137212,9.4025854058782,-1.2322094385601097,0.0908589039240928,-0.9538242182023584
0.8,-1.0204851012838556,1.4656381142401904,2.006095421645801,0.0752388979831106,0.1963616105456022,0.0225573306484456,0.2535859289196174,-0.6526590060116798,-0.6476346314955511,-1.0133049570615016,1.4465174290744955,1.9874531129780384,0.2724745096245135,-0.7413615753090602,-0.6810571745882208,1.240926004259741,0.5264288234130332,-0.5648716096367856,-0.9714371346383476,9.3327302532889,-1.2337475073536115,0.0928086378722079,-0.9488815977412954
0.8200000000000001,-1.0154665489035322,1.4530892912338813,1.9940042222616363,0.0720825187703408,0.1951208577745256,0.0218635832984369,0.2739917177251262,-0.6672084836365646,-0.6240989385972294,-1.0133049570615016,1.4465174290744955,1.9874531129780384,0.2724745096245135,-0.7413615753090602,-0.6810571745882208,1.719020328658275,1.0202894402754403,-0.7274738812442394,1.1767846449160846,12.02141147477414,-1.2260389679015025,0.0948741016651971,-0.9329562618596048
0.84,-1.0097686626879652,1.4396099258796606,1.9817478099668704,0.0684175085307,0.1917187958016679,0.0209775445180849,0.2944926662500564,-0.6798384038235467,-0.6032098423077473,-1.0133049570615016,1.4465174290744955,1.9874531129780384,0.2724745096245135,-0.7413615753090602,-0.6810571745882208,1.5938617554093488,1.0250474262465086,-0.6314960093491029,1.044454814474105,12.02141147477414,-1.232341123525016,0.0973509741834063,-0.9353012766065364
0.86,-1.0036821744081976,1.4258976320997596,1.969836334149251,0.0650007318385172,0.1858921141569394,0.0199723453502344,0.3126273924105023,-0.6907325294548854,-0.5892034273863359,-1.0105802119652565,1.439103813321405,1.980642541232156,0.2783579410591448,-0.7613615756070834,-0.6916274317453082,1.2685916651315463,0.906736308022299,-0.5447062815669368,0.7003207460705707,11.108179821999329,-1.2416426194443972,0.0997264721991244,-0.9332921169646452
0.88,-0.9972768628046056,1.4119816611828828,1.958139381359861,0.0620486170604272,0.178119675754223,0.0189089043251396,0.3265569322789317,-0.7003970311431155,-0.581098113413016,-1.005130721772766,1.424276581815224,1.967021397740392,0.2901248039284075,-0.8013615762031299,-0.7127679460594828,0.939588724434871,0.696476993421466,-0.4832250844115038,0.4052656986659964,11.108179821999329,-1.2518311947680134,0.1016510392167141,-0.9273830289799116
0.9,-0.9909741588470916,1.3985910570239182,1.947133903396857,0.0597422741166049,0.1697750125459572,0.0179080672579544,0.3358861728251061,-0.7087557538125825,-0.5777242871568001,-0.999681231580276,1.4094493503090426,1.9534002542486275,0.3018916667976702,-0.8413615767991763,-0.7339084603736574,0.648624848122121,0.46646202730872,-0.4179361334733511,0.1686913128107925,10.752468587533258,-1.2625788179751367,0.1032273134305076,-0.9183030260741288
0.92,-0.9841879607705122,1.3843315533555842,1.9355823169653013,0.0578988059495614,0.160756475333568,0.0169140183954193,0.3419316177309578,-0.7168239105532391,-0.5777500461315769,-0.9936433982443224,1.3926221187730592,1.9387220850411544,0.3136585296669329,-0.8813615773952228,-0.755048974687832,0.5040913132218047,0.3022722452925869,-0.403407837032832,-0.0012879487388373,10.46370212673628,-1.272583924439736,0.1042829909932318,-0.9077075812023614
0.94,-0.9773150317444886,1.369916620922383,1.9240112660774007,0.0567603820379007,0.1521435208308165,0.016019323308645,0.3448456439325155,-0.7243101424275548,-0.5793842770245936,-0.987605564908369,1.3757948872370755,1.924043915833681,0.3254253925361956,-0.9213615779912692,-0.7761894890020068,0.4098961057117844,0.1457013100778864,-0.3743115937157815,-0.0817115446508365,10.228734711907236,-1.28083227354037,0.1047203527456362,-0.8963669631320552
0.96,-0.9704110828009682,1.355347638190546,1.9123935848123628,0.0561967367711476,0.1443854675122618,0.0152319014558386,0.3453003283194846,-0.7321900043769691,-0.5822711475333825,-0.981273560000684,1.3579676556861908,1.9088372337683532,0.3371922554054583,-0.9613615785873156,-0.7973300033161814,0.4202171568608809,0.0227342193484553,-0.3939930974707184,-0.1443435254394443,10.055807459399148,-1.2872711472531675,0.1046917265005686,-0.8861912496304108
0.98,-0.96386356949787,1.341358446500301,1.9012924077860125,0.0559142163691666,0.1380252645122121,0.0145712980758556,0.34383673191733,-0.73991569817857,-0.5861095298467374,-0.9746473835212676,1.339140424120405,1.893102038845172,0.348959118274721,-1.001361579183362,-0.818470517630356,0.4374975369301205,-0.0731798201077327,-0.3862846900800409,-0.1919191156677435,10.055807459399148,-1.292518245872872,0.104439647898013,-0.8765283037481731
1.0,-0.9570202302729394,1.326473602916488,1.889516940880534,0.055730187916421,0.132615499485597,0.0139675942638456,0.340433300099265,-0.7481327959214847,-0.5912747284452051,-0.9466717329020036,1.3043626615913726,1.871986931293676,0.3595633634246075,-0.8399156996686861,-0.626533221119473,0.5142550923871488,-0.1701715909032508,-0.4108548871457396,-0.2582599299233878,9.981750485771954,-1.2965893060675515,0.1041335759901671,-0.868092364831189
1.02,-0.9502198653271664,1.3113668389604036,1.8778861435402168,0.054186987521034,0.1286579491701013,0.0133643907822497,0.3398396470932131,-0.7618207660284657,-0.5702002144352021,-0.9466717329020036,1.3043626615913726,1.871986931293676,0.3595633634246075,-0.8399156996686861,-0.626533221119473,1.256829433832425,-0.0296826503025926,-0.6843985053490487,1.053725700500152,11.64500275780938,-1.292132454685623,0.1044638435239123,-0.8561840253528417
1.04,-0.943448040223673,1.296018583742357,1.8666786243215705,0.0509303912516341,0.1263706382333751,0.012756083078572,0.3373239595403274,-0.7719363778933362,-0.551740932518587,-0.9466717329020036,1.3043626615913726,1.871986931293676,0.3595633634246075,-0.8399156996686861,-0.626533221119473,1.0599520934239497,-0.1257843776442863,-0.5057805932435266,0.9229640958307528,11.64500275780938,-1.292856196586481,0.1062966255161066,-0.8594340242551758
1.06,-0.9370703771388676,1.2812799637583412,1.8563184477852777,0.0477701165392296,0.1259141157696561,0.0122822608954993,0.3343389195040207,-0.7790137102803687,-0.5397273510358671,-0.9430760992677574,1.2959635045946858,1.865721599082481,0.3627086897260629,-0.8599156999667092,-0.6346179593740201,0.712960794463558,-0.1492520018153337,-0.3538666193516226,0.6006790741359957,11.269562461791793,-1.291545198037532,0.1082779435986453,-0.8640255475777524
1.08,-0.9304140495923544,1.2656372078738038,1.8456141895154128,0.0449654497568654,0.1267230986575094,0.011898056132503,0.3315669899987923,-0.7849665512454514,-0.5315368739203165,-0.9358848319992652,1.279165190601312,1.8531909346600917,0.3689993423289739,-0.8999157005627557,-0.6507874358831143,0.5248900459093365,-0.138596475261421,-0.2976420482541375,0.4095238557775327,10.908419851601138,-1.2895703870116113,0.1099769849855618,-0.8686072170822541
1.1,-0.9238088644567044,1.2498854105550303,1.8350289095154704,0.0429067870816977,0.1283917131736511,0.0116177060392933,0.3292300356908489,-0.7901023080128712,-0.5273969046592517,-0.9286935647307732,1.2623668766079383,1.840660270237702,0.375289994931885,-0.9399157011588022,-0.6669569123922086,0.3499167704400353,-0.1168477153971697,-0.2567878383709865,0.2069984630532373,10.42219014751663,-1.2873307794312947,0.1111384699686949,-0.8728094409058437
1.12,-0.9175716705701265,1.2348325806439788,1.8250215088060096,0.0416904763128681,0.1304345317816872,0.0114332636565811,0.327530969937831,-0.7942781497123566,-0.5262249971551761,-0.9211877648321356,1.2435685625847623,1.827321131989858,0.381580647534796,-0.9799157017548488,-0.6831263889013028,0.2329047312225962,-0.0849532876508962,-0.2087920849742686,0.0585953752037793,10.42219014751663,-1.2845613381591925,0.1118133647174712,-0.8768504967463359
1.14,-0.911033269690014,1.2189091752244134,1.814499544477833,0.0414465047714644,0.1327942206195605,0.0113311507436468,0.3264821788858679,-0.7979401954594294,-0.5260827755772288,-0.9136819649334976,1.2247702485615863,1.8139819937420136,0.387871300137707,-1.0199157023508951,-0.699295865410397,0.1905962270190967,-0.0524395525981546,-0.1831022873536425,0.0071110788973649,10.262414568833265,-1.2815416424858064,0.1116922756449737,-0.8803181329974752
1.16,-0.9045069304356405,1.202907016833514,1.803971875164427,0.0422587002617982,0.1351217958736922,0.0113131611058502,0.3262641035417651,-0.8021476194540945,-0.5267246510001008,-0.9060188987197872,1.204971934523509,1.800238618581442,0.3941619527406179,-1.0599157029469417,-0.7154653419194913,0.2130843587940958,-0.0109037672051393,-0.2103711997332558,-0.0320937711435986,10.206579396530287,-1.278830748408656,0.1107829629061705,-0.8833911430976199
1.18,-0.8979772655720426,1.1868140281742423,1.7934236070217529,0.0438256700437568,0.1371949291551902,0.0113489573371697,0.3267331109268638,-0.8069778818350141,-0.5280723906949172,-0.898198566191004,1.1841736204705309,1.7860910065081432,0.4004526053435289,-1.0999157035429878,-0.7316348184285855,0.2518323096863638,0.0234503692549348,-0.2415131190459774,-0.0673869847408192,10.136833757515888,-1.2766042904244117,0.1093885108351363,-0.88582287320363
1.2,-0.891760379591551,1.1714285889849698,1.7833717925966497,0.0457693918380299,0.1388076344880613,0.011409433169266,0.3276482739079954,-0.8123226560437699,-0.5299469783129279,-0.8816406100256994,1.1464651340824918,1.767019987487007,0.3664951869173022,-0.9069778833251302,-0.5349153629399845,0.2868719808652192,0.0457581490565794,-0.2672387104377893,-0.0937293809005368,10.136833757515888,-1.2747375043083715,0.1075572312756602,-0.8876574723905851
1.22,-0.8851742449183259,1.1550460287916922,1.7730195145067802,0.0462055470531694,0.140698610728918,0.0113799808719157,0.3312252562142169,-0.8252572276801317,-0.5037723904814787,-0.8816406100256994,1.1464651340824918,1.767019987487007,0.3664951869173022,-0.9069778833251302,-0.5349153629399845,1.4707200566231546,0.1788491153110749,-0.6467285818180901,1.3087293915724607,10.106381438034989,-1.2670221508457222,0.1067310807674278,-0.8832822766434659
1.24,-0.8785017911342352,1.138422334017239,1.7632123769440222,0.0439205029802226,0.1431497121241419,0.011195682361333,0.3359212416705802,-0.836229446228489,-0.4786249741536165,-0.8816406100256994,1.1464651340824918,1.767019987487007,0.3664951869173022,-0.9069778833251302,-0.5349153629399845,1.3917923760803232,0.2347992728181647,-0.5486109274178697,1.2573708163931108,12.018841762537704,-1.2635775712652275,0.1081747615701175,-0.8941095237136248
1.26,-0.8717294825054742,1.121612896181319,1.7538534307122022,0.0402065259328407,0.1456599649344001,0.0109214773232559,0.3411373482938012,-0.8437963462367938,-0.4585124810929951,-0.8779756581565263,1.1373953552492406,1.761670833857607,0.3744476021153899,-0.9269778836231536,-0.536283957388998,1.1056424842077512,0.2608053311610542,-0.3783450004152366,1.0056246530310675,11.722835471849066,-1.2602121046501398,0.110695984012242,-0.9038855138628482
1.28,-0.8648489726321928,1.104686486765099,1.7448530595444178,0.0366050400783654,0.1479120333434358,0.0106519211824407,0.3466737686264102,-0.8485540276504341,-0.4425412987637426,-0.8706457544181804,1.119255797582738,1.7509725265988074,0.3903524325115653,-0.9669778842192,-0.5390211462870249,0.8780178636099227,0.2768210166304491,-0.2378840706820151,0.7985591164626271,11.174030804986614,-1.2584053042200034,0.1134748259124941,-0.9126229711881936
1.3,-0.8582082550513503,1.0885335933989286,1.736566101248797,0.0338645938775914,0.1496510752478396,0.0104369319599625,0.3520641921292573,-0.8517062612889829,-0.430577542768627,-0.8633158506798343,1.1011162399162353,1.7402742193400078,0.4062572629077407,-1.0069778848152464,-0.5417583351850519,0.6747679229978042,0.2695211751423537,-0.1576116819274386,0.5981877997557783,11.174030804986614,-1.2575695435474492,0.1157771890749431,-0.9198143220199804
1.32,-0.8511074911220086,1.0714740913657848,1.7280636322302216,0.0318820329689384,0.1510044717397873,0.0102677770853468,0.3577068560969667,-0.8542433242569597,-0.4204144379023575,-0.8551907054216795,1.0809766822199305,1.7294390526363068,0.4221620933039161,-1.0469778854112928,-0.5444955240830789,0.5949055506522787,0.2821331983854674,-0.1268531483988422,0.5081552433134767,10.980318353152144,-1.257344093134217,0.1173745871890057,-0.9253677387103184
1.34,-0.8438927888385992,1.054371867801314,1.7197515668244667,0.030998570335694,0.151854025284688,0.010170590050243,0.3634402388099373,-0.8560463669146637,-0.4113008849876356,-0.8470655601635246,1.0608371245236254,1.7186038859326058,0.4380669237000915,-1.0869778860073394,-0.5472327129811058,0.545846789145834,0.2866691356485318,-0.0901521328852017,0.4556776457360939,10.7945145859494,-1.257253744077939,0.1180697679324892,-0.9294878017937612
1.36,-0.8369308119122015,1.0380874948484995,1.71201809554578,0.0311210104408865,0.1521538575388522,0.01013962142377,0.3690481564322599,-0.8580738440989624,-0.4032061097667809,-0.8385427941454655,1.039697566812419,1.707700289506454,0.4539717540962669,-1.1269778866033855,-0.5499699018791327,0.5027046589891809,0.28039588111613,-0.1013738592149315,0.4047387610427361,10.7945145859494,-1.2576470126417745,0.1179450906290819,-0.9326702099150312
1.38,-0.8294883069211486,1.0209016362272176,1.7040394869708666,0.0321022366022467,0.151910769186841,0.0101579646367656,0.3748418518375169,-0.8604650201698774,-0.3950985412407287,-0.8296224073675019,1.017558009086312,1.6967282633578515,0.4698765844924422,-1.166977887199432,-0.5527070907771596,0.5123897365669159,0.2896847702628519,-0.1195588035457495,0.4053784263026105,10.766048965269874,-1.258639847497376,0.1171125352524952,-0.935125211235446
1.4,-0.8219320030214194,1.003661953910155,1.6962173055488114,0.0338194105355356,0.1511076573759912,0.0102161204176287,0.3804038820740251,-0.8634396065375113,-0.3875214103771003,-0.8107462143292727,0.9778783852187236,1.68428455990883,0.4082643182050001,-0.9604650216599936,-0.393804088194444,0.4929433449568366,0.2781015118254099,-0.1487293183816962,0.3788565431814161,10.717084362411695,-1.260123349305574,0.1156629316928603,-0.9368133163404292
1.42,-0.8142202603630443,0.9862932265641058,1.6886827519653798,0.0342271375015269,0.1489942018406403,0.0101435291747524,0.3906130282634474,-0.872896448029137,-0.3655700300860695,-0.8107462143292727,0.9778783852187236,1.68428455990883,0.4082643182050001,-0.9604650216599936,-0.393804088194444,1.2995399316644616,0.5104573094711157,-0.4728420745812867,1.0975690145515442,10.717084362411695,-1.2556233279954392,0.1148347442773339,-0.9348044124399548
1.44,-0.8067059835263116,0.9696389121055438,1.681935117902937,0.0324960095348953,0.1448311247270246,0.0098669735155777,0.3996490302622783,-0.8795935804451398,-0.345867536832614,-0.8107462143292727,0.9778783852187236,1.68428455990883,0.4082643182050001,-0.9604650216599936,-0.393804088194444,1.134338083556669,0.4518000999415433,-0.3348566208001391,0.9851246626727704,11.71715177842816,-1.2603487960562654,0.1163125477810441,-0.9367062231095422
1.46,-0.7986372620335143,0.951993948642088,1.6752066626383495,0.0296810228807411,0.1384827347881832,0.0094708199071888,0.4062709948626702,-0.8843124290014537,-0.3281201963843839,-0.8066635711472228,0.9682737350021238,1.6803465190268856,0.4149488114784967,-0.9804650219580168,-0.3935451975851871,0.9760712574546668,0.3310982300195941,-0.235942427815694,0.887367022411506,11.519679835780153,-1.268538623036255,0.1187863870559098,-0.934379409713642
1.48,-0.7904792522592226,0.9342835138767056,1.6687970919696575,0.0270565199517371,0.1311857442743249,0.0090958317538207,0.4089224341730797,-0.8866493056791716,-0.3136927547601455,-0.7984982847831227,0.949064434568924,1.6724704372629968,0.4283177980254899,-1.0204650225540632,-0.3930274163666733,0.742701479136224,0.1325719655204754,-0.1168438338858934,0.7213720812119212,11.103621393242976,-1.2770076679469953,0.1210130446280729,-0.9307941892307476
1.5,-0.7827143974556084,0.9174278573105108,1.6629492825591785,0.0253185969427101,0.1242933333014898,0.0088233445739783,0.4081619809278665,-0.8877415021890733,-0.3025758606587447,-0.7903329984190227,0.929855134135724,1.6645943554991078,0.4416867845724832,-1.0604650231501096,-0.3925096351481594,0.559813622592725,-0.0380226622606588,-0.0546098254950888,0.5558447050700382,11.103621393242976,-1.2848391205016814,0.1226637823935342,-0.925844005935236
1.52,-0.7745860708666743,0.8996710448143619,1.657001863692769,0.0245945501965933,0.1178004821267752,0.0086548784402014,0.4045444578004764,-0.8880010098107537,-0.292836677914101,-0.7814992627275731,0.908645833672722,1.6567441627961446,0.4550557711194765,-1.100465023746156,-0.3919918539296456,0.5196284689960681,-0.1808761563695055,-0.0129753810840183,0.4869591372321874,10.934064698349175,-1.2909011002714117,0.1233269710473346,-0.9208054910019328
1.54,-0.7665579981021283,0.8819161999380675,1.6512365688672666,0.0254155684659519,0.1127661614075977,0.0086402219474155,0.3982803121157873,-0.8876367494536959,-0.2842188752463935,-0.7726655270361233,0.8874365332097196,1.6488939700931815,0.4684247576664697,-1.1404650243422023,-0.3914740727111317,0.5330073395045327,-0.3132072842344569,0.0182130178528916,0.4308901333853754,10.75429525826894,-1.2951522574187744,0.1227018571677191,-0.916521812262025
1.56,-0.7590697981851574,0.865048261060864,1.64591226223687,0.0276414957637047,0.1100796549061427,0.008780611540474,0.3902458671634418,-0.8880912528324597,-0.2766642224644683,-0.7634975666809989,0.8652272327318163,1.641056721920681,0.481793744213463,-1.180465024938249,-0.3909562914926179,0.551886894365655,-0.4017222476172727,-0.0227251689381924,0.3777326390962593,10.75429525826894,-1.2966997427328804,0.1208994839721118,-0.9146861047140856
1.58,-0.7513567051176306,0.8472624655981231,1.640460379111836,0.0308861303372438,0.1098216605685444,0.0090616780204246,0.3818025586856732,-0.8907355399903617,-0.2689460636491554,-0.7539953816621995,0.8420179322390119,1.6332324182786435,0.4951627307604562,-1.2204650255342953,-0.3904385102741041,0.5870512927389682,-0.422165423888432,-0.1322143578950996,0.3859079407656451,10.725764480229373,-1.29357736301215,0.1181185966073992,-0.9171032371133636
1.6,-0.7437965393252363,0.829400864670778,1.6351615236567516,0.0340543934003385,0.1115521542868336,0.0094036829131064,0.3748656890478518,-0.8952882734563015,-0.2613375880822857,-0.732266577183347,0.802725688598605,1.6270130759293782,0.429555464322699,-0.9739031152901017,-0.2773919375056999,0.5628864069145525,-0.3468434818910709,-0.2276366732969881,0.380423778343486,10.707478771316346,-1.2887548962761932,0.1153964933738166,-0.9221502164203718
1.62,-0.7363689992486357,0.8113005083269615,1.630087647186003,0.0324279906947811,0.1152221548703597,0.0094849394505085,0.3686776323207094,-0.9124266904516836,-0.2463786570755308,-0.732266577183347,0.802725688598605,1.6270130759293782,0.429555464322699,-0.9739031152901017,-0.2773919375056999,1.1787567603525988,-0.3094028363571199,-0.8569208497690994,0.7479465503377414,11.215188775312528,-1.2811464549027292,0.1163671220649555,-0.9252159053347616
1.64,-0.7294072036642161,0.7938808868729317,1.6255338793852003,0.0261940969172064,0.1203455635775311,0.0092806833412696,0.3647610797349662,-0.9195098283280748,-0.2337305230525508,-0.732266577183347,0.802725688598605,1.6270130759293782,0.429555464322699,-0.9739031152901017,-0.2773919375056999,0.7508087649264067,-0.1958276292871569,-0.3541568938195683,0.632406701149002,11.215188775312528,-1.2719188527523817,0.121640710767753,-0.9365678955285888
1.66,-0.7221359050207461,0.7754724299148583,1.6209731821029465,0.0190028233744919,0.1266774105494088,0.0090218579474735,0.3628342919033599,-0.9208689066575966,-0.2231597320134596,-0.72797102254012,0.7929866574457041,1.6242391565543213,0.4391060454501042,-0.9905366303500496,-0.2790811122770088,0.541528458268657,-0.0963393915803162,-0.0679539164760878,0.5285395519545572,11.049867609795,-1.2644375113123665,0.1278216460567657,-0.9488072164790324
1.68,-0.7148805935141699,0.7570748598277399,1.616592326735497,0.0128216618670939,0.1332855207236895,0.0088112959483764,0.3629961305374423,-0.9190936718221938,-0.2154810359193677,-0.719379913253666,0.773508595139902,1.6186913178042073,0.4582072077049145,-1.0238036604699454,-0.2824594618196266,0.394144720152801,0.0080919317041183,0.088761741770138,0.383934804704597,10.72816961808985,-1.2581421651474975,0.133356899318456,-0.960420353467606
1.7,-0.7076012535792029,0.7387315191240679,1.6123429109976966,0.0081312788712922,0.1396316675048501,0.0086811878346737,0.3650617564801716,-0.9157075477527384,-0.2098749855495435,-0.710788803967212,0.7540305328340999,1.6131434790540933,0.4773083699597248,-1.0570706905898413,-0.2858378113622444,0.3433673233507661,0.1032812971364649,0.1693062034727743,0.2803025184912086,10.72816961808985,-1.2531016899492404,0.1375493490345417,-0.9707213195120774
1.72,-0.7006316121048815,0.7213764603100998,1.6083959860601724,0.0051042929319026,0.1450690666815997,0.0086432842995143,0.3685415225845083,-0.9116870264856376,-0.2058923791771052,-0.7012426365680174,0.7328891190223031,1.6074267228268484,0.4964095322145352,-1.0903377207097371,-0.2892161609048622,0.3321690718515398,0.173988305216835,0.2010260633550309,0.1991303186219165,10.626115521147767,-1.2489487040666545,0.1407507196740085,-0.9802334961408746
1.74,-0.6932104110534488,0.7031938113065288,1.6043169300018636,0.0033334586532972,0.1499604447308829,0.0086974664960474,0.3734563092856585,-0.9070177282210286,-0.2022563447229987,-0.691696469168823,0.7117477052105062,1.6017099665996035,0.5155106944693456,-1.1236047508296332,-0.2925945104474799,0.3846369104530105,0.2457393350575126,0.2334649132304578,0.1818017227053242,10.562097866871229,-1.2458544371305524,0.1427061654982384,-0.9882130875034008
1.76,-0.685677245172376,0.6851020343962204,1.6003068079439269,0.0028540048344035,0.1538144733806533,0.0088445817035496,0.3796238440791699,-0.9024919144830552,-0.1989557609354278,-0.6816727727132582,0.6897746156457121,1.595908751633793,0.5346118567241559,-1.156871780949529,-0.2959728599900978,0.4165793104523371,0.3083767396755699,0.2262906868986669,0.165029189378546,10.540720989875808,-1.2439235131242368,0.1435478402672757,-0.9950707201186502
1.78,-0.6780108875318822,0.6671016027937923,1.5963607936926802,0.0036042249069659,0.1564493222609593,0.0090836277850681,0.3866123679335076,-0.8979281924942951,-0.1958148518904939,-0.6711715472013232,0.6669698503279204,1.590023077929417,0.5537130189789663,-1.190138811069425,-0.2993512095327156,0.4459045124291929,0.349426192716884,0.2281860994380047,0.1570454522466929,10.540720989875808,-1.2435073339073353,0.1433521766502493,-1.0002435046446296
1.8,-0.6705948943623193,0.6500830022130493,1.5926696335863957,0.005450528275851,0.1578207437628938,0.0093946157643973,0.3935639249790503,-0.8938644921021586,-0.1928836586191442,-0.6586802691352068,0.6222051931690775,1.5865700510981555,0.4266523058767277,-0.9527020782510262,-0.192967270487164,0.4284556576487549,0.3475778522771339,0.2031850196068274,0.1465596635674873,10.542097515236492,-1.2444708432998786,0.142084383797085,-1.0042521577775876
1.82,-0.6625744229832303,0.6321039251005505,1.588950728095542,0.0039751369107758,0.1564985443550245,0.0094778575304424,0.408270945292211,-0.9031659405002748,-0.1785666468384468,-0.6586802691352068,0.6222051931690775,1.5865700510981555,0.4266523058767277,-0.9527020782510262,-0.192967270487164,1.1267100504601557,0.7353510156580367,-0.4650724199058154,0.7158505890348693,10.545162184131186,-1.2406952171551286,0.1434780134573997,-1.0061533078864309
1.84,-0.65426680791013,0.6140203477565518,1.5855291049554918,-0.0024592409217019,0.1506611278955618,0.0092376202367949,0.4209776628054093,-0.903789355626725,-0.164384968425702,-0.6586802691352068,0.6222051931690775,1.5865700510981555,0.4266523058767277,-0.9527020782510262,-0.192967270487164,0.9525876849175358,0.6353358756599148,-0.0311707563225072,0.709083920637242,11.342228952333244,-1.251047224724842,0.1499780911762375,-1.000967137966858
1.86,-0.645763448624105,0.5959972631866797,1.5823621192150106,-0.0094455568908679,0.1420315715210205,0.009043563735054,0.4282000894738632,-0.8984430028291313,-0.1531316022462752,-0.6544137460764395,0.6126781723865673,1.584640378393284,0.4346602934653717,-0.9636568554023724,-0.192397754206498,0.7200437236477363,0.3611213334226953,0.2673176398796884,0.5626683089713382,11.20221251806015,-1.2638795133537035,0.1567614731705603,-0.994559455692125
1.88,-0.6376034725014234,0.5790075616847267,1.57953040590095,-0.0150292225803561,0.1329084026168623,0.0090222541173887,0.430112833352807,-0.8905304056665135,-0.1454663485410812,-0.6458806999589051,0.5936241308215467,1.5807810329835406,0.4506762686426598,-0.9855664097050648,-0.191258721645166,0.5590704279634486,0.0956371939471872,0.3956298581308859,0.3832626852597012,10.988388194647086,-1.2774002424875608,0.1628737363753123,-0.9857944794871224
1.9,-0.6290205559227477,0.5612997675553141,1.5766844734543384,-0.019380901213717,0.123669552820821,0.009172222761507,0.4278301171885488,-0.8809422451088851,-0.1396186249439039,-0.6373476538413705,0.5745700892565262,1.5769216875737972,0.4666922438199479,-1.007475964007757,-0.190119689083834,0.5730172057504266,-0.1141358082129062,0.4794080278814228,0.2923861798588612,10.796390133446948,-1.2890601260972157,0.1674732833796488,-0.9766329614862784
1.92,-0.6205236308727474,0.5437923902721645,1.5739327658324542,-0.0220944138070379,0.1158241601283087,0.0094599724282586,0.4219690858913609,-0.8707286652234777,-0.1358233704579649,-0.6280138089649715,0.554420569976371,1.5731192937921206,0.4827082189972359,-1.0293855183104494,-0.188980656522502,0.6186130829429148,-0.2930515648593951,0.5106789942703693,0.1897627242969532,10.542821764514883,-1.2977642740526958,0.170401801517388,-0.9689358418053944
1.94,-0.6125879270501462,0.527353142612825,1.5713809893670574,-0.0232481264785326,0.1103487173484992,0.0098160166431688,0.4136135745964551,-0.8605302732330866,-0.1329640552686811,-0.6186799640885725,0.5342710506962158,1.569316900010444,0.498724194174524,-1.0512950726131418,-0.18784162396117,0.6745321555356719,-0.4177755647452902,0.5099195995195538,0.1429657594641864,10.50720261445622,-1.304152656700731,0.1720638523463531,-0.9619700557095658
1.96,-0.6044292084540729,0.510255894848005,1.5687511640072969,-0.0229680364496374,0.107482635503205,0.0102406549161712,0.4026601966613096,-0.8498696044050613,-0.1301770987773852,-0.6089457198327414,0.5135737925584934,1.5655429820428006,0.5147401693518121,-1.0732046269158344,-0.186702591399838,0.7768421244618167,-0.5476688967572751,0.533033441401265,0.1393478245647991,10.50720261445622,-1.3062876774044128,0.1723091293545897,-0.9590577082663624
1.98,-0.5964903696990073,0.4933710136557293,1.5661770291172077,-0.0211116733924963,0.1078506059244453,0.0107072574901561,0.392136386524418,-0.8393059350082062,-0.1273791972399433,-0.5988110761974781,0.4923287955632036,1.5617975398891906,0.5307561445291001,-1.0951141812185268,-0.1855635588385061,0.7585676369589873,-0.5261905068445816,0.5281834698427579,0.139895076872093,10.494118444360538,-1.3033979566834877,0.1711384748321473,-0.9619359881556556
2.0,-0.588742275628423,0.4766872050759488,1.5636625614570716,-0.0177940446480593,0.1106176147635839,0.0112331989376613,0.3835368616769596,-0.8301210093075518,-0.1242113348738746,-0.5768835503727864,0.451405716905319,1.5598080692552103,0.4208104134756118,-0.8520140401550911,-0.1099312878996809,0.64874887225133,-0.4299762423729203,0.4592462850327161,0.1583931183034334,10.509823025596232,-1.299362538056938,0.168869765441977,-0.967563336897577
2.02,-0.5814696201993625,0.4608110020293511,1.561418874273963,-0.0197941552108187,0.1134296635301111,0.0113793200949074,0.3822675498588282,-0.8386529352413513,-0.1121751940748198,-0.5768835503727864,0.451405716905319,1.5598080692552103,0.4208104134756118,-0.8520140401550911,-0.1099312878996809,0.7403944860109393,-0.0634655909065695,-0.4265962966899739,0.6018070399527432,10.509823025596232,-1.2874946414861546,0.1706036927313489,-0.9760081546542712
2.04,-0.5738390699690169,0.4440612996141452,1.5593041152555294,-0.0280091214169309,0.1152458939250577,0.0111345019467802,0.3807831213424186,-0.8348242376366588,-0.1000238411826469,-0.5768835503727864,0.451405716905319,1.5598080692552103,0.4208104134756118,-0.8520140401550911,-0.1099312878996809,0.6413225211986263,-0.0742214258204781,0.1914348802346255,0.6075676446086413,11.09680923556789,-1.2844528628505123,0.1784055987958452,-0.9795036241642968
2.06,-0.5662441264513675,0.4274774128330655,1.557409445983969,-0.0370608737121334,0.1162979528140337,0.0108624833826514,0.3787373197978468,-0.8236405693040031,-0.0901657777288799,-0.5726754462380302,0.4428855765037681,1.5587087563762136,0.4265452188658505,-0.854555661184468,-0.1064417060316284,0.7523980934204899,-0.1022900772285922,0.5591834166327858,0.4929031726883498,11.02774364907691,-1.2846232974644445,0.1868363168009536,-0.9829088887330144
2.08,-0.5590729181912323,0.4119720243093813,1.5557699236598983,-0.0445015731957465,0.1168816008960634,0.0107149069648305,0.3762165780688389,-0.8093896448472455,-0.0829027617814367,-0.5642592379685181,0.4258452957006662,1.55651013061822,0.4380148296463281,-0.859638903243222,-0.0994625422955234,0.8096208794698111,-0.1260370864503923,0.7125462228378787,0.3631507973721644,10.792731777782135,-1.2858641141511442,0.1947888546270443,-0.985982005349156
2.1,-0.5515809345528926,0.3959618761503266,1.5541797420013388,-0.0505758429769401,0.1173166646021888,0.0107075529413254,0.3731061902737809,-0.7926531907815875,-0.0765462898560942,-0.5558430296990058,0.4088050148975644,1.5543115048602263,0.4494844404268056,-0.864722145301976,-0.0924833785594185,0.9085539916058852,-0.1555193897529005,0.8368227032829023,0.3178235962671242,10.792731777782135,-1.2872591135438178,0.2011922202012014,-0.988845860945444
2.12,-0.5441547393903872,0.380298432383533,1.5527066371813736,-0.0547818086022343,0.1177612096870521,0.010846749320006,0.3696813770239603,-0.774865664231637,-0.0711055762426406,-0.5468533408904697,0.3915105719915249,1.5524618372890382,0.4609540512072831,-0.86980538736073,-0.0855042148233135,0.9456833655946332,-0.1712406624910317,0.8893763274975208,0.2720356806726789,10.729560804170433,-1.288540208053371,0.2059675002772884,-0.9918547564170468
2.14,-0.5367983613493116,0.3649972702578788,1.5513406719154814,-0.057202804652843,0.1183422873483742,0.0111172445691258,0.3661729542113469,-0.7566305031625405,-0.0657472761575769,-0.5378636520819335,0.3742161290854854,1.55061216971785,0.4724236619877607,-0.874888629419484,-0.0785250510872085,0.9663610992397624,-0.1754211406306716,0.9117580534548252,0.2679150042531844,10.688965559656026,-1.289349268084446,0.209045830406811,-0.9952815019715664
2.16,-0.5298727601572872,0.3508007358761573,1.550144235084315,-0.0580478183386527,0.119027152188875,0.0114791074762414,0.3630438364186085,-0.7389111743084954,-0.0604588061259357,-0.5285872230038855,0.356794605127977,1.548936981240064,0.4838932727682382,-0.8799718714782379,-0.0715458873511036,0.937728516781637,-0.1564558896369194,0.8859664427022573,0.2644235015820582,10.69619460463582,-1.2898229875297311,0.2109700048591353,-0.9997223890486082
2.18,-0.5226441788178658,0.3362239042426278,1.5489967127880295,-0.0572440729905382,0.1198309976360328,0.0119827193461251,0.3600088094393396,-0.7198804045313851,-0.054550381489889,-0.5190240536563254,0.3392460001189998,1.547436271855681,0.4953628835487157,-0.8850551135369918,-0.0645667236149986,1.0078331567701413,-0.1517513489634414,0.9515384888555134,0.2954212318023369,10.716696401270385,-1.2904234793920026,0.2113332439639498,-1.0043742932928064
2.2,-0.5154732462159758,0.3220301458738551,1.5479721796486987,-0.0543971039962564,0.1206624622102101,0.0126344053446356,0.3572615997757903,-0.7008956322398969,-0.0481833223338669,-0.5046437383458988,0.3002298840160585,1.546269193713535,0.3934767168978834,-0.7028261764192836,-0.0289136284225148,1.0105792672910938,-0.1373604831774649,0.9492386145744104,0.3183529578011039,10.74566889282687,-1.291211062024888,0.2099797698271229,-1.0093184488181255
2.22,-0.5086949018998257,0.3087734511710875,1.5471335927616072,-0.0535836092707556,0.1210621278173941,0.0131479766549948,0.3562638930956581,-0.6940919508564064,-0.0404920645958794,-0.5046437383458988,0.3002298840160585,1.546269193713535,0.3934767168978834,-0.7028261764192836,-0.0289136284225148,0.5158511039529448,-0.0498853340066135,0.3401840691745261,0.3845628868993752,10.851900176397976,-1.2904463842767644,0.2100751773774293,-1.0138447877961838
2.24,-0.50158670731805,0.2950030762633366,1.5464119897076016,-0.0564189217766896,0.1209334244859342,0.0134707416619486,0.3545494462937218,-0.6828543720163838,-0.0320773420811471,-0.5046437383458988,0.3002298840160585,1.546269193713535,0.3934767168978834,-0.7028261764192836,-0.0289136284225148,0.7071599200717202,-0.0857223400968137,0.5618789420011316,0.4207361257366152,10.851900176397976,-1.2910839785573671,0.2137161527919505,-1.016350745392517
2.26,-0.4945200096558768,0.2815086696042797,1.5458559455283896,-0.0606496586833976,0.1206292980582617,0.0137215702990633,0.3521768708497616,-0.6669344199720697,-0.0239764230914696,-0.50070897117692,0.2932016222518657,1.54598005742931,0.4001702983895921,-0.6994153307968632,-0.0237862778090399,0.9009701379733128,-0.1186287721980094,0.7959976022157034,0.4050459494838756,10.881804514065152,-1.292792193807245,0.2188233702191022,-1.0192380982543945
2.28,-0.4875070779902512,0.2683669596375044,1.5454574934918746,-0.0644078879859065,0.1204201410269659,0.0140159516689423,0.3492571261738253,-0.6482519100429518,-0.0162724617670196,-0.4928394368389623,0.27914509872348,1.5454017848608597,0.4135574613730097,-0.6925936395520227,-0.0135315765820902,1.0209212828529783,-0.1459872337968154,0.9341254964558954,0.3851980662224977,10.87724544600951,-1.294793322249021,0.2233660843312205,-1.0222618477598522
2.3000000000000003,-0.4809021653253255,0.2562421155904597,1.5452200777161698,-0.0669684799249437,0.1204672943543495,0.0143632734585585,0.3461859539805971,-0.629292446315506,-0.0090947665944387,-0.4849699025010046,0.2650885751950944,1.5448235122924094,0.4269446243564272,-0.685771948307182,-0.0032768753551405,1.0251983606396429,-0.1535586096614083,0.9479731863722918,0.3588847586290488,10.869243154898868,-1.296585346953676,0.227221480974857,-1.025973148983351
2.32,-0.4740133828325223,0.2438728889971081,1.5451190136252395,-0.0685003353891513,0.1208575647190415,0.0147980487981505,0.3428974203993153,-0.6087983996467563,-0.0013767847746389,-0.4764310100138761,0.2513731362289507,1.5447579747853066,0.4403317873398447,-0.6789502570623414,0.0069778258718091,1.1072348952987194,-0.1644266790640919,1.0247023334374827,0.385899090989987,10.871897345418802,-1.2978182015345507,0.2299936359641632,-1.0304835558178638
2.34,-0.4671896229724098,0.2319232733194518,1.545175011791195,-0.0685689971591487,0.1216249173515566,0.0153175123532092,0.339715535347882,-0.5874545083007809,0.0065924719290672,-0.4678921175267475,0.237657697262807,1.5446924372782038,0.4537189503232622,-0.6721285658175008,0.0172325270987588,1.1502120920496608,-0.1590942525716621,1.0671945672987682,0.3984628351853114,10.89169754183149,-1.2986807151730486,0.2314142307273763,-1.0357942759137768
2.36,-0.4604248824631498,0.2204063648732058,1.5453940035106075,-0.0667933173633333,0.1226776224324678,0.0159522590338105,0.3369747331503777,-0.5656092254045575,0.0149148114836347,-0.4590185459650336,0.2241128005777844,1.5448832673017747,0.4671061133066797,-0.6653068745726601,0.0274872283257084,1.1768493076466893,-0.1370401098752194,1.0922641448111725,0.4161169777283759,10.916365120520824,-1.2992398745626756,0.2312618848912762,-1.0423854709986389
2.38,-0.4540442085301655,0.2098627990735039,1.5457616884859495,-0.0633097193284348,0.1238040450249958,0.0166761253083701,0.334858005332911,-0.5459724613334533,0.0234037041835996,-0.4498102953287342,0.2107384461738828,1.545330464856019,0.4804932762900972,-0.6584851833278196,0.0377419295526581,1.0748771314770824,-0.1058363908733317,0.9818382035552076,0.4244446349982422,10.946695851112963,-1.2998467986894906,0.2292357955215687,-1.0492883665283477
2.4,-0.4473655667428731,0.1991352208019594,1.546330967311332,-0.0588217055223271,0.1249973759281161,0.0174974621310527,0.3331562342494509,-0.5280590886596355,0.0331066871285929,-0.43730130826352,0.1825641760068312,1.5469318736951294,0.3688051862895131,-0.5260974732096788,0.0177914947443219,1.022170268842741,-0.0850885541730045,0.8956686336908937,0.4851491472496647,10.983104889031893,-1.2999598105035544,0.2263914529852809,-1.0573663667029105
2.42,-0.4407248561912005,0.1887127681303302,1.546981089763342,-0.0550970405256272,0.125870815797449,0.0182852081605444,0.3308875809144719,-0.514782011183514,0.0307845640250815,-0.43730130826352,0.1825641760068312,1.5469318736951294,0.3688051862895131,-0.5260974732096788,0.0177914947443219,0.6834102537442384,-0.1134326667489526,0.6638538738060751,-0.1161061551755675,11.02734930977931,-1.3095528139732424,0.225057388785161,-1.0655861439802985
2.44,-0.4344658351877388,0.1790620813666938,1.5475404543173077,-0.0525766781431167,0.1263718715717305,0.018980603306203,0.3280817213759163,-0.5016374790365888,0.0282721212796827,-0.43730130826352,0.1825641760068312,1.5469318736951294,0.3688051862895131,-0.5260974732096788,0.0177914947443219,0.6836737922075097,-0.1402929769277805,0.6572266073462563,-0.1256221372699421,10.241400218623312,-1.310931995727216,0.223411970389329,-1.066442531425622
2.46,-0.4279372111866766,0.1691759234815203,1.548087449506535,-0.0504099466573707,0.1269092103793704,0.0196773600430708,0.3249511948923524,-0.4876613147490273,0.0265991240421925,-0.4336132564006248,0.1773032012747344,1.5471097886425726,0.3755946224808336,-0.5221224755849239,0.0166690528564664,0.7209928640663775,-0.1565263241781939,0.6988082143780772,-0.0836498618745084,10.306437114916662,-1.31178356054281,0.2222475154390743,-1.0675555035251891
2.48,-0.4214716197009164,0.1595688097182014,1.54861000125584,-0.0485020720433365,0.1276341244678881,0.0203456437532064,0.3218076541392565,-0.4737730730259748,0.0257682961360585,-0.4262371526748346,0.1667812518105409,1.5474656185374591,0.3891734948634744,-0.5141724803354141,0.0144241690807553,0.7131889329517134,-0.1571770376547959,0.6944120861526237,-0.0415413953066984,10.36516067046341,-1.312313517684839,0.2213984975559361,-1.069216272501616
2.5,-0.4150678204985432,0.150237557775072,1.5491235456563377,-0.0467274611189678,0.1286491783750281,0.020989517507397,0.3188031447501167,-0.4600888639518017,0.025617800087788,-0.4188610489490443,0.1562593023463473,1.5478214484323456,0.4027523672461152,-0.5062224850859043,0.0121792853050443,0.7005485417079537,-0.150225469456991,0.6842104537086557,-0.0075248024135273,10.45042580921472,-1.3125358635927582,0.2206562038732163,-1.071726490969594
2.52,-0.4090371858185197,0.141623921283486,1.5496134540540545,-0.0451127447299493,0.1298995251500381,0.0215818738899922,0.3162217698410129,-0.4473373225300369,0.0259513712006315,-0.410806001604122,0.1461348526446292,1.5480650341384463,0.416331239628756,-0.4982724898363945,0.0099344015293332,0.6507237792252136,-0.1290687454551853,0.6375770710882411,0.0166785556421737,10.480840107921722,-1.3124331924466932,0.220003601053909,-1.074925282150374
2.54,-0.402738729248961,0.1328149698687153,1.5501353216137326,-0.0434829823804296,0.1314925823545477,0.0221869832513381,0.3138294297355191,-0.4342705748580763,0.0262045336572756,-0.4027509542591996,0.1360104029429111,1.5483086198445477,0.4299101120113969,-0.4903224945868846,0.0076895177536222,0.664317840217494,-0.1196170052746914,0.6533373835980266,0.0126581228322077,10.480840107921722,-1.3125415928222546,0.219497110398507,-1.0791316408976608
2.56,-0.3964820671923624,0.1242657881520784,1.5506607496088411,-0.0418738213804169,0.133265274163721,0.0227816057845802,0.3120179480055248,-0.4213643740474951,0.0263121564246561,-0.3943564351047113,0.1260847031224308,1.5484960834562556,0.4434889843940378,-0.4823724993373748,0.0054446339779111,0.6516576326592246,-0.0905740864997173,0.6453100405290624,0.005381138369024,10.472504641007616,-1.3127109847644418,0.2191575674238117,-1.0848969336486514
2.58,-0.3905663046057474,0.1163808131738385,1.5511610468688448,-0.0403025460453417,0.1349672009395835,0.0233472287355299,0.3108214046641733,-0.4093565495722358,0.0263364029533815,-0.385622444140657,0.1163577531831882,1.5486274249735708,0.4570678567766786,-0.474422504087865,0.0031997502022,0.6033658767500105,-0.0598271670675748,0.6003912237629638,0.001212326436272,10.472504641007616,-1.3131503887150764,0.2187823095678933,-1.0912757143639382
2.6,-0.3843588502917535,0.1083232353734862,1.5516877994591147,-0.0386232307073323,0.1366683226518921,0.0239459353422149,0.3100223084556676,-0.3970965291578421,0.0263296294570302,-0.3750252343725387,0.0959129856952267,1.5524778670165138,0.3312819674446727,-0.374731607925183,0.0194379751056087,0.6143018419149711,-0.0399548104252828,0.6130010207196834,-0.0003386748175671,10.474012392518487,-1.3138235617308314,0.218369360687887,-1.0975051980347934
2.62,-0.3781074421476182,0.1004562391365838,1.5522307850951196,-0.0386343164785902,0.1366030777892769,0.0244918799100917,0.3151944805393268,-0.3898234315811936,0.0280346049845982,-0.3750252343725387,0.0959129856952267,1.5524778670165138,0.3312819674446727,-0.374731607925183,0.0194379751056087,0.4543023606917531,0.258608604182961,0.3636548788324256,0.0852487763783984,10.591222396256851,-1.3087243631996686,0.2187760235718166,-1.0973785845118154
2.64,-0.3717555923974345,0.0927465239732632,1.5528060896229523,-0.0414867660619004,0.1330695745723557,0.0249792616382895,0.3193910842906556,-0.381089485977729,0.0294025187828688,-0.3750252343725387,0.0959129856952267,1.5524778670165138,0.3312819674446727,-0.374731607925183,0.0194379751056087,0.4892966304028773,0.2098301875664371,0.4366972801732288,0.0683956899135336,10.591222396256851,-1.3180020812552848,0.2230963255454455,-1.0987027908326128
