t,x,y,z,roll,pitch,yaw,v_x,v_y,v_z,ref_x,ref_y,ref_z,ref_v_x,ref_v_y,ref_v_z,a_com,a_x,a_y,a_z,thrust,wind_x,wind_y,wind_z
0.0,-1.3033578377101471,1.513476172428344,2.1438306419626505,0.0215743562294885,0.1364607226403801,0.0265454460336784,0.0045413112029789,0.0037293532408403,0.0060462554880768,-1.3032213764667762,1.5136497049285045,2.144017008100035,0.0159860625616417,-0.0947528371804516,-0.09383129634945,0.4215708376547401,0.2270655601489489,0.1864676620420163,0.302312774403841,10.546602431092651,-1.2874283392718686,0.1543691056288429,-1.1711869506641868
0.02,-1.303341594589031,1.5137806361516182,2.143714107122453,0.030748563232833,0.1374793831402451,0.0271976569514603,-0.0024531806964782,0.021353779581485,-0.0176784349498449,-1.3032213764667762,1.5136497049285045,2.144017008100035,0.0159860625616417,-0.0947528371804516,-0.09383129634945,1.518555446093096,-0.3497245949728623,0.8812213170322384,-1.186234521896086,9.181781762531957,-1.3085638589082684,0.1470630590763064,-1.184157347458074
0.04,-1.3034530670443043,1.5141909518288084,2.143114620057428,0.0446904912677006,0.1400205643726603,0.0282320223099229,-0.0086326404231779,0.0204943142121959,-0.0441623019478781,-1.3032213764667762,1.5136497049285045,2.144017008100035,0.0159860625616417,-0.0947528371804516,-0.09383129634945,1.3604407506433565,-0.3089729863349854,-0.0429732684644563,-1.3241933499016607,9.00448578350779,-1.3043322443565564,0.1313338808513478,-1.1673232283307629
0.06,-1.3036780986215086,1.5145364852162595,2.1419392977293734,0.0596715265383213,0.143925980425101,0.0294199136654346,-0.0133017224417714,0.013749640958963,-0.0719491040011481,-1.3030615158411598,1.5127021765566997,2.143078695136541,0.0182740837088928,-0.1147528374784748,-0.1138312966474733,1.4486177140094971,-0.2334541009296713,-0.3372336626616435,-1.389340102663503,9.00448578350779,-1.295917371101674,0.1155475143702518,-1.1510907663456422
0.08,-1.303975449834217,1.5147108424896285,2.1402161294179667,0.0740907051637001,0.1485397230790442,0.0306469181806359,-0.0159914490198428,0.0037145784938646,-0.0989431853974031,-1.302741794589927,1.5108071198130908,2.141202069209552,0.0228501260033951,-0.1547528380745213,-0.1538312972435197,1.4462170810176196,-0.1344863289035708,-0.5017531232549223,-1.349704069812748,9.049577919466628,-1.2870640206743005,0.1008008705760939,-1.1381360852092248
0.1,-1.304305941523508,1.514655498779789,2.1379617499090786,0.0878226182124721,0.1533795749038319,0.0318818700045079,-0.0167660780010058,-0.0090365635153198,-0.1251505196848227,-1.302422073338694,1.5089120630694817,2.1393254432825626,0.0274261682978973,-0.1947528386705677,-0.1938312978395662,1.457751730447783,-0.0387314490581517,-0.6375571004592225,-1.3103667143709772,9.049577919466628,-1.2789112142186612,0.0878752691226483,-1.1259633494882164
0.12,-1.304617546942367,1.5143428460643902,2.1353398930762597,0.1002346892982589,0.157836067334953,0.0330310237770138,-0.0159018361225022,-0.0234764531292264,-0.1495273883798794,-1.301873549972736,1.5050170062960704,2.1354488173257717,0.0320022105923996,-0.2347528392666142,-0.2338312984356126,1.417294123905131,0.0432120939251793,-0.7219944806953329,-1.2188434347528363,9.087257018972196,-1.2711793760130363,0.0753756990385913,-1.112965834667078
0.14,-1.3049151416264655,1.513694128067562,2.13207470576084,0.1126561962293764,0.1621356126776758,0.0341823968180748,-0.0138180438698083,-0.0408957318843222,-0.1757468810888148,-1.301325026606778,1.5011219495226589,2.13157219136898,0.0365782528869019,-0.2747528398626607,-0.2738312990316591,1.5773674749515694,0.1041896126346963,-0.8709639377547906,-1.3109746354467695,9.116139321117773,-1.2662617912908944,0.0637865856522165,-1.1035116884020602
0.16,-1.3051588807355452,1.512673943237271,2.1282821235357696,0.1244425584272778,0.1658596416908422,0.0352403215201088,-0.0106057264995081,-0.0604985385832493,-0.202210658670594,-1.3006621021834577,1.4962268927343465,2.1266955653972874,0.0411542951814041,-0.3147528404587071,-0.3138312996277055,1.6544791757989217,0.1606158685150076,-0.9801403349463534,-1.32318887908896,9.085735553259838,-1.262261922777161,0.0530619328241337,-1.0936718681941655
0.18,-1.3053282729611284,1.5112315053241108,2.123958634426645,0.1353558486235142,0.1688753936085751,0.0361523231181433,-0.0065013106110358,-0.0828177468738206,-0.2287994206876147,-1.2998847767027744,1.4903318359311326,2.120818939410694,0.0457303374759064,-0.3547528410547535,-0.353831300223752,1.7478240429897496,0.2052207944236189,-1.1159604145285626,-1.3294381008510368,9.08488933557328,-1.2594878566118708,0.0439038614162235,-1.083390900602279
0.2,-1.3054068724725587,1.509410924808122,2.1193569303467013,0.1441970971016518,0.1710689109115835,0.0368123787368246,-0.0020077711197132,-0.1073248585093865,-0.2541935982751437,-1.3056533384916802,1.5070906179804198,2.112518663392264,-0.0024978677871489,-0.1828177483639367,-0.3287994221777308,1.778802035939588,0.2246769745661263,-1.2253555817782986,-1.2697088793764508,9.08488933557328,-1.257408722104401,0.0360200506784963,-1.071383940310448
0.22,-1.305357539789172,1.5068341405301529,2.114135574280614,0.1476565231821453,0.1726294838094896,0.0369678039733675,0.0068114535100019,-0.1473161782846312,-0.2654979558769108,-1.3056533384916802,1.5070906179804198,2.112518663392264,-0.0024978677871489,-0.1828177483639367,-0.3287994221777308,2.1241897756697004,0.4409612314857621,-1.9995659887622317,-0.5652178800883534,9.094007444797173,-1.2439199031442014,0.0334191970692343,-1.053275691367504
0.24,-1.305129217022868,1.5035285865710173,2.108711981855813,0.1447189971633794,0.1734084415407999,0.036534445612785,0.0154759053612971,-0.1803811111579438,-0.276368547583165,-1.3056533384916802,1.5070906179804198,2.112518663392264,-0.0024978677871489,-0.1828177483639367,-0.3287994221777308,1.7934131396893518,0.4332225925647576,-1.6532466436656332,-0.5435295853127103,9.96282751021954,-1.2438081143865427,0.0362279601696274,-1.0484165043864646
0.26,-1.3047586369371158,1.4998360797682428,2.103333934961273,0.1393981862356883,0.1734881370647508,0.035834726137982,0.0230160559028279,-0.2061417191847627,-0.2890876851214597,-1.3056783171695516,1.5052624404967805,2.1092306691704867,-0.0016971792223715,-0.2028177486619599,-0.3487994224757541,1.4851256308966014,0.377007527076544,-1.2880304013409436,-0.6359568769147367,9.775358472721564,-1.2451635581033147,0.041640163008353,-1.0432294678661471
0.28,-1.3042232326956442,1.4954667190348367,2.0973887898080386,0.1333874927939335,0.1729755877161847,0.0349794495477246,0.0300513168460352,-0.229298631577379,-0.3048522630905722,-1.3057282745252947,1.5016060855295017,2.102654680726932,-9.580209281681444e-05,-0.2428177492580064,-0.3887994230718005,1.4441774532952565,0.351763047160364,-1.1578456196308138,-0.7882288984556229,9.775358472721564,-1.2475066307342555,0.0475100146296983,-1.0363302902965992
0.3,-1.303556229826257,1.4906597764779674,2.0911038042809014,0.1278263838989145,0.1719579284261063,0.0340869420598014,0.0362312792705654,-0.2502168937343095,-0.3229386607430792,-1.3057782318810376,1.497949730562223,2.096078692283377,0.0015055750367379,-0.2828177498540528,-0.4287994236678469,1.416759866102304,0.3089981212265109,-1.0459131078465271,-0.9043198826253483,9.60152867706347,-1.2499636335962871,0.0528899724101016,-1.028116871570961
0.32,-1.3027750560918303,1.4854519009116092,2.084433786518009,0.1230050600614065,0.1705365521284983,0.0331963007177017,0.0415293135555887,-0.2696262686526542,-0.3431314229826099,-1.3057481203803027,1.4922933755651415,2.08750270381002,0.0031069521662926,-0.3228177504500992,-0.4687994242638933,1.425254932344009,0.2649017142511637,-0.9704687459172356,-1.009638111976538,9.455380096752378,-1.2517708466254598,0.0571652886308716,-1.0202663202464748
0.34,-1.301942297103254,1.480154708295718,2.0777138886065107,0.1191552699060056,0.1689423763018771,0.0323737630150408,0.0458235671021664,-0.287123249683019,-0.3632014377428388,-1.305718008879568,1.4866370205680608,2.0789267153366637,0.0047083292958474,-0.3628177510461458,-0.5087994248599399,1.348508853488777,0.2147126773288848,-0.8748490515182394,-1.0035007380114451,9.26978947799762,-1.2533913068030138,0.0609464646545951,-1.0105145827127948
0.36,-1.3009851914318449,1.4742191517391006,2.070219723227746,0.115607708515076,0.1671687447373641,0.0315343064181559,0.0495973084506613,-0.3054625130991696,-0.3851721365865841,-1.3056478629505943,1.4799806655560783,2.069350726848405,0.0063097064254021,-0.4028177516421922,-0.5487994254559863,1.443330622288992,0.1886870674247451,-0.9169631708075304,-1.0985349421872652,9.26978947799762,-1.2549291703940189,0.0641985787943186,-1.0002229760222794
0.38,-1.2999609185582215,1.467919687325354,2.0622784492460795,0.1122563961319272,0.1654737401397655,0.030720385603396,0.0526008019571414,-0.3234612234354466,-0.4078126189625556,-1.305537682593382,1.472324310529195,2.058774738345246,0.0079110835549569,-0.4428177522382386,-0.5887994260520327,1.4539308694272095,0.1501746753240031,-0.899935516813849,-1.1320241187985718,9.164969318021576,-1.255738937063398,0.0670171154774944,-0.990568698538917
0.4,-1.2989393684637391,1.4616069033091703,2.054309047049093,0.1091308552677468,0.1641127941313606,0.0299820717211705,0.0547530206701373,-0.3400344665843189,-0.4299059490829818,-1.2973308784603643,1.4517466261535816,2.041887818297952,0.0858589904730429,-0.4234612249255627,-0.5078126204526717,1.385117025444371,0.1076109356497965,-0.8286621574436132,-1.1046665060213123,9.1184849434012,-1.2561726491225833,0.0698018164601044,-0.981568100063218
0.42,-1.2978452504593254,1.4546140400613805,2.04569917607767,0.106264376463826,0.164984094869094,0.0294858006334394,0.0550708737840576,-0.3585725226557676,-0.4287661715601885,-1.2973308784603643,1.4517466261535816,2.041887818297952,0.0858589904730429,-0.4234612249255627,-0.5078126204526717,0.9287890588175444,0.0158926556960131,-0.926902803572438,0.0569888761396686,9.1184849434012,-1.2495764693534754,0.0724711724032628,-0.9662350975511452
0.44,-1.2967163678283873,1.4472623723275813,2.0371096222046368,0.1042514588377273,0.1691929298283533,0.0293980380750248,0.0581666098368444,-0.3757848399076697,-0.430709347309286,-1.2973308784603643,1.4517466261535816,2.041887818297952,0.0858589904730429,-0.4234612249255627,-0.5078126204526717,0.8798059145069034,0.1547868026393419,-0.8606158625951044,-0.097158787454879,10.218771517441382,-1.2437496927467997,0.0734091072314545,-0.9740975904301789
0.46,-1.2955023053840384,1.4395703139864164,2.0284180085665096,0.1029500985809802,0.175077957936486,0.029524114971306,0.0633955169348538,-0.3925985047279581,-0.4383572041625866,-1.296472288555634,1.447512013904326,2.036809692093425,0.0925106281762233,-0.4434612252235859,-0.5278126207506949,0.9598574224555326,0.2614453549004678,-0.8406832410144172,-0.3823928426650302,9.930711126806273,-1.2379883366925166,0.0739947924729616,-0.9816581937508976
0.48,-1.2942351983570022,1.4319573458695822,2.0199803445268096,0.102211952400734,0.1813625348170366,0.02974048582209,0.0699400128820898,-0.4079504650855904,-0.4494489218894772,-1.2947551087461733,1.4390427894058146,2.026653439684372,0.1058139035825839,-0.4834612258196324,-0.5678126213467414,1.0019222975844009,0.3272247973618004,-0.7675980178816155,-0.5545858863445302,9.930711126806273,-1.2316314748792108,0.0743236706183795,-0.9887660527413302
0.5,-1.2927520927916845,1.4236359824579674,2.0108394914394783,0.1020547589926962,0.1882011286526035,0.0300265125494096,0.0782117707044558,-0.4233985350735152,-0.4642055908634128,-1.2930379289367124,1.4305735649073037,2.016497187275318,0.1191171789889445,-0.5234612264156788,-0.6078126219427878,1.1454520101580097,0.4135878911183027,-0.7724034993962403,-0.7378334486967786,9.5589693193524,-1.2255083256553363,0.0742074853792721,-0.995008302489206
0.52,-1.2910902236498727,1.4150094132263005,2.00137684304761,0.102641480043374,0.1949812863290808,0.0303542141484274,0.0877244316092731,-0.4385254663833837,-0.4814310359606659,-1.2906555853569337,1.42010434037899,2.0043409348364625,0.1324204543953051,-0.5634612270117253,-0.6478126225388343,1.240998315008928,0.4756330452408648,-0.7563465654934265,-0.8612722548626522,9.5589693193524,-1.219996901458502,0.073537137446282,-1.0000843484437658
0.54,-1.2893227441103632,1.4065344849252337,1.9920573255934264,0.1039255089774828,0.2012193315388559,0.0306950576269899,0.0979927497832832,-0.4528922206797736,-0.49872223703639,-1.2882732417771543,1.4096351158506764,1.9921846823976064,0.1457237298016658,-0.6034612276077718,-0.6878126231348808,1.2357463552208714,0.5134159087005055,-0.7183377148194919,-0.8645600537862091,9.44083331139882,-1.2149967552694774,0.0723191289072807,-1.0034468762245663
0.56,-1.2872318953101145,1.3973070644409744,1.9818839284419492,0.1057366328358017,0.2072766038784609,0.0310348167830012,0.1106612218519768,-0.4691001900705882,-0.5177431400327828,-1.2855583163122166,1.3981658913074615,1.9790284299438496,0.1590270052080264,-0.6434612282038181,-0.7278126237309271,1.4008775884486069,0.6334236034346775,-0.8103984695407324,-0.9510451498196348,9.40821304727706,-1.2100026957671512,0.0706211126243045,-1.0058553430463455
0.58,-1.2848679782268746,1.3877415562488498,1.971322844662972,0.1073928159333656,0.2123305733330809,0.0312574108636852,0.1250753183657863,-0.4865341087505019,-0.537397466513254,-1.2825108089621198,1.3856966667493458,1.964872177475192,0.172330280614387,-0.6834612287998646,-0.7678126243269736,1.4983326134809112,0.7207048256904762,-0.8716959339956865,-0.9827163240235636,9.366816145112352,-1.2064440489157575,0.0691004033746859,-1.0066119632224624
0.6,-1.282343763752078,1.3783210624785531,1.960920604654636,0.1083057803469473,0.2159247310682083,0.0312884810370883,0.1398356172176854,-0.504082425266909,-0.5565633421934862,-1.2786142123085853,1.3634148508113246,1.944452971337309,0.1541686341906526,-0.5865341102406181,-0.6191738694039363,1.4942729213128172,0.7380149425949556,-0.8774158258203546,-0.95829378401161,9.366816145112352,-1.2046363744196829,0.0682688525032041,-1.0055810155623777
0.62,-1.279279086126166,1.3679715230474945,1.9498585664804475,0.1069156532457164,0.2173578460231972,0.0308916000581835,0.1661380669066857,-0.5296868729599187,-0.5470520284835934,-1.2786142123085853,1.3634148508113246,1.944452971337309,0.1541686341906526,-0.5865341102406181,-0.6191738694039363,1.895963930164847,1.315122484450014,-1.2802223846504812,0.4755656854946444,9.35157973389414,-1.195330104543621,0.0690448798206334,-0.99581158736218
0.64,-1.275679584311956,1.3571344551526796,1.939008754641817,0.1025862063174394,0.215233223260876,0.0299047574213386,0.1922163185575861,-0.5519525303474339,-0.5387024708455448,-1.2786142123085853,1.3634148508113246,1.944452971337309,0.1541686341906526,-0.5865341102406181,-0.6191738694039363,1.7646173953700235,1.3039125825450206,-1.113282869375759,0.4174778819024283,11.314062495482176,-1.20265958592098,0.0725881701016839,-0.9940939666191504
0.66,-1.2715833066393176,1.3458987081754847,1.9282664131886824,0.0972523738392121,0.2095237456233558,0.0285017964337893,0.2154366323524169,-0.5702518556358177,-0.535783920052383,-1.2770725259666789,1.3575495097089183,1.9382612326432695,0.1599872973556259,-0.6065341105386413,-0.6355291499820727,1.485400802370154,1.161015689741539,-0.9149662644191924,0.1459275396580917,10.971473612841692,-1.212853169868214,0.0766673358432177,-0.9892342183631022
0.68,-1.2673068211260987,1.334911588940378,1.918073995920452,0.0921823991078554,0.201678093232267,0.0269760932616709,0.2331138778327106,-0.5853071834300649,-0.5371462399588689,-1.2739891532828658,1.345818827504106,1.925877755255191,0.1716246236855724,-0.6465341111346877,-0.6682397111383456,1.1629744389822203,0.8838622740146836,-0.7527663897123615,-0.0681159953242971,10.619675942636604,-1.2251044611845805,0.0809312907608551,-0.9792313775810992
0.7000000000000001,-1.262490887226018,1.3230568016628323,1.90728123748609,0.0872880425195601,0.1920093568562913,0.025328949652707,0.2471057876394535,-0.5993579987430733,-0.5421755607460679,-1.270905780599053,1.3340881452992936,1.913494277867112,0.1832619500155189,-0.6865341117307342,-0.7009502722946185,1.0228550955302158,0.6995954903371473,-0.7025407656504168,-0.2514660393599488,10.063254896675062,-1.2378406543563034,0.084736289803797,-0.966286720914065
0.72,-1.257442739758961,1.310935310201856,1.896348117633628,0.0830320317960253,0.1818876463010647,0.0237470289590601,0.2567130045966578,-0.6121538639505233,-0.5508094601511307,-1.2672405415987422,1.320357463064679,1.89947527242122,0.1948992763454654,-0.7265341123267807,-0.7336608334508914,0.9090888336773908,0.4803608478602117,-0.639793260372501,-0.4316949702531436,9.841406942266984,-1.249350934764012,0.0877717566599745,-0.9525668901613694
0.74,-1.25250430996794,1.299191797079231,1.88578573761369,0.0796056408154213,0.1725810240330171,0.0223631292921369,0.2624732048633114,-0.6234548469405458,-0.5605495792726987,-1.263575302598432,1.3066267808300644,1.8854562669753276,0.206536602675412,-0.7665341129228271,-0.7663713946071643,0.7996281075522954,0.288010013332679,-0.5650491495011234,-0.4870059560783957,9.841406942266984,-1.2597873785766531,0.0903501892723379,-0.937329632003895
0.76,-1.247216749182632,1.2865975334877768,1.8744537991385195,0.076403966803091,0.1636161247246204,0.0210454753668517,0.2657957468289123,-0.6353074211699128,-0.572168194694534,-1.259619130439873,1.2918960985805483,1.870619497500528,0.2181739290053585,-0.8065341135188735,-0.7990819557634372,0.8463377359192127,0.1661270982800472,-0.5926287114683515,-0.5809307710917644,9.728731072439588,-1.2683691737782674,0.0925002305043816,-0.9227996472419004
0.78,-1.241888178422187,1.273769600163514,1.862875019295954,0.0733348149826315,0.1557973717202792,0.0198648342635882,0.2667769544724188,-0.6467839927355029,-0.585162220436699,-1.2553720251230651,1.2761654163161316,1.8549649639968224,0.229811255335305,-0.84653411411492,-0.83179251691971,0.868215365459277,0.0490603821753254,-0.5738285782795061,-0.6497012871082508,9.538572298213694,-1.2748597423308416,0.0943970618257246,-0.9101004152176588
0.8,-1.236827853049597,1.2613758186891466,1.851620193479922,0.0704402739935291,0.1496329175031221,0.0188709385287898,0.2658085661953682,-0.657136176207179,-0.5988723124101779,-1.2285493306985658,1.2414304005267387,1.8336169082741192,0.3161168822053633,-0.746783994225619,-0.6168609242025681,0.860337289101816,-0.0484194138525295,-0.5176091735838051,-0.6855045986739472,9.538572298213694,-1.2800757016658304,0.0963562907135224,-0.8980788442545573
0.8200000000000001,-1.2315338433599612,1.2480845537953418,1.839875635087727,0.0670248564846289,0.1464404970238896,0.0180591607198614,0.2637364062292874,-0.671236145138866,-0.5728465102904019,-1.2285493306985658,1.2414304005267387,1.8336169082741192,0.3161168822053633,-0.746783994225619,-0.6168609242025681,1.483614965866568,-0.1036079983040394,-0.7049984465843484,1.3012901059888005,9.450661024858164,-1.27603484345235,0.0985832968846718,-0.87862445949495
0.84,-1.2262740571453177,1.2345312494536598,1.8286772334641357,0.063400446550747,0.1483837193510067,0.0175943425982163,0.2628901521814055,-0.6832334456264876,-0.5488822124217421,-1.2285493306985658,1.2414304005267387,1.8336169082741192,0.3161168822053633,-0.746783994225619,-0.6168609242025681,1.3406518351549148,-0.0423127023940983,-0.5998650243810799,1.1982148934329917,11.643278135392393,-1.2706174977075502,0.1003979672157397,-0.8904777215688413
0.86,-1.220998071435947,1.2207596391897635,1.8178812577363928,0.0600985941460647,0.1534986666619283,0.0173549052377657,0.2651801820738707,-0.6933556764022312,-0.531923610545231,-1.225388161876512,1.2339625605844826,1.8274482990320933,0.3259848677519522,-0.7667839945236422,-0.6232006649557419,0.9941050879959834,0.1145014946232592,-0.5061115387871795,0.8479300938255552,11.22393324519362,-1.2640200943687394,0.1021503887969438,-0.9033933614935986
0.88,-1.2159184787526425,1.2075019727003171,1.8078899581224044,0.057464968800247,0.1598125187707255,0.0172449223844691,0.2696878295146245,-0.7017732926109262,-0.5206664694500904,-1.2190658242324048,1.2190268806999702,1.8151110805480424,0.34572083884513,-0.8067839951196887,-0.6358801464620896,0.7380690579527821,0.225382372037694,-0.4208808104347539,0.5628570547570266,11.22393324519362,-1.257001690281673,0.103828483229678,-0.9165373153680124
0.9,-1.2104570091638318,1.1933831482540518,1.7975659627162024,0.0553162361079848,0.1671047278588592,0.0172039143052211,0.2764714429287992,-0.7097518950439979,-0.512516207117295,-1.2127434865882976,1.2040912008154578,1.8027738620639908,0.3654568099383078,-0.8467839957157351,-0.6485596279684372,0.6635176784219343,0.3391806707087358,-0.3989301216535845,0.4075131166397738,10.71899177942032,-1.2502716203525983,0.105157947623991,-0.9288191913466988
0.92,-1.2048348997792095,1.1791116063344178,1.7873708915437478,0.053843060714395,0.174350472115647,0.0172045578982287,0.2855800182276643,-0.717059646237225,-0.507544766213937,-1.2054343503895313,1.187155520901143,1.789802669504622,0.3851927810314856,-0.8867839963117816,-0.6612391094747849,0.6345955328648052,0.4554287649432526,-0.3653875596613509,0.2485720451678996,10.557063649960584,-1.2438915741863423,0.1060172596301151,-0.9400713250893477
0.94,-1.199005274257388,1.1647016956593246,1.777263321852166,0.0532090433944705,0.1808571053565778,0.0172257663862742,0.2969916115693636,-0.7236877378264839,-0.5034796538242825,-1.1981252141907652,1.1702198409868283,1.7768314769452531,0.4049287521246634,-0.926783996907828,-0.6739185909811326,0.6904368172621632,0.5705796670849639,-0.3314045794629461,0.2032556194827228,10.557063649960584,-1.2385860184675743,0.1062348263955077,-0.9488314439108336
0.96,-1.1932356559823851,1.1508841930357177,1.7677316524574516,0.0532703070482571,0.1858827787348344,0.0172366430742973,0.3097270177620737,-0.7304552922715309,-0.5000683121078646,-1.1903226787146697,1.1522841610576129,1.763543297348226,0.4246647232178412,-0.9667839975038744,-0.6865980724874802,0.740991930398313,0.6367703096355037,-0.3383777222523532,0.170567085820894,10.53874995393926,-1.2347303930760292,0.1059206188305643,-0.9561973908178696
0.98,-1.186888622642514,1.1361974435822348,1.757763445679766,0.053782942483262,0.1896553569329679,0.017206428964187,0.3242665003242013,-0.7378711803123325,-0.4969512966466091,-1.1820267439612446,1.1333484811134955,1.7499381307135398,0.444400694311019,-1.006783998099921,-0.6992775539938278,0.8308244910837419,0.7269741281063835,-0.3707944020400755,0.1558507730627767,10.532299496262567,-1.2328793428396398,0.1052465089013071,-0.9614729413754386
1.0,-1.180242098924117,1.1213565537945374,1.7478511087943744,0.0545264269183983,0.1917156324687816,0.0171078743988568,0.339484251349878,-0.7458154028187648,-0.4944244243551305,-1.170675297626304,1.0993038845666183,1.7329158808474354,0.3660958516599653,-0.8378711818024486,-0.5344311741185329,0.8675766552423944,0.7608875512838342,-0.397211125321617,0.1263436145739288,10.518568408833744,-1.232938865004907,0.1044314258269276,-0.9645603894925244
1.02,-1.1732136330755845,1.1062916803727505,1.7381514737962125,0.0535913682201896,0.1907733430672895,0.0167351842895749,0.3623306177110322,-0.7595442997852803,-0.4756063837654592,-1.170675297626304,1.0993038845666183,1.7329158808474354,0.3660958516599653,-0.8378711818024486,-0.5344311741185329,1.6313780367068438,1.1423183180577083,-0.6864448483257735,0.9409020294835646,10.495651317606644,-1.2287998352394425,0.1044293539933801,-0.9627173702338432
1.04,-1.1661223250728594,1.0917570453207028,1.7292657423227993,0.0507414620885048,0.1858925367654151,0.0160476365831351,0.3823537241862618,-0.7694303961100742,-0.4606246321918473,-1.170675297626304,1.0993038845666183,1.7329158808474354,0.3660958516599653,-0.8378711818024486,-0.5344311741185329,1.344537628401403,1.0011553237614794,-0.494304816239699,0.7490875786805934,11.588871089655186,-1.2383132917540838,0.106811937024191,-0.9625345811889976
1.06,-1.1582977736863411,1.0762895158341963,1.720183662283217,0.0473340833035544,0.1776654824846205,0.0151761051401636,0.3984689189872784,-0.7767478680756587,-0.4484903718310596,-1.1670143391097043,1.0909251727485938,1.72757156910625,0.3744617219271181,-0.8578711821004718,-0.5419271496129177,1.072945914230084,0.8057597400508321,-0.3658735982792205,0.606713018039387,11.30200826735654,-1.2515497169762797,0.1096435395816722,-0.9572635904967454
1.08,-1.150206367246995,1.0606955555763211,1.7113003977225525,0.0444300188919978,0.1677480473912651,0.014306278364695,0.4094259321093085,-0.7824342578427759,-0.4403691904935272,-1.159692422076505,1.074167749112545,1.7168829456238794,0.3911934624614236,-0.8978711826965182,-0.5569191006016873,0.7388246602831409,0.5478506561015034,-0.2843194883558608,0.4060590668766212,11.02441164058655,-1.2649964126910258,0.1119089892801948,-0.9496408803085488
1.1,-1.1423629939719864,1.045784945079996,1.7029803906232972,0.0423740039171704,0.157902601487967,0.0135500411941371,0.4153821431948516,-0.7870110815945707,-0.4357895808703586,-1.1523705050433055,1.057410325476496,1.7061943221415088,0.4079252029957292,-0.9378711832925648,-0.5719110515904567,0.4398766601308764,0.2978105542771558,-0.22884118758974,0.2289804811584278,10.765715225942586,-1.2779788101031382,0.1135989077529643,-0.939384130862264
1.12,-1.1340267068061776,1.0300026308302832,1.6942903665460354,0.0410785687732957,0.1480281089321916,0.0128677413843921,0.4176732457587049,-0.7910635113417476,-0.4335578905797594,-1.1442120009833912,1.0386529018106447,1.6947561011096997,0.4246569435300348,-0.977871183888611,-0.5869030025792262,0.2581268068559251,0.1145551281926671,-0.202621487358845,0.1115845145299609,10.54937244370376,-1.2887364715116851,0.1144554624266883,-0.928455376360009
1.14,-1.1256802777619006,1.0141465328618144,1.6856258141543512,0.0409616481020521,0.1393506449252076,0.0123365037144485,0.4167116279542122,-0.7944524433845233,-0.4330664808633629,-1.1360534969234766,1.0198954781447933,1.6833178800778903,0.4413886840643404,-1.0178711844846575,-0.6018949535679958,0.1778415917455627,-0.0480808902246387,-0.1694466021387841,0.0245704858198247,10.375911503418138,-1.29698589976886,0.1142815853252101,-0.917849378508097
1.16,-1.1173798084557995,0.9982167613458828,1.6769559451267482,0.0419887716085498,0.1323159816521209,0.0119581138450713,0.4133494810735419,-0.7984300593696869,-0.433926533702628,-1.1274766993502043,1.0001380544640408,1.6715048602713622,0.4581204245986459,-1.057871185080704,-0.6168869045567653,0.2639372627110366,-0.1681073440335106,-0.1988807992581831,-0.043002641963255,10.269628401001684,-1.3027539888412183,0.1132384215403084,-0.9089534011900072
1.18,-1.1095767722039065,0.9830026977012466,1.668694619422588,0.0437329776567349,0.1274701423938189,0.0117277331906308,0.4081454143786861,-0.8028904191381632,-0.4356334171284752,-1.1184816082635745,0.9793806307683872,1.6593170416901146,0.4748521651329515,-1.0978711856767502,-0.6318788555455349,0.3531662868189055,-0.2602033347427923,-0.2230179884238126,-0.0853441712923619,10.192691942795136,-1.3065893981134007,0.1114935819915453,-0.9012619885186138
1.2,-1.1014882781817723,0.9668866993727216,1.6599560756145333,0.046087630486055,0.1248171426124719,0.0116260407150246,0.4009259638138518,-0.8086562705639049,-0.4381671713411119,-1.089169501484972,0.9428581767443384,1.6469129485661642,0.4560989939535095,-0.9028904206282792,-0.4434429736834782,0.479023536822219,-0.3609725282417125,-0.2882925712870854,-0.1266877106318314,10.138600806564682,-1.307421624767391,0.1093128359152728,-0.8963919468571406
1.22,-1.0935195996417069,0.9505698767061146,1.6514206804499931,0.0465411426958443,0.125141589731964,0.0115319923678912,0.3968380733834488,-0.8222323561576702,-0.4138988373882465,-1.089169501484972,0.9428581767443384,1.6469129485661642,0.4560989939535095,-0.9028904206282792,-0.4434429736834782,1.405322899788534,-0.2043945215201514,-0.6788042796882665,1.2134166976432683,10.095373152873435,-1.295148885746664,0.1080752453791474,-0.8879812745175544
1.24,-1.0856102460478514,0.9340033299679852,1.6433907184260483,0.0440212717885359,0.1279130991194347,0.0113527888171375,0.3945653368582008,-0.8334599313394487,-0.3906764083909905,-1.089169501484972,0.9428581767443384,1.6469129485661642,0.4560989939535095,-0.9028904206282792,-0.4434429736834782,1.2947055498339024,-0.1136368262624032,-0.5613787590889263,1.1611214498628009,11.906752591788065,-1.289088935397711,0.1094395889815705,-0.9005661654613897
1.26,-1.0781234907482329,0.9180930090128298,1.6361448557198537,0.0403025803150653,0.1319779339746459,0.011155686749131,0.3938779971790638,-0.8404767692669192,-0.3732038420958014,-1.084608511545437,0.9338292725380556,1.6424785188293294,0.4656897098684742,-0.9228904209263024,-0.4450048849944787,0.942070888090013,-0.0343669839568461,-0.3508418963735216,0.8736283147594559,11.320469735346704,-1.282675879422778,0.1121883158572915,-0.9139442292052966
1.28,-1.070239046157757,0.901234681630688,1.628839679337995,0.036589829297655,0.1370177109030161,0.0109901378322608,0.3948028513979589,-0.8450362234498052,-0.358417271908954,-1.0754865316663669,0.91577146412549,1.63360965935566,0.4848711416984035,-0.9628904215223488,-0.4481287076164799,0.7750590875259238,0.0462427109447549,-0.2279727091443029,0.7393285093423657,11.100717938315938,-1.277208624356941,0.1150200822219657,-0.9265537993385122
1.3,-1.0623189750514517,0.8843013282130632,1.621795556357059,0.0336934161187786,0.1422532668096396,0.0108861092832658,0.3973100440580221,-0.8482143803344757,-0.3468856711946209,-1.0663645517872966,0.8977136557129245,1.6247407998819905,0.5040525735283329,-1.0028904221183954,-0.4512525302384811,0.611073872893166,0.1253596330031581,-0.1589078442335245,0.5765800357166562,11.100717938315938,-1.272427579520359,0.1173240976284627,-0.9381360659909236
1.32,-1.0543333788922735,0.867314190868827,1.6149529004436178,0.0318043034717683,0.1472208734261648,0.010844390003818,0.4012206128444843,-0.8506019999063353,-0.3379761767133903,-1.05628350031673,0.8776558472705566,1.6157157492772207,0.5232340053582623,-1.0428904227144418,-0.4543763528604823,0.5009300534122973,0.1955284393231116,-0.1193809785929811,0.4454747240615314,10.792643438291634,-1.268546240529295,0.1188109109047225,-0.9479397146340256
1.34,-1.0466611138037638,0.8511384446148472,1.6086099261739104,0.0310385452542234,0.1514002210941374,0.0108644299766357,0.4062261793010286,-0.8521683052441181,-0.330169779893142,-1.0462024488461632,0.8575980388281886,1.606690698672451,0.5424154371881916,-1.0828904233104883,-0.4575001754824834,0.4702362153142556,0.2502783228272132,-0.0783152668891395,0.3903198410124125,10.792643438291634,-1.264741495719322,0.1194874603081538,-0.9566016544293166
1.36,-1.038469494973649,0.834075419411551,1.6020893650550414,0.0313184687685864,0.1549866777172301,0.0109450755903344,0.4126978287178601,-0.8541181200983863,-0.3223221565616825,-1.0356418615798484,0.8365402303709195,1.5975875525021312,0.5615968690181209,-1.1228904239065347,-0.4606239981044846,0.5178542654376039,0.3235824708415769,-0.0974907427134075,0.3923811665729748,10.770421348209313,-1.2621175662796988,0.1192441232627156,-0.9641921018762504
1.38,-1.0301378154679983,0.8169692484846005,1.5957215314802002,0.0325353572155012,0.1575133932203932,0.0110685798686003,0.4200702406922608,-0.85647416836419,-0.3148628649079837,-1.0246017385177852,0.8144824218987493,1.5884063107662616,0.5807783008480503,-1.162890424502581,-0.4637478207264858,0.537458030282423,0.3686205987200347,-0.1178024132901855,0.3729645826849426,10.762513039324404,-1.2608430192858384,0.1182131105990627,-0.9704522632575364
1.4,-1.0220817618236215,0.8006684157034094,1.58980683877644,0.0343805648856344,0.1588626146513284,0.0112087372633573,0.4274680321479329,-0.8593343222966121,-0.3081114006757469,-1.0091343034333855,0.774145540066391,1.579978388234801,0.4750552386502057,-0.956474169854306,-0.3079387018235065,0.5207928288147264,0.3698895727836049,-0.1430076966211058,0.3375732116118413,10.751654578341004,-1.2607807922736092,0.1166345434590869,-0.9750214401289368
1.42,-1.0134024448767156,0.7833802499883028,1.5838642715934677,0.0349813048105166,0.1585298290330437,0.0112092988710282,0.440154082181928,-0.8689477122784786,-0.2857149244459404,-1.0091343034333855,0.774145540066391,1.579978388234801,0.4750552386502057,-0.956474169854306,-0.3079387018235065,1.3738224775428272,0.6343025016997544,-0.4806694990933224,1.1198238114903252,11.814064071738358,-1.2552212060893482,0.1156910499173324,-0.9744288482439256
1.44,-1.0044713173217836,0.7659215646262152,1.5783803509666634,0.0332437848880925,0.1557405643724663,0.0109730085652154,0.4521064658926317,-0.8762812436315175,-0.2639937478300899,-1.0091343034333855,0.774145540066391,1.579978388234801,0.4750552386502057,-0.956474169854306,-0.3079387018235065,1.292719683507286,0.5976191855351864,-0.3666765676519468,1.0860588307925243,11.814064071738358,-1.2597360834378188,0.1172745012580758,-0.979719794766535
1.46,-0.9953213906363612,0.7483399174361951,1.573294547461414,0.0303842747030236,0.1507657781305294,0.0106095661731882,0.4619740729978611,-0.8813027063553469,-0.2456281769613652,-1.0043837510468834,0.764580798367848,1.576899001216566,0.4860522382417946,-0.9764741701523294,-0.3065538692066111,1.0722394219624285,0.4933803552614663,-0.2510731361914708,0.9182785434362336,11.639479802094684,-1.266744841620169,0.1197874419707874,-0.9814639850223674
1.48,-0.9864798364377952,0.7315719150478308,1.5687758951829218,0.0277641983543442,0.1447091219431492,0.0102605437410169,0.4679422915814917,-0.8836413785043364,-0.230911455164151,-0.9948826462738792,0.7454513149707618,1.570740227180096,0.5080462374249727,-1.0164741707483758,-0.3037842039728202,0.8026065675956267,0.2984109291815334,-0.1169336074494764,0.7358360898607099,11.4262057909973,-1.2759129078767135,0.1224234340837594,-0.9788921928167535
1.5,-0.9770873848975896,0.7138872634243963,1.5642986822679643,0.0258100967014152,0.1380082564756587,0.0099702897914355,0.4707440197922252,-0.884874064380251,-0.2176829867736195,-0.9853815415008752,0.7263218315736757,1.5645814531436255,0.5300402366081506,-1.0564741713444223,-0.3010145387390293,0.6788990561835906,0.1400864105366717,-0.0616342937957259,0.6614234195265717,11.235287744430934,-1.2843813155190855,0.1242962953257856,-0.97508222833738
1.52,-0.9676738677981837,0.6961885334557065,1.560060880315869,0.0250514217357756,0.1318824388554018,0.0098001364217943,0.4703619564461956,-0.885164938125977,-0.206745752658955,-0.974780736768712,0.7051923481467872,1.5585611623688451,0.5520342357913285,-1.0964741719404687,-0.2982448735052385,0.5473885046639952,-0.0191031673014763,-0.0145436872863002,0.5468617057332272,11.082571357844245,-1.2911431967438294,0.1250736176251829,-0.9713103482833116
1.54,-0.958297443291769,0.6784909614210369,1.5560311484538984,0.0258563796609991,0.1271401504006694,0.0097835036429044,0.4672030459410696,-0.8848353816590616,-0.1967725948699219,-0.9641799320365492,0.6840628647198989,1.5525408715940645,0.5740282349745065,-1.1364741725365153,-0.2954752082714476,0.5233335440453649,-0.1579455252563005,0.0164778233457674,0.4986578894516549,10.94882214847803,-1.2962576678835738,0.1245421765330073,-0.9677557395232907
1.56,-0.9494688587942208,0.6616752545502302,1.5523823780298365,0.0280394306263179,0.1246558544215018,0.0099191156118308,0.4622576018702217,-0.8853808234439857,-0.1878100889612673,-0.9530292773248068,0.6619333812781092,1.5465898224501289,0.5960222341576844,-1.1764741731325616,-0.2927055430376567,0.512546183190586,-0.2472722035423952,-0.0272720892462052,0.4481252954327316,10.87041603204034,-1.298432204193691,0.1226260506288806,-0.9668593639325972
1.58,-0.9402798558759048,0.6439432828129388,1.5487235752540096,0.0312432893767963,0.1244711311888568,0.0101925732786223,0.457193008405678,-0.8880681666806803,-0.1785704644552425,-0.9413287726334848,0.6388038978214184,1.5407080149370376,0.6180162333408623,-1.216474173728608,-0.2899358778038658,0.543697024190038,-0.2532296732271843,-0.1343671618347308,0.4619812253012403,10.87041603204034,-1.2963246304654863,0.1197733947411384,-0.9704724416690896
1.6,-0.9311768618007954,0.6261336869164349,1.5452486225853284,0.0343514249515933,0.1261240909724139,0.0105210546684806,0.45359836105809,-0.8927081971493435,-0.1694052010421053,-0.917420205455621,0.5995398744789048,1.5397950520312476,0.5276264983839916,-0.9564426738098728,-0.1648072453371242,0.5441815545749266,-0.179732367379401,-0.2320015234331562,0.4582631706568557,10.85617661359629,-1.2922984564930824,0.1169802304182009,-0.9760351377473244
1.62,-0.9225743966681348,0.6089436960810417,1.5422070059174444,0.0313100655305615,0.1289962296526989,0.0104654767393582,0.4523564311008033,-0.9134138510080614,-0.1511247844245732,-0.917420205455621,0.5995398744789048,1.5397950520312476,0.5276264983839916,-0.9564426738098728,-0.1648072453371242,1.3824255164803547,-0.0620964978643362,-1.035282692935896,0.9140208308766052,10.857476565599429,-1.2826736935983425,0.1193176641619223,-0.9799625712917136
1.64,-0.9135285837637128,0.5905782689171438,1.5393809116420132,0.0219144619304839,0.133077092148715,0.0099997674180739,0.4525013423943591,-0.9210163995669564,-0.1325515841194062,-0.917420205455621,0.5995398744789048,1.5397950520312476,0.5276264983839916,-0.9564426738098728,-0.1648072453371242,1.0034733596977237,0.007245564677788,-0.3801274279447542,0.928660015258352,11.568423633161729,-1.2753774592600629,0.1275867534985675,-0.9892768515162408
1.66,-0.9044659718736988,0.5721555582652728,1.5368927532378431,0.0118249084014298,0.1377556088757296,0.0094768424175405,0.4539508189080337,-0.9208135935573352,-0.1172243124770538,-0.912143940471781,0.589975447740806,1.5381469795778764,0.5417131963796542,-0.9701175752357112,-0.1620546015135005,0.7698496094038337,0.0724738256837331,0.0101403004810596,0.7663635821176219,11.231881895128936,-1.2707912077954322,0.1368741060360148,-0.9999463534647596
1.68,-0.8953604423153995,0.5537862572484817,1.5346805408725472,0.0030749812677315,0.1425959942941879,0.0090258993794389,0.456678023134025,-0.9164530734604546,-0.1047992668693886,-0.9015914105041012,0.5708465942646086,1.5348508346711338,0.5698865923709796,-0.9974673780873882,-0.1565493138662532,0.6723718033166685,0.1363602112995632,0.2180260048440352,0.6212522803832561,11.231881895128936,-1.267545412011016,0.1448196404996015,-1.009852475252784
1.7,-0.8866477170778643,0.5364400184010314,1.5327881479123844,-0.0034051276272979,0.1470396552159836,0.0087093912999709,0.4604055747498314,-0.910125924852038,-0.0950448928332787,-0.8910388805364214,0.5517177407884112,1.5315546897643912,0.598059988362305,-1.0248171809390652,-0.1510440262190059,0.6104819067708358,0.18637758079032,0.3163574304208216,0.4877187018054958,10.963697006859547,-1.2640500755698385,0.151545052787055,-1.0192528603122708
1.72,-0.8773888090357514,0.518321144149836,1.5309833894845803,-0.0082775474655059,0.1513408626302561,0.0085063935574255,0.4653733844595611,-0.9024249649964012,-0.0860093850518377,-0.8790776807691754,0.5312213971696299,1.5285338092400111,0.6262333843536304,-1.052166983790742,-0.1455387385717586,0.6434755567981889,0.2483904854864854,0.3850479927818395,0.4517753890720517,10.963697006859547,-1.2613315290032332,0.1565229243239838,-1.0277497348833915
1.74,-0.8680188957555989,0.5003645269335687,1.5293531715745272,-0.011249444943371,0.1550907817788634,0.0084419481817086,0.4714029896377588,-0.8941282478211336,-0.077476904797111,-0.8671164810019293,0.5107250535508485,1.525512928715631,0.6544067803449558,-1.0795167866424191,-0.1400334509245112,0.6670735974924943,0.3014802589098836,0.4148358587633849,0.4266240127363353,10.89781273335302,-1.259479473646687,0.1596749407919585,-1.035193622455306
1.76,-0.8589941602398476,0.4834556686592031,1.52796143980912,-0.0127233350702938,0.1579423069073637,0.0084900235419608,0.4782357963527583,-0.8864019355727153,-0.0694573681056458,-0.8544509463349,0.4895449648607753,1.522629680382432,0.6825801763362811,-1.106866589494096,-0.1345281632772639,0.6532536209435787,0.3416403357499764,0.3863156124209177,0.4009768345732599,10.89781273335302,-1.2582063972138395,0.1617088425565307,-1.0423027487073395
1.78,-0.8493470667674798,0.4658160958020559,1.5266618423918663,-0.0130325560474988,0.160029749877632,0.008649756709119,0.486085819764715,-0.8780716064209201,-0.0609226749110072,-0.8410810767680876,0.4676811310994102,1.5198840642404143,0.7107535723276065,-1.1342163923457729,-0.1290228756300166,0.7138946688274945,0.3925011705978337,0.4165164575897606,0.4267346597319293,10.906413543440976,-1.257862200829229,0.1625674397076175,-1.0485010746007668
1.8,-0.8395386453438897,0.4483452431086976,1.5255335261521552,-0.0119442846848927,0.1611321082841657,0.0089314749568428,0.494299290655435,-0.8695662658649372,-0.0523329675325865,-0.8250427757792441,0.4219125154810099,1.5236157086463162,0.5648963700371797,-0.8723895510481753,-0.0629334066360294,0.7307273686075506,0.4106735445359999,0.4252670277991421,0.4294853689210343,10.924088137839137,-1.2587694633415685,0.1621372755346357,-1.0538671980025776
1.82,-0.8295494313445525,0.430760261228938,1.5245773443031332,-0.0184586775673789,0.1608160463607011,0.0087166820915223,0.5040218235366195,-0.883867836039626,-0.0437049926334558,-0.8250427757792441,0.4219125154810099,1.5236157086463162,0.5648963700371797,-0.8723895510481753,-0.0629334066360294,0.9663132333090696,0.486126644059226,-0.7150785087344402,0.4313987449565334,10.935355425327543,-1.2595583353247664,0.168320452951335,-1.0559357009731305
1.84,-0.8198957990082085,0.4139837956542943,1.523814789863824,-0.0313674361133085,0.1591766876256506,0.0081114394042519,0.5115411002826923,-0.8803310405310653,-0.0370043521365281,-0.8250427757792441,0.4219125154810099,1.5236157086463162,0.5648963700371797,-0.8723895510481753,-0.0629334066360294,0.5337298668860373,0.3759638373036389,0.1768397754280393,0.3350320248463878,10.943637320895505,-1.263067523067018,0.181839231816154,-1.0539536634491056
1.86,-0.8096010614783015,0.3965082227938978,1.5231242780210117,-0.0455163477861323,0.1567636242072703,0.0075274119009611,0.5173706854007979,-0.8672403626284502,-0.0325278886350167,-0.8193938120788723,0.4131886199705282,1.522986374579956,0.5806584800916726,-0.8712531399736263,-0.0633355529810338,0.7506474473406551,0.2914792559052803,0.6545338951307544,0.223823175075568,10.820595078092085,-1.2693647665321317,0.1963410718652184,-1.0528284171008089
1.88,-0.7992148682981661,0.3793573998595886,1.5224935726640692,-0.0577452660456987,0.1543906122616454,0.0071505700130212,0.5208728014525785,-0.8489358050924677,-0.0307482375982128,-0.8080958846781288,0.3957408289495647,1.5217277064472354,0.6121827002006586,-0.8689803178245284,-0.0641398456710427,0.9360673069296752,0.1751058025890317,0.915227876799124,0.0889825518401969,10.541994950710432,-1.2765863852750974,0.2091638763232003,-1.051755939969783
1.9,-0.7887808966566394,0.3626045880492304,1.5218800587810724,-0.067338260220052,0.1528343569359428,0.006971651580618,0.5223484285762986,-0.8278588003860711,-0.0306683920300738,-0.7967979572773851,0.3782930379286012,1.5204690383145147,0.6437069203096445,-0.8667074956754305,-0.0649441383610516,1.0564373835164995,0.0737813561860034,1.053850235319831,0.0039922784069477,10.541994950710432,-1.2824230800672434,0.2190244258102053,-1.0514663211319415
1.92,-0.7788495911318113,0.3470948480165958,1.5212900446516562,-0.0740049224025633,0.1525477890512071,0.0069317731039283,0.5231356695666851,-0.8063734764706352,-0.0314207912270075,-0.7839238188711922,0.3609588880150925,1.5191701555472936,0.6752311404186304,-0.8644346735263325,-0.0657484310510605,1.075645151385545,0.0393620495193258,1.0742661957717947,-0.037619959846682,10.4635528677627,-1.2860551022439153,0.2269131654105999,-1.0526436975360591
1.94,-0.7683770092537983,0.3312135161307685,1.5206519612557514,-0.078791624688669,0.1534157932270873,0.0069859712898514,0.5242106467271563,-0.7832647463416174,-0.032332991161065,-0.7710496804649993,0.3436247381015839,1.5178712727800725,0.7067553605276163,-0.8621618513772347,-0.0665527237410693,1.1575848703129774,0.0537488580235612,1.155436506450891,-0.045609996702875,10.431519116574236,-1.2883684722552398,0.2325801112789822,-1.0551018505268182
1.96,-0.7578725433788083,0.3157986739626225,1.5199975956560587,-0.081619637802925,0.15515962976653,0.0071282081422137,0.5263039907402983,-0.7597519230076697,-0.0330243258047464,-0.7573874365560819,0.3263474087418028,1.5165522826956013,0.7382795806366023,-0.8598890292281367,-0.0673570164310782,1.180797287725909,0.1046672006570992,1.1756411666973832,-0.0345667321840721,10.431519116574236,-1.290026542196466,0.2364156453694835,-1.05888728115992
1.98,-0.7473141724253165,0.3008604974522051,1.5193346925748197,-0.0825881494150937,0.1573137468583424,0.0073846097822251,0.5295075378958116,-0.7356201508907684,-0.0332177827431651,-0.7429370871444396,0.3091268999357491,1.51521318529388,0.7698038007455881,-0.8576162070790389,-0.0681613091210871,1.2172125589504443,0.1601773577756648,1.206588605845066,-0.0096728469209335,10.454388741241928,-1.291186787191076,0.2384953300269021,-1.0638387961357183
2.0,-0.7372143087367976,0.2871222563949304,1.518706952589196,-0.0815825407089212,0.1593963006893768,0.0077762801729592,0.5335075811061237,-0.7120406998660673,-0.0328356286832735,-0.7208387955305259,0.2640794899076667,1.5176738034376611,0.5880909837428461,-0.70739041323644,-0.0383105465507897,1.1959691656101872,0.2000021605156055,1.1789725512350524,0.0191077029945772,10.492746838663152,-1.2925908398147703,0.2388369765007177,-1.069943184170315
2.02,-0.7264200145496276,0.2730807791551485,1.518065315321313,-0.0802709534442307,0.1591537650572716,0.0084204101839045,0.5458028827611174,-0.6930717546052342,-0.031328660270457,-0.7208387955305259,0.2640794899076667,1.5176738034376611,0.5880909837428461,-0.70739041323644,-0.0383105465507897,1.1327690418759269,0.6147650827496853,0.9484472630416574,0.0753484206408267,10.538938769756896,-1.291346394217154,0.2390522549391714,-1.076963750366725
2.04,-0.7153876195140608,0.2594323269242858,1.517459295205885,-0.079812578061983,0.1541741304579267,0.0094000188147861,0.5560782549284395,-0.6726910337686299,-0.0292724459674469,-0.7208387955305259,0.2640794899076667,1.5176738034376611,0.5880909837428461,-0.70739041323644,-0.0383105465507897,1.1458458363327897,0.5137686083661053,1.0190360418302125,0.1028107151505065,10.620173013466228,-1.3041692227254893,0.240281057813165,-1.074168514710505
2.06,-0.7042048752825772,0.2462023003486247,1.5168939419125314,-0.0793445420242128,0.1464357624084016,0.0106126179814727,0.5612281656780723,-0.6514431270376161,-0.0273163638727289,-0.7149578856930974,0.2570055857753023,1.5172906979721534,0.599807672912253,-0.7017444657055744,-0.0393290993123146,1.0975215013159456,0.257495537481639,1.0623953365506922,0.0978041047358983,10.604275255714128,-1.3198307165398857,0.2416835502580182,-1.0682583835338402
2.08,-0.6935336471422363,0.2340321795532627,1.51638860172314,-0.0784632760986052,0.1383003213351584,0.0118634928206686,0.5615816384101071,-0.6308329994170395,-0.0259432250939523,-0.7031960660182405,0.2428577775105735,1.5165244870411376,0.6232410512510668,-0.690452570643843,-0.0413662048353644,1.0329421736168554,0.0176736366017393,1.0305063810288284,0.0686569389388304,10.604275255714128,-1.3356122266283013,0.2426850405901661,-1.061576036242999
2.1,-0.6823351267447222,0.2216438497680374,1.5158801249773404,-0.076821531100772,0.1302907260915478,0.0131850256668371,0.5580661400303273,-0.6092097331572015,-0.0249871575977617,-0.6914342463433836,0.2287099692458447,1.5157582761101218,0.6466744295898805,-0.6791606755821117,-0.0434033103584142,1.096401429289651,-0.1757749189889912,1.0811633129919007,0.0478033748095281,10.560697939868078,-1.3491712893614245,0.2428127539529871,-1.054907189480481
2.12,-0.6712451497299461,0.2096848011963719,1.5153853608662404,-0.0743027043354554,0.1239506917114364,0.0144301455894949,0.5510692206819502,-0.5881404576201034,-0.024502734031132,-0.678500757751586,0.2151267557342024,1.5148902099029535,0.6701078079286943,-0.6678687805203803,-0.0454404158814641,1.11029941706929,-0.3498459674188547,1.053463776854907,0.0242211783314873,10.522649814801298,-1.3605495524191271,0.2419440208013889,-1.049322415520625
2.14,-0.6603272675800271,0.1981304551159533,1.5148994538451597,-0.0713133409538273,0.1203315067988359,0.0154948017303821,0.5410542318190681,-0.5685534509283787,-0.0240995534413242,-0.6655672691597884,0.2015435422225602,1.5140221436957852,0.6935411862675082,-0.656576885458649,-0.0474775214045139,1.100128842060461,-0.5007494431441051,0.979350334586232,0.0201590294903863,10.495399406614524,-1.3683023280406776,0.240590369169831,-1.0468006427218672
2.16,-0.6501514715389689,0.1875072349843946,1.5144462529949303,-0.0683333355522636,0.1200832709799108,0.0162840989273768,0.5310299017287418,-0.5507993315526349,-0.02363311785665,-0.6520479461095204,0.1882426260874612,1.5131031498505407,0.7169745646063219,-0.6452849903969177,-0.0495146269275637,1.0196978850652691,-0.5012165045163164,0.8877059687871891,0.0233217792337113,10.49406742002975,-1.368571665772728,0.2388018173606653,-1.0498223526226893
2.18,-0.6396255775439396,0.1766804480748678,1.5139816250732003,-0.0651812603083991,0.1224868834132102,0.0169382273089634,0.5223981242111311,-0.5329186540257724,-0.0228484822706909,-0.6379427886007821,0.1752240073289056,1.51213322836722,0.7404079429451357,-0.6339930953351863,-0.0515517324506136,0.9935314098405856,-0.4315888758805342,0.8940338763431255,0.0392317792979575,10.487835501923657,-1.3659991625053716,0.2369478269993407,-1.0565389542446235
2.2,-0.629248733854342,0.1662047220675494,1.513537962360742,-0.0620649640054962,0.1266836508710392,0.0174840060772971,0.5160148970919676,-0.5156609268985214,-0.0215761824951484,-0.613505671333383,0.1500345153735792,1.5128392009596658,0.5664210121563062,-0.4930960346174033,0.002927388037589,0.922216732623528,-0.3191613559581752,0.8628863563625522,0.0636149887771232,10.501278843327782,-1.3621315853100189,0.235221104642842,-1.0653899039667438
2.22,-0.6194068801117212,0.1565307986733116,1.5132357839209625,-0.0605275882257506,0.1294789632435507,0.0179864513183597,0.5198809482024882,-0.5028314448146181,-0.0103624721218119,-0.613505671333383,0.1500345153735792,1.5128392009596658,0.5664210121563062,-0.4930960346174033,0.002927388037589,0.8736264391423681,0.1933025555260314,0.6414741041951666,0.5606855186668264,10.52947284606762,-1.3503912053486986,0.2340903283275776,-1.0724253092412712
2.24,-0.6089748896820547,0.1466311181375237,1.5131572665084985,-0.0607739783259174,0.1292471266440977,0.0185829927939952,0.522890874513198,-0.4876912209899608,0.0018776446022168,-0.613505671333383,0.1500345153735792,1.5128392009596658,0.5664210121563062,-0.4930960346174033,0.002927388037589,0.9850209277909652,0.1504963155354921,0.7570111912328592,0.6120058362014392,11.183939732092767,-1.355216565418916,0.2364940301467603,-1.082166149424578
2.26,-0.5985006492307993,0.137047108073253,1.5133161625387823,-0.0621638444297074,0.1266178549211784,0.0192533839711049,0.5241750747959874,-0.4714119281066625,0.013360395235411,-0.6078414612118199,0.1451035550274051,1.5128684748400418,0.5752255897453413,-0.4851315107357296,0.008082562099245,0.9981459177528188,0.0642100141394652,0.813964644164919,0.5741375316597088,11.19217108572684,-1.3626256511789416,0.240093664965583,-1.088709865023337
2.28,-0.5880255523953465,0.1278022745038917,1.513693969174608,-0.0641125326234803,0.1223629712805811,0.0199998104774961,0.5230610382530143,-0.453909524169833,0.0238477650734386,-0.5965130409686937,0.1352416343350571,1.5129270226007936,0.5928347449234114,-0.4692024629723819,0.018392910222557,1.0217144257406217,-0.055701827148652,0.8751201968414751,0.52436849190138,11.151658498139112,-1.3715965695006025,0.2441043774636695,-1.0927526340694116
2.3000000000000003,-0.5781230399563216,0.1193581093528287,1.5142375817759413,-0.0659191474132621,0.1176758048274573,0.0207696078763697,0.5191962149812098,-0.4358964519891627,0.0328463943325544,-0.5851846207255677,0.125379713642709,1.5129855703615454,0.6104439001014814,-0.4532734152090343,0.028703258345869,1.0251621296791702,-0.1932411635902242,0.900653609033511,0.449931462955792,11.100902859496273,-1.3819746657604606,0.2485750830371724,-1.0982125725346084
2.32,-0.5678106269842025,0.1108491542332283,1.5149870662481666,-0.0672409454485761,0.113128096467938,0.0216097463682299,0.5120209933151975,-0.4160359299754755,0.0415953360016392,-0.572975742723538,0.1163142453385283,1.5135596355284628,0.6280530552795515,-0.4373443674456866,0.039013606469181,1.1428780785167076,-0.3587610833006183,0.9930261006843633,0.4374470834542364,11.053405537792967,-1.3916612432304376,0.2523979500250526,-1.1034455342875715
2.34,-0.5576763113756583,0.1027475312593342,1.515907480519529,-0.0675379452881781,0.1102434077313838,0.0224180485539143,0.5016987934297683,-0.3953108974591504,0.0499985710035026,-0.5607668647215084,0.1072487770343476,1.51413370069538,0.6456622104576216,-0.421415319682339,0.049323954592493,1.2315530254256508,-0.5161099942714575,1.0362516258162562,0.42016175009317,11.02771140011464,-1.3990242256403047,0.2551905483475961,-1.1118070877245882
2.36,-0.5482556571953422,0.0954425551055136,1.516936460600593,-0.0664384066065379,0.109920767052875,0.0231208344856943,0.4908191796970323,-0.3749020369373775,0.0578842093326762,-0.548117757840027,0.0985815349242506,1.5149655245653804,0.6632713656356917,-0.4054862719189914,0.059634302715805,1.2217516877717502,-0.5439806866367969,1.0204430260886437,0.3942819164586816,11.037294726609616,-1.400541599501291,0.256344752929635,-1.123928981496041
2.38,-0.5385482422177326,0.0881701130913498,1.5181844769940327,-0.0635412082436279,0.1117783633591862,0.0238365126974938,0.4807564425219431,-0.3537848906257264,0.0665222553623157,-0.535028422079094,0.0903125190082373,1.5160551071384634,0.6808805208137617,-0.3895572241556438,0.069944650839117,1.246804302018538,-0.5031368587544632,1.0558573155825537,0.4319023014819775,11.044226925254408,-1.3993915973453677,0.2555307341978994,-1.1389106598459202
2.4,-0.5290227798001552,0.081295107270505,1.5196117606957296,-0.0594785837858544,0.1151604506983794,0.0245414325519846,0.4725336958297841,-0.3350872004588814,0.075790029275105,-0.5145104200916354,0.0704808685600634,1.5215105897621486,0.5092451679457559,-0.3170342387297265,0.0541741920721966,1.121504362494099,-0.4111373346079472,0.9348845083422486,0.4633886956394606,11.073351102611014,-1.3961622638402529,0.253278386419951,-1.1551902608354827
2.42,-0.5196167926397166,0.0747685461100703,1.5211021135398943,-0.055087411072041,0.1181330724267276,0.0252996338063797,0.4683881675371437,-0.3187258813437125,0.0721382469921911,-0.5145104200916354,0.0704808685600634,1.5215105897621486,0.5092451679457559,-0.3170342387297265,0.0541741920721966,0.8634432260653826,-0.2072764146320238,0.8180659557584458,-0.1825891141456946,11.113117096346286,-1.399524663851911,0.2510487967635849,-1.1686319310114806
2.44,-0.5107608545161071,0.0688508050595013,1.5224354087830383,-0.0511254305130241,0.1194154002164705,0.0260920045733913,0.4639129558335318,-0.3049775170991158,0.0684542252063737,-0.5145104200916354,0.0704808685600634,1.5215105897621486,0.5092451679457559,-0.3170342387297265,0.0541741920721966,0.7460178545326959,-0.2237605851805935,0.6874182122298345,-0.1842010892908703,10.348155763248542,-1.400948909848042,0.2479141240274067,-1.1730823669145325
2.46,-0.5015390107923692,0.0628933860465607,1.5237725298278828,-0.0474861818444588,0.1198872697604517,0.0269290306806082,0.4584479576507726,-0.2914612161983561,0.0654831402785863,-0.5094179684121778,0.0673105261727662,1.5220523316828705,0.5149429130305185,-0.3096841083505265,0.0517045794141727,0.7439488235516712,-0.2732499091379597,0.6758150450379891,-0.1485542463893686,10.348155763248542,-1.40256391853185,0.2452907277080142,-1.176419635117426
2.48,-0.4924339970769,0.0571994638672613,1.5250575384019769,-0.0444179701465395,0.1200061429643113,0.0277352168803679,0.4523058925749925,-0.2785728399631745,0.0631837017120634,-0.4992330650532627,0.0609698413981716,1.5231358155243144,0.5263384032000437,-0.2949838475921266,0.0467653540981251,0.723053634068601,-0.3071032537890067,0.6444188117590788,-0.1149719283261449,10.40259869894544,-1.4041478292359872,0.2432339219223792,-1.1793332687041267
2.5,-0.4834578777994728,0.0517579259073072,1.526301808928113,-0.0418738100317987,0.1201961071788894,0.028493331224576,0.445654323175326,-0.2661586760250545,0.061345238050847,-0.4890481616943476,0.0546291566235771,1.5242192993657584,0.5377338933695688,-0.2802835868337266,0.0418261287820774,0.7101668648893583,-0.3325784699833245,0.6207081969060002,-0.0919231830608203,10.46747295112982,-1.4052306764710327,0.2417538172170943,-1.182098825519195
2.52,-0.4750565267814,0.0468151568460085,1.5274526172263307,-0.0398621023996986,0.1206855824630203,0.0291650455989526,0.4390987651900119,-0.2547015492088164,0.0598743180722698,-0.4782934838269562,0.0490234848869026,1.5250558219414,0.5491293835390939,-0.2655833260753266,0.0368869034660297,0.6640871572420938,-0.3277778992657049,0.5728563408119031,-0.0735459989288579,10.46747295112982,-1.4056807555943678,0.2405970506531408,-1.1852880220406137
2.54,-0.4663479771080325,0.0418441296109636,1.5286310308824835,-0.0381145651304447,0.12165727609313,0.0298212262706766,0.4321714892146521,-0.2429829212154626,0.0580213923691413,-0.4675388059595649,0.043417813150228,1.5258923445170416,0.560524873708619,-0.2508830653169266,0.0319476781499821,0.6869256294292828,-0.3463637987679874,0.5859313996676913,-0.0926462851564256,10.48630033486279,-1.4057088054589926,0.2398256446850727,-1.188858023372548
2.56,-0.4577749641414401,0.0371074829983597,1.529769217238591,-0.0366252004660167,0.1231001930096125,0.0304349430964963,0.4255788882415001,-0.2313008726912508,0.0558845550372019,-0.4564992408379353,0.0381796479325135,1.526605386459782,0.5719203638781443,-0.2361828045585267,0.0270084528339344,0.6791515278205855,-0.3296300486576003,0.5841024262105906,-0.1068418665969715,10.468853104493974,-1.4049198507165537,0.2392821323881034,-1.192434415303001
2.58,-0.4497478834323539,0.0328226517835615,1.5308094777734207,-0.0353421524480023,0.1248018243322067,0.0309908776327,0.4197900117159645,-0.2203603235165291,0.0537177802461528,-0.4451747884620677,0.033308989233759,1.527194947769621,0.5833158540476694,-0.2214825438001267,0.0220692275178867,0.6282945580448824,-0.2894438262767834,0.5470274587360809,-0.1083387395524545,10.456892596915168,-1.4036451494885211,0.2388243059840282,-1.1964253244446694
2.6,-0.4414110348609265,0.0285342257933774,1.5318591046460286,-0.0341098139163463,0.1268200581077528,0.0315537499004309,0.4142792572374151,-0.2090961462810857,0.051350489808583,-0.4287583828465556,0.021804635607735,1.5334953667857285,0.4257710211694995,-0.1822646779100113,0.0480819319772862,0.6380716412170027,-0.2755377239274686,0.5632088617721728,-0.1183645218784879,10.451906077660167,-1.4019886348549373,0.2384546582385506,-1.200482789598256
2.62,-0.4330955908844463,0.0244767714596884,1.532911779590222,-0.0328748266135395,0.1266272342673225,0.0321836690574975,0.4176726522090736,-0.1972651623832972,0.054295093162862,-0.4287583828465556,0.021804635607735,1.5334953667857285,0.4257710211694995,-0.1822646779100113,0.0480819319772862,0.6327677266134836,0.1696697485829262,0.5915491948894236,0.1472301677139492,10.450157146667152,-1.3912073267148497,0.236966784374248,-1.19993428914038
2.64,-0.424716000498663,0.0206473539172851,1.534027351109834,-0.0317245614435217,0.1217639846640542,0.0329482009171893,0.4193566660813427,-0.1862833233844714,0.0571067222346526,-0.4287583828465556,0.021804635607735,1.5334953667857285,0.4257710211694995,-0.1822646779100113,0.0480819319772862,0.5730225749380756,0.0842006936134537,0.5490919499412924,0.1405814535895295,10.809274352277498,-1.4043950826561509,0.2378555938285523,-1.2033921702609318
