t,x,y,z,roll,pitch,yaw,v_x,v_y,v_z,ref_x,ref_y,ref_z,ref_v_x,ref_v_y,ref_v_z,a_com,a_x,a_y,a_z,thrust,wind_x,wind_y,wind_z
0.0,-0.1556662280683588,-2.51767644789283,1.9202715313779015,0.0207741190260148,0.1364566948717532,0.0267398216755902,0.0044514783579565,0.0051760892944133,0.005035155572867,-0.155488329178123,-2.517431789496352,1.9204754047030423,0.1044477698179559,0.1060046632774767,-0.0562227077313676,0.4241472374013223,0.2225739178978258,0.2588044647206651,0.2517577786433531,10.546790041842542,-1.28763569052076,0.1555990535100636,-1.1706473071987793
0.02,-0.1556534627179009,-2.5176637515830733,1.9202857038583765,0.0208933582784969,0.1364801229526566,0.0267469030701173,0.0038606418469592,0.0025835416479063,0.0041178380544033,-0.155488329178123,-2.517431789496352,1.9204754047030423,0.1044477698179559,0.1060046632774767,-0.0562227077313676,0.1406401659539021,-0.0295418255498648,-0.1296273823253457,-0.0458658759231864,10.547932308665622,-1.3105027368153666,0.1572458545916989,-1.1677870269549426
0.04,-0.1556501798062161,-2.5176634596783787,1.9202889179472813,0.0208101037033514,0.1365141786578211,0.0267412407185048,0.0032829116848738,0.000291904694417,0.0032140889050976,-0.155488329178123,-2.517431789496352,1.9204754047030423,0.1044477698179559,0.1060046632774767,-0.0562227077313676,0.1265121989340548,-0.028886508104268,-0.1145818476744683,-0.0451874574652841,10.032478267453826,-1.3082704164615064,0.1571461861323465,-1.1657269193890674
0.06,-0.1556777374358375,-2.517866479258895,1.9201472957706291,0.0129074308331199,0.138836041028367,0.0262245349975494,-0.0057562008166453,-0.0196032268868321,-0.0200283362347238,-0.1544438514799434,-2.516371742863577,1.919913177625729,0.1244477701159791,0.1260046635754999,-0.0684851072260156,1.5950957195655566,-0.4519556250759619,-0.9947565790624568,-1.1621212569910748,9.937952266080629,-1.3027614056778969,0.1644184854919695,-1.1607672736400385
0.08,-0.1557053190953283,-2.51794885584447,1.920052673349789,0.0098884728387054,0.139828854352306,0.0260260347302701,-0.0075528253537003,-0.0210837203770196,-0.0258066266418388,-0.1523548960835843,-2.514251649598028,1.9187887234711016,0.1644477707120255,0.1660046641715463,-0.0930099062153116,0.3114817841005846,-0.0898312268527492,-0.0740246745093759,-0.2889145203557517,8.94343232896017,-1.2984808750405172,0.1680330573920046,-1.15656658162178
0.1,-0.1557697125305023,-2.518101208645434,1.9198299516018171,0.0042331823989766,0.1418514223783449,0.0256491401095162,-0.0103733645003167,-0.0220265275196851,-0.0363910115318662,-0.1502659406872252,-2.5121315563324784,1.9176642693164745,0.204447771308072,0.2060046647675928,-0.1175347052046075,0.5497124927771242,-0.1410269573308172,-0.0471403571332766,-0.5292192445013681,8.96850933710175,-1.2954482075347131,0.1729260858757955,-1.1535339833020408
0.12,-0.1558030087153626,-2.518167221080921,1.9197114853061377,0.0017258486329946,0.1428119038410921,0.0254793411256976,-0.0114564841365905,-0.0219674789245554,-0.0410644626248294,-0.1461769852610638,-2.508011463037126,1.915313575212382,0.2444477719041184,0.2460046653636392,-0.1420595041939035,0.2398842429245202,-0.0541559818136918,0.0029524297564869,-0.2336725546481621,8.857431939157323,-1.293447233498035,0.1762997546055971,-1.1515009010782442
0.14,-0.1559070108287223,-2.5183388198450825,1.919322291896744,-0.0050639095174451,0.145593960370934,0.0250092114837926,-0.0141357528442817,-0.0208733371753946,-0.0546550549502509,-0.1420880298349023,-2.503891369741775,1.91296288110829,0.2844477725001649,0.2860046659596857,-0.1665843031831995,0.6947658359675464,-0.1339634353845601,0.054707087458038,-0.6795296162710709,8.799190251792425,-1.2901629515705904,0.1831916897824081,-1.1474397409614825
0.16,-0.1562432992661347,-2.518694751007533,1.917860229423937,-0.0219935456866777,0.1534859714071231,0.0237546507490537,-0.0187743479359561,-0.0143205061582592,-0.0898705682528537,-0.1369990743938397,-2.4987712764315217,1.909999067029465,0.3244477730962113,0.3260046665557322,-0.1911091021724954,1.8059544124433435,-0.2319297545837202,0.3276415508567722,-1.76077566513014,8.591831770494082,-1.279537644546116,0.1988235950475301,-1.133538620188815
0.18,-0.1564970246391403,-2.518838141990815,1.916543868944502,-0.0326803180226762,0.1589753358838763,0.0228922098824615,-0.0199402574186151,-0.0079880697022027,-0.1107244495543673,-0.130910118937876,-2.492651183106368,1.9064221329759083,0.3644477736922578,0.3660046671517786,-0.2156339011617914,1.091264704058286,-0.0582954741329518,0.3166218228028237,-1.042694065075682,8.782018697204876,-1.2705822236150626,0.2095199332209673,-1.1225919252448753
0.2,-0.1567380843569317,-2.518889377799266,1.9150922090129252,-0.0422624085928926,0.1641060301737804,0.0220699427782434,-0.0200965260712743,-0.0009582576198402,-0.1296468486136797,-0.1574940375100711,-2.519237545475925,1.911007646466784,0.0800597440715009,0.0920119317879133,-0.1589215215536787,1.0093312934376395,-0.0078134326329578,0.3514906041181236,-0.946119952965619,8.781526596283584,-1.2662287998149075,0.2178631467406605,-1.1168335463418402
0.22,-0.1570130657747466,-2.5188324548371943,1.9131214836012007,-0.0530909212404346,0.1700508846582726,0.0210858978229595,-0.0190800895876229,0.0086439744709947,-0.1502833178795924,-0.1574940375100711,-2.519237545475925,1.911007646466784,0.0800597440715009,0.0920119317879133,-0.1589215215536787,1.1391881627002165,0.0508218241825678,0.4801116045417491,-1.031823463295635,8.901293140268535,-1.2601252519483606,0.2286183907331107,-1.1088478509660034
0.24,-0.1573292202759693,-2.518369357055112,1.9100038160266892,-0.064261125560177,0.1782287217880185,0.0199206683224839,-0.0121663633797827,0.0354443700070447,-0.1589335050513984,-0.1574940375100711,-2.519237545475925,1.911007646466784,0.0800597440715009,0.0920119317879133,-0.1589215215536787,1.4499021941780963,0.3456863103920122,1.340019776802501,-0.4325093585902981,8.901293140268535,-1.2458450150111249,0.2385689718022849,-1.1062021634991634
0.26,-0.1574700753061579,-2.5175873253104504,1.9072511631205769,-0.0699492299998851,0.184783704270011,0.0191842568154884,-0.0046655772322261,0.0549406969648506,-0.1646101201065569,-0.1566934400693561,-2.518317426158046,1.9094184312512468,0.1000597443695241,0.1120119320859365,-0.168560935953541,1.0823498927813269,0.375039307377828,0.9748163478902966,-0.2838307527579298,10.191991338880143,-1.245266448190782,0.2448934152520994,-1.1134163165450914
0.28,-0.1574666040630707,-2.516339143579253,1.904049541238732,-0.074424875361094,0.1916980366409821,0.0185041938019813,0.0047212666220467,0.0751357901832536,-0.1721360221011725,-0.155092245187926,-2.516477187522288,1.9062400008201728,0.1400597449655706,0.152011932681983,-0.1878397647532656,1.175365718060814,0.469342192713649,1.0097546609201475,-0.3762950997307765,10.10899342601806,-1.245785229222624,0.2501964532042869,-1.121650571685284
0.3,-0.1572587406404157,-2.514614099271935,1.900515490262437,-0.0780251959073947,0.1985301790947598,0.0178917206847862,0.0157020811584197,0.0962635699467544,-0.1809444107870707,-0.153491050306496,-2.514636948886529,1.9030615703891,0.180059745561617,0.1920119332780294,-0.2071185935529902,1.2693985552802878,0.5490407268186454,1.0563889881750417,-0.4404194342949086,10.10899342601806,-1.24705204800459,0.2547347210136322,-1.1301363949832108
0.32,-0.1568198060588138,-2.5124617440186428,1.8967992300765324,-0.0807642161830405,0.2049280955182131,0.0173739911514157,0.0277690881908381,0.1178116093723128,-0.190266391578424,-0.1498898553952637,-2.5107967102209687,1.89891919851804,0.2200597461576635,0.2320119338740759,-0.2263974223527148,1.3198768765307365,0.6033503516209195,1.0774019712779186,-0.4660990395676662,10.076590979641878,-1.2492085460687872,0.2584150662396588,-1.1388042988857232
0.34,-0.1561694755147662,-2.510014164033838,1.8930932313926048,-0.0826799213179539,0.2106245068371674,0.016967385461887,0.040186063700788,0.138611484741119,-0.1993868547704428,-0.1462886604840313,-2.506956471555408,1.89477682664698,0.26005974675371,0.2720119344701224,-0.2456762511524394,1.2942168916081456,0.620848775497497,1.0399937684403122,-0.4560231596009434,10.069644110351874,-1.2522781927822055,0.2616387170698919,-1.1477494990056
0.36,-0.1552184992458923,-2.507009205374972,1.8890100700165136,-0.0841189408666126,0.2162371862567143,0.016622780231216,0.0543717710584593,0.1607719299701016,-0.2084399978542298,-0.1416874655578978,-2.502116232874946,1.8901524840559272,0.3000597473497564,0.3120119350661688,-0.2649550799521639,1.3912934860047903,0.7092853678835653,1.1080222614491275,-0.4526571541893467,10.071425269688008,-1.2551853923998455,0.2643713234227237,-1.1573763827393713
0.38,-0.1539724847667456,-2.503544589329106,1.884752756971096,-0.0845679117995528,0.2214759422995725,0.0163947736728531,0.0696253415098571,0.1844682161778057,-0.2168184820505247,-0.1360862706168632,-2.496275994179584,1.885046170744881,0.3400597479458028,0.3520119356622152,-0.2842339087518885,1.4700207387829154,0.7626785225698887,1.1848143103852058,-0.4189242098147458,10.123136540543785,-1.258717936566016,0.2663184631176616,-1.1682869031217398
0.4,-0.1524111420988186,-2.499594607699263,1.880333875628709,-0.0833230068508261,0.2263651259580433,0.0163369828366334,0.0858436072352684,0.2091551450146193,-0.2246364886538547,-0.1304850756758285,-2.49043575548422,1.879939857433835,0.3800597485418493,0.3920119362582617,-0.3035127375516131,1.5277416550121174,0.8109132862705682,1.2343464418406822,-0.3909003301664993,10.186957533990608,-1.2627032025303668,0.2670076093214703,-1.1826287316792436
0.42,-0.150618856555722,-2.495382514455895,1.8759957123603304,-0.0801508980735974,0.2307080602349931,0.0164732290475229,0.1020918668367451,0.2323674898002572,-0.2316026700801954,-0.1504912176912528,-2.494321178520216,1.873911832868569,0.1672894816747092,0.2844682176679218,-0.26365485451542,1.4588921946026387,0.8124129800738317,1.160617239281894,-0.3483090713170336,10.241735233668804,-1.2669727212972564,0.2653476341692842,-1.1967934559243651
0.44,-0.1483834524254903,-2.4904659502454725,1.8713170603085432,-0.0744419682045977,0.2349689694437464,0.0168409905353844,0.120735601359966,0.2571352602592047,-0.2356788946898738,-0.1504912176912528,-2.494321178520216,1.873911832868569,0.1672894816747092,0.2844682176679218,-0.26365485451542,1.5633672773440008,0.9321867261610474,1.2383885229473717,-0.2038112304839218,10.282212838211308,-1.269595947852404,0.2611372133389573,-1.2104235947392634
0.46,-0.1459060909773451,-2.4853943572119928,1.8668026008040943,-0.0680585243014149,0.2387279079060679,0.017312902102383,0.1391600237023289,0.2754038779736725,-0.2393761918797934,-0.1504912176912528,-2.494321178520216,1.873911832868569,0.1672894816747092,0.2844682176679218,-0.26365485451542,1.310411899325662,0.921221117118142,0.913430885723393,-0.1848648594959812,10.508400769553193,-1.2736103049558178,0.2556722241036031,-1.2262375406814667
0.48,-0.1429150288872996,-2.479709133785731,1.8619685031634885,-0.0618791810781519,0.2424105342193207,0.0178218248083598,0.159031326790045,0.2921662031779605,-0.2439027295246661,-0.1488183228745057,-2.4914764963435365,1.871275284323415,0.1868223097076796,0.3044682179659451,-0.273022129008399,1.3194068513053838,0.9935651543858088,0.8381162602143971,-0.2263268822436354,10.488131925874768,-1.2769907339641435,0.2508390446785803,-1.2404603602969426
0.5,-0.1397009232926928,-2.474012429126246,1.8572867887325424,-0.0568485203567828,0.245674406966443,0.018286071856394,0.1783478727106279,0.3067097550730035,-0.2487321177740825,-0.1454725332410115,-2.485787131990178,1.8660021872331067,0.2258879657736205,0.3444682185619915,-0.2917566779943571,1.2328491786197897,0.9658272960291412,0.7271775947521514,-0.2414694124708211,10.442211813514405,-1.279523317205311,0.2465166634147715,-1.2545011837621554
0.52,-0.1359164220868077,-2.467728808741096,1.852254732569593,-0.0525308106759121,0.2488843828683799,0.0187408135593773,0.1991359288296407,0.3209980521932047,-0.2542711409905892,-0.1421267436075173,-2.48009776763682,1.8607290901427984,0.2649536218395614,0.3844682191580379,-0.3104912269803152,1.2912973030981056,1.0394028059506426,0.7144148560100594,-0.2769511608253297,10.442211813514405,-1.2816157148130964,0.2431996657999421,-1.2677944916631143
0.54,-0.1317078332020508,-2.4611655879677583,1.84710817932062,-0.0491306971515454,0.2517747671760648,0.0191663034598385,0.2207146833161163,0.3347132088880284,-0.2601448665363045,-0.136827671170726,-2.472408403253659,1.854519265603192,0.3040192779055022,0.4244682197540844,-0.3292257759662733,1.3117248378924111,1.0789377243237808,0.685757834741188,-0.2936862772857651,10.431370974039964,-1.283445795458383,0.2409071999630926,-1.279339734482463
0.56,-0.1273020494299454,-2.4546809647494547,1.842109353994858,-0.0466533756317357,0.2540370330215716,0.019555229523198,0.2419417032627944,0.347340474970555,-0.2657829166457526,-0.1315285987339348,-2.4647190388704985,1.8483094410635856,0.3430849339714431,0.4644682203501309,-0.3479603249522314,1.2667101420335307,1.061350997333904,0.6313633041263284,-0.2819025054724061,10.431370974039964,-1.2859122638344398,0.239454361981611,-1.2915136677708947
0.58,-0.1222202299249427,-2.447590822396009,1.8367304473635573,-0.0444748484136321,0.2556758998289717,0.019980778539601,0.2650805711303687,0.3609836175646883,-0.2718203499364627,-0.1252528848954951,-2.4560296744724366,1.8416312527993304,0.382150590037384,0.5044682209461773,-0.3666948739381895,1.3765837667725584,1.1569433933787148,0.682157129706662,-0.3018716645355079,10.46096708317782,-1.2887917374422615,0.2385565114869523,-1.303524556531412
0.6,-0.1169582449673125,-2.4406019090557884,1.831508817433466,-0.0425017853268195,0.2562828542001845,0.0204292716429784,0.28757496984288,0.3739403253500355,-0.277515415323309,-0.1180005296554068,-2.4463403100594734,1.8344847008104264,0.4212162461033248,0.5444682215422237,-0.3854294229241476,1.3288228059383629,1.1247199356255648,0.6478353892673622,-0.284753269342311,10.46096708317782,-1.292775777342924,0.2378360543157589,-1.314014101901888
0.62,-0.1109563991639014,-2.432982884120966,1.825895523161357,-0.0404236886508801,0.2557661661111578,0.0209566110425324,0.3113488261792517,0.3872059709873957,-0.2835152800701513,-0.1089662013684243,-2.429541641517775,1.823139429866734,0.2965045272861457,0.4609836190548044,-0.2746469109236223,1.3938902182909303,1.1886928168185844,0.6632822818680079,-0.2999932373421193,10.480320165461308,-1.2979656446154089,0.237102294575087,-1.323256518346178
0.64,-0.1042516403689885,-2.4250633545798204,1.820323114738896,-0.0374198035790232,0.2482866870348741,0.0218235516894221,0.3572777724688132,0.4035626185617942,-0.2722524179622241,-0.1089662013684243,-2.429541641517775,1.823139429866734,0.2965045272861457,0.4609836190548044,-0.2746469109236223,2.5019293005622094,2.2964473144780726,0.8178323787199293,0.5631431053963604,10.489222006944146,-1.295071411981765,0.2333915490741189,-1.3149930728913075
0.66,-0.0970944243815905,-2.41726938439928,1.8152780700840832,-0.0339914553289945,0.2311434116924616,0.0230219208023616,0.3922281730266731,0.4159838289279614,-0.2592012089690249,-0.1089662013684243,-2.429541641517775,1.823139429866734,0.2965045272861457,0.4609836190548044,-0.2746469109236223,1.966056346025972,1.747520027892996,0.6210605183083584,0.6525604496599613,11.768044567293146,-1.3370193411128055,0.2337712484851336,-1.3272743907509257
0.68,-0.0889755656225037,-2.408831421673528,1.8102298861887776,-0.0308183608991905,0.2072444663030256,0.024372619019909,0.4165071387022157,0.4271934048491273,-0.2462349632150706,-0.1060011560955628,-2.424931805327226,1.8203929607574976,0.3027893185173011,0.4809836193528276,-0.2752122231210543,1.4859729939996342,1.2139482837771305,0.5604787960582946,0.6483122876977123,11.768044567293146,-1.3807014583535977,0.2336763443196658,-1.324722780865993
0.7000000000000001,-0.0805029997810939,-2.4001824158287173,1.805421617646932,-0.0283921469950718,0.1810980506565845,0.0256595621478667,0.4285139442787581,0.4372352024387322,-0.2352827956527038,-0.1000710655498399,-2.41571213294613,1.8149000225390253,0.3153589009796119,0.5209836199488741,-0.2763428475159181,0.9551846068923604,0.6003402788271217,0.5020898794802442,0.5476083781183416,11.323457656414575,-1.4232946881132953,0.2337100178871755,-1.312365659576779
0.72,-0.0719116874447034,-2.391344031130464,1.8008025890341832,-0.026844061529363,0.1557737531654414,0.0268022892597701,0.4294847419064311,0.4462386699712438,-0.2271211743622726,-0.094140975004117,-2.406492460565034,1.809407084320553,0.3279284834419227,0.5609836205449206,-0.277473471910782,0.6095427337999091,0.0485398813836496,0.4501733766255816,0.4080810645215607,11.121268943713403,-1.4594666792029214,0.2340519903775106,-1.2949997060894007
0.74,-0.0638202273707966,-2.382790045868701,1.7965407043141124,-0.0263689743717431,0.1344772332774478,0.0277173921541308,0.4220359392694504,0.4538687414971452,-0.2219060764286376,-0.0875824053352785,-2.3952727881541365,1.803857614882337,0.3404980659042335,0.600983621140967,-0.2786040963056458,0.5935063156202859,-0.3724401318490361,0.3815035762950697,0.2607548966817516,11.121268943713403,-1.49085947480141,0.2350150996467334,-1.2739800298298012
0.76,-0.0555208450383482,-2.373635978104014,1.792147746342423,-0.0271987195927893,0.1162526059967191,0.0284812740136972,0.4081788487124488,0.4612644765506082,-0.2177374149838522,-0.0810238356664401,-2.384053115743238,1.7983081454441217,0.3530676483665443,0.6409836217370135,-0.2797347207005096,0.8125478354029431,-0.6928545278500786,0.3697867526731485,0.2084330722392696,10.95252039047864,-1.5141038893911545,0.2369752202262093,-1.2525087683757483
0.78,-0.0475451879680014,-2.3643249827992787,1.7878249374560888,-0.0292900602112077,0.1030459947296834,0.0290502239703323,0.3903649175086084,0.4695573217620227,-0.2147575737204111,-0.0741510264360438,-2.3718334433174384,1.7927304103960344,0.3656372308288551,0.6809836223330599,-0.2808653450953735,0.9937138428528411,-0.8906965601920197,0.4146422605707245,0.1489920631720515,10.87897926869664,-1.528214881655925,0.2398155095594521,-1.2357238273618132
0.8,-0.0403249812642966,-2.355309242440874,1.7837674114910107,-0.0318424353445133,0.0953673003370122,0.0294411285669158,0.3706354000569689,0.4791831949158205,-0.2125073183993348,-0.0669639776440899,-2.3586137708767376,1.7871244097380756,0.3782068132911658,0.7209836229291063,-0.2819959694902373,1.1033754368500177,-0.9864758725819768,0.4812936576898907,0.1125127660538155,10.82202374434928,-1.5366526348258756,0.2434150913553852,-1.224747184840402
0.8200000000000001,-0.0331477415924441,-2.3456050962441046,1.7795405203042716,-0.0343217368976612,0.0929040402590896,0.0297094189011178,0.348633549684879,0.4907018190047025,-0.2102931107328405,-0.028026942092571,-2.3408471167111777,1.7770870587700682,0.3459189371683661,0.5695573232521388,-0.2267233952175535,1.2466583696899194,-1.100092518604498,0.5759312044441023,0.1107103833247177,10.81301364465071,-1.535426783670047,0.2463522508901238,-1.2194599019071053
0.84,-0.0262966011041977,-2.3355949124793587,1.7753887388949925,-0.0342769623953607,0.0924865577226312,0.0300914164731584,0.3377997972975753,0.5091287450962149,-0.2048160411380204,-0.028026942092571,-2.3408471167111777,1.7770870587700682,0.3459189371683661,0.5695573232521388,-0.2267233952175535,1.103313291089579,-0.5416876193651832,0.9213463045756154,0.2738534797410027,10.797005423549308,-1.5225855290425991,0.245831115062099,-1.2196123561128345
0.86,-0.0196511036717669,-2.325252124158282,1.771342120067047,-0.0309947672772014,0.0902755524753781,0.0307525753951513,0.327118537022125,0.52378404911041,-0.2001237930119467,-0.028026942092571,-2.3408471167111777,1.7770870587700682,0.3459189371683661,0.5695573232521388,-0.2267233952175535,0.9365954960614516,-0.534063013772515,0.7327652007097563,0.2346124063036858,10.969552101933004,-1.5267115492280496,0.2434674774837628,-1.2224568520917252
0.88,-0.0135492288392605,-2.3151973036115545,1.7675707637368294,-0.026949953327579,0.0869172062717994,0.0314651316841832,0.3155993761649899,0.5337764176849258,-0.1970861741599872,-0.0245677527208874,-2.3351515434786565,1.7748198248178928,0.3370297411003176,0.589557323550162,-0.2291165595169819,0.7774407129667564,-0.5759580428567529,0.4996184287257899,0.1518809425979775,10.888204823367232,-1.531900402407525,0.2396407859400179,-1.2217261001157744
0.9,-0.0073807159727957,-2.30443671046469,1.763649603596384,-0.0231600231594742,0.0826278661390742,0.0321769675313038,0.3016801657259799,0.5418549258672308,-0.1952520263757133,-0.01764937397752,-2.3237603970136136,1.7702853569135415,0.3192513489642206,0.6295573241462085,-0.2339028881158389,0.8098932210352996,-0.6959605219505033,0.4039254091152522,0.0917073892136924,10.792710705814898,-1.5370440313303213,0.2361112960804322,-1.2177218861378911
0.92,-0.0015148964882655,-2.2935295423718536,1.7597497681841237,-0.0203700862488289,0.0783190648410441,0.0327956694328426,0.2854677781736659,0.5487305118038338,-0.1948157963441658,-0.0107309952341527,-2.3123692505485707,1.7657508890091906,0.3014729568281237,0.6695573247422549,-0.2386892167146958,0.8807745011614231,-0.8106193776156984,0.3437792968301489,0.0218115015773748,10.63257466243249,-1.5416355303148197,0.2336671165087467,-1.2120144464807086
0.94,0.0037351791843298,-2.2830473133411138,1.7560434689225852,-0.0187204028251449,0.0750222830063695,0.0332816731651861,0.2679027639144309,0.5545484610067056,-0.1953376618086303,-0.0047015360975902,-2.2989781040537256,1.7609771046748968,0.2836945646920267,0.7095573253383014,-0.2434755453135527,0.9255411962972352,-0.8782507129617506,0.2908974601435909,-0.0260932732232224,10.63257466243249,-1.5449238030725143,0.2320927596019057,-1.205038556354957
0.96,0.008882012355584,-2.2719005793400378,1.7521264155545626,-0.0181967212471964,0.0732402440802472,0.0336681124057908,0.2476556241224753,0.5599399644985219,-0.1963532795259144,0.0013279230389721,-2.2855869575588805,1.756203320340603,0.2659161725559297,0.7495573259343479,-0.2482618739124096,1.048864217862494,-1.0123569895977804,0.2695751745908137,-0.0507808858642044,10.581159499368368,-1.5446241259545612,0.2316448583287129,-1.1984006970315255
0.98,0.0136187400915622,-2.2606415167003906,1.7481867530640176,-0.0189237329272959,0.0736304499807112,0.0339238663084534,0.227273876452683,0.5657850771699313,-0.197554557404271,0.0069129223721322,-2.271195811049134,1.7513098777913374,0.2481377804198328,0.7895573265303942,-0.2530482025112666,1.0618663389965604,-1.019087383489614,0.2922556335704707,-0.0600638939178332,10.538821882843877,-1.539394266219989,0.2323185959290682,-1.1944807754800792
1.0,0.0179568229654352,-2.2492586064818987,1.744223496333413,-0.0206380254917896,0.0758603060602695,0.0340721918992223,0.2078234401309872,0.5722949852809355,-0.1986965561448117,0.0120534619018898,-2.255804664524487,1.7462967770271007,0.2303593882837359,0.8295573271264407,-0.2578345311101235,1.027135017708792,-0.9725218160847884,0.3254954055502079,-0.0570999370270317,10.538821882843877,-1.5325383376294617,0.2339463982553133,-1.1931314567153937
1.02,0.0217301300264924,-2.238314007749607,1.740438852269906,-0.0228992368206988,0.0792369538239817,0.0341367264710145,0.1905487775313312,0.57960171383935,-0.1996261946175657,0.0249824339141964,-2.232352262841894,1.738309025193804,0.225050585251166,0.6657850786600474,-0.1882496446434172,0.938970816703492,-0.8637331299828007,0.365336427920726,-0.046481923637702,10.534641641415874,-1.523812433387833,0.236411101889598,-1.1941912243322337
1.04,0.0253154294159591,-2.226558381967615,1.7365440207085614,-0.0231980420232258,0.0853707477068956,0.0342817366187979,0.1694201230089908,0.5949646700830618,-0.1892111470696244,0.0249824339141964,-2.232352262841894,1.738309025193804,0.225050585251166,0.6657850786600474,-0.1882496446434172,1.4061593809882418,-1.0564327261170194,0.7681478121855878,0.5207523773970629,10.53773380264829,-1.5088511331291408,0.2365647376988232,-1.2037785179129672
1.06,0.0285232577611762,-2.2145260130089786,1.7328743234658304,-0.0203626749984165,0.0946366229682818,0.0345802874208239,0.1529841459087856,0.6072081033011331,-0.1784024154507972,0.0249824339141964,-2.232352262841894,1.738309025193804,0.225050585251166,0.6657850786600474,-0.1882496446434172,1.1585245783017268,-0.8217988550102597,0.6121716609035655,0.5404365809413627,11.34016068737401,-1.492685882220922,0.2337380004306738,-1.2233601333563715
1.08,0.0314496074037149,-2.20229072024942,1.7294052418168389,-0.0164278362221457,0.1052792014052146,0.0349558397631743,0.1409251682860521,0.6155675710549323,-0.1690748584881582,0.027232939766708,-2.2256944120552937,1.73642652874737,0.2246059270108626,0.6857850789580706,-0.1863886620912465,0.869343087226889,-0.6029488811366751,0.4179733876899627,0.4663778481319477,11.249484467697584,-1.4775282480261929,0.2299331251328925,-1.242977334049956
1.1,0.034041435536974,-2.1905385647557023,1.7262698548029007,-0.0131180934482686,0.1157806447843503,0.0353074359449885,0.132824350241962,0.6212884523029253,-0.1614718156655608,0.0317339514717314,-2.2123787104820924,1.7326615358545014,0.2237166105302558,0.7257850795541171,-0.182666696986905,0.6248159637032009,-0.4050409022045065,0.2860440623996485,0.3801521411298705,11.159946076183587,-1.4616233681152258,0.2263571265001679,-1.2633758811774425
1.12,0.0366353108680735,-2.178061405418235,1.723115329709417,-0.0105917181944338,0.1267434395984376,0.0356372547225884,0.1273153158172254,0.6263407938796127,-0.1544581729696543,0.0362349631767547,-2.199063008908892,1.7288965429616332,0.222827294049649,0.7657850801501636,-0.1789447318825635,0.5125104866397846,-0.2754517212368287,0.2526170788343718,0.3506821347953243,11.093739885483046,-1.4463566853499863,0.2238829720283776,-1.2828647472882544
1.14,0.0391591978016306,-2.1654886508424265,1.7200912382884057,-0.0092014342824501,0.1369944149028209,0.0359090883535668,0.1255816922594088,0.6308312548830776,-0.1483721050788649,0.0406915090577477,-2.183747307305888,1.725317648323982,0.2219379775690422,0.80578508074621,-0.175222766778222,0.3879752345032882,-0.086681177890828,0.224523050173242,0.3043033945394693,11.053801346692126,-1.4319477759373938,0.2226974729758878,-1.3008160832454772
1.16,0.0416845432315334,-2.152832752905433,1.7171857533355703,-0.0092336631581936,0.1457450041988496,0.0360958044955352,0.1270705525432258,0.6347712169336641,-0.1425233390317347,0.0451480549387406,-2.168431605702885,1.721738753686331,0.2210486610884354,0.8457850813422565,-0.1715008016738805,0.3603750483137436,0.0744430141908461,0.1969981025293277,0.2924383023565124,11.023347810366433,-1.420633338612912,0.2231904589235435,-1.3156891680683
1.18,0.0441339433894328,-2.1407281989788816,1.7145335714765326,-0.0105059034657451,0.1522767407289515,0.0361931190712233,0.1306286071257114,0.639289303658225,-0.1369763318298301,0.0495823679077185,-2.152115904084981,1.718252908176288,0.2201593446078286,0.8857850819383029,-0.1677788365695389,0.3995064109641491,0.1779027291242824,0.2259043362280444,0.2773503600952312,11.039887690990328,-1.4118060411753235,0.2254135908401789,-1.3295371777240732
1.2,0.0467991734128391,-2.127884126283337,1.711856529023133,-0.0128506049948252,0.1571484414635506,0.0362324863024924,0.1356616301550119,0.6450272170485588,-0.1310289573036863,0.0506653737457184,-2.1087637337959704,1.7076847548850411,0.1363643895664632,0.7392893051483411,-0.1474844621343454,0.4838032519595754,0.2516511514650224,0.2868956695166902,0.2973687263071872,11.065028094954869,-1.4061845828810942,0.2290342406892527,-1.3414361550880058
1.22,0.049569302544439,-2.1148522013976536,1.7092563231803828,-0.0139056281038514,0.1598523692308967,0.0363784577632864,0.1409489067095018,0.6573632578111301,-0.1295012725969315,0.0506653737457184,-2.1087637337959704,1.7076847548850411,0.1363643895664632,0.7392893051483411,-0.1474844621343454,0.6754017612183376,0.2643638277244967,0.6168020381285666,0.0763842353377397,11.094034665305117,-1.405234970839282,0.231415026335318,-1.353751215800406
1.24,0.0524419426623898,-2.101603341294868,1.706676965997381,-0.0128727292921551,0.1605014399625157,0.0366924100823227,0.1458866328503008,0.6668344029554247,-0.1284887125308557,0.0506653737457184,-2.1087637337959704,1.7076847548850411,0.1363643895664632,0.7392893051483411,-0.1474844621343454,0.5364443299943535,0.2468863070399507,0.4735572572147295,0.0506280033037903,10.829824950314103,-1.4068947344250529,0.2310916610193364,-1.3598370535052042
1.26,0.0552562497956686,-2.0888554243419493,1.7042421995171144,-0.0110937751490733,0.1595955813801707,0.0370580058166263,0.1499949881153109,0.6745753375948874,-0.1278497341061189,0.052029017641383,-2.101370840744487,1.7062099102636976,0.1375115460546136,0.7592893054463643,-0.1495860881952485,0.4393431048259688,0.2054177632505066,0.3870467319731341,0.0319489212368406,10.82967534727868,-1.4099834723368676,0.2295407843692749,-1.3631806730074771
1.28,0.058293863663225,-2.0752925230493195,1.7016889736874297,-0.0089534790935488,0.1573360316633403,0.0374630954728928,0.1534237769911728,0.6812894973038668,-0.1275163052639528,0.0547563054327123,-2.08658505464152,1.7032602210210108,0.1398058590309143,0.7992893060424108,-0.1537893403170546,0.3773185277246008,0.1714394437930921,0.3357079854489686,0.0166714421083069,10.7863265582464,-1.4147915026173523,0.2275608905088738,-1.363814843595182
1.3,0.0613872442022009,-2.06161210809682,1.6991381788297737,-0.0071956823137599,0.1540633970848528,0.0378347916777029,0.1555996676520912,0.6865588496107501,-0.1275677774658928,0.0574835932240415,-2.071799268538553,1.7003105317783238,0.142100172007215,0.8392893066384572,-0.1579925924388608,0.2850579909856108,0.1087945330459222,0.2634676153441651,-0.0025736100970008,10.75996729466624,-1.4204448114167132,0.2260500985810294,-1.3622988578381376
1.32,0.0643512011635464,-2.048528872269634,1.6967114038464532,-0.0063339601115629,0.1504045764619182,0.0381223076161182,0.1561610221520102,0.6905103869042151,-0.1278682700125568,0.0603255966641858,-2.055013482405784,1.6971506799295466,0.1443944849835157,0.8792893072345037,-0.1621958445606669,0.2001253458886735,0.0280677249959504,0.1975768646732489,-0.0150246273332016,10.75996729466624,-1.427066272206796,0.2254402023370697,-1.3588536617979086
1.34,0.0674642534648913,-2.0346841571320606,1.694147942589633,-0.0067137743906189,0.1464870447805926,0.0383275293619664,0.1549486665085407,0.6938829821256386,-0.1284673728147888,0.0631676001043301,-2.038227696273015,1.6939908280807694,0.1466887979598164,0.9192893078305502,-0.1663990966824731,0.1816805500147403,-0.0606177821734763,0.1686297610711762,-0.0299551401115996,10.738845934027268,-1.4336085480237544,0.2264084076902715,-1.3541721522070214
1.36,0.0705329844769981,-2.020764994753078,1.6915709122444984,-0.0084354008115947,0.1431012756376837,0.0384354690052505,0.1518466147133952,0.6979577164706432,-0.1292031908204632,0.0660669613688819,-2.0204419101253444,1.690725894928947,0.1489831109361171,0.9592893084265964,-0.1706023488042792,0.2586871346801003,-0.1551025897572749,0.2037367172502302,-0.0367909002837188,10.704318959878949,-1.438851444664632,0.2289658894193661,-1.3496126924627332
1.38,0.0735204848460074,-2.0067518811433502,1.6889794464363783,-0.0110715306350758,0.1409034262992254,0.0384743210492049,0.1469996487830752,0.7033924590894892,-0.1299026600298194,0.0690236804578413,-2.001656123962773,1.6873558804740794,0.1512774239124178,0.999289309022643,-0.1748056009260854,0.3657825967621409,-0.2423482965160026,0.2717371309423011,-0.0349734604678089,10.704318959878949,-1.4417696537758438,0.2323835702353479,-1.346396864310932
1.4,0.0762598256103759,-1.9933179762881488,1.6865056020833964,-0.0136255181118791,0.1403456663207905,0.0384943853428884,0.1418074238734066,0.7103993794496306,-0.1304780128808403,0.0808704672851611,-1.971582258188876,1.6824843134348872,0.1409039194804602,0.8033924605796053,-0.1239117063794938,0.436998750996855,-0.2596112454834279,0.3503460180070694,-0.0287676425510474,10.708314643000447,-1.4411283757577642,0.2359278289710922,-1.3454567003990328
1.42,0.0790763102003087,-1.9789543937355465,1.683972493309604,-0.0137608756051892,0.140448698738195,0.0386831764466142,0.1402438271707892,0.7249280039491047,-0.1223668082918774,0.0808704672851611,-1.971582258188876,1.6824843134348872,0.1409039194804602,0.8033924605796053,-0.1239117063794938,0.8356395819657665,-0.078179835130869,0.7264312249737059,0.4055602294481451,10.708314643000447,-1.4324197684611015,0.2358640538690108,-1.3502295837307263
1.44,0.0818672872558623,-1.9643363137302905,1.6816121754291506,-0.0105459921879317,0.1403766241980399,0.0390992118931787,0.1389038610703733,0.7357095256398314,-0.1141659539327192,0.0808704672851611,-1.971582258188876,1.6824843134348872,0.1409039194804602,0.8033924605796053,-0.1239117063794938,0.6806076904832878,-0.0669983050207961,0.5390760845363329,0.4100427179579119,11.244365427241974,-1.4336206859965723,0.2326137257224295,-1.3577262921607345
1.46,0.0846294796512803,-1.9495519562987271,1.6793986575948792,-0.0063443942430342,0.1401891391496815,0.0395716506448345,0.1373682071965965,0.7420918724808976,-0.1076017592035411,0.0822795064799657,-1.96354833358308,1.6812451963710924,0.1396847736199372,0.8233924608776285,-0.1227135156494287,0.4641692483951373,-0.0767826936888413,0.31911734205331,0.3282097364589037,11.244365427241974,-1.4346928686536928,0.2282176369701124,-1.3636302671305556
1.48,0.0872227992595591,-1.9354158995184123,1.6774032551233,-0.0029041589742363,0.1399452858133604,0.0399687117600457,0.1356703166897683,0.7458200556835137,-0.1027750594105866,0.0850975848695749,-1.947480484371488,1.6787669622435024,0.1372464818988913,0.863392461473675,-0.1203171341892985,0.3165407282513295,-0.0848945253414085,0.1864091601308071,0.2413349896477221,11.14741499077627,-1.435337748336677,0.2241147247402224,-1.368317241434562
1.5,0.0899154179438209,-1.9204710605235067,1.6753911538509922,-0.0003477753617424,0.1396611888386405,0.0402990580982479,0.1336570235119726,0.748693535445097,-0.0987384012624646,0.0879156632591841,-1.9314126351598957,1.6762887281159125,0.1348081901778453,0.9033924620697216,-0.1179207527291683,0.2674174843049138,-0.1006646588897833,0.1436739880791626,0.2018329074061041,11.06258622394762,-1.4355222419888476,0.2212437887165435,-1.3714854934006289
1.52,0.0925654960879429,-1.9054773294449343,1.673450156460773,0.000916215428658,0.1393857945088706,0.0405275798575557,0.1314386983474327,0.7508029768394577,-0.0955633520646151,0.090611827062741,-1.913344785918501,1.673930313061329,0.1323698984567993,0.9433924626657678,-0.1155243712690381,0.2205201064565216,-0.1109162582269965,0.1054720697180378,0.1587524598924729,10.958084592009072,-1.435758236954784,0.219943371666241,-1.3734846657746078
1.54,0.0951704220689668,-1.8904479233290892,1.671571234941157,0.0006454904163075,0.1391437848848948,0.0406402840888138,0.1291548635888414,0.7522873119215543,-0.0924889333548308,0.093307990866298,-1.8952769366771065,1.6715718980067455,0.1299316067357534,0.9833924632618144,-0.1131279898089079,0.2053728453542757,-0.1141917379295656,0.0742167541048277,0.1537209354892175,10.958084592009072,-1.435752889102937,0.2204440888779759,-1.3745170494543075
1.56,0.097602232634996,-1.8761346586305856,1.6698445382260674,-0.0009924181957505,0.1389544409927665,0.0406460792657748,0.1269355784969934,0.7544177926247203,-0.0894247676754454,0.0959431973768287,-1.876209087420811,1.6692733924886656,0.1274933150147074,1.0233924638578606,-0.1107316083487776,0.2171018519968472,-0.1109642545923994,0.1065240351583007,0.1532082839692659,10.95674572644657,-1.4353296095820829,0.2227749424004102,-1.375555855157728
1.58,0.1001162566806806,-1.861012086106043,1.668092561985997,-0.0038043340492535,0.1387959979124941,0.0405739685746647,0.1245734164213465,0.7580517675387998,-0.0859256909494849,0.0985174465943333,-1.8561412381496143,1.6670347965070886,0.1250550232936614,1.063392464453907,-0.1083352268886474,0.2785189458633938,-0.1181081037823467,0.1816987457039731,0.1749538362980286,10.967590671485596,-1.4344204602217814,0.2265053054175333,-1.3769323888813605
1.6,0.1025824759851728,-1.8457907247247511,1.6664136864468104,-0.0067996543846384,0.1386715342621331,0.0404884198763867,0.1221664759433355,0.7639325757811557,-0.0821302449399183,0.1010916958118379,-1.836073388878417,1.6647962005255117,0.1226167315726154,1.1033924650499536,-0.1059388454285172,0.370076608486621,-0.1203470239005459,0.2940404121177964,0.1897723004783302,10.986117237428516,-1.4337205270660438,0.2305250851909985,-1.378894102221844
1.62,0.1050131993278545,-1.8303638455114208,1.6648364378075395,-0.0069946085858223,0.1382042257935141,0.0405984560083338,0.120947401642019,0.777252669391258,-0.0757854846957314,0.1063449275017479,-1.8231094977291031,1.6637962774385229,0.1111613636558578,0.8580517690289159,-0.0763934265156837,0.7402145271646485,-0.0609537150658263,0.6660046805051167,0.3172380122093435,11.0075841948983,-1.43065594248162,0.2309768204463924,-1.3841341901994202
1.64,0.1072970920982545,-1.81550518060766,1.6634547355746927,-0.0042284889382704,0.1372412678367726,0.0409025945410551,0.1194629370478625,0.7859039737178577,-0.069981487335278,0.1063449275017479,-1.8231094977291031,1.6637962774385229,0.1111613636558578,0.8580517690289159,-0.0763934265156837,0.5261537015048352,-0.0742232297078239,0.4325652163299831,0.2901998680226676,11.184844426242307,-1.4326766330723175,0.2278039001823002,-1.388613333015942
1.66,0.1096650600488483,-1.7997319525438185,1.6621107862910445,-0.0004098028731041,0.1358738281848537,0.0412702861985061,0.1173481155235212,0.79087434529586,-0.0647212857455664,0.1063449275017479,-1.8231094977291031,1.6637962774385229,0.1111613636558578,0.8580517690289159,-0.0763934265156837,0.376984033042631,-0.1057410762170654,0.2485185789001143,0.2630100794855816,11.157970280195514,-1.4349439386107032,0.2235139819629557,-1.3914366609170712
1.68,0.1119832748993694,-1.7838883132464884,1.660862197179266,0.0027913252088364,0.1343466629177372,0.0415758231688323,0.1145120431533498,0.7934958949778577,-0.0604015616232574,0.1074565411383065,-1.814528980038814,1.6630323431733658,0.1084789531027601,0.8780517693269391,-0.0744869736289235,0.2897233409517183,-0.1418036185085708,0.131077484099884,0.2159862061154507,11.105209743924206,-1.437033908354329,0.2196010903371362,-1.3930436698427529
1.7,0.1141257711979147,-1.768799475839007,1.6597493365141878,0.004805976613529,0.132953395348554,0.0417791616167482,0.1111035519169029,0.7949782530452041,-0.0569561017391056,0.1096797684114237,-1.7973679446582356,1.6615044746430525,0.1031141319965647,0.9180517699229856,-0.070674067855403,0.2534087200653404,-0.1704245618223472,0.0741179033673211,0.1722729942075875,11.050476369309765,-1.438725980935459,0.2169962074209193,-1.3936932211202488
1.72,0.1163054481310567,-1.7528929716722972,1.658644967227294,0.0056476777724701,0.1317283171776374,0.0418928153048314,0.1070319218336732,0.7957348347238596,-0.0536767845801688,0.1119029956845408,-1.7802069092776571,1.6599766061127386,0.0977493108903692,0.958051770519032,-0.0668611620818825,0.2641235903892138,-0.203581504161484,0.0378290839327777,0.1639658579468413,11.011467752854514,-1.4398327519405445,0.2160075406007111,-1.3936855353970967
1.74,0.1184007386462281,-1.7369800140387277,1.6576051009812514,0.0047341850780823,0.1308090510869892,0.041878166058806,0.1027047759743412,0.795814433229336,-0.0504716460418313,0.1138579819023482,-1.7610458738672767,1.658639382871101,0.0923844897841738,0.9980517711150784,-0.063048256308362,0.2692742108889394,-0.2163572929665992,0.003979925273817,0.1602569269168761,10.991791530454066,-1.4403398785170578,0.2171085146849048,-1.3932519207983944
1.76,0.1203092944735306,-1.721851102182242,1.6566786103592888,0.0023110058072156,0.1302299440486357,0.0417548374540398,0.0984273088026862,0.7968913645694813,-0.0472146571641966,0.1158129681201556,-1.741884838456896,1.6573021596294633,0.0870196686779783,1.0380517717111248,-0.0592353505348416,0.274155444342301,-0.2138733585827522,0.0538465670072652,0.1628494438817341,11.002629555961905,-1.4398289106015372,0.220315573054018,-1.3931976061546314
1.78,0.122229913369049,-1.705878242364485,1.655774095998355,-0.0010843660949339,0.1299090558865563,0.0415673885909487,0.0938722471626788,0.8005615206543523,-0.0433952010663715,0.1176338338103081,-1.7217238030316142,1.6560602590321636,0.0816548475717829,1.0780517723071712,-0.0554224447613211,0.3493095944674136,-0.2277530820003676,0.1835078042435489,0.1909728048912571,11.002629555961905,-1.4386962087867954,0.2246631727495422,-1.394064347543982
1.8,0.1240595852630973,-1.6898089828918486,1.654950174748448,-0.0043001396028268,0.1298408113596117,0.0413932686367668,0.0893474160079111,0.8061600502313614,-0.0391784009727812,0.126923525727183,-1.6658501663317673,1.6536043359450363,0.087550445824334,0.9005615221444684,-0.0446312150180828,0.4171301758237635,-0.2262415577383852,0.2799264788504563,0.2108400046795147,11.055156896576593,-1.4375503698087266,0.2288439786390144,-1.3958250805759735
1.82,0.1257706969062161,-1.6735445597814471,1.6541898127889798,-0.0045861586682247,0.1307094686631856,0.0414175645968767,0.0821404358516625,0.8192157883855757,-0.0371886435494149,0.126923525727183,-1.6658501663317673,1.6536043359450363,0.087550445824334,0.9005615221444684,-0.0446312150180828,0.7522499523559492,-0.360349007812432,0.6527869077107173,0.0994878711683133,11.055156896576593,-1.4362904102947214,0.2295501933160108,-1.4008566917481453
1.84,0.1272722854726292,-1.657892499280217,1.653498623558462,-0.0015213875015218,0.132825318802261,0.0416632951470978,0.0764916397509341,0.8273398991449822,-0.0356641773411013,0.126923525727183,-1.6658501663317673,1.6536043359450363,0.087550445824334,0.9005615221444684,-0.0446312150180828,0.5005848335671926,-0.2824398050364177,0.4062055379703222,0.0762233104156823,10.925687957634182,-1.432753795373108,0.2255480537686096,-1.4061353817519786
1.86,0.1287538294732636,-1.641299340448764,1.652795821189276,0.0025930475715128,0.1358094574963629,0.0419814873625859,0.0721180685833696,0.831453550451503,-0.0347416232659912,0.1277990301854263,-1.6568445511103227,1.6531580237948555,0.086286085556665,0.9205615224424916,-0.0448784178084251,0.3037324392079909,-0.2186785583782248,0.205682565326043,0.046127703755501,10.908648174782684,-1.427902356892211,0.2202348556861297,-1.412199630291149
1.88,0.1301635581772014,-1.624651851198012,1.6521032884190865,0.0060361175784793,0.1390742214368297,0.042253682974983,0.0691832840497829,0.8332699686240795,-0.0345983737692274,0.129550039101913,-1.6388333206674333,1.6522653994944938,0.0837573650213271,0.960561523038538,-0.0453728233891096,0.1727198284402317,-0.1467392266793377,0.0908209086288247,0.0071624748381893,10.866378511934272,-1.4225931635193485,0.2157258586829422,-1.4177920672945583
1.9,0.1315282460220748,-1.6079791432990085,1.6514076798221198,0.0083252941842825,0.1422283644250798,0.0424430108197634,0.0675023548571366,0.8341619817560949,-0.0349942491219356,0.1313010480183997,-1.6208220902245438,1.651372775194132,0.0812286444859892,1.0005615236345844,-0.0458672289697942,0.0971844595763636,-0.0840464596323115,0.0446006566007683,-0.0197937676354054,10.826968979340563,-1.417855476649239,0.2128143882915464,-1.422241971895981
1.92,0.132804274149196,-1.5921312362366624,1.650736835999734,0.0092321676914563,0.1448531791744042,0.0425270869946907,0.0669060787761601,0.8342362859378131,-0.0356036723386632,0.1329256209081195,-1.6008108597518522,1.650455430614736,0.0786999239506513,1.0405615242306308,-0.0463616345504787,0.0427920241765987,-0.0298138040488275,0.0037152090859082,-0.0304711608363827,10.803852161333452,-1.4138346809949491,0.2114835114930474,-1.4256740729017334
1.94,0.134143058182865,-1.5754532291158667,1.6500175231539067,0.0085303719189465,0.1470703949553377,0.0424883426122096,0.0670127457634795,0.833741126581489,-0.0362955295169902,0.1345501937978393,-1.5807996292791606,1.6495380860353404,0.0761712034153133,1.0805615248266771,-0.0468560401311633,0.0428726891371895,0.0053333493659699,-0.0247579678162024,-0.0345928589163498,10.798107433111,-1.4108708959492704,0.2123872403452957,-1.4277321649355483
1.96,0.1354901017193681,-1.5587760205001702,1.649286791522779,0.0061178875046734,0.1486397341264865,0.0423176688899614,0.0676401432484003,0.8341913553718683,-0.036740708649911,0.1361115486741756,-1.5597883987915675,1.6486083813164274,0.0736424828799754,1.1205615254227237,-0.0473504457118478,0.0445678703821355,0.0313698742460434,0.0225114395189629,-0.0222589566460408,10.800942050967024,-1.4086318679808056,0.2153147271703224,-1.4288971923764031
1.98,0.1368522752734912,-1.5420643563017655,1.64855203118837,0.0027796374880581,0.1495584300803834,0.042073646251538,0.0684821940412113,0.837181585545614,-0.0367136607164411,0.1376096855371285,-1.5377771682890735,1.6476663164579972,0.0711137623446375,1.16056152601877,-0.0478448512925323,0.1553323663982945,0.0421025396405483,0.1495115086872833,0.0013523966734953,10.817771286807329,-1.406913811825513,0.2196422167071204,-1.4299510351897884
2.0,0.1381621711331135,-1.5261113607750296,1.6478591375480494,-0.0002321428842829,0.1498780616489216,0.0418497768203428,0.0693050585725625,0.841861669749308,-0.0362262059936839,0.1402763849755518,-1.500205277024485,1.6467163481525475,0.0553376711358616,0.93718158703573,-0.0367240699697049,0.2388404608591298,0.0411432265675602,0.2340042101847017,0.0243727361378624,10.846704837811558,-1.406472122040565,0.223855343576025,-1.43087682640671
2.02,0.1395711432747966,-1.509145005036212,1.6471577293722957,-0.0006973136600785,0.1492637368883919,0.0418020436327782,0.071554396166107,0.8537961912065514,-0.0338450160835008,0.1402763849755518,-1.500205277024485,1.6467163481525475,0.0553376711358616,0.93718158703573,-0.0367240699697049,0.6187939629058553,0.1124668796772254,0.5967260728621693,0.1190594955091554,10.877860882215828,-1.404341770367897,0.2243340879094436,-1.4346292330991457
2.04,0.1410244660748507,-1.491981227162172,1.6465057187463537,0.0021530208992336,0.1472439631429088,0.0419759872274964,0.0735602671698662,0.8616664008385194,-0.0314907514947215,0.1402763849755518,-1.500205277024485,1.6467163481525475,0.0553376711358616,0.93718158703573,-0.0367240699697049,0.4228069296050644,0.1002935501879596,0.3935104815984025,0.1177132294389652,11.014649053206996,-1.408307578058319,0.2210247626063792,-1.436155437574712
2.06,0.1425084939629944,-1.4747059127876927,1.6458913665681705,0.0059779800691132,0.1439900219206699,0.0421932036254567,0.0746050065940866,0.8653726418232761,-0.0300493431332025,0.1408297616869104,-1.4908334611541276,1.646349107452851,0.0527087665547916,0.9571815873337532,-0.0367261518203577,0.2055806457711137,0.0522369712110198,0.1853120492378346,0.0720704180759455,10.992978757216406,-1.4142894174848528,0.2161270006736959,-1.43512352708826
2.08,0.1439238941193891,-1.4582532721158523,1.645326006809332,0.0090385096018319,0.1400395000522796,0.0423296833646736,0.074191006631891,0.8665478583552286,-0.0295180530811457,0.1419365151096276,-1.472089829413413,1.6456146260534563,0.0474509573926517,0.9971815879297996,-0.0367303155216632,0.0677273760212035,-0.0206999981097792,0.0587608265976258,0.0265645026028417,10.932562908049476,-1.4211221453373335,0.2118791478275825,-1.431449497600345
2.1,0.1453867481030934,-1.4409222943899898,1.6447360262111117,0.0111495329645294,0.1354116762369669,0.0423684354443951,0.0719244888663782,0.8667145545491088,-0.0295188128756849,0.1430432685323449,-1.4533461976726985,1.6448801446540624,0.0421931482305118,1.0371815885258462,-0.0367344792229687,0.1136319825107244,-0.11332588827564,0.0083348096940105,-3.798972695798208e-05,10.875156679558131,-1.4283162811426806,0.2090616935725369,-1.4257838585481004
2.12,0.1467811002759596,-1.4235983470113869,1.6441416258791612,0.0118345358493189,0.1309186634455419,0.0422934139494711,0.0674787741596683,0.8659389231674116,-0.0299001545998938,0.1438871314969551,-1.4326025659021815,1.644145455069603,0.0369353390683719,1.0771815891218923,-0.0367386429242742,0.2264475921949315,-0.2222857353354944,-0.0387815690848614,-0.0190670862104487,10.834976378289866,-1.4351976236673187,0.2080728952546755,-1.4188950328830416
2.14,0.1480639649739905,-1.406297206300377,1.6435396422183275,0.010744036662556,0.1272863978938057,0.0420996779960234,0.0609208291133962,0.8645031286940771,-0.0302623040762041,0.1447309944615654,-1.4118589341316643,1.6434107654851435,0.0316775299062321,1.1171815897179391,-0.0367428066255797,0.3361521279226697,-0.3278972523136088,-0.0717897236667264,-0.0181074738155144,10.809693241322748,-1.4402395742590892,0.2092184264359232,-1.4122682887814406
2.16,0.1491954295341298,-1.3890135825920755,1.642933636281595,0.0079519445976986,0.1252754349005446,0.0418085527361365,0.0525110422581497,0.8642465530272428,-0.0303101037427404,0.1454434121971221,-1.3901153023462465,1.6426759718081516,0.0264197207440922,1.1571815903139857,-0.0367469703268852,0.4206917839452332,-0.4204893427623247,-0.0128287833417117,-0.0023899833268153,10.825700770360529,-1.442145632289222,0.2124778145027548,-1.4072364868379406
2.18,0.1501100552638993,-1.3725721194457237,1.64236138647815,0.0046254270565016,0.125235409330477,0.041504475466817,0.0444353287079626,0.866580032105473,-0.0299337293118785,0.1460243847036254,-1.3673716705459271,1.6419410740386269,0.0211619115819523,1.1971815909100318,-0.0367511340281907,0.4207253607325655,-0.4037856775093523,0.1166739539115058,0.0188187215430953,10.843063544313736,-1.4393707634852504,0.2165938703510234,-1.4061596007499142
2.2,0.1509197524010328,-1.355198129901221,1.6417703195531264,0.0013349654757465,0.1266663566520002,0.041205898250258,0.0371390422088343,0.8707001565755293,-0.0291857267421385,0.1523318216992974,-1.32924311784045,1.6408647000125562,0.0143695593782955,0.9665800335955892,-0.0195794982001732,0.4206267055551059,-0.3648143249564139,0.2060062235028192,0.0374001284870013,10.86355459385686,-1.4351150522981924,0.2205256734331743,-1.4076870975462978
2.22,0.1516301089888563,-1.3376532104464136,1.641236086131303,0.0010163814453112,0.128103026175809,0.0411118934345648,0.0341613125890146,0.8823247972528746,-0.024286063799403,0.1523318216992974,-1.32924311784045,1.6408647000125562,0.0143695593782955,0.9665800335955892,-0.0195794982001732,0.6480853368163741,-0.1488864809909857,0.5812320338672627,0.2449831471367758,10.86355459385686,-1.4270031279971154,0.2205163827991294,-1.4145141810435922
2.24,0.1522540026809553,-1.320815846729062,1.6408198100494835,0.0037327372810445,0.1285413550804643,0.0412273046310381,0.0315695699574517,0.8892021287038064,-0.019790087491886,0.1523318216992974,-1.32924311784045,1.6408647000125562,0.0143695593782955,0.9665800335955892,-0.0195794982001732,0.4307801664189952,-0.1295871315781453,0.3438665725465917,0.2247988153758494,11.1351176017306,-1.4267965007988357,0.216889369438395,-1.4190988181473967
2.26,0.1528544206581566,-1.3029965404444035,1.6404652457068951,0.0075073289551973,0.1282231581763455,0.0414001607333927,0.0285282403925702,0.8922371655749569,-0.0159468826089041,0.1524755172930804,-1.319577317504494,1.6406689050305543,0.0083564055123621,0.9865800338936124,-0.0175086519778322,0.2882332306659008,-0.1520664782440756,0.1517518435575238,0.1921602441490937,11.110493817812312,-1.427677122508701,0.2119214186766239,-1.4219210377452172
2.28,0.1533887604311123,-1.2851455288176408,1.6401770467065206,0.0106279397857565,0.127323210121856,0.0415104603944793,0.0249835577542052,0.8928962202868823,-0.0131036015767363,0.1527629084806463,-1.3002457168325825,1.640277315066551,-0.0036699022195046,1.0265800344896587,-0.01336695953315,0.2295831828985004,-0.1772341319182496,0.0329527355962699,0.1421640516083904,10.997466653515405,-1.4288019279355413,0.2077005266801904,-1.4229644650422124
2.3000000000000003,0.1538463407948923,-1.267295269821106,1.639937239386689,0.012512526283101,0.1260210615719858,0.0415184227119577,0.0208754541104951,0.892445584381571,-0.0110085564374288,0.1530502996682122,-1.2809141161606703,1.6398857251025476,-0.0156962099513715,1.066580035085705,-0.0092252670884679,0.2316721951505848,-0.2054051821855055,-0.0225317952655679,0.1047522569653773,10.997466653515405,-1.4301986202959258,0.2051374594835097,-1.422373359824979
2.32,0.1541992087169202,-1.2503532422443682,1.6397449063893397,0.0129389384109446,0.1245689264332531,0.0414203271219098,0.0164136186911968,0.8911985041308328,-0.0093328801064787,0.1527363754691847,-1.2595825154589564,1.6397012197607783,-0.0277225176832383,1.1065800356817517,-0.0050835746437858,0.2463284170918582,-0.2230917709649138,-0.0623540125369082,0.083783816547505,10.939104763791876,-1.431934169715845,0.2042627889750517,-1.4204346692151155
2.34,0.1544733362191432,-1.2325502789099283,1.639578253714638,0.0115757154955782,0.1229770231680321,0.0411872420916334,0.011167764256711,0.8893657180154252,-0.0074029570770962,0.1524224512701573,-1.2382509147572422,1.6395167144190088,-0.0397488254151052,1.146580036277798,-0.0009418821991037,0.2941202840335313,-0.2622927217242903,-0.0916393057703801,0.0964961514691229,10.939104763791876,-1.4334549647677366,0.2057721965497191,-1.4175814951367411
2.36,0.154634372267537,-1.2147704213311898,1.6394547260232577,0.0084525207086788,0.1215413524580595,0.0408375108002687,0.005132459015395,0.8891361195181203,-0.0050212000084021,0.1518078693778332,-1.215919314040627,1.6394357513883566,-0.051775133146972,1.1865800368738444,0.0031998102455783,0.3246166645448707,-0.3017652620657982,-0.011479924865243,0.1190878534347044,10.94980144001147,-1.4339479627524985,0.2095193129897083,-1.415428714675731
2.38,0.154668493928403,-1.1969621355062845,1.6393857566235353,0.0048041331338491,0.1204914045031078,0.0404625873787253,-0.0013908541912873,0.8917876869793857,-0.0020002984452111,0.1508926297922125,-1.1925877133091105,1.6394583306688213,-0.0638014408788388,1.2265800374698907,0.0073415026902605,0.3831131407580804,-0.3261656603341205,0.132578373063269,0.1510450781595498,10.973167181193276,-1.4337272023629066,0.2137430451454708,-1.414645343528724
2.4,0.1545782314415902,-1.1799773769288209,1.6393811194974015,0.0016873889668505,0.1198847002970296,0.0401396405346539,-0.007747842015814,0.8958580078310747,0.0013541272025247,0.1499773902065917,-1.1692561125775942,1.639480909949286,-0.0758277486107057,1.266580038065937,0.0114831951349426,0.4130102222193296,-0.3178493912263356,0.2035160425844506,0.1677212823867977,11.008392577079576,-1.4330611788024723,0.2177700284455975,-1.4149469073626988
2.42,0.1543529652066612,-1.1620070401025009,1.6394482345572208,-0.0009933313880648,0.119629075665872,0.0398475741311705,-0.0144100920680116,0.9008930485299776,0.0051885323245684,0.1545989512188387,-1.1523727511573152,1.6392857417012747,-0.0103498104179938,0.9917876884695018,0.0048491315905885,0.4594558554354533,-0.3331125026098808,0.2517520349451407,0.1917202561021838,11.039944087849108,-1.4319229461667191,0.2210296146528649,-1.4162888783095493
2.44,0.1539373353359127,-1.1438393232584372,1.6395745305612608,-4.1439115180132e-05,0.1213549099474519,0.0398086886570219,-0.0265084153201792,0.9147516808229336,0.0071371112024405,0.1545989512188387,-1.1523727511573152,1.6392857417012747,-0.0103498104179938,0.9917876884695018,0.0048491315905885,0.9249703700505632,-0.6049161626083825,0.692931614647796,0.0974289438936044,10.970964167270722,-1.4305375596857413,0.2200518385694209,-1.4217173946674968
2.46,0.1533040716553668,-1.1254613547875452,1.6397353083977573,0.0051340551785222,0.1260717150269888,0.0400717624671782,-0.035717601201769,0.9214964103102684,0.0088349660642599,0.1545989512188387,-1.1523727511573152,1.6392857417012747,-0.0103498104179938,0.9917876884695018,0.0048491315905885,0.577025111218744,-0.4604592940794879,0.3372364743667477,0.0848927430909702,10.970964167270722,-1.4220785753037788,0.2130711419016489,-1.4304637779473022
2.48,0.1525654772975341,-1.1079378359881324,1.6399109085660677,0.0103699416769877,0.1320307512062742,0.0403713786953413,-0.0412969296461367,0.9228941632451668,0.0095393387328378,0.1544954531146587,-1.1424548742726202,1.6393342330171805,-0.0121416016633351,1.011787688767525,0.0062190175977485,0.289735914296914,-0.2789664222183848,0.069887646744926,0.0352186334288963,10.945770631035884,-1.4112801605008023,0.2054130338648847,-1.4407805260381428
2.5,0.1517059468901486,-1.0894898257491994,1.6401021817071648,0.0147865218186189,0.1387837318709775,0.0406389239048867,-0.0441318432332789,0.9220857696346908,0.0095012050153057,0.1542884569062989,-1.12261912050323,1.6394312156489923,-0.0157251841540177,1.0517876893635716,0.0089587896120684,0.1474083567545866,-0.1417456793571091,-0.0404196805238121,-0.0019066858766051,10.888851371152668,-1.4001816630285375,0.1991963615161192,-1.4504344441819237
2.52,0.150819747756948,-1.0710705452505884,1.6402862647517176,0.0176238212522763,0.1451598565951768,0.0408068930867867,-0.0442641970828893,0.9203484684143116,0.008893639709513,0.154081460697939,-1.10278336673384,1.639528198280804,-0.0193087666447003,1.091787689959618,0.0116985616263883,0.0922614311703538,-0.006617692480523,-0.0868650610189591,-0.0303782652896387,10.853197453570829,-1.39064178373325,0.1952687505105237,-1.4584241667736488
2.54,0.1499966036290584,-1.0536087471207702,1.6404484252604845,0.0188511842916233,0.1503239190065848,0.0408536514165529,-0.0423820857350835,0.9181339804728668,0.0081981532434829,0.153695285365045,-1.0809476129346478,1.639762169513332,-0.0228923491353829,1.1317876905556643,0.0144383336407082,0.1494155396266925,0.0941055673902936,-0.1107243970722315,-0.0347743233015024,10.836492184775125,-1.3825993364641584,0.1932244705172378,-1.4647936169145457
2.56,0.149183894420883,-1.0352775949420563,1.640605846229798,0.0183693904924914,0.1545084460895043,0.0407528338252638,-0.0389865932828557,0.915294368936275,0.0075892111471623,0.153309110032151,-1.0591118591354554,1.6399961407458596,-0.0264759316260655,1.1717876911517109,0.0171781056550281,0.2234030726542989,0.1697746226113901,-0.1419805768295923,-0.030447104816029,10.844507865943342,-1.3770291810013906,0.1936850197959007,-1.468904657084517
2.58,0.1484493618361531,-1.0169944823649395,1.64075564249346,0.0160659426374398,0.1572898142213793,0.040492175437897,-0.0346874732855314,0.9133170968906804,0.0074474181850976,0.1528333451369899,-1.0362761053213618,1.6402986062787457,-0.0300595141167481,1.2117876917477572,0.019917877669348,0.2367073231744985,0.2149559998662144,-0.0988636022797306,-0.0070896481032371,10.899825792819684,-1.3737164276069451,0.1964316447016371,-1.471380891924406
2.6,0.1478060394255415,-0.9987275625231758,1.6409109431098103,0.0126291136840167,0.158672203067394,0.0401248518838276,-0.0300083792417742,0.9137899061992488,0.0080945777680535,0.1467149881718765,-0.9713286275204056,1.6411280134027149,-0.0317653967864418,1.0133170983807966,0.0072302004222595,0.2373619874706375,0.2339547021878593,0.023640465428415,0.0323579791477937,10.899825792819684,-1.3719215082704426,0.2008849793202193,-1.473375386778795
2.62,0.1472572711027115,-0.9812881926169892,1.6410491280334951,0.0111419550351294,0.1593564401995276,0.0398902464240403,-0.0279195382199165,0.9209152534459024,0.0064020666255115,0.1467149881718765,-0.9713286275204056,1.6411280134027149,-0.0317653967864418,1.0133170983807966,0.0072302004222595,0.3807834823348477,0.1044420510928839,0.3562673623326906,-0.0846255571271,10.946522886967614,-1.3732124227035356,0.2032049161637608,-1.4766335950258351
2.64,0.1467255827748487,-0.962828422580044,1.641161928304513,0.011639965172822,0.1599825891195802,0.0397839809204049,-0.0253388284872205,0.924625977679244,0.0050008518982857,0.1467149881718765,-0.9713286275204056,1.6411280134027149,-0.0317653967864418,1.0133170983807966,0.0072302004222595,0.2366058947497616,0.1290354866347992,0.1855362116670755,-0.0700607363612886,10.791946683893912,-1.3730994977000797,0.2023548173783047,-1.4772783253121755
