t,x,y,z,roll,pitch,yaw,v_x,v_y,v_z,ref_x,ref_y,ref_z,ref_v_x,ref_v_y,ref_v_z,a_com,a_x,a_y,a_z,thrust,wind_x,wind_y,wind_z
0.0,1.945430759721733,-2.449019961143407,2.0860026242249425,0.0158855085068263,0.1362761267716255,0.026264458305248,0.0031351508378213,-0.0074734284248676,-0.0047623890299452,1.945523161370832,-2.449251054956938,2.085855436210098,-0.0969041653920971,0.092328808043996,0.0339312993823462,0.4700043948466174,0.1567575418910657,-0.3736714212433827,-0.2381194514972605,10.544771044507796,-1.2845296990436588,0.1601751329469487,-1.1581529093008385
0.02,1.94573090718147,-2.449395389501941,2.086001534315626,0.0060045632887875,0.1295624001697357,0.0255090460453434,0.0260618133225338,-0.0258784523343944,0.0053863222764091,1.945523161370832,-2.449251054956938,2.085855436210098,-0.0969041653920971,0.092328808043996,0.0339312993823462,1.555131102976453,1.1463331242356258,-0.9202511954763408,0.5074355653177195,10.544078647239076,-1.2590225206394934,0.1668920687549187,-1.1356993718541282
0.04,1.9464047324611895,-2.449915936322657,2.0862138474466456,-0.0102575492264602,0.1114045380152505,0.0244773610349542,0.0383144990704585,-0.0244518794862728,0.0154170475840812,1.945523161370832,-2.449251054956938,2.085855436210098,-0.0969041653920971,0.092328808043996,0.0339312993823462,0.794951049320599,0.6126342873962379,0.071328642406083,0.5015362653836015,11.361499867410204,-1.3006984928111838,0.1860754623980755,-1.1305977580117657
0.06,1.9471439936500656,-2.450307651704416,2.086609309578644,-0.0259634280965448,0.0884952905060467,0.0239255423691596,0.0377983723993048,-0.0164905729857729,0.0257600568581406,1.944554119716911,-2.448327766876498,2.086194749203921,-0.1169041656901203,0.1123288083420192,0.0416913599609309,0.653120641189011,-0.0258063335576892,0.3980653250249955,0.5171504637029719,11.065676521839125,-1.3396748452768148,0.2049226110355628,-1.1119774777300324
0.08,1.9477870648083413,-2.4505144015013074,2.0872457498425554,-0.0418181669341128,0.0624776619628494,0.0239152941391923,0.0255709382846896,-0.0042045656808842,0.0373401268799369,1.942616036409069,-2.446481190715618,2.086873375191568,-0.1569041662861668,0.1523288089380657,0.0572114811181002,1.0422981126251014,-0.6113717057307592,0.6143003652444348,0.579003501089816,11.065676521839125,-1.3729181349361812,0.2224367153387362,-1.088346629992555
0.1,1.9480702289651637,-2.450428613302091,2.0881154241943354,-0.0565281609484955,0.0377203505103786,0.0244002465349641,0.0027524137900831,0.0123453855591577,0.049001678039528,1.940677953101227,-2.444634614554738,2.087552001179215,-0.1969041668822132,0.1923288095341122,0.0727316022752696,1.5252686006130864,-1.1409262247303245,0.8274975620020966,0.5830775579795524,11.105368508061474,-1.3986664643367326,0.2376261169096658,-1.066223965458145
0.12,1.9478009193152308,-2.44995924661015,2.0892166702722497,-0.0692256719779603,0.0166965955246178,0.0252015015742552,-0.0285705595598832,0.033407937840008,0.0604999443938468,1.9367398697635827,-2.440788038364056,2.089006633224721,-0.2369041674782596,0.2323288101301586,0.0882517234324389,1.9729228933368876,-1.56614866749832,1.053127614042516,0.5749133177159398,11.162661385114006,-1.4169981014181747,0.2512904380296422,-1.0469713700435477
0.14,1.9469069606565383,-2.449094584329449,2.0904795564511405,-0.0790234295120355,0.0014326787049483,0.0260475343995708,-0.0637360387995129,0.0561170743587631,0.0718619209728129,1.9328017864259384,-2.4369414621733734,2.0904612652702257,-0.2769041680743062,0.2723288107262051,0.1037718445896083,2.1687613534926227,-1.758273961981485,1.1354568259377569,0.5680988289483088,11.237789012221585,-1.425372727794641,0.2621697309595391,-1.0337363397914243
0.16,1.9452032422684908,-2.447697013106162,2.0920465824724177,-0.0868745436244158,-0.0089586697781742,0.0268181650541983,-0.104833043211022,0.0820579910833157,0.084283549123901,1.927863703073393,-2.43209488596779,2.0923039003446604,-0.3169041686703526,0.3123288113222515,0.1192919657467776,2.508082822612558,-2.054850220575455,1.2970458362276258,0.6210814075544046,11.347430974075904,-1.4275981506374524,0.2706740904495118,-1.0287737040461362
0.18,1.9426426877734329,-2.445765138907973,2.093866468388914,-0.092196340773886,-0.0125541774736316,0.0272480924261003,-0.1485796675066406,0.109386826685624,0.0972013190233032,1.9219256197059464,-2.4262483097473058,2.0945345384480243,-0.356904169266399,0.3523288119182979,0.1348120869039469,2.658712645160203,-2.1873312147809303,1.3664417801154185,0.6458884949701079,11.47153783142221,-1.41950189999075,0.2765436817109952,-1.033270375726359
0.2,1.9392273218321887,-2.4432798812583885,2.0959543203336506,-0.0952073411537106,-0.0098228686196762,0.0272736789018917,-0.1900662063723909,0.1373348974936929,0.1110709276583688,1.9352137043981008,-2.440295797573692,2.0987265343400794,-0.2485796689967568,0.2093868281757401,0.1138153705590288,2.595473758604643,-2.074326943287515,1.397403540403442,0.693480431753278,11.546200975174544,-1.4053519182940142,0.2801117768709369,-1.0459600438410923
0.22,1.935215080147624,-2.4403142500776176,2.0980336354936995,-0.0929945140348196,-0.0017686378617714,0.0271399089361449,-0.2294666781141572,0.1722171139231924,0.1064470678145409,1.9352137043981008,-2.440295797573692,2.0987265343400794,-0.2485796689967568,0.2093868281757401,0.1138153705590288,2.6412810700318947,-1.9700235870883125,1.744110821474977,-0.2311929921913938,11.58661636679335,-1.4031397304984885,0.280930314943763,-1.071779688784499
0.24,1.9302580735953496,-2.436578586774813,2.1001331532416097,-0.0852222636530462,0.0113255614240093,0.0270157145381116,-0.2632856351369685,0.1985560424718625,0.1041609181729659,1.9352137043981008,-2.440295797573692,2.0987265343400794,-0.2485796689967568,0.2093868281757401,0.1138153705590288,2.146326799083947,-1.6909478511405645,1.3169464274335032,-0.114307482078748,10.42473193909791,-1.3713776773241615,0.2716362978906517,-1.084048127939956
0.26,1.924699590153577,-2.432392078396284,2.102222919369181,-0.0768082389329591,0.0264688040168675,0.026879653409646,-0.2902468902037969,0.2187410620354039,0.1049301467852013,1.9327279077081327,-2.4382019292919344,2.099864688045669,-0.26857966929478,0.2293868284737633,0.1171381808661739,1.684440561593829,-1.3480627533414224,1.0092509781770702,0.0384614306117699,10.546171561783012,-1.3439879055690749,0.2629198599773134,-1.101702492952079
0.28,1.918676582682498,-2.42783887697733,2.104344372785551,-0.0694511159196306,0.041664548793977,0.026786671325321,-0.310354693240524,0.2358271570841475,0.1071130038164834,1.9277563143281984,-2.43401419272842,2.10214099545685,-0.3085796698908264,0.2693868290698098,0.1237838014804642,1.323842184512121,-1.005390151836355,0.8543047524371807,0.1091428515641028,10.68048561251362,-1.3176387382715564,0.255086676766518,-1.122153905064317
0.3,1.912637957785173,-2.42321354059738,2.1064050897850395,-0.0638860075803576,0.0546456228189028,0.0267884414805184,-0.3241894727369201,0.2505150985438341,0.1096171513339331,1.922784720948263,-2.429826456164905,2.104417302868031,-0.3485796704868729,0.3093868296658563,0.1304294220947544,1.0166212456296462,-0.6917389748198027,0.7343970729843274,0.1252073758724867,10.68048561251362,-1.2966855197852247,0.2491936357519827,-1.1418314566308478
0.32,1.906040022705336,-2.41805108085055,2.1086266917319243,-0.0595164214340337,0.0657997903762497,0.0269067613269605,-0.3347878259750226,0.2651915109467996,0.1123557973499315,1.9158131275385253,-2.423638719571588,2.107025891309926,-0.3885796710829193,0.3493868302619027,0.1370750427090447,0.9154539234479024,-0.5299176619051243,0.7338206201482789,0.1369323007999197,10.704424114198446,-1.2812282064956215,0.2451792878032735,-1.159149533604243
0.34,1.8992612072964576,-2.4125997537526875,2.110895570512938,-0.0565130556511025,0.0738318166040462,0.0271482415177588,-0.3427567462870643,0.2795111347184584,0.1143235827421805,1.908841534128788,-2.4174509829782704,2.109634479751821,-0.4285796716789658,0.3893868308579492,0.1437206633233349,0.8252688883804381,-0.3984460156020858,0.715981188582937,0.0983892696124491,10.696033063251887,-1.27198367104258,0.24289866098425,-1.1733441239776672
0.36,1.8926810692452285,-2.407148377578208,2.11308135507416,-0.0543839785986682,0.0787059560709743,0.0274955831969648,-0.3496685648541208,0.2936456115610018,0.1156295639768906,1.9008699407041492,-2.4102632463700524,2.112409208709073,-0.4685796722750122,0.4293868314539956,0.1503662839376251,0.789402081485915,-0.3455909283528235,0.7067238421271715,0.0652990617355062,10.681336563823606,-1.2677073813824231,0.2416477550218191,-1.1837522618209912
0.38,1.885611467898426,-2.4011194033354983,2.1154075269671746,-0.0524883806932423,0.0814485773826545,0.02797073240317,-0.3570650382730545,0.3084969265570202,0.1169050608567235,1.8918983472646096,-2.4020755097469326,2.1153500781816827,-0.5085796728710587,0.469386832050042,0.1570119045519153,0.8320100186272056,-0.3698236709466868,0.7425657498009192,0.0637748439916437,10.681336563823606,-1.2658043148802276,0.2406555829774323,-1.191376808636185
0.4,1.8783878869463289,-2.394794159333826,2.117760174122732,-0.0507521314533239,0.0823286302885697,0.0285311240688896,-0.3650478794720042,0.3232361180907122,0.1182962672557013,1.8677582159847728,-2.3856945570076475,2.121252780010011,-0.4570650397631706,0.4084969280471363,0.0960972302398917,0.8409889653245481,-0.3991420599474826,0.7369595766845982,0.0695603199488914,10.689709525566286,-1.2655277687731563,0.239824652845901,-1.196438575884313
0.42,1.8709722991882864,-2.388171034658816,2.1200103867865314,-0.048657307779884,0.0822564094678085,0.0291601085680351,-0.3762420137567448,0.3380219071148453,0.1060082538570236,1.8677582159847728,-2.3856945570076475,2.121252780010011,-0.4570650397631706,0.4084969280471363,0.0960972302398917,1.1123437786236166,-0.5597067142370321,0.7392894512066595,-0.6144006699338851,9.867978173087067,-1.2769033834651191,0.2396005317716932,-1.2024149028414457
0.44,1.863722365904035,-2.381638071439876,2.121904449266589,-0.0469429585428462,0.0817392682526845,0.0297534957499398,-0.3864154587624868,0.3492034681814527,0.0940523389578856,1.8677582159847728,-2.3856945570076475,2.121252780010011,-0.4570650397631706,0.4084969280471363,0.0960972302398917,0.9636781001021004,-0.5086722502871011,0.5590780533303696,-0.5977957449568999,9.867978173087067,-1.2738698255115015,0.2373593490066719,-1.194734889414113
0.46,1.85588058274696,-2.3745371407435227,2.123663840411812,-0.0461772796230619,0.080594374587576,0.0303272917669791,-0.3972817990742458,0.3604010848608808,0.0825677422571043,1.8631875655871413,-2.3816095877271763,2.12221375231241,-0.4770650400611938,0.4284969283451595,0.0919356641165254,0.968710395900087,-0.5433170155879491,0.5598808339714018,-0.5742298350390681,9.91910744463894,-1.2723701799184466,0.2364446701543106,-1.1870393839712363
0.48,1.847817783791512,-2.36721671122178,2.1252067258112364,-0.0467375483921315,0.0789584292504584,0.0308273813656538,-0.4085274980658455,0.3712656776208147,0.072295479773795,1.854046264791878,-2.373439649166233,2.124135696917208,-0.5170650406572402,0.468496928941206,0.0836125318697926,0.9354470831838644,-0.5622849495799859,0.5432296379966978,-0.513613124165465,9.97341654711272,-1.2714793502873771,0.2370241452509237,-1.1790671508777628
0.5,1.8399445230376403,-2.360059437466753,2.126492070728484,-0.0485952951833715,0.0771168486182086,0.0312243546319163,-0.4197374811349346,0.3817509737255584,0.0635198905031558,1.8449049639966144,-2.3652697106052907,2.1260576415220056,-0.5570650412532867,0.5084969295372525,0.0752893996230599,0.8840476823401168,-0.5604991534544523,0.5242648052371818,-0.4387794635319595,10.0293532810756,-1.2709999611119414,0.2390442903279234,-1.1714538208920335
0.52,1.8314205768784508,-2.3522973878964915,2.1276728659118813,-0.0517444934688472,0.0750543283113307,0.0315715668171718,-0.4321490547653943,0.3943205774659539,0.0550420822903079,1.8337636631715488,-2.3550997720145457,2.127563429514467,-0.5970650418493332,0.5484969301332989,0.0669662673763272,0.9796878715549135,-0.6205786815229847,0.6284801870197781,-0.4238904106423919,10.080020698521366,-1.2710577337222986,0.2425891434288128,-1.1645973852831013
0.54,1.822638961520192,-2.344258313480966,2.128687564318133,-0.0551540683451837,0.0730912873125324,0.0319052011310639,-0.4454508032679513,0.4090234652994372,0.0468509511376397,1.822622362346483,-2.3449298334238007,2.129069217506928,-0.6370650424453796,0.5884969307293454,0.0586431351295945,1.0726206848526203,-0.6650874251278527,0.735144391674164,-0.4095565576334128,10.136508688575304,-1.2714652556897192,0.246353625489562,-1.1595296331382028
0.56,1.8140361046677056,-2.336327961140324,2.129501580135791,-0.0578654052755359,0.0717587345235721,0.0322370877729429,-0.4594422268428119,0.4247914079966162,0.0392584900679522,1.810481061506516,-2.3337598948181544,2.130366927193221,-0.677065043041426,0.6284969313253918,0.0503200028828618,1.120305109833259,-0.6995711787430303,0.788397134858948,-0.3796230534843736,10.136508688575304,-1.271347080809485,0.2498869040679106,-1.156746794637581
0.58,1.8046879996139693,-2.327650204293552,2.1302042277094,-0.0598381852111932,0.0713340957258274,0.0325945871611124,-0.4745197205479172,0.4419854422229428,0.0314282026414825,1.797339760651648,-2.321589956197607,2.1314565585733454,-0.7170650436374725,0.6684969319214382,0.0419968706361291,1.2085932220816786,-0.7538746852552652,0.8597017113163297,-0.3915143713234835,10.157004861720452,-1.2688023980601777,0.2523157916837232,-1.1552170258360372
0.6,1.795039491813078,-2.3186209393319794,2.130751623508023,-0.0607540776406927,0.0719001630176179,0.0329655975572041,-0.4894574155251816,0.4599724857791948,0.0237177284907984,1.7809620135865736,-2.3055509321824044,2.131775637841474,-0.5745197220380334,0.5419854437130589,0.0054965164785339,1.2309751000291067,-0.7468847488632191,0.899352177812604,-0.385523707534208,10.16780960863798,-1.2653660734075451,0.2536847409604224,-1.1557477969162409
0.62,1.7850646989015122,-2.309165675226218,2.1311448358407947,-0.0583284906683426,0.074301215100102,0.0334555485097118,-0.5067692503886583,0.483604480320868,0.0160698901015311,1.7809620135865736,-2.3055509321824044,2.131775637841474,-0.5745197220380334,0.5419854437130589,0.0054965164785339,1.5138198575014696,-0.8655917431738325,1.1815997270836598,-0.3823919194633644,10.177194421261447,-1.26273372376628,0.2521792894583178,-1.1619011159913466
0.64,1.775298227361516,-2.299808124224364,2.131377719903122,-0.0532759934036098,0.0782425285592674,0.0340187894380493,-0.5201735073715461,0.4997757893821392,0.0088527922213571,1.7809620135865736,-2.3055509321824044,2.131775637841474,-0.5745197220380334,0.5419854437130589,0.0054965164785339,1.1104862041358936,-0.6702128491443915,0.8085654530635561,-0.3608548940086983,10.22115515994119,-1.2530718489562191,0.2465459095199316,-1.166549717282673
0.66,1.7647696809205164,-2.289672775292701,2.1314667566913728,-0.0479197466599679,0.0829739052523773,0.0345938245058087,-0.5317943406065839,0.5129272182853438,0.000369602914116,1.7752168163661932,-2.3001310777452737,2.1318306030062595,-0.5945197223360565,0.5619854440110821,0.0003101792459442,0.9746388409240304,-0.581041661751891,0.6575714451602321,-0.4241594653620524,10.179536862603529,-1.2445093995111822,0.2409483251920685,-1.1718826559309157
0.68,1.754031060937006,-2.279295841948732,2.131375294162271,-0.0434607942483683,0.0875574447957785,0.0351229700165016,-0.5413835814819771,0.5242550318700104,-0.009148786474308,1.7637264219254327,-2.289291368871013,2.13194053333583,-0.634519722932103,0.6019854446071286,-0.0100624952192352,0.8815790346374697,-0.4794620437696573,0.5663906792333306,-0.4759194694212064,10.109321477688354,-1.2368824187460905,0.2364790677563272,-1.1759137675941225
0.7000000000000001,1.7436679463399585,-2.2692383697278,2.131103186406777,-0.0403004851243126,0.0912896019784329,0.0355812500292601,-0.5490029527410866,0.534125890209994,-0.019030287658254,1.752236027484672,-2.2784516599967515,2.1320504636654007,-0.6745197235281495,0.641985445203175,-0.0204351696844146,0.7955072727519417,-0.3809685629554749,0.4935429169991789,-0.4940750591972984,10.003077790253885,-1.230275703273843,0.2329968710295174,-1.178633780351261
0.72,1.7326141516188738,-2.258452332154151,2.130607844499946,-0.0380305776311154,0.0942794179376837,0.0360253970837587,-0.5559878753795715,0.544152743979201,-0.030018106175327,1.7387456330141091,-2.265611951092688,2.1316417602717124,-0.714519724124196,0.6819854457992215,-0.030807844149594,0.8216737438588576,-0.3492461319242468,0.5013426884603489,-0.5493909258536518,9.97046981177482,-1.2253544921884605,0.2307074724267145,-1.1794809477177288
0.74,1.721427567878957,-2.2474685382235675,2.1298895914125797,-0.0367677826011521,0.0961825710089566,0.0364338292003231,-0.5623707559095608,0.5538134705944998,-0.0412669401499884,1.725255238543546,-2.2527722421886245,2.131233056878024,-0.7545197247202424,0.721985446395268,-0.0411805186147735,0.8071664456373846,-0.3191440264994627,0.483036330764941,-0.5624416987330702,9.957332259577925,-1.2218983436848256,0.2294991196772513,-1.178439825839486
0.76,1.710111229299186,-2.236286171917906,2.128946508207476,-0.0363206748735836,0.0971604773814197,0.0368104881974982,-0.5690042868922759,0.5639558628495372,-0.0524730295826569,1.7107648440580818,-2.23893253326966,2.130565036622706,-0.7945197253162888,0.7619854469913143,-0.0515531930799529,0.8253003912616451,-0.3316765491357565,0.5071196127518718,-0.5603044716334257,9.957332259577925,-1.220239629410364,0.2292471973505184,-1.1765557013059502
0.78,1.699234299243323,-2.2254709722564687,2.127845088055678,-0.0363361557568855,0.0975556149111667,0.0371484593725791,-0.5756311471998926,0.5739545548680889,-0.0628992169825615,1.6952744495577166,-2.2240928243357936,2.129637699505759,-0.8345197259123353,0.8019854475873608,-0.0619258675451324,0.7946610965003306,-0.3313430153808361,0.4999346009275818,-0.5213093699952286,9.973400401351682,-1.2189364451882112,0.2294707016210231,-1.1739383773959564
0.8,1.6876458344217315,-2.2138785469681808,2.1264733012489443,-0.0366246613681075,0.0976678056590455,0.037487623773473,-0.5828840971394315,0.5847509431836422,-0.0737188414272134,1.6704527418833284,-2.1967732445130643,2.12470012720655,-0.6756311486900087,0.673954556358205,-0.1000841706721367,0.845918962739609,-0.3626474969769422,0.5398194157776648,-0.5409812222325977,9.973400401351682,-1.2179967677316623,0.2299943854107502,-1.1710134679926372
0.8200000000000001,1.6758813855921382,-2.202032040739692,2.1248922162029142,-0.0358964236089983,0.0985119501948335,0.0378617875680481,-0.5930533588651935,0.599059252176993,-0.0837938028080927,1.6704527418833284,-2.1967732445130643,2.12470012720655,-0.6756311486900087,0.673954556358205,-0.1000841706721367,1.011986211766817,-0.5084630862881023,0.7154154496675391,-0.5037480690439654,9.980115322174242,-1.2184845186258335,0.2297131315093253,-1.1706266862494643
0.84,1.6639320794576231,-2.189928471110019,2.1231063628099465,-0.0339527390926649,0.1004991187258134,0.0382699263860649,-0.6012346962366384,0.6106111716353849,-0.0942906811067155,1.6704527418833284,-2.1967732445130643,2.12470012720655,-0.6756311486900087,0.673954556358205,-0.1000841706721367,0.8811435444561138,-0.4090668685722443,0.5775959729195979,-0.524843914931139,10.03937781392051,-1.213366736025063,0.2277046588858468,-1.170425485151998
0.86,1.6524424241539777,-2.1782285806345048,2.121206517113509,-0.031939481357849,0.1026502157609319,0.0386521609408079,-0.6077398534584437,0.6203570070816793,-0.1051646885678644,1.6636964303964283,-2.1900336989494824,2.1236992854998284,-0.6956311489880319,0.6939545566562282,-0.1075211614100517,0.7992847072410666,-0.3252578610902668,0.4872917723147185,-0.543700373057443,9.93707270978848,-1.2095858481184527,0.2255656963942641,-1.1707908225975534
0.88,1.6402261004756606,-2.165726779915417,2.1189749076170963,-0.0302168887140226,0.104731584698459,0.0390239042022811,-0.6135193559848765,0.629394210621437,-0.1174631568193152,1.650183807422628,-2.176554607822318,2.121697602086386,-0.7356311495840784,0.7339545572522747,-0.1223951428858818,0.8159749055638825,-0.2889751263216389,0.4518601769878838,-0.6149234125725399,9.884481434917689,-1.2063903935600997,0.2238352854087574,-1.1701595276850636
0.9,1.6279024314630648,-2.153051923802041,2.116490604693265,-0.0292563616932198,0.1063137403747776,0.0393476261984824,-0.6185681971363358,0.6377028481306316,-0.1303716950877729,1.636671184448828,-2.1630755166951543,2.119695918672943,-0.7756311501801249,0.7739545578483211,-0.1372691243617119,0.8080139455171906,-0.2524420575729658,0.4154318754597319,-0.6454269134228869,9.884481434917689,-1.203977981981082,0.2229066321398076,-1.1683122260870336
0.92,1.6154832670386632,-2.140217711669253,2.113744096418455,-0.0293763574472305,0.1072211120892719,0.0396053339021955,-0.6231718203551554,0.6454558363535198,-0.1436252093187029,1.6211585614452255,-2.147596425538188,2.116950536185709,-0.8156311507761713,0.8139545584443676,-0.1521431058375419,0.8014951849427425,-0.2301811609409787,0.3876494111444084,-0.6626757115464982,9.849962294934812,-1.2025138348103928,0.2230767100196985,-1.1652379682295677
0.94,1.6036014338327498,-2.1278829027202475,2.110889209577572,-0.030675776828551,0.1074171303005576,0.0397785544539399,-0.627402513842424,0.6527081973786517,-0.1562187356462156,1.605645938441623,-2.1321173343812214,2.1142051536984745,-0.8556311513722178,0.8539545590404141,-0.167017087313372,0.7567899529985611,-0.2115346743634283,0.3626180512565968,-0.6296763163756366,9.829938024176954,-1.2018353546838674,0.2245670932742698,-1.1607916184275364
0.96,1.5910017631298912,-2.11473664235409,2.107627045055977,-0.0330584286209429,0.1070815665455276,0.0399007018687376,-0.6324024065043267,0.6616756978511289,-0.169321906226047,1.5891333154231193,-2.1156382432093537,2.111087921674345,-0.8956311519682641,0.8939545596364604,-0.1818910687892021,0.8323281663481452,-0.2499946330951352,0.4483750236238593,-0.6551585289915701,9.832237609075491,-1.2023761649884377,0.2272277021979559,-1.1557347285893422
0.98,1.5782957183524473,-2.101387498824549,2.104106903947756,-0.0356105435761941,0.1064851287144318,0.0400159534328506,-0.6379846252539548,0.6727898576909034,-0.1820097887191475,1.5716206923897145,-2.098159152022585,2.1075988401133188,-0.9356311525643106,0.9339545602325068,-0.1967650502650322,0.8883525162787042,-0.2791109374814082,0.5557079919887242,-0.6343941246550244,9.832237609075491,-1.2030633796138013,0.230067263420802,-1.1509327760007604
1.0,1.5654727628842062,-2.0878013024653623,2.1003377485428083,-0.0375661473584006,0.1058723610213516,0.0401697302250272,-0.6437216769218351,0.6844704316664794,-0.193649493151878,1.5463964870897495,-2.067748005940004,2.095006414511799,-0.737984626744071,0.7727898591810195,-0.1937690698775948,0.8729723499632671,-0.286852583394015,0.584028698778799,-0.5819852216365218,9.855691421475967,-1.2036253065996754,0.2321827786280628,-1.1469888422550196
1.02,1.5531641566710812,-2.074608828136231,2.0966441818266635,-0.0371069072287467,0.10613306359094,0.0404394729140398,-0.6510419329527143,0.7022207802323139,-0.1939151396240076,1.5463964870897495,-2.067748005940004,2.095006414511799,-0.737984626744071,0.7727898591810195,-0.1937690698775948,0.9601192512058112,-0.3660128015439579,0.8875174282917286,-0.013282323606481,9.876979406796636,-1.19845304877589,0.23178170429647,-1.1489452824806086
1.04,1.540082978930346,-2.0604033999226874,2.0927677611819164,-0.0337100353319111,0.107508624369821,0.0408751843212064,-0.6565618038769431,0.7169732532529525,-0.1938238301847533,1.5463964870897495,-2.067748005940004,2.095006414511799,-0.737984626744071,0.7727898591810195,-0.1937690698775948,0.7875797938280781,-0.2759935462114393,0.7376236510319267,0.0045654719627141,10.647160384171912,-1.1964868158503092,0.2287620999232008,-1.1556488434277137
1.06,1.5269066239598528,-2.0459470449116908,2.088873684597638,-0.0293020141039049,0.1091487988949377,0.0413618855213162,-0.6607580708294581,0.7277662759764947,-0.1955861807697807,1.5390166408223087,-2.0600201073481936,2.093068723813023,-0.7579846270420941,0.7927898594790427,-0.1961209261092842,0.585670289993045,-0.2098133476257535,0.5396511361771106,-0.0881175292513691,10.461297548602488,-1.1952331479602352,0.2247963675247102,-1.1608512404690652
1.08,1.5143208558721637,-2.032038892841073,2.085125795086336,-0.0254731374534136,0.1104796723358072,0.0417957406297295,-0.6638795209996109,0.7358370335565644,-0.1988436032023828,1.5242569482874273,-2.0445643101645734,2.089193342415471,-0.7979846276381406,0.8327898600750892,-0.2008246385726631,0.4623077437849666,-0.1560725085076375,0.4035378790034849,-0.1628711216301051,10.461297548602488,-1.1941412261434572,0.2208525598387793,-1.16432681791516
1.1,1.5010145908671249,-2.017245978243959,2.081101060719104,-0.0222805644379616,0.111324103630508,0.0421956366150915,-0.6666286504303411,0.7431725736236628,-0.2035154597884365,1.509497255752546,-2.029108512980953,2.085317961017919,-0.8379846282341871,0.8727898606711356,-0.205528351036042,0.4560540117781215,-0.1374564715365123,0.3667770033549233,-0.2335928293026853,10.294212262162546,-1.1937141238105884,0.2177375302047798,-1.1658999692877934
1.12,1.487655676018229,-2.002312430380797,2.076973141888209,-0.0200293269058726,0.1114287820907617,0.0425318388548494,-0.6692064007977325,0.7499756729183045,-0.2090745012447423,1.492737563187862,-2.0116527157675304,2.081207393997198,-0.8779846288302335,0.912789861267182,-0.210232063499421,0.4577933455235745,-0.1288875183695692,0.3401549647320812,-0.277952072815292,10.294212262162546,-1.1940993104662223,0.2156674016383972,-1.1658191007586782
1.14,1.4749182378083256,-1.9880046026868643,2.0729477982533897,-0.0187794751826533,0.1107636068278607,0.0427906028309162,-0.6715356661330545,0.7559233369559671,-0.2143611495807004,1.4759778706231783,-1.994196918554108,2.077096826976477,-0.91798462942628,0.9527898618632286,-0.2149357759627999,0.4145745865804083,-0.116463266766098,0.2973832018831335,-0.2643324167979036,10.246579230501084,-1.194806566895759,0.2144002108076312,-1.1644594571371771
1.16,1.461457002876471,-1.9728168975401408,2.068604806002218,-0.0182402981459378,0.1093198474716028,0.0430091052447931,-0.6745439051776442,0.7625493441938778,-0.2196410892886026,1.4582181780435937,-1.975741121325784,2.072868667144172,-0.9579846300223264,0.992789862459275,-0.2196394884261788,0.4495309705273927,-0.1504119522294844,0.3313003618955312,-0.2639969853951082,10.249393793869784,-1.19675383656616,0.2140183462690648,-1.1620652280587949
1.18,1.4479277747769677,-1.9574933783972583,2.0641609828643537,-0.0182299039551002,0.1073535030914352,0.0431879430660474,-0.6783130780462302,0.7694665574943224,-0.2244520130543768,1.4394584854491077,-1.9562853240825588,2.068522914500282,-0.9979846306183728,1.0327898630553214,-0.2243432008895577,0.4615178529516043,-0.1884586434293012,0.3458606650222295,-0.2405461882887094,10.264856453493849,-1.19915244632827,0.2141869044080223,-1.159198958635268
1.2,1.4343133052566566,-1.9420275797353423,2.0596262752829344,-0.0185215111970663,0.1051673539058474,0.0433390737020625,-0.6830204817429888,0.7767314268953901,-0.2287737028201065,1.414012120874656,-1.9190200505225423,2.052938382211635,-0.7783130795363463,0.8694665589844385,-0.2403980362205564,0.4837741709983086,-0.2353701848379297,0.3632434700533871,-0.2160844882864887,10.289749413598656,-1.2015638630285037,0.2146373921004689,-1.15643169497015
1.22,1.4212367518573503,-1.9271618099140932,2.0552484258364085,-0.0177056633377142,0.1046111884241084,0.0435205200169474,-0.6928247542599899,0.7871959573958829,-0.2318365632229252,1.414012120874656,-1.9190200505225423,2.052938382211635,-0.7783130795363463,0.8694665589844385,-0.2403980362205564,0.7331631333313914,-0.4902136258500555,0.5232265250246393,-0.153143020140932,10.31420328841341,-1.204323422485646,0.2141148257278826,-1.155124986947736
1.24,1.4072960834292747,-1.911332747541409,2.050574773956543,-0.0156009305756191,0.1063975581734546,0.0437440773151028,-0.700452023252893,0.7951331457523226,-0.235397260241664,1.414012120874656,-1.9190200505225423,2.052938382211635,-0.7783130795363463,0.8694665589844385,-0.2403980362205564,0.5784737560057486,-0.3813634496451556,0.3968594178219875,-0.1780348509369395,10.398098907588064,-1.1990123893441194,0.2117558418929564,-1.158898776086944
1.26,1.393227164895302,-1.895363150783776,2.0458186588265668,-0.0134363991360652,0.1092478913229463,0.0439453236666176,-0.7059123791523181,0.8014655625987579,-0.2400413078153903,1.4062289900792926,-1.9103253849326984,2.0505344018494296,-0.7983130798343695,0.8894665592824617,-0.2435872408537923,0.4782315535711665,-0.2730177949712531,0.3166208423217631,-0.2322023786863164,10.35889796520405,-1.194622060561105,0.2095427063955467,-1.1625540568902242
1.28,1.3797787419008232,-1.880086284123196,2.041205149039484,-0.0118780562367229,0.1121428289867144,0.0440911473713764,-0.7093938478349224,0.8064586814411688,-0.2453625496533865,1.3906627284885658,-1.892936053753009,2.0457264411250184,-0.838313080430416,0.929466559878508,-0.2499656501202642,0.4042507719870032,-0.1740734341302174,0.2496559421205468,-0.2660620918998102,10.294648464052443,-1.1901598964293434,0.2077221936584959,-1.165400510528233
1.3,1.365565856948457,-1.863910468405616,2.0362322553976,-0.0111087951516317,0.1147887875335635,0.0441791547712759,-0.7116860488990944,0.8109452445260857,-0.2516786302477906,1.3750964668978387,-1.875546722573321,2.0409184804006077,-0.8783130810264624,0.9694665604745546,-0.2563440593867361,0.4039687738815287,-0.1146100532085969,0.2243281542458453,-0.3158040297202055,10.201594015052253,-1.1866992255662927,0.2068623210345288,-1.166916389572474
1.32,1.3513186398933463,-1.847651291101857,2.0311281670432737,-0.0116091027086271,0.1166045858752574,0.0441769568953553,-0.7130088877552194,0.8149343886146722,-0.2584088090184256,1.3575302052773095,-1.8561573913638296,2.0357915992128723,-0.9183130816225088,1.009466561070601,-0.262722468653208,0.3967318977706604,-0.0661419428062526,0.1994572044293208,-0.3365089385317488,10.201594015052253,-1.1846486473346576,0.2073098200325429,-1.1668032171804397
1.34,1.33776449146338,-1.832131372290454,2.026155027341769,-0.0134478014240894,0.1173854095097717,0.044081405250106,-0.7137939671028045,0.8187220373629696,-0.2647361488833124,1.3399639436567805,-1.8367680601543384,2.030664718025138,-0.9583130822185554,1.0494665616666474,-0.2691008779196798,0.3708027183970925,-0.0392539673792546,0.18938243741487,-0.3163669932443408,10.182303193758344,-1.183851690125269,0.2093159422716988,-1.165156433760443
1.36,1.3234766694520848,-1.815697334824082,2.0207938927626343,-0.0164376704124698,0.1173044249440022,0.0439131496627358,-0.7150438753221784,0.8247979230304964,-0.2710247190673145,1.32139768202135,-1.8163787289299465,2.025378376605741,-0.9983130828146016,1.0894665622626938,-0.2754792871861516,0.4416581601217059,-0.0624954109686937,0.3037942833763407,-0.3144285092001042,10.186683375019127,-1.1848099600331192,0.2125670676612702,-1.162632235427679
1.38,1.3091581763359144,-1.799114911229038,2.015313631454541,-0.0193360270224722,0.1165599609051075,0.0437592945658342,-0.7168024654893804,0.833087669079736,-0.2766536132985657,1.3018314203710184,-1.7949893976906528,2.019932574954683,-1.0383130834106482,1.12946656285874,-0.2818576964526235,0.5086673254782443,-0.0879295083601017,0.4144873024619799,-0.281444711562559,10.20756727092703,-1.186351911491008,0.2157362651658094,-1.160314398753649
1.4,1.2955183706542637,-1.7831960697035305,2.0100095906093287,-0.0214559950599649,0.115427414694541,0.0436639732188598,-0.7189297246915333,0.8419693616340265,-0.2813824155433,1.2733180530614454,-1.757460527775051,2.0014809507896123,-0.8168024669794965,0.933087670569852,-0.2933287912601536,0.5142257894444024,-0.1063629601076421,0.4440846277145249,-0.236440112236716,10.246091034973688,-1.1882200752237353,0.2181048033384125,-1.158721366257603
1.42,1.2810736002540288,-1.7662018527404413,2.004354143509348,-0.0212356757562944,0.1151628103137357,0.0437098863485614,-0.7252891259109094,0.8564718464395495,-0.2837851237826373,1.2733180530614454,-1.757460527775051,2.0014809507896123,-0.8168024669794965,0.933087670569852,-0.2933287912601536,0.8008387108007613,-0.3179700609688085,0.7251242402761537,-0.1201354119668651,10.28052436677808,-1.189903678393828,0.2180548810070477,-1.158757894285542
1.44,1.2665197309096383,-1.7489500896793668,1.9986518712211032,-0.0180088165994279,0.1165235002302304,0.0439209404164915,-0.7295774987895969,0.8675957108650908,-0.2863607336949366,1.2733180530614454,-1.757460527775051,2.0014809507896123,-0.8168024669794965,0.933087670569852,-0.2933287912601536,0.6098447919856715,-0.214418643934372,0.5561932212770626,-0.1287804956149663,10.460372737119542,-1.1872177194841402,0.2146820030070745,-1.1642487057926314
1.46,1.251898810261465,-1.7315173816590668,1.992883209501975,-0.0138362381663803,0.1183987232562478,0.0441796749356631,-0.7322329076617067,0.8749806769560536,-0.2903786139913961,1.2651500283916504,-1.7481296510693525,1.998547662877011,-0.8368024672775197,0.9530876708678752,-0.2966638268524711,0.4408295660440321,-0.1327704436054899,0.369248304548142,-0.2008940148229748,10.33372640953712,-1.1851992583817892,0.2105001390254522,-1.168670497155282
1.48,1.237971985404126,-1.7148434819819025,1.9873156325867856,-0.0102555912988734,0.1200696993787473,0.044392464591815,-0.7336306057081737,0.8799396272603821,-0.2954802989520795,1.2488139790520605,-1.7294678976579556,1.992681087051808,-0.8768024678735662,0.9930876714639216,-0.3033338980371063,0.3625325412565077,-0.0698849023233527,0.2479475152164234,-0.2550842480341708,10.33372640953712,-1.183544680495303,0.2064283958844887,-1.171439905465613
1.5,1.223291955563338,-1.6972019036779005,1.9813401836798057,-0.0073336614949886,0.1212994454835147,0.0445530556116622,-0.7343321403851862,0.8841121408262531,-0.3018362216671162,1.2324779297124706,-1.7108061442465583,1.986814511226605,-0.9168024684696128,1.0330876720599682,-0.3100039692217415,0.3817714431434999,-0.0350767338506252,0.2086256782935502,-0.3177961357518355,10.258728863846043,-1.1826294396637569,0.2032359730627363,-1.1723900137040633
1.52,1.208602610698056,-1.6794824527152026,1.975230761362128,-0.005369464333666,0.121740722911447,0.0446409143453755,-0.7346430538033083,0.8877822650130753,-0.3088039221632304,1.2141418803430784,-1.6901443908053593,1.98061443184217,-0.956802469065659,1.0730876726560146,-0.3166740404063766,0.3940663932125356,-0.015545670906103,0.183506209341111,-0.3483850248057057,10.202882454726025,-1.1824901761213154,0.2010319528856193,-1.1718373200140826
1.54,1.193909935725616,-1.6616957872689353,1.9689802900296995,-0.0044448437218924,0.1212473159815962,0.0446490490152988,-0.7347197377632678,0.8908693764819181,-0.3158832640889297,1.195805830973686,-1.6694826373641598,1.9744143524577351,-0.9968024696617056,1.1130876732520611,-0.3233441115910118,0.3861774842988016,-0.0038341979979761,0.1543555734421386,-0.3539670962849683,10.170878485633692,-1.183001711612378,0.1999253640453832,-1.169981476518451
1.56,1.1792107413358135,-1.643841644923189,1.9625916383446775,-0.0044192909179194,0.1198607089620912,0.0445877190070264,-0.7352863609714078,0.8944232520626277,-0.3226178312215028,1.1764697815893927,-1.6478208839080593,1.9680475212936843,-1.036802470257752,1.1530876738481075,-0.330014182775647,0.3817901516746469,-0.0283311604069969,0.1776937790354815,-0.3367283566286516,10.165712175638872,-1.1848275790268583,0.1997334040722838,-1.1669071086161509
1.58,1.1652300935739133,-1.6268104526877858,1.956402762750476,-0.0049740758909766,0.1178937132928677,0.0444843311323015,-0.7364119869052533,0.8981605795403804,-0.3284977442620002,1.156133732190198,-1.6251591304370576,1.9615139383500175,-1.0768024708537982,1.193087674444154,-0.3366842539602822,0.3528740135753918,-0.0562812966922787,0.1868663738876341,-0.2939956520248699,10.182470625260976,-1.187293169303064,0.200205017617889,-1.1632027296990617
1.6,1.1504827701541271,-1.6088024637115366,1.949772276083665,-0.0059978087332688,0.1153274879915008,0.0443420494440413,-0.738357309209335,0.902459440614748,-0.3342142438605393,1.1284094942286509,-1.5819024237107668,1.939977875537376,-0.8148437720119123,0.9981605810304964,-0.3365856829134427,0.3706172320048276,-0.097266115204081,0.2149430537183805,-0.2858249799269546,10.20934864245828,-1.190231239942378,0.2011516061299049,-1.1591553810791388
1.62,1.135604105365256,-1.5906600381914862,1.9430830103371477,-0.0058105728120961,0.1152083985392188,0.0442636437148659,-0.7491566262245505,0.9112147245206774,-0.3341609087817059,1.1284094942286509,-1.5819024237107668,1.939977875537376,-0.8148437720119123,0.9981605810304964,-0.3365856829134427,0.695131442425071,-0.5399658507607763,0.4377641952964695,0.0026667539416658,10.232369101020597,-1.1906557644227092,0.2008470191463431,-1.1587954142620431
1.64,1.1205384443761968,-1.5723694799301215,1.9364026974257005,-0.0038765836462689,0.1195427198486561,0.0442748789689338,-0.7562910636959027,0.9173829450944928,-0.3339208585948061,1.1284094942286509,-1.5819024237107668,1.939977875537376,-0.8148437720119123,0.9981605810304964,-0.3365856829134427,0.4717116894144756,-0.3567218735676114,0.3084110286907637,0.0120025093449938,10.633576230779,-1.1825447703085636,0.1985058466164433,-1.1656620309821373
1.66,1.1053749034085836,-1.5539728669091604,1.92970938623707,-0.0013929869552852,0.126116109979807,0.0443168954524348,-0.7593450596772932,0.9218701507009662,-0.3354423244552029,1.1202610565085316,-1.5719208179004618,1.9366120187082412,-0.8305301290332441,1.0181605813285195,-0.3382032706437312,0.2818544126560266,-0.1526997990695222,0.2243602803236766,-0.0760732930198404,10.584391981326917,-1.1736892360604123,0.1955937194681914,-1.174654486543678
1.68,1.0909486896070235,-1.536430027153921,1.9233054060789905,0.0006623184650808,0.1329751135186095,0.0443394348493376,-0.7588850609766393,0.9246842612894712,-0.3385994123824001,1.1039641810682932,-1.551957606279852,1.9298803050499724,-0.8619028430759076,1.0581605819245663,-0.3414384461043082,0.2127088467189023,0.0229999350326914,0.1407055294252557,-0.1578543963598605,10.474674957180468,-1.1652300887162803,0.1930478959484012,-1.1830573912270288
1.7,1.0758029843658,-1.5179144667508329,1.916485150226244,0.0020606869699123,0.1397383511277137,0.0443115404078419,-0.7555805863839415,0.926833526321038,-0.3433310539076865,1.087667305628055,-1.531994394659242,1.923148591391704,-0.8932755571185712,1.0981605825206129,-0.3446736215648852,0.3079258191249773,0.165223729634889,0.1074632515783324,-0.2365820762643217,10.378142451790154,-1.158175774008473,0.191397589287886,-1.1900865994123004
1.72,1.0607489652859767,-1.4993633881043114,1.9095583155928484,0.0023010514467839,0.1452348560144139,0.0441961910909872,-0.7500446870220151,0.9283546613114692,-0.3491182680614372,1.0698017944856837,-1.5100311830088298,1.916255118960406,-0.9246482711612348,1.138160583116659,-0.3479087970254622,0.4075901160046224,0.2767949680963222,0.0760567495215636,-0.2893607076875359,10.307534464185665,-1.1533481807206345,0.1910191616305875,-1.1945772875429548
1.74,1.0465652981533913,-1.4817145794004416,1.9028687835800384,0.0011979321929152,0.1488834964111025,0.0439815075977865,-0.7433803780992773,0.9295257392292644,-0.3547494247668473,1.0519362833433124,-1.4880679713584175,1.9093616465291083,-0.9560209852038984,1.1781605837127056,-0.3511439724860392,0.4401544125307484,0.3332154461368919,0.0585538958897513,-0.2815578352705045,10.26471957217018,-1.1505854006650291,0.1921669219468537,-1.196880821025296
1.76,1.031775571875182,-1.4631009180718408,1.8957155969602444,-0.0012364950690371,0.1510234942330112,0.0436548133076036,-0.7360464723622862,0.9319184475976492,-0.3602445855939897,1.0332864543498743,-1.4651047596931042,1.902387294711296,-0.987393699246562,1.218160584308752,-0.3543791479466163,0.4735715870155486,0.3666952868495554,0.1196354184192394,-0.2747580413571204,10.296795518489487,-1.1505433706599195,0.1948147044288239,-1.1969099779668906
1.78,1.0171327845004956,-1.444415638528169,1.8884612954851216,-0.0041886835100902,0.1515967808523584,0.0432878053287924,-0.7287029169408702,0.9365983175587512,-0.3648668293774885,1.0138523075053696,-1.4411415480128895,1.8953320635069697,-1.0187664132892256,1.2581605849047983,-0.3576143234071933,0.4929354082289233,0.3671777710707979,0.2339934980551017,-0.2311121891749396,10.296795518489487,-1.1522249802646587,0.1980299971107986,-1.1956227976520029
1.8,1.0026357345201982,-1.42561895748489,1.8811247400336804,-0.0067777068022112,0.1507248660949807,0.0429513342604206,-0.7214443494165321,0.9427583848959652,-0.3685127686821959,0.980697638653452,-1.3975857226502315,1.8702179540162471,-0.7713003970591449,1.0365983190488672,-0.361591332492308,0.5097207704174874,0.3629283762169033,0.3080033668607096,-0.1822969652353706,10.347700510179491,-1.1552620233519988,0.2007366215719564,-1.1939549726651686
1.82,0.988902773024541,-1.4075826704064025,1.874129610480976,-0.0066504595888273,0.1515683835008615,0.0427990363421597,-0.7237629865700722,0.9545258417349788,-0.3676794795097609,0.980697638653452,-1.3975857226502315,1.8702179540162471,-0.7713003970591449,1.0365983190488672,-0.361591332492308,0.601131203550266,-0.115931857677004,0.5883728419506684,0.041664458621754,10.402166047384526,-1.1585603431253133,0.2009785405814345,-1.1964853986607924
1.84,0.9744384675920706,-1.3883985739117726,1.8667875761950057,-0.0034075226319939,0.1561087688036482,0.0428310491790101,-0.7220558763752729,0.9628702651685884,-0.3665990909297694,0.980697638653452,-1.3975857226502315,1.8702179540162471,-0.7713003970591449,1.0365983190488672,-0.361591332492308,0.4292751656581686,0.0853555097399649,0.4172211716804874,0.0540194289995743,10.691810356175663,-1.1525625486933353,0.1971889895523073,-1.204414083593118
1.86,0.9600477250286468,-1.3690911417163438,1.8594539672661616,0.0007852419189551,0.1624621270442189,0.0429342427063706,-0.7167820379078741,0.9673493507737708,-0.3668511869961554,0.9729846346828606,-1.3872197394597428,1.866602040691324,-0.7798198930827999,1.0565983193468904,-0.3609362331152719,0.3461904550440947,0.2636919233699408,0.2239542802591199,-0.0126048033192993,10.675922456226544,-1.1467742673705863,0.1927209444491313,-1.2138007088589098
1.88,0.9458000898839168,-1.3497197708618376,1.8520999286170563,0.0045096504019958,0.1692339738646869,0.0430208999067808,-0.7080956308231989,0.969738732674054,-0.368564588830559,0.9575586267416776,-1.3664877730787657,1.8593702140414776,-0.7968588851301097,1.096598319942937,-0.3596260343611998,0.4585263344461083,0.4343203542337581,0.119469095014163,-0.0856700917201802,10.600469152189362,-1.140964475338179,0.1884831190001936,-1.2226503821537584
1.9,0.9324529987628128,-1.3312829671313098,1.8450712172291623,0.007197668125025,0.175044216635552,0.0430515568230184,-0.6972922024515964,0.971092220409268,-0.3712249882223161,0.9421326188004948,-1.3457558066977882,1.852138387391632,-0.8138978771774196,1.1365983205389834,-0.3583158356071276,0.5604099360142156,0.5401714185801265,0.0676743867607021,-0.1330199695878553,10.531412459665262,-1.1368470861937996,0.1852959935246028,-1.2298821865393708
1.92,0.9186449608354528,-1.311852809109884,1.8376123259292685,0.0090335475919238,0.179842231122529,0.0430082583522772,-0.684088486192372,0.9720182008003312,-0.3745435311310207,0.9258546612569464,-1.3230238402870085,1.8449720706794888,-0.8309368692247294,1.1765983211350295,-0.3570056368530554,0.6822907917003845,0.6601858129612226,0.0462990195531531,-0.1659271454352295,10.48767231875081,-1.134985608739083,0.1832967452723121,-1.235166473594045
1.94,0.9051171751837992,-1.2924102255689451,1.830087533153028,0.0096920311723867,0.1828606796649744,0.0428633962109256,-0.6695357625978668,0.9723848829486916,-0.3777595183911508,0.909576703713398,-1.3002918738762288,1.8378057539673467,-0.8479758612720394,1.2165983217310763,-0.3556954380989832,0.7454173225001401,0.7276361797252551,0.0183341074180165,-0.1607993630065085,10.474247747429215,-1.1353136753283255,0.1826355139515619,-1.238303592370123
1.96,0.8925399731671737,-1.2739272232982874,1.8228859781768625,0.0093284215637061,0.1839998430621853,0.0426341021955654,-0.6552856937124802,0.9732284659000676,-0.3801274945687018,0.8928727713686669,-1.276559907450548,1.830672192224056,-0.8650148533193492,1.2565983223271229,-0.354385239344911,0.7235043306911936,0.7125034442693301,0.0421791475688104,-0.1183988088775483,10.494508732163013,-1.1380556289395094,0.1831420004799972,-1.2396280284070451
1.98,0.8795939348429999,-1.2544495527471708,1.8152659792894303,0.0081337369958951,0.1834270223510963,0.0423148194346048,-0.6401517690851507,0.9745445441147076,-0.3816964117039255,0.875742864222753,-1.251827941009966,1.823571385449617,-0.8820538453666591,1.296598322923169,-0.3530750405908388,0.7635922299728108,0.7566962313664771,0.0658039107319985,-0.0784458567611834,10.541597566689234,-1.1427973599258132,0.1845815400119617,-1.239130917042163
2.0,0.8669520788743228,-1.2349380160528367,1.8076266132662036,0.0063139048403613,0.1808942007650816,0.0419360144889393,-0.6249044071853235,0.9765863203644556,-0.3820999133626788,0.8475863463887423,-1.2057223255414355,1.796181158704234,-0.6744792835547743,1.074544545604824,-0.3555498507965616,0.7694376335138446,0.7623680949913614,0.1020888124873942,-0.0201750829376679,10.598004022702298,-1.149950022616652,0.1867642231998529,-1.237494829199873
2.02,0.8545689835139875,-1.2153260735587534,1.8000148579671025,0.0058329713235486,0.177585844363243,0.0416480260870853,-0.6144596225467833,0.9840991245860295,-0.3789013016274795,0.8475863463887423,-1.2057223255414355,1.796181158704234,-0.6744792835547743,1.074544545604824,-0.3555498507965616,0.6628854924678526,0.5222392319270075,0.3756402110786982,0.1599305867599681,10.663837732702632,-1.1596763417454243,0.1878054647757712,-1.2401172519999428
2.04,0.8429904592349889,-1.196579074881928,1.7928630678315818,0.0073620526330178,0.1752263052976287,0.0415107817551821,-0.6049215863396871,0.9888147735327558,-0.3740984085055802,0.8475863463887423,-1.2057223255414355,1.796181158704234,-0.6744792835547743,1.074544545604824,-0.3555498507965616,0.5836935454864721,0.4769018103548128,0.2357824473363134,0.2401446560949649,10.880372146084484,-1.1656622304013082,0.1861163323496743,-1.24301592960956
2.06,0.8309970331028742,-1.176767552900892,1.7854396785920232,0.0098731029963508,0.17338179224348,0.0414210505183588,-0.5949706094499387,0.9919546271920876,-0.368476255549283,0.8408415535531946,-1.1949768800853873,1.7926256601962685,-0.681344786448699,1.094544545902847,-0.3503205386150888,0.5926407552774388,0.4975488444874165,0.156992682966589,0.2811076478148572,10.973684218582092,-1.1711875393981008,0.1833528808391579,-1.246898121931676
2.08,0.8192041574114431,-1.15691761443227,1.7781315096186212,0.0123303802283938,0.1719512329491583,0.0413177003705475,-0.5848379860528414,0.992935660278811,-0.3626166797985124,0.8273519678820991,-1.173485989173291,1.7855146631803371,-0.6950757922365484,1.1345445464988937,-0.3398619142521432,0.5872970091948128,0.5066311698548653,0.0490516543361685,0.2929787875385309,11.007289923703864,-1.175954174047402,0.1805637509401744,-1.25027529634295
2.1,0.8076180783004651,-1.1370617718975748,1.7709422982956848,0.0140351053498537,0.1705514706086809,0.0411503205593655,-0.5743281646249799,0.992741140588835,-0.3565882929965965,0.8138623822110036,-1.1519950982611944,1.7784036661644058,-0.7088067980243978,1.17454454709494,-0.3294032898891977,0.605878766315587,0.5254910713930749,-0.0097259844987984,0.3014193400957959,11.022711202133904,-1.180428138752378,0.1786749483458748,-1.2529539732347756
2.12,0.7968097920941468,-1.118211991623088,1.7642273334272154,0.014574461058686,0.1688589139781298,0.0409028060913582,-0.563998362126097,0.9916536522059528,-0.3505475889337001,0.7996862462505157,-1.1285042073192957,1.771815600366622,-0.7225378038122473,1.2145445476909864,-0.3189446655262521,0.6007860605580081,0.5164901249441467,-0.0543744191441042,0.3020352031448181,11.036462322968871,-1.185612230054907,0.1779518854983003,-1.2546978376591518
2.14,0.7856465626542352,-1.0983984452990954,1.7572892616260267,0.0136225601616852,0.1663192295176819,0.040522034081637,-0.5529462031776973,0.9899237767488448,-0.3435378655573099,0.7855101102900277,-1.1050133163773967,1.765227534568838,-0.7362688096000967,1.254544548287033,-0.3084860411633066,0.660073685908074,0.5526079474199863,-0.0864937728554005,0.350486168819511,11.059126301252036,-1.1918402175486182,0.179022137686612,-1.2550328735272474
2.16,0.7747018227234538,-1.0786099324882843,1.7505017379443846,0.0111158429145404,0.162705416247901,0.0400243677063518,-0.5422077599238977,0.9891831424699116,-0.3355122451448624,0.7709906991848435,-1.0805224254205967,1.7589009343801276,-0.7499998153879461,1.2945445488830791,-0.298027416800361,0.671329437859868,0.5369221626899789,-0.0370317139466724,0.4012810206223738,11.160911240180212,-1.1995359502231808,0.1819302775016564,-1.254819393434646
2.18,0.7639645030718462,-1.058811875184246,1.7438892589827948,0.0078318528298916,0.157874475391429,0.0394762997769312,-0.5322651519445095,0.9908428804439912,-0.3261301183295068,0.7561280129349631,-1.0550315344488956,1.752835799800491,-0.7637308211757955,1.3345445494791257,-0.2875687924374155,0.6885391912480557,0.4971303989694087,0.0829868987039905,0.4691063407677803,11.160911240180212,-1.2085268637816726,0.1856283495412325,-1.2547576329335477
2.2,0.7539325931420107,-1.0399542139344924,1.7377937367463352,0.0049047722069377,0.1522811141852074,0.0389830724369233,-0.5245258371092183,0.994020594234426,-0.3159649095468191,0.7373512454746207,-1.0092697311620464,1.7275827530663197,-0.5783096394506607,1.0908428819341074,-0.2769344152104673,0.658267287371376,0.3869657417645611,0.1588856895217316,0.5082604391343837,11.234534459614224,-1.2204088888378006,0.1894949458272671,-1.255624124178628
2.22,0.7434923610975515,-1.0199675861767266,1.7315858029622753,0.0043807523733932,0.1462238740191342,0.0386582014189248,-0.5200913913404636,1.0037887140578952,-0.3053914450389089,0.7373512454746207,-1.0092697311620464,1.7275827530663197,-0.5783096394506607,1.0908428819341074,-0.2769344152104673,0.7531245346251115,0.2217222884377367,0.4884059911734628,0.5286732253955095,11.31159258225398,-1.2329428116522183,0.1905372687784932,-1.2595862627304084
2.24,0.7331258891043594,-0.999823646654454,1.725603689930613,0.0070228929612827,0.1406453372120384,0.038545467576714,-0.516922473106111,1.0098510999778816,-0.2932668050274583,0.7373512454746207,-1.0092697311620464,1.7275827530663197,-0.5783096394506607,1.0908428819341074,-0.2769344152104673,0.6960629663078858,0.1584459117176306,0.3031192959993212,0.6062320005725347,11.30233848509488,-1.242015650046309,0.1875179868833217,-1.2614399355791608
2.26,0.7228079746870117,-0.9796012309396602,1.7198739610095215,0.010718466692061,0.1357009865397548,0.0384844071389243,-0.5151812235917407,1.0119388156112934,-0.2803251944433284,0.7315681490801141,-0.9983613023427054,1.7248134089142149,-0.5875185369518909,1.1108428822321306,-0.2670952745866594,0.6612030530566017,0.0870624757185134,0.1043857816705906,0.6470805292064924,11.40790561763697,-1.2499101845983538,0.1834294735871953,-1.2637131521939482
2.28,0.7130244683802599,-0.96037941560976,1.714673532872404,0.0137402318248599,0.1318472935987281,0.0383779529255727,-0.5148664243236709,1.0115301224979965,-0.2677393182559386,0.7200019562911009,-0.9765444447040232,1.7192747206100054,-0.6059363319543515,1.1508428828281771,-0.2474169933390435,0.6298222130973518,0.0157399634034882,-0.0204346556648471,0.6292938093694883,11.45203044772461,-1.2563494946807297,0.1795497983742043,-1.2660744281667222
2.3000000000000003,0.7027205300446085,-0.9401665669519896,1.7094611683919447,0.0158785877143787,0.128940775137742,0.0381927549468741,-0.5156482687278129,1.0100014369612966,-0.2541459884602598,0.7084357635020877,-0.9547275870653412,1.7137360323057962,-0.6243541269568119,1.1908428834242235,-0.2277387120914277,0.6850671045169473,-0.0390922202070986,-0.0764342768349912,0.6796664897839422,11.47607886656715,-1.2603251734851924,0.1767778718471528,-1.2690993715621846
2.32,0.6923928073966417,-0.9199929222066022,1.7045236168063187,0.0167101821287928,0.1274098788384365,0.0379301889508436,-0.517030573040975,1.0075861223153315,-0.240287257309834,0.6959486809629515,-0.9309107293968566,1.7091812580639676,-0.6427719219592724,1.23084288402027,-0.2080604308438119,0.706768949432878,-0.0691152156581054,-0.1207657322982558,0.6929365575212884,11.50577134454943,-1.2610105075184603,0.1753712620742992,-1.2735222641083144
2.34,0.68204417073204,-0.8998771377056262,1.6998663248074313,0.0157629003391657,0.1269940760093649,0.0375609127841825,-0.5176844659687179,1.0044234470694775,-0.2261463617836781,0.6834615984238153,-0.9070938717283722,1.704626483822139,-0.6611897169617329,1.2708428846163164,-0.1883821495961961,0.7252499861312424,-0.0326946463871435,-0.1581337622927003,0.7070447763077969,11.54821914729382,-1.2598930433136222,0.1759201928340169,-1.2782552233075122
2.36,0.6722069426560681,-0.8808159113876626,1.6957084386232368,0.0132371758995837,0.1271906431290205,0.0371088345875926,-0.5177363306390222,1.0024102777463266,-0.2122443965114305,0.6705140710096175,-0.8822770140449865,1.7005636666115007,-0.6796075119641933,1.3108428852123628,-0.1687038683485803,0.7023535062532241,-0.002593233515219,-0.1006584661575438,0.6950982636123787,11.583088164909896,-1.258439239225053,0.1785943171411804,-1.2838483943538863
2.38,0.6618571520067765,-0.8607658272015964,1.6916246269325894,0.0096700705738425,0.127704575007177,0.0365784479249994,-0.5172051867061144,1.002950049317994,-0.1968469945448985,0.6571060987203582,-0.8564601563466997,1.696992806432053,-0.6980253069666538,1.3508428858084092,-0.1490255871009645,0.7708006463185011,0.0265571966453936,0.0269885785833645,0.7698700983265985,11.583088164909896,-1.2569800480310147,0.182501183255106,-1.290688559735544
2.4,0.6515234650054119,-0.8406809188865073,1.6878560819125217,0.0062332164139754,0.1282798975206667,0.0360632359496541,-0.5161711371470507,1.0055170592246545,-0.1807698281545169,0.6359968926714709,-0.8106183247356967,1.6817822772053446,-0.5462293350660091,1.0621181981038237,-0.1505800438779941,0.8156808160909365,0.051702477953186,0.1283504953330183,0.8038583195190837,11.639612630812737,-1.2561930864145097,0.1862260355506911,-1.29854223049424
2.42,0.6416616069289348,-0.8213425265378337,1.6844835424966755,0.0099184818402384,0.1301801241072258,0.0360709094346611,-0.5213730869838569,1.0261433140136158,-0.175063982539631,0.6359968926714709,-0.8106183247356967,1.6817822772053446,-0.5462293350660091,1.0621181981038237,-0.1505800438779941,1.101203140779119,-0.2600974918403109,1.031312739448076,0.2852922807442926,11.691958573950616,-1.2659030809122247,0.1830928137337771,-1.318348264815537
2.44,0.6312087016852257,-0.800747552855347,1.6810529516870496,0.0205975418202388,0.1342280631083472,0.0365893549174705,-0.5232794154911138,1.0312586221717526,-0.1682276252626909,0.6359968926714709,-0.8106183247356967,1.6817822772053446,-0.5462293350660091,1.0621181981038237,-0.1505800438779941,0.4374249842780278,-0.0953164253628457,0.2557654079068383,0.3418178638470062,11.14632242607604,-1.257521361519815,0.1694414407907303,-1.3302383963381532
2.46,0.6207501545440962,-0.7801506805641817,1.677754969430796,0.0319079659190425,0.1391416304818998,0.0372044125081491,-0.5222830484965042,1.0281348930436351,-0.1619563056189613,0.6305345993208108,-0.7999971427546585,1.6802764767665646,-0.552034164737988,1.0739518278609894,-0.1413266537446132,0.3538356996107997,0.0498183497304793,-0.1561864564058712,0.3135659821864811,11.14632242607604,-1.2505197341809893,0.1557110622361478,-1.340188548650297
2.48,0.6108574440064475,-0.7606886142238036,1.6747307086754195,0.0412457997302576,0.1438183172043608,0.0377243377038564,-0.5190318823961934,1.0210108988220388,-0.1567135281028862,0.6196100126194906,-0.778754778792582,1.6772648758890047,-0.563643824081946,1.097619087375321,-0.1228198734778514,0.4711902237000758,0.1625583050155421,-0.3561997110798187,0.2621388758037524,11.117434965457504,-1.2435592680654213,0.1429567306801954,-1.3484204415360284
2.5,0.6005314848572717,-0.7403722358157703,1.6716529864235947,0.0489950300317736,0.1481479347092075,0.0381261579335023,-0.5136738543252641,1.0113037146705752,-0.1513316708171919,0.6086854259181704,-0.7575124148305056,1.674253275011445,-0.5752534834259039,1.121286346889653,-0.1043130932110896,0.6162432084876713,0.2679014035464611,-0.4853592075731772,0.2690928642847173,11.09540166554325,-1.237775762495389,0.1328299896425883,-1.3542888174640249
2.52,0.5903296149963706,-0.72026531909494,1.668685122356353,0.0545498636740624,0.1514579624835395,0.0383351213460032,-0.5067916433793005,1.00023293134683,-0.1456942647112677,0.5971803562496524,-0.7350866878927125,1.6721670131472233,-0.5868631427698617,1.144953606403985,-0.0858063129443278,0.7101186846386491,0.344110547298182,-0.5535391661872668,0.2818703052962057,11.110598063561156,-1.2339083608591668,0.1257556826215089,-1.3580104203490933
2.54,0.5802772807173009,-0.7003889855131412,1.6658343249259462,0.058022531404925,0.1534862651885359,0.0383269096895767,-0.4989265386318003,0.9884875885378682,-0.1396438997944275,0.5856752865811343,-0.7126609609549194,1.6700807512830014,-0.5984728021138197,1.1686208659183166,-0.0672995326775661,0.7687975448973995,0.3932552373750064,-0.5872671404480834,0.3025182458420108,11.144843987782224,-1.2320665811113838,0.1208467815895095,-1.361247508525539
2.56,0.5708760852100797,-0.6817208196100567,1.663246094122215,0.059845974705184,0.1542272807993354,0.0381394102683718,-0.4912021975159356,0.977462197609352,-0.1330891990805018,0.5738799754290173,-0.689643552529268,1.6684571589254489,-0.6100824614577776,1.1922881254326485,-0.0487927524108043,0.7486467662556013,0.3862170557932393,-0.5512695464258144,0.3277350356962888,11.179457904022456,-1.2321898747119546,0.1179252059836631,-1.363542980988536
2.58,0.5611379929008723,-0.662297044088665,1.660667035395615,0.0604806448507946,0.1538974569668361,0.0377760294383244,-0.4830983420735141,0.9656062217720788,-0.1251024711935917,0.5617944227933013,-0.6660344626157584,1.6672962360745651,-0.6216921208017355,1.2159553849469802,-0.0302859721440425,0.8216210477239786,0.4051927721210741,-0.5927987918636635,0.399336394345505,11.237286341158324,-1.2336024263781211,0.1166146826844499,-1.3645321281367313
2.6,0.5515611946963345,-0.6431149356667412,1.658260107624463,0.0596521869027902,0.1525074926772985,0.0372388860551087,-0.4750677929197021,0.9533380780479036,-0.1159285449348252,0.5369830757971966,-0.614016733000061,1.6544119118359355,-0.5030252067273399,0.9813189542212526,-0.0931072827487388,0.8648092176169475,0.4015274576906008,-0.6134071862087587,0.4586963129383239,11.38687643373214,-1.235838216573272,0.1170096678180035,-1.3644180989830146
2.62,0.5425387007089144,-0.624943636209557,1.6560052915033945,0.0627767372828041,0.1514098107825044,0.0370079010312042,-0.4748963721830617,0.9572776388575912,-0.1220198437746072,0.5369830757971966,-0.614016733000061,1.6544119118359355,-0.5030252067273399,0.9813189542212526,-0.0931072827487388,0.3628134713516925,0.0085710368320168,0.1969780404843801,-0.3045649419890994,10.355908923897914,-1.253829256436107,0.1137437717412312,-1.373939726635647
2.64,0.5330551203961659,-0.6058660287107642,1.6535098286082244,0.0705175763594087,0.1515398019049566,0.0371362981774413,-0.4732797418385701,0.9496472123203936,-0.12704803083795,0.5369830757971966,-0.614016733000061,1.6544119118359355,-0.5030252067273399,0.9813189542212526,-0.0931072827487388,0.464003146417857,0.0808315172245832,-0.3815213268598794,-0.251409353167141,10.355908923897914,-1.2507874440893842,0.103298532147136,-1.367036689211173
