t,x,y,z,roll,pitch,yaw,v_x,v_y,v_z,ref_x,ref_y,ref_z,ref_v_x,ref_v_y,ref_v_z,a_com,a_x,a_y,a_z,thrust,wind_x,wind_y,wind_z
0.0,-1.289651451008884,-0.3678413616252392,1.8495110566990416,0.0213675483423611,0.1364905096723773,0.0264940611327249,0.0049912268432495,0.0056516567558221,0.0028250951928374,-1.2895011071969051,-0.3676126128391009,1.849599971776008,0.1050054056946816,0.0609791806278193,-0.0819517625460369,0.4026000879750214,0.249561342162478,0.2825828377911066,0.1412547596418706,10.54589596711321,-1.2881304772609476,0.154578252614644,-1.1697958671596669
0.02,-1.289649449989856,-0.367872330564184,1.8493867759992717,0.018637062129231,0.1388421732243425,0.026346025709597,-0.0045813820490827,-0.0073608806896881,-0.0161266077332816,-1.2895011071969051,-0.3676126128391009,1.849599971776008,0.1050054056946816,0.0609791806278193,-0.0819517625460369,1.2451184838964469,-0.4786304446166141,-0.6506268722755121,-0.9475851463059524,10.546612627115792,-1.3009212487209896,0.1582723280454644,-1.1649477021227883
0.04,-1.2898080123290108,-0.3680776164423386,1.848837030630372,0.0104740994121958,0.1444727101490548,0.0258611859592699,-0.0111867852600147,-0.0122370685670275,-0.0406409020458574,-1.2895011071969051,-0.3676126128391009,1.849599971776008,0.1050054056946816,0.0609791806278193,-0.0819517625460369,1.2926321841862936,-0.3302701605465989,-0.2438093938669745,-1.225714715628792,9.414120252555676,-1.2894175597122115,0.1665620006106232,-1.154038482900772
0.06,-1.29007239100226,-0.3683054620950363,1.8477593937928152,0.0004959040242199,0.1521309879936492,0.0252198030734578,-0.014544393447738,-0.010005760388233,-0.0657797598595372,-1.2884510531399582,-0.3670028210328228,1.8487804541505477,0.1250054059927048,0.0717534890708888,-0.0989275990018589,1.2730027897725027,-0.1678804093861696,0.1115654089397254,-1.2569428906839877,9.1055650938506,-1.2772443370589777,0.1763039463039316,-1.14526331953063
0.08,-1.2903710997539262,-0.3684429971110759,1.8461928762382669,-0.0088635490857273,0.1604870534499807,0.0245555755319616,-0.0148677777540036,-0.0038606764570643,-0.0895625476960016,-1.2863509450260646,-0.3657832374202663,1.847141418899627,0.1650054065887513,0.0933021059570277,-0.1328792719135029,1.228299262399973,-0.0161692153132786,0.3072541965584349,-1.1891393918232211,9.140759183204864,-1.2667866913503831,0.1854046479709583,-1.138671128213707
0.1,-1.290648870838708,-0.3684305524089385,1.8441661854410187,-0.0168802505325303,0.1689440396711543,0.0239226578864849,-0.0126567417441165,0.0045815019074558,-0.1119320884364294,-1.284250836912171,-0.36456365380771,1.845502383648706,0.2050054071847977,0.1148507228431666,-0.1668309448251469,1.2005784113428923,0.1105518004943541,0.4221089182260105,-1.1184770370213897,9.285503927639184,-1.2589313139365663,0.1928350943923293,-1.1344817973301649
0.12,-1.2908510781563058,-0.3682482972160245,1.84183755561092,-0.0231830448465398,0.1767859556063754,0.0233704849251392,-0.0085600905302627,0.0139618308469221,-0.1320781073704686,-1.280150728768475,-0.3622666393508467,1.8421657647522032,0.2450054077808441,0.1363993397293055,-0.2007826177367909,1.1298619396537182,0.2048325606926911,0.4690164469733168,-1.0073009467019591,9.285503927639184,-1.2526898592144051,0.1993438991177066,-1.1317118793730383
0.14,-1.2909625794571264,-0.3678565660298868,1.8389730795885888,-0.0285992064000836,0.1846925738923697,0.022846949567969,-0.002623765775441,0.0246100095821806,-0.1533196825307748,-1.276050620624779,-0.3599696248939834,1.8388291458557,0.2850054083768907,0.1579479566154444,-0.2347342906484349,1.2245694929889193,0.2968162377410858,0.532408936762923,-1.0620787580153084,9.352139662623811,-1.2488261414460158,0.204716924540818,-1.1302992414714732
0.16,-1.290939519025006,-0.3672399411665258,1.835684149865362,-0.0328076205476732,0.1921790256719284,0.0223950933350405,0.0047966270682809,0.0363386191911287,-0.1745094208437701,-1.270950512466182,-0.3571338950149665,1.8346437351364064,0.3250054089729371,0.1794965735015833,-0.2686859635600789,1.2665183803319768,0.3710196421861005,0.5864304804474064,-1.0594869156497668,9.352893712402874,-1.2466705682702068,0.2090058369484781,-1.1303283793784449
0.18,-1.2907536261554864,-0.366381077644954,1.8319729401276943,-0.0357956002725178,0.1992232680607227,0.0220294046922064,0.0135713346292623,0.0486707704725271,-0.1955536269986868,-1.2648504042926836,-0.3537594497137962,1.829609532594321,0.3650054095689835,0.2010451903877222,-0.3026376364717228,1.2960864754123032,0.4387353780490703,0.6166075640699181,-1.0522103077458365,9.363995562813216,-1.245841318319658,0.2119910219712555,-1.130735112152955
0.2,-1.2904025443704108,-0.3653338452733083,1.8280594124388017,-0.0376422315090041,0.2055064841956274,0.0217616723714352,0.0230639965927123,0.0607186201909453,-0.2153449076558427,-1.2900750594240231,-0.3639475391213276,1.82219525877776,0.1135713361193784,0.0800615342917447,-0.2339800001526118,1.2519545758934625,0.4746330981724972,0.6023924859209131,-0.9895640328577926,9.37852270221265,-1.246044430701204,0.2141331510762037,-1.1312685994020737
0.22,-1.2897788484693888,-0.3638782088164836,1.82374551125806,-0.0355377568598225,0.2116043942888595,0.0217904536148341,0.0391938199526288,0.0833440033026965,-0.2138643690471544,-1.2900750594240231,-0.3639475391213276,1.82219525877776,0.1135713361193784,0.0800615342917447,-0.2339800001526118,1.3912864165471468,0.8064911679958285,1.1312691555875567,0.0740269304344135,9.396027392548604,-1.2362122906525852,0.2115358871785656,-1.1349386387711058
0.24,-1.288813870188069,-0.3620364299884616,1.8194949361138484,-0.0285826965544608,0.2171426072062058,0.0222120363422647,0.056575851881309,0.0986519698370783,-0.2114667935853896,-1.2900750594240231,-0.3639475391213276,1.82219525877776,0.1135713361193784,0.0800615342917447,-0.2339800001526118,1.1642779323278754,0.869101596434009,0.7653983267190932,0.1198787730882403,10.834429837463176,-1.2400503644706924,0.2058988900758511,-1.147712645753588
0.26,-1.2874965149106274,-0.3599562198086144,1.8152681877872263,-0.020555723806087,0.2222348478517645,0.0227621908890759,0.0743927360238825,0.1083445018961329,-0.2113459006833911,-1.2889393460628296,-0.3631469237784102,1.8198554587762337,0.1335713364174017,0.0863396870555883,-0.2416652747833967,1.014151311885262,0.8908442071286712,0.4846266029527299,0.0060446450999271,10.591281178241845,-1.2440840093824892,0.1986342030242006,-1.1603493777901848
0.28,-1.2859108211465555,-0.3578342820202541,1.8112367610701423,-0.0133326162053876,0.2267293260255705,0.0232973598148659,0.0917062751997258,0.1145578309202532,-0.2130483675499241,-1.286667919340442,-0.3615456930925753,1.8151758587731812,0.1735713370134481,0.0988959925832753,-0.2570358240449668,0.9236645627432638,0.8656769587921685,0.3106664512060153,-0.0851233433266526,10.591281178241845,-1.2483859729754825,0.191678889986014,-1.1726961301007868
0.3,-1.2838816991648678,-0.3554939029231511,1.8069428156212457,-0.0066536131668665,0.2311476158339684,0.0238285682798802,0.110361415433998,0.119194284093289,-0.2163438717389292,-1.2843964926180544,-0.3599444624067404,1.8104962587701288,0.2135713376094946,0.1114522981109624,-0.2724063733065367,0.9751555043246474,0.9327570117136073,0.2318226586517896,-0.1647752094502533,10.493377729195345,-1.2524200810290342,0.1855466894944233,-1.183650443345471
0.32,-1.2814747827732205,-0.3530766592371245,1.8025690690763363,-0.0010885151008131,0.2352788690793179,0.0243058784987916,0.1294708713445988,0.1224704849299195,-0.2208914108597294,-1.2801250658658645,-0.3577154164445212,1.8050481313039983,0.253571338205541,0.1240086036386495,-0.2877769225681067,0.9957219857675442,0.9554727955300428,0.1638100418315212,-0.2273769560400124,10.41894785666682,-1.2560482303510132,0.1804635071917296,-1.1935461486445795
0.34,-1.2786779952448029,-0.3506038242781469,1.798103935195358,0.0034168312216891,0.2391419524397816,0.0247253656133399,0.1493216878128041,0.1248296513166699,-0.2254235633286143,-1.2758536391136746,-0.3554863704823019,1.799600003837868,0.2935713388015875,0.1365649091663366,-0.3031474718296766,1.0248914411975074,0.9925408234102636,0.1179583193375209,-0.2266076234442415,10.366750779669928,-1.257685079988794,0.1764715947082071,-1.2017376252448262
0.36,-1.275646232375068,-0.3482149830424728,1.793780065271564,0.0068751483948201,0.24257425848519,0.0250760234510256,0.1688744056135602,0.1266247265143782,-0.2295196287139501,-1.2705822123465835,-0.3529434168818905,1.7937676126401978,0.3335713393976339,0.1491212146940237,-0.3185180210912466,1.0028818724086834,0.9776358900378048,0.0897537598854157,-0.2048032692667942,10.385607062620693,-1.2593279308594458,0.1731477857978854,-1.2099496811690529
0.38,-1.2720469035837714,-0.3456672179111199,1.7891452587453962,0.0098328454692406,0.2459502739134879,0.0254032863560203,0.1900934717780668,0.1281162024825851,-0.2337595346168741,-1.2643107855645914,-0.3500865556432869,1.7875509577109887,0.3735713399936803,0.1616775202217107,-0.3338885703528166,1.0844930515257996,1.060953308225329,0.0745737984103447,-0.2119952951461987,10.41264070840316,-1.2613246117237618,0.170582367727769,-1.217996945124854
0.4,-1.2680133011519092,-0.343094001881387,1.7844260685350826,0.0121876231251329,0.2489905528238245,0.0256899131579984,0.2122239944431625,0.1292284184057018,-0.2379701093172405,-1.262542229994868,-0.3392614077869906,1.7774572820145524,0.2900934732681829,0.1453561437666456,-0.2759669693903193,1.1277477521561652,1.1065261332547842,0.0556107961558333,-0.2105287350183185,10.43034873375018,-1.2632209394910845,0.1687240183171489,-1.2254459016460133
0.42,-1.263713330844091,-0.3406025955055541,1.7799235869351553,0.0148839812506273,0.2503330711224127,0.0259763857691609,0.2390313566957903,0.1323895202057519,-0.2357594432345602,-1.262542229994868,-0.3392614077869906,1.7774572820145524,0.2900934732681829,0.1453561437666456,-0.2759669693903193,1.354173437989952,1.340368112631393,0.1580550900025082,0.1105333041340125,10.446042766669962,-1.2623026400155517,0.1658738169838731,-1.230937894961319
0.44,-1.2586477003968846,-0.3379447596027542,1.7752244533170285,0.0181066423384134,0.2492891221628447,0.0262619992835274,0.265911742473909,0.1331554631812063,-0.234345317561233,-1.262542229994868,-0.3392614077869906,1.7774572820145524,0.2900934732681829,0.1453561437666456,-0.2759669693903193,1.3464226301964888,1.34401928890593,0.0382971487727215,0.0707062836663635,10.896175293568376,-1.2728041234748837,0.1633531703454479,-1.2424687838614468
0.46,-1.2530585248005406,-0.3352868489946382,1.7705389251376165,0.0209928199106863,0.2461843194123568,0.0264719053972846,0.2914799255975794,0.1326253904397921,-0.2343173601066711,-1.2596412952621865,-0.3378078463493242,1.7746976123206493,0.3100934735662061,0.1488041320234576,-0.2844084563450083,1.2786846239163132,1.2784091561835214,-0.0265036370707141,0.0013978727280927,10.732479917176532,-1.2837584969398497,0.1609329043705578,-1.24973375436641
0.48,-1.2469767602577555,-0.3326485607488737,1.7658409002235684,0.0233056720962027,0.2412487432971174,0.0265842119766226,0.3150807769666721,0.1313415058344283,-0.2354321356374106,-1.2538394257968226,-0.3349007234739913,1.769178272932843,0.3500934741622525,0.1557001085370818,-0.3012914302543863,1.1831010834981852,1.1800425684546367,-0.0641942302681886,-0.0557387765369732,10.732479917176532,-1.2965344200283542,0.1591847273257487,-1.2537914344298775
0.5,-1.2407919986388076,-0.330170836039983,1.7613494184582748,0.0249478672812276,0.2355472475265993,0.026611182370759,0.334529099138676,0.1296392619075175,-0.2372599430864895,-1.248037556331459,-0.3319936005986584,1.7636589335450366,0.390093474758299,0.162596085050706,-0.3181744041637644,0.9804026593237984,0.9724161086001936,-0.0851121963455395,-0.0913903724539449,10.66116445154148,-1.3104772583437263,0.1578632133480052,-1.2547209315478378
0.52,-1.2339144421521642,-0.3276021067156385,1.756576645437166,0.026056366181596,0.2293847337087574,0.0265777090477699,0.3519926210877805,0.1273543069159202,-0.2399391174017143,-1.240235686836293,-0.3287416788976443,1.7572954454617613,0.4300934753543454,0.1694920615643302,-0.3350573780731424,0.8907491133757031,0.873176097455225,-0.1142477495798668,-0.1339587157612398,10.594603743147673,-1.3232923403382153,0.1570983786153407,-1.2522060370247896
0.54,-1.2267165439321972,-0.3250854102628749,1.7517435328859443,0.0263325074706912,0.2238009111657393,0.0264927475576276,0.3668078542097072,0.1245328459557066,-0.243209447103613,-1.232433817341127,-0.3254897571966301,1.750931957378486,0.4700934759503919,0.1763880380779544,-0.3519403519825205,0.7716003349632553,0.7407616560963337,-0.1410730480106772,-0.1635164850949347,10.528202474448335,-1.3341223318998614,0.1571701795710517,-1.2485645202952114
0.56,-1.2196216563058206,-0.322747789028625,1.7470867568570378,0.0257186633232648,0.219453126973591,0.0263751797771385,0.3791830592619921,0.1217645695541393,-0.2467924750679609,-1.2236319478310598,-0.3220654360827754,1.7441463949474765,0.5100934765464383,0.1832840145915786,-0.3688233258918986,0.6588762093801703,0.6187602526142477,-0.1384138200783681,-0.1791513982173947,10.482113277804274,-1.3431890010248797,0.1581937345619505,-1.2444991374766627
0.58,-1.2130863440129256,-0.3206990938757955,1.7428594193045632,0.0244340521367434,0.2165928995451555,0.0262488820262251,0.3889414575582913,0.11945601398791,-0.2503673916180875,-1.2138300783060916,-0.3184687155560801,1.736938758168732,0.5500934771424848,0.1901799911052028,-0.3857062998012766,0.5322964269369829,0.4879199148149576,-0.1154277783114623,-0.1787458275063311,10.441625640846723,-1.349448591243939,0.1599086930028378,-1.2415598049860963
0.6,-1.2059984010032874,-0.3185689000142736,1.7383123240248688,0.0223457944963673,0.2149670557535239,0.0261045961519952,0.3980291926323376,0.1175079868377808,-0.2546445586098144,-1.193639271135011,-0.3147262931764,1.7303410497236589,0.4889414590484074,0.1300858597710245,-0.2726142012943771,0.5115561944420445,0.4543867537023183,-0.0974013575064582,-0.2138583495863433,10.405010167975888,-1.3532965434263005,0.1624684379743478,-1.2395560625016178
0.62,-1.1978706546552869,-0.3161890204813699,1.7333359917463254,0.0208848908740307,0.2141911813019865,0.0260342520176657,0.4145149946811446,0.1202125315253481,-0.2419186216225674,-1.193639271135011,-0.3147262931764,1.7303410497236589,0.4889414590484074,0.1300858597710245,-0.2726142012943771,1.0500544073557276,0.8242901024403476,0.1352272343783607,0.6362968493623472,10.3665951381372,-1.3473554051270271,0.163620764888299,-1.2359566226136924
0.64,-1.1894110794772483,-0.313764911444475,1.7286265319596614,0.0211966646292278,0.2135914841916411,0.0260929773787518,0.4305422557910092,0.1219397549042031,-0.2299117741967384,-1.193639271135011,-0.3147262931764,1.7303410497236589,0.4889414590484074,0.1300858597710245,-0.2726142012943771,1.0050134133326012,0.8013630554932316,0.0863611689427508,0.6003423712914485,11.539620651869882,-1.3529537531739773,0.1639988999007388,-1.25103070999179
0.66,-1.1806393727458822,-0.3113137842661082,1.7241243627602472,0.0227342741130824,0.2132387361609365,0.0262403972749238,0.4458337147054907,0.1229857039174548,-0.2209170813548406,-1.188749856544527,-0.3134254345786898,1.727614907710715,0.5089414593464306,0.1322118289276473,-0.277063563229635,0.8885764238258952,0.7645729457240763,0.0522974506625847,0.4497346420948914,11.37109919656723,-1.3573153503484,0.1629429276634597,-1.2634967334989575
0.68,-1.1720281435510147,-0.3089746790154312,1.719991778048694,0.0250314434293247,0.2130669437077339,0.0264383327329659,0.4598523938297852,0.1230587659750659,-0.2145535076969496,-1.1789710273635587,-0.3108237173832693,1.7221626236848275,0.548941459942477,0.1364637672408931,-0.2859622871001508,0.7697788191318256,0.7009339562147221,0.0036531028805589,0.3181786828945487,11.080334303200289,-1.3614267912809148,0.1606957060327567,-1.2741551123872703
0.7000000000000001,-1.1626807440473486,-0.3065300777768402,1.71575460095215,0.0277075705778962,0.2130474694990285,0.0266628523377264,0.4741418123850189,0.121329850041713,-0.2095839287262236,-1.1691921981825906,-0.3082220001878488,1.71671033965894,0.5889414605385235,0.1407157055541389,-0.2948610109706666,0.7613694045887668,0.7144709277616845,-0.0864457966676481,0.2484789485363028,11.080334303200289,-1.3646700839137298,0.1579864129245775,-1.2825095549867829
0.72,-1.1530507634658456,-0.3041335125819291,1.711600566243895,0.0300307255890399,0.2131932445646098,0.0268611477580472,0.4881433723308536,0.1184717586066695,-0.2061327246261004,-1.1574133689718202,-0.305407686076766,1.7108131194395266,0.62894146113457,0.1449676438673847,-0.3037597348411824,0.7350564218285897,0.700077997291737,-0.142904571752174,0.17256020500616,10.9833766887632,-1.3662603102487825,0.1555116752885923,-1.2889101278696533
0.74,-1.1431412616728545,-0.3018018874340428,1.707508834289241,0.0317666877089744,0.2134693259138151,0.027016867748689,0.5021235912221713,0.11496418210978,-0.2032170916070124,-1.1456345397610497,-0.3025933719656833,1.7049158992201134,0.6689414617306164,0.1492195821806304,-0.3126584587116983,0.7352729578746308,0.6990109445658838,-0.1753788248444757,0.1457816509543991,10.902801094074675,-1.367350612318866,0.1537425472109383,-1.2938606962692814
0.76,-1.1334630159076506,-0.2996561326554138,1.703672232414106,0.0327896319198821,0.2136655394152456,0.0271144865367685,0.515903683657021,0.1111598833314596,-0.2007840579381173,-1.132855710535378,-0.2996727593967694,1.6987962109039372,0.7089414623266628,0.1534715204938762,-0.3215571825822141,0.7250573934898339,0.6890046217424839,-0.1902149389160196,0.1216516834447567,10.873538731438202,-1.3682883139466808,0.1526028134902005,-1.2984109017660352
0.78,-1.122990509116005,-0.2974792336089996,1.6996805062013247,0.0330534412864601,0.2135672522553118,0.027146526461061,0.5305776579605698,0.1067871001076797,-0.1985275200086487,-1.119076881294805,-0.2966458483700243,1.692454054490998,0.7489414629227092,0.157723458807122,-0.3304559064527299,0.7738519212525589,0.7336987151774388,-0.218639161188993,0.112826896473428,10.873538731438202,-1.369894101423293,0.1524552220425752,-1.302209337796677
0.8,-1.112224088788554,-0.2953918598729306,1.695730211238186,0.0323255193862979,0.2130278522534127,0.0270923631561181,0.5452602347413502,0.1022538570907135,-0.1966227073382243,-1.0964616262179765,-0.2921398786036157,1.6897541302008925,0.6305776594506859,0.1291548252564768,-0.2080015665369881,0.7742038886556237,0.7341288390390222,-0.2266621508483127,0.0952406335212222,10.86133345192593,-1.37208793312125,0.1534804110683004,-1.305171214026153
0.8200000000000001,-1.1010916550658325,-0.2934262781600628,1.691958843972948,0.0295394433051899,0.2106832223501371,0.0268396308880704,0.5670445831668117,0.095275307568997,-0.1805904450152307,-1.0964616262179765,-0.2921398786036157,1.6897541302008925,0.6305776594506859,0.1291548252564768,-0.2080015665369881,1.3966848471847866,1.0892174212730754,-0.3489274760858231,0.8016131161496798,11.80001206860743,-1.369783236486343,0.1561761958088143,-1.3019104886782973
0.84,-1.0901243836418315,-0.2916531578208771,1.68866654171532,0.0253053599339265,0.2056629946118304,0.0264259470981643,0.5859066680074686,0.0920931959878132,-0.166763803697492,-1.0964616262179765,-0.2921398786036157,1.6897541302008925,0.6305776594506859,0.1291548252564768,-0.2080015665369881,1.1801272058348624,0.943104242032844,-0.1591055790591933,0.6913320658869321,11.80001206860743,-1.3797740825138458,0.1618930039199769,-1.31111313012081
0.86,-1.0782376489284975,-0.289822922215573,1.6854642843124257,0.020590163473466,0.1984790057883024,0.025963835752632,0.6013354426262071,0.0912313397097786,-0.1542605101974989,-1.0901558496234696,-0.2908483303510509,1.6876741145355223,0.6505776597487091,0.1336283702862362,-0.209896375842656,0.9938840863334945,0.7714387309369242,-0.043092813901726,0.625164674999655,11.63672085700091,-1.3929128208939587,0.1680876675163014,-1.3162471053644895
0.88,-1.0660900258323551,-0.2879917532393803,1.6824883604603282,0.0161840927973346,0.1907471781597555,0.0255594842411146,0.6123546311877799,0.0919681989868227,-0.1440429278046632,-1.077544296434456,-0.2882652338459214,1.6835140832047826,0.6905776603447555,0.142575460345755,-0.2136859944539917,0.7522706761931649,0.5509594280786401,0.0368429638522058,0.5108791196417841,11.479087557677303,-1.406112818397972,0.1739214440411821,-1.318364246459098
0.9,-1.0537646696859229,-0.286133112605066,1.6796920119580463,0.0123236448254017,0.1835798232335514,0.0252465103686,0.6195399628374161,0.0938136021824094,-0.1360890994642461,-1.0649327432454423,-0.2856821373407918,1.6793540518740429,0.730577660940802,0.1515225504052738,-0.2174756130653275,0.5438241653750953,0.3592665824818097,0.0922701597793347,0.3976914170208553,11.321083043135332,-1.4174148893173637,0.1788358835659902,-1.318771393161445
0.92,-1.0419541939376633,-0.2843254616203016,1.6771655056925652,0.0092029436642856,0.1780635194801859,0.0250361544603629,0.6232291697939942,0.0963068140486773,-0.1302516033565055,-1.0503211900266265,-0.2826516863326863,1.6750045396127362,0.7705776615368485,0.1604696404647926,-0.2212652316766632,0.3670923391547769,0.1844603478289075,0.1246605933133922,0.291874805387031,11.181393219142592,-1.4276128549766045,0.1833306638645961,-1.318820911265796
0.94,-1.0294758620842506,-0.2823664748687917,1.674617801165429,0.0064539800917709,0.1745299543494619,0.0248969904116594,0.6242679787125578,0.0994291020528667,-0.1248601911062815,-1.0357096368078105,-0.2796212353245809,1.6706550273514298,0.810577662132895,0.1694167305243115,-0.225054850287999,0.315812968393705,0.051940445928178,0.1561144002094706,0.2695706125111982,11.071162963105053,-1.434493321652348,0.1871216488874258,-1.3198225570882218
0.96,-1.0169893672132888,-0.2803381511133297,1.6721705316226567,0.0042618768034449,0.1739637525206461,0.0248301864048998,0.6246775625238042,0.103185210156089,-0.1201975699674021,-1.0200980835740932,-0.2763671070649874,1.6662107746248398,0.8505776627289413,0.1783638205838303,-0.2288444688993347,0.3000672544041265,0.0204791905623225,0.1878054051611143,0.23313105694397,11.032760710565526,-1.434254324933072,0.1899825605349622,-1.3233878128111602
0.98,-1.004477902995268,-0.2782288371568305,1.6698105796460194,0.0026662603498651,0.1756785586818538,0.0248213935107754,0.6267257881165644,0.1074570073984366,-0.1160618436576947,-1.0034865303254747,-0.272889301553906,1.6616717814329665,0.8905776633249878,0.1873109106433491,-0.2326340875106705,0.3144348575912506,0.1024112796380094,0.2135898621173783,0.2067863154853695,10.982633969607376,-1.431434268896683,0.1920678799349885,-1.329604315930431
1.0,-0.9925353665551158,-0.2761409228556448,1.6676428374349703,0.0017539782767891,0.1785514521914772,0.0248615562697311,0.6304570517191338,0.1120395339425387,-0.1123575475888285,-0.9731416135894396,-0.2728559867869086,1.6640074874631348,0.6958104994894168,0.126159432461093,-0.1228289401212856,0.3487251316046713,0.1865631801284684,0.2291263272051084,0.1852148034433141,10.960017508792587,-1.4270464181843323,0.1935611264029859,-1.3383731438152475
1.02,-0.9797562779256832,-0.2738016011682129,1.6655219158312784,0.0028992510793761,0.1791509089042166,0.025048984258799,0.6474736335319348,0.1212596938058555,-0.09948155941053,-0.9731416135894396,-0.2728559867869086,1.6640074874631348,0.6958104994894168,0.126159432461093,-0.1228289401212856,1.1622892024626954,0.8508290906400484,0.4610079931658371,0.6437994089149232,10.957438805155109,-1.4145271691642702,0.1916323254263971,-1.345253728307084
1.04,-0.966642014954696,-0.2712999545702745,1.663664684693681,0.0068360941362475,0.1740891338787567,0.0254029278460617,0.66221960614686,0.1277224149668302,-0.0869475402111225,-0.9731416135894396,-0.2728559867869086,1.6640074874631348,0.6958104994894168,0.126159432461093,-0.1228289401212856,1.0201863928417096,0.7372986307462637,0.3231360580487348,0.6267009599703742,11.658018136695318,-1.4292963026610233,0.1883915750367418,-1.3562211393082493
1.06,-0.9532971117773448,-0.268717167936825,1.662032817678912,0.0115799973695823,0.1656383892997796,0.025750251947208,0.6709916433351789,0.1300780440121968,-0.076813351140999,-0.9661835085945456,-0.2715943924622977,1.662779198061922,0.7096274417639872,0.1298999174736242,-0.1241823594140038,0.6804399546279507,0.4386018594159435,0.1177814522683298,0.506709453506176,11.53662652867024,-1.4460409939392789,0.1834448735700601,-1.3593079937444263
1.08,-0.9405132038686104,-0.2662450331614335,1.6606471519814003,0.0157065630013646,0.1564482018002353,0.02599134652292,0.6739588798210594,0.1301138383528143,-0.0695228802909538,-0.9522672986047572,-0.2690712038130758,1.6603226192594962,0.7372613263131281,0.1373808874986868,-0.1268891979994401,0.393563015327022,0.1483618242940243,0.0017897170308756,0.364523542502259,11.36257039139673,-1.4626079790297315,0.1786334290869168,-1.3564944032178172
1.1,-0.9270458830180094,-0.2636557275539357,1.6593171903849495,0.0192752711285207,0.1471400787494851,0.0261498191859657,0.6723629711023121,0.1289073558251654,-0.0639423420585412,-0.9383510886149689,-0.266548015163854,1.6578660404570704,0.7648952108622691,0.1448618575237494,-0.1295960365848765,0.2964158046204439,-0.0797954359373631,-0.0603241263824425,0.2790269116206292,11.19453888807766,-1.4769077836945947,0.1745589546671736,-1.3503151983606383
1.12,-0.9136532184258204,-0.2610994414837089,1.6580771296540775,0.0219672773250027,0.1393753133446549,0.0262416120102171,0.6668520537576607,0.1269134545277052,-0.0604186214787628,-0.9230531843977234,-0.263650778013379,1.6552741197253729,0.79252909541141,0.1523428275488119,-0.1323028751703128,0.341915410181919,-0.2755458672325739,-0.0996950648730093,0.1761860289889217,11.053392630198688,-1.4880858341913343,0.1714305356284723,-1.342829895616876
1.14,-0.9004084246847732,-0.2585892260392416,1.6568930437571252,0.0237885522622594,0.1342034742667762,0.0263089860023955,0.6578797565426479,0.1244024116898414,-0.058146283995901,-0.907755280180478,-0.260753540862904,1.6526821989936753,0.820162979960551,0.1598237975738745,-0.1350097137557492,0.4795074845196182,-0.4486148607506401,-0.125552141893194,0.1136168741430906,10.92817873685908,-1.4954438398952816,0.1694293773514229,-1.336295074731661
1.16,-0.8880133736072544,-0.2562539633736169,1.6558039706999246,0.0247647838138751,0.1325555000645553,0.0263898026789398,0.6476203127275572,0.1216452878229839,-0.0566055661117566,-0.8917665288495042,-0.2576692794618025,1.6500226072973418,0.8477968645096918,0.1673047675989371,-0.1377165523411855,0.5367302185705586,-0.5129721907545348,-0.1378561933428709,0.0770358942072179,10.82527300548918,-1.495970454317939,0.1680640978869141,-1.3314611121694466
1.18,-0.8751629101463845,-0.2538550323308364,1.6546867065420827,0.0249033691171654,0.1340052787145267,0.0264896988752618,0.6383197378718491,0.1184672925531139,-0.0552143935642028,-0.8750869304048018,-0.2543979938100744,1.6472953446363725,0.8754307490588328,0.1747857376239996,-0.1404233909266218,0.4963257691250061,-0.4650287427854005,-0.1588997634934995,0.0695586273776922,10.82527300548918,-1.490754424090681,0.1677032834009424,-1.330168557346485
1.2,-0.8624745374962068,-0.2515203291309311,1.6535976317085983,0.0240045141832592,0.1377025079423431,0.0265720278768617,0.6312929257384077,0.1152596225999181,-0.0537639567390277,-0.843246923252792,-0.2479316677031807,1.6519259868638725,0.6856398243808385,0.1412508979349604,-0.0664175112328315,0.3929662907653132,-0.3513406066720737,-0.1603834976597898,0.0725218412587557,10.802703870555888,-1.482936778796117,0.1686412332511025,-1.3320368781521903
1.22,-0.8498210353809034,-0.2492497379231788,1.6526067296176008,0.021895388355095,0.1405372382932036,0.0265471794791497,0.634009737371617,0.1121396480394014,-0.0454097472614094,-0.843246923252792,-0.2479316677031807,1.6519259868638725,0.6856398243808385,0.1412508979349604,-0.0664175112328315,0.4661226306041692,0.1358405816604679,-0.1559987280258391,0.4177104738809129,10.802703870555888,-1.4714289463350203,0.1704892882965538,-1.3325458373840535
1.24,-0.8377572004858254,-0.2471370965652288,1.651815321184534,0.0189584093556312,0.1407198629960536,0.0264042675276315,0.6355510141533032,0.1107140259603571,-0.0383294931280266,-0.843246923252792,-0.2479316677031807,1.6519259868638725,0.6856398243808385,0.1412508979349604,-0.0664175112328315,0.3692490048168949,0.077063839084307,-0.0712811039522115,0.3540127066691382,11.24242235517977,-1.471941986682916,0.1744875803329255,-1.3387231902434396
1.26,-0.8250437374973266,-0.2449217136389106,1.6511124321729258,0.0156919484725164,0.1390964644685679,0.0262161403885119,0.6355492157609147,0.1109868008470836,-0.0323979092835796,-0.8363905250089837,-0.2465191587238311,1.651261811751544,0.6951038416826364,0.1458076190113297,-0.0686581347665572,0.2968926416937134,-8.991961942261817e-05,0.013638744336325,0.2965791922223508,11.164527115359306,-1.47515084485578,0.1787680877124512,-1.341501542752367
1.28,-0.8123514623259555,-0.2426877902840969,1.6505097055787168,0.0126647145991921,0.1363386105186119,0.0260414723925331,0.6335408535236696,0.1123852710558617,-0.028156500606248,-0.8226777285213669,-0.2436941407651319,1.6499334615268877,0.7140318762862321,0.1549210611640682,-0.0731393818340087,0.2448406898831125,-0.1004181118622549,0.069923510438901,0.2120704338665789,11.068025080755431,-1.4799993303733705,0.1827781324635763,-1.3416361813699953
1.3,-0.8003527004455795,-0.2405322193509704,1.6500020372838529,0.0101493002847782,0.1334011391478229,0.0259116054484148,0.6294880026735055,0.1144054277525289,-0.0254839771484399,-0.8089649320337501,-0.2408691228064327,1.6486051113022309,0.7329599108898278,0.1640345033168068,-0.0776206289014602,0.2629116521062769,-0.2026425425082079,0.1010078348333637,0.1336261728904074,10.886320382098347,-1.4851002152028672,0.186149789337206,-1.3402123469829796
1.32,-0.7878287285224557,-0.2382172353537474,1.6495112752248475,0.0078902706701112,0.1308257819694229,0.0258213320946155,0.6229825713729108,0.1169693328378326,-0.0237774457660396,-0.7943057338159535,-0.2375884327400966,1.6470526987242016,0.7518879454934235,0.1731479454695454,-0.0821018759689116,0.3598836445725199,-0.3252715650297333,0.1281952542651843,0.0853265691200141,10.886320382098347,-1.4895321389853309,0.1891861301381207,-1.3380351716040422
1.34,-0.7754560186376076,-0.2358466754537003,1.6490466714866765,0.0060112941162174,0.1296665157952774,0.025779529258201,0.6146839455364941,0.1199330954600119,-0.022795696198609,-0.779646535598157,-0.2343077426737604,1.6455002861461725,0.7708159800970193,0.182261387622284,-0.0865831230363631,0.4433252526831189,-0.4149312918208359,0.1481881311089665,0.0490874783715287,10.82022181720822,-1.4907377310660077,0.1916231881248105,-1.3363147546670688
1.36,-0.7632488357343878,-0.233410269221098,1.6485959124288343,0.0045834705662711,0.1301602846314142,0.0257859292886923,0.6066714467612225,0.123495873428018,-0.0223318980460418,-0.7645141365152706,-0.2307992165536058,1.643835842391457,0.7897440147006151,0.1913748297750225,-0.0910643701038146,0.4390576049886911,-0.4006249387635774,0.1781388984003026,0.0231899076283636,10.779719234636104,-1.488762854618251,0.1933373025870501,-1.3364099134637248
1.38,-0.7517916334941177,-0.2310244930853069,1.6481735879391903,0.0037753764289989,0.1317691701559666,0.0258391261882238,0.5999149982998083,0.127401296205617,-0.0221526051425282,-0.7489085365672942,-0.2270628543796328,1.6420593674600552,0.8086720493042108,0.2004882719277611,-0.0955456171712661,0.3903013862029761,-0.3378224230707105,0.1952711388799502,0.0089646451756793,10.74926776537177,-1.4851948323944104,0.1944616872679128,-1.3383007829258464
1.4,-0.7398583830953436,-0.2284297709874024,1.6477309809505614,0.0036410428770601,0.1342507278533704,0.0259508522784179,0.5939131106630587,0.1318233961125148,-0.0221312625261561,-0.7217958835791273,-0.224654428275026,1.647065957682064,0.6222207662830065,0.146967681281067,-0.0442050477974955,0.3727535321698048,-0.300094381837479,0.2211049953448882,0.0010671308186029,10.73348058520969,-1.4808019638105343,0.1947191395281953,-1.34160046359352
1.42,-0.727956383921046,-0.2257102495622977,1.6473295248579838,0.0054153928729387,0.1349532686345581,0.026190491524009,0.5966937235285767,0.1395643977483287,-0.0178019782986798,-0.7217958835791273,-0.224654428275026,1.647065957682064,0.6222207662830065,0.146967681281067,-0.0442050477974955,0.4647515899806948,0.1390306432759003,0.3870500817906963,0.2164642113738169,10.72557525663251,-1.4716347691670983,0.1923072566046423,-1.3444871768319868
1.44,-0.7159989193585753,-0.2228638814810775,1.647009583070162,0.0093508102821251,0.1314334201797504,0.026547389628832,0.5984597989646777,0.1440895128259821,-0.0144854062148769,-0.7217958835791273,-0.224654428275026,1.647065957682064,0.6222207662830065,0.146967681281067,-0.0442050477974955,0.2940890141567088,0.0883037718050483,0.2262557538826703,0.1658286041901437,10.923862372997974,-1.4802093724707746,0.1881987310461699,-1.3462947789901318
1.46,-0.7046463511263062,-0.2201128217247418,1.646746526298342,0.013362191527581,0.1254349826519363,0.0268539978074491,0.5960756000610861,0.1452546783242739,-0.0133350014623096,-0.7155736759162972,-0.2231847514622154,1.646623907204089,0.6266819198796462,0.1508809582961569,-0.0486155363284889,0.144615404997416,-0.1192099451795825,0.058258274914591,0.0575202376283646,10.923862372997974,-1.491886528374514,0.1835045113937599,-1.3416336402987286
1.48,-0.6927914860690294,-0.2172124501574086,1.646474949461081,0.0170556920036053,0.11809119397834,0.0270903196019783,0.5892368657381803,0.144780043477506,-0.0139489334898322,-0.7031292605906371,-0.220245397836594,1.645739806248139,0.6356042270729254,0.1587075123263369,-0.0574365133904759,0.3441310720912638,-0.3419367161452857,-0.0237317423383953,-0.0306966013761284,10.669822021171967,-1.5031965615038425,0.1792638135594323,-1.3321892609126686
1.5,-0.6811130116142475,-0.2143329065616618,1.6461718684195208,0.0199469897374563,0.1110886299695395,0.0272442258905813,0.5788100072416061,0.1433174290413049,-0.0163868401784233,-0.690684845264977,-0.2173060442109727,1.644855705292189,0.6445265342662047,0.1665340663565169,-0.0662574904524628,0.5403748886625914,-0.5213429248287105,-0.0731307218100579,-0.1218953344295571,10.559758090005744,-1.5126101034341333,0.1758694530308741,-1.3203125818886972
1.52,-0.6696772147143437,-0.2114894034745823,1.6458026514705573,0.0219889229336344,0.1055626707330663,0.0273460217195666,0.5652382444952312,0.1413122929796485,-0.0203810640687909,-0.6777943145796529,-0.2139753628838424,1.64353055548314,0.6534488414594839,0.1743606203866969,-0.0750784675144497,0.7144353349954582,-0.6785881373187475,-0.1002568030828182,-0.1997111945183802,10.559758090005744,-1.5194723558747507,0.1735828184254186,-1.3086089402998808
1.54,-0.6590913270155836,-0.2088295466942817,1.645369928513834,0.0231763057229667,0.1027027671708333,0.027431484195825,0.5497386335121799,0.1388898066560821,-0.024946572412176,-0.6649037838943288,-0.210644681556712,1.6422054056740905,0.6623711486527631,0.1821871744168769,-0.0838994445764367,0.8169306075905562,-0.7749805491525652,-0.1211243161783212,-0.2282754171692562,10.477098816261789,-1.5228232709551135,0.1720701262975297,-1.297386640388528
1.56,-0.6482734544193658,-0.2060820268651292,1.644817019421906,0.0235443288368807,0.1028661530600737,0.0275291710004512,0.5332543724977653,0.1360596432451402,-0.0301029471405616,-0.6517901955291727,-0.2071183363788272,1.6406597314384916,0.6712934558460425,0.1900137284470568,-0.0927204216384236,0.8751126876915851,-0.824213050720729,-0.1415081705470916,-0.2578187364192795,10.436975942196112,-1.5182422503881412,0.171332384525182,-1.2890089309459
1.58,-0.6377680979437249,-0.2033929443161704,1.6441604418456754,0.0228863170523726,0.1056326737696361,0.0276148927751914,0.5184536982416053,0.1331184633306791,-0.0352749130872666,-0.6384535494841846,-0.2033963273501878,1.638893532776343,0.6802157630393217,0.1978402824772368,-0.1015413987004105,0.7975896963352531,-0.7400337128080026,-0.1470589957230553,-0.2585982973352501,10.397859337095724,-1.510698980783754,0.1718311247516123,-1.2840973425075246
1.6,-0.6275364977538533,-0.2007594416121313,1.643402843191329,0.0211755857073669,0.1101082650056394,0.0276623427980657,0.5057295951857534,0.130505137532061,-0.0402120946162566,-0.6118454130316446,-0.1967370211496364,1.642396696191312,0.5407404653816361,0.1505868897072603,-0.0400418751125812,0.6948165796738379,-0.6362051527925905,-0.1306662899309044,-0.2468590764495001,10.384794826924008,-1.5018347616404142,0.1734663139802847,-1.2818943650560426
1.62,-0.6179920262194017,-0.1982792653473471,1.6427165761497815,0.0193422770492343,0.1144253690755513,0.0276879503854871,0.4995566855402789,0.1305095539839068,-0.0318134942132199,-0.6118454130316446,-0.1967370211496364,1.642396696191312,0.5407404653816361,0.1505868897072603,-0.0400418751125812,0.5211557390217649,-0.3086454822737283,0.0002208225922867,0.4199300201518371,10.384794826924008,-1.487665632897945,0.1751033086734053,-1.2811525836625182
1.64,-0.6080627663088313,-0.1956703102559064,1.642166610162034,0.0176399848366878,0.1180289298391471,0.0277070562985515,0.493704249568325,0.1304228487032611,-0.0237489684111181,-0.6118454130316446,-0.1967370211496364,1.642396696191312,0.5407404653816361,0.1505868897072603,-0.0400418751125812,0.4982346360508201,-0.2926217985976947,-0.004335264032286,0.4032262901050893,11.221086717890104,-1.4824676638972811,0.1772302833491856,-1.2902380499570372
1.66,-0.5982474699369628,-0.19305833030248,1.6417593954655672,0.016055189001836,0.1208533427096962,0.0277171890429943,0.4881303919279354,0.1308071704471757,-0.017455497603244,-0.6064380083778282,-0.1952311522525638,1.6419962774401864,0.5451978188096422,0.1540805749825766,-0.0409952675176441,0.4207831003252692,-0.2786928820194795,0.0192160871957336,0.3146735403937039,11.03435099798662,-1.478562559747672,0.1791445854784926,-1.2971846450607725
1.68,-0.589024942336007,-0.1905650768193743,1.641473167102848,0.0147190547696283,0.1229556532569892,0.0277276429613851,0.4829468212723617,0.1316334507990953,-0.0129889341300801,-0.5956231990701956,-0.1922194144584186,1.6411954399379347,0.5541125256656546,0.161067945533209,-0.0429020523277699,0.3446096821807778,-0.2591785327786811,0.041314017595978,0.2233281736581976,11.03435099798662,-1.4752651385001083,0.1809568231271833,-1.3027721156486525
1.7,-0.5794231436338805,-0.1879192808340449,1.6412518072081312,0.0135650364769571,0.1247220443606065,0.0277491065985704,0.4775172783672041,0.1329235733033711,-0.0094360637016641,-0.5848083897625629,-0.1892076766642734,1.640394602435683,0.563027232521667,0.1680553160838415,-0.0448088371378958,0.3307840704904779,-0.271477145257884,0.064506125213791,0.1776435214207991,10.95231479238555,-1.4725450850132402,0.1824606614232987,-1.3070256165521017
1.72,-0.5699299136548673,-0.1852434401000347,1.6410905171279473,0.0127594005479955,0.1261834726340618,0.0277908145294799,0.4720940437203344,0.1346018065691391,-0.0069139844107716,-0.5735478451121295,-0.1858465703425966,1.639498425692925,0.5719419393776793,0.175042686634474,-0.0467156219480216,0.3105995206004291,-0.2711617323434834,0.0839116632883968,0.1261039645446257,10.88774385969282,-1.4702073706258354,0.1835453307267668,-1.3103328483796517
1.74,-0.5605443220362716,-0.1825313571000766,1.6409752266800497,0.0123785987912072,0.1274660979480212,0.0278601952053087,0.4667632253288288,0.1365155926743744,-0.0047530461068005,-0.5622873004616962,-0.1824854640209197,1.638602248950167,0.5808566462336917,0.1820300571851065,-0.0486224067581474,0.3031082988527995,-0.2665409195752782,0.0956893052617674,0.1080469151985534,10.832335155533656,-1.4678358178644924,0.1840952853875175,-1.3129797534299508
1.76,-0.551262867180957,-0.1797782627685998,1.640900161810234,0.0125157252850775,0.1286251530968381,0.0279643626563843,0.4616749019347909,0.1386496102929155,-0.0028660521723308,-0.5508038881398626,-0.1789496734354771,1.637658402587156,0.589771353089704,0.1890174277357389,-0.0505291915682733,0.2915725135677351,-0.2544161697018959,0.1067008809270547,0.0943496967234853,10.818792233788372,-1.4656527437535132,0.1840374661766416,-1.315391324275636
1.78,-0.5425377037220721,-0.1771236566774305,1.6408610095417615,0.0131739385680581,0.1296157831965677,0.0280985462588456,0.4570377882288612,0.1406265754741008,-0.0013533749190792,-0.5390976081466285,-0.1752391985862686,1.6366668866038918,0.5986860599457163,0.1960047982863714,-0.0524359763783991,0.2631511320602898,-0.2318556852964837,0.098848259059267,0.07563386266258,10.806515880710322,-1.4635966672967182,0.1833130823935607,-1.3177248534689587
1.8,-0.5334466531634108,-0.1742920964229041,1.640847866797014,0.014381928518185,0.1305545330029961,0.02827348408497,0.4523326149758139,0.1423776943072622,-5.603245227545448e-05,-0.519685814310629,-0.1700923279037255,1.6407933407958075,0.4674038368927158,0.152910227563637,-0.0261546254662498,0.2592690204460264,-0.2352586626523656,0.0875559416580684,0.0648671233401899,10.791821438236184,-1.4617242181878938,0.1819434789178207,-1.3197230011775771
1.82,-0.524414685834767,-0.1714019113887816,1.640857644161304,0.0169104643703216,0.1303439497268306,0.0285201299926636,0.4511137931845524,0.1460512582110293,0.0009564474540771,-0.519685814310629,-0.1700923279037255,1.6407933407958075,0.4674038368927158,0.152910227563637,-0.0261546254662498,0.2000357085290155,-0.060941089563074,0.183678195188354,0.0506239953176315,10.776138542355511,-1.458597683129787,0.1787591063773434,-1.3212660120026354
1.84,-0.5154121717857937,-0.1684741432044257,1.6408746104403775,0.0204020331894938,0.127981048355191,0.0287855846809991,0.4490222575377969,0.1463829437558736,0.0006368396753663,-0.519685814310629,-0.1700923279037255,1.6407933407958075,0.4674038368927158,0.152910227563637,-0.0261546254662498,0.1070827459785238,-0.1045767823377785,0.0165842772422167,-0.0159803889355434,10.761828218010123,-1.4626971735144432,0.1749635116217484,-1.3193056874906106
1.86,-0.506915490641615,-0.1657075689054363,1.6408700823301188,0.0234689587911096,0.124258814240236,0.0289720378732406,0.4453249343034619,0.1449022832963201,-0.0010703935380902,-0.5150117759417019,-0.1685632256280891,1.640531794541145,0.4694770466254868,0.1553669579815443,-0.031114875575684,0.2166633318120969,-0.1848661617167485,-0.0740330229776764,-0.0853616606728255,10.676097611353724,-1.4685661013631428,0.171198467011908,-1.313375108999158
1.88,-0.4980705724548518,-0.1628359684386263,1.6408187336935451,0.0260820089321456,0.119450752061906,0.029083389029825,0.4391474908627402,0.1424221280901815,-0.0040058200152201,-0.5056636992038475,-0.1655050210768164,1.64000870203182,0.4736234660910286,0.1602804188173587,-0.0410353757945522,0.3637605871740622,-0.3088721720360843,-0.1240077603069281,-0.1467713238564996,10.589248067877634,-1.4753352805120392,0.1681594352285482,-1.3044065070606596
1.9,-0.4893783972409743,-0.1600203639698008,1.6406974940235768,0.0279881186215458,0.11461855873829,0.0291260658314543,0.4301775952164727,0.1393702170378986,-0.0079942569100176,-0.4963156224659932,-0.1624468165255436,1.639485609522495,0.4777698855565704,0.1651938796531732,-0.0509558760134205,0.5140058799268665,-0.4484947823133745,-0.1525955526141459,-0.1994218447398745,10.513027620880166,-1.4817620666975837,0.1659418139767559,-1.2936629829343669
1.92,-0.480895205713394,-0.1572712711122345,1.640487158217516,0.0291495944415656,0.1108177173120258,0.0291325121472162,0.4184261445664688,0.1357421832654937,-0.0128577104564954,-0.4867602247548618,-0.1591429389324802,1.6384664920022265,0.4819163050221123,0.1701073404889877,-0.0608763762322887,0.661272262067478,-0.5875725325001968,-0.1814016886202474,-0.243172677323887,10.446735425290171,-1.4863944305541807,0.1645803875019666,-1.2824255819852988
1.94,-0.472674327978128,-0.1546015909359522,1.6401718721392442,0.0293474467675964,0.1091828843668408,0.0291281539286566,0.4043254276622907,0.1315406884176345,-0.0183996655049182,-0.4772048270437303,-0.1558390613394167,1.6374473744819582,0.4860627244876541,0.1750208013248022,-0.070796876451157,0.7861234666499587,-0.7050358452089039,-0.2100747423929586,-0.2770977524211398,10.3558160713701,-1.4867135966768863,0.1642299411249085,-1.2722587371519274
1.96,-0.4647347407882989,-0.1520165367357364,1.6397422510200317,0.028452849827395,0.1100959344897587,0.0291196912313343,0.3907012724642161,0.1273112976836069,-0.0242635055620966,-0.4675457688459604,-0.1524123472254579,1.636180244456218,0.490209143953196,0.1799342621606166,-0.0807173766700252,0.7711841074906703,-0.681207759903732,-0.211469536701378,-0.2931920028589214,10.3558160713701,-1.4818653788857,0.1648921652022668,-1.2647874465114286
1.98,-0.457428895371295,-0.1496354254596625,1.639224615620868,0.0265783522969014,0.1127101236603721,0.0290869350879878,0.3792675471764712,0.1236627601444215,-0.0299154665769153,-0.4577830501615519,-0.1488627965906037,1.6346651019250062,0.4943555634187378,0.1848477229964311,-0.0906378768888935,0.6632996371239257,-0.5716862643872445,-0.1824268769592726,-0.2825980507409339,10.322890328582616,-1.4746085744600403,0.1668282982950217,-1.2595264908828123
2.0,-0.4499538579216147,-0.1471904221989529,1.6385637633488148,0.0237910161371115,0.1166155693468297,0.0290195517435453,0.3690557361114981,0.1213281934125353,-0.0358641034258918,-0.4384655180124714,-0.1434522874524414,1.637728842292022,0.4012523217958121,0.1408367898672313,-0.0348683145345264,0.602323765539218,-0.5105905532486521,-0.1167283365943072,-0.2974318424488278,10.294172076841278,-1.4662535849422018,0.1697445272397089,-1.2569179747447707
2.02,-0.442643045903353,-0.1447730897527293,1.637925932726351,0.0209900240672071,0.1210308980893972,0.0289535816902796,0.3627039785564879,0.1205219299926271,-0.0276507204878029,-0.4384655180124714,-0.1434522874524414,1.637728842292022,0.4012523217958121,0.1408367898672313,-0.0348683145345264,0.5207075571460493,-0.3175878777505109,-0.0403131709954117,0.4106691469044484,11.155621178443653,-1.4495395140185434,0.1720140145278671,-1.255073098316026
2.04,-0.4358000591003086,-0.1424842667900978,1.637469886359581,0.0185868693650653,0.1252404651795706,0.0289001824839077,0.3580329402806827,0.1204504691614241,-0.0208208088792498,-0.4384655180124714,-0.1434522874524414,1.637728842292022,0.4012523217958121,0.1408367898672313,-0.0348683145345264,0.4137372288212714,-0.2335519137902614,-0.0035730415601495,0.3414955804276549,11.0537753099552,-1.4428750684555798,0.1747660099573377,-1.2642851724862247
2.06,-0.4286803152050163,-0.1400702376449296,1.6371138440723536,0.0163443379129493,0.1294112913497578,0.0288512474522581,0.3542836011224906,0.1209680827598239,-0.0152245172307075,-0.4344529947945133,-0.1420439195537691,1.6373801591466768,0.4056492767196802,0.1442715958117932,-0.0358588841260486,0.3378015252183773,-0.1874669579096044,0.0258806799199921,0.2798145824271129,10.965331559162223,-1.4366243546696795,0.1773936387279802,-1.272928523475111
2.08,-0.4216247910755613,-0.1376400312579608,1.6368544631188442,0.0144060055259349,0.1331110438124496,0.0288097917694325,0.3515183173780209,0.1220213967983717,-0.0110585688920367,-0.4264279483585971,-0.1392271837564245,1.6366827928559862,0.4144431865674166,0.1511412077009171,-0.037840023309093,0.2554965274309225,-0.1382641872234857,0.0526657019273874,0.208297416933539,10.891737840271162,-1.4313889297008322,0.1797210244514255,-1.2803735579432645
2.1,-0.4146162857147912,-0.1351839038212897,1.6366650375497946,0.0127781153871818,0.1362137888159019,0.0287775304315505,0.3494901699100225,0.1235063105321812,-0.0080990414358178,-0.4184029019226808,-0.1364104479590799,1.6359854265652956,0.423237096415153,0.1580108195900411,-0.0398211624921375,0.1941465536194135,-0.1014073733999199,0.0742456866904744,0.1479763728109489,10.891737840271162,-1.427443284925639,0.1816319233894771,-1.2862711153992157
2.12,-0.4079909003893857,-0.1328189530392683,1.636531047849293,0.0115332444990288,0.1385853826146703,0.0287586996027999,0.3480203005047727,0.1253491948679988,-0.006159262851033,-0.4099381599943778,-0.1332502315672791,1.6351890033154528,0.4320310062628893,0.164880431479165,-0.0418023016751819,0.1526391144307461,-0.0734934702624895,0.092144216790882,0.096988929239238,10.833733497062894,-1.42425903027591,0.1832993337347443,-1.2914034931216647
2.14,-0.4010434136401879,-0.1302878098894708,1.6364273159011125,0.0106203805619747,0.1405152713106066,0.0287595077136902,0.3468123155062778,0.1276691662166478,-0.0043269884882207,-0.4014734180660747,-0.1300900151754782,1.63439258006561,0.4408249161106257,0.1717500433682889,-0.0437834408582263,0.1596772068562057,-0.0603992499247446,0.1159985674324473,0.0916137181406131,10.787443277409691,-1.421697806923311,0.1844795189262508,-1.2954969160395051
2.16,-0.3941165241721997,-0.1277051369373994,1.6363580792170571,0.0102614120932488,0.1418990164149353,0.0287933691846609,0.3459280506818695,0.1304521193049772,-0.0027011745154609,-0.3927888283915782,-0.1267580584864493,1.633546628336191,0.449618825958362,0.1786196552574128,-0.0457645800412708,0.1671079235520365,-0.0442132412204143,0.1391476544164716,0.0812906986379927,10.782920543686489,-1.4199197864552922,0.1850224931832717,-1.2992063751524865
2.18,-0.3872055716470881,-0.1250642206047136,1.6363184272754905,0.0106144233237494,0.1427573780765222,0.028871731390695,0.345174767036656,0.1334232567756147,-0.001349575150869,-0.3838843909708884,-0.1232543615001923,1.632651148127196,0.4584127358060984,0.1854892671465367,-0.0477457192243152,0.1674956339874102,-0.0376641822606743,0.148556873531877,0.0675799682295951,10.7757737305501,-1.4190606455551695,0.1847743936284956,-1.3022666789939188
2.2,-0.3806545096655154,-0.1225016144005324,1.6363028479089308,0.0116429162057466,0.1431576696020965,0.0289895008621708,0.3444157187261657,0.1361046561224153,-0.0003600020034026,-0.3699468332952553,-0.1183930577659329,1.6362509485179468,0.3505744314349388,0.1398262373118372,-0.0089247438908733,0.1478623668218804,-0.037952415524517,0.1340699673400294,0.0494786573733178,10.7643089881185,-1.418820679114738,0.1836458433344086,-1.3048537427720377
2.22,-0.3737204526117634,-0.1197111602198864,1.6363399509969454,0.0147399406763096,0.1416569233813074,0.0292251408034227,0.3491481735495308,0.1419905482299205,0.0041933541400627,-0.3699468332952553,-0.1183930577659329,1.6362509485179468,0.3505744314349388,0.1398262373118372,-0.0089247438908733,0.4409447434929261,0.2366227411682547,0.294294605375256,0.2276678071732714,10.749196616603513,-1.4145574727284662,0.1795510796131071,-1.3057512965425844
2.24,-0.3666947010087427,-0.1168532060428504,1.636464594701515,0.0194053244397281,0.1364971605053507,0.0294912215401085,0.3526250295155427,0.1432270474595267,0.0079934718079596,-0.3699468332952553,-0.1183930577659329,1.6362509485179468,0.3505744314349388,0.1398262373118372,-0.0089247438908733,0.2648506751127497,0.1738427983005941,0.061824961480314,0.1900058833948462,10.910910623796552,-1.4251936323352037,0.1744389879871167,-1.3056136751297536
2.26,-0.3596463063809308,-0.1140038468402774,1.6366500913815618,0.0238994034649284,0.1290240681494528,0.0296581208714056,0.3516314491680323,0.1416894879057704,0.0104035222295421,-0.3664410889809059,-0.1169947953928145,1.636161701079038,0.3516543643145954,0.1411068334190817,-0.0104397776388741,0.1513244388960006,-0.0496790173755173,-0.076877977687817,0.1205025210791209,10.910910623796552,-1.4369755342566173,0.1696015918974626,-1.3004057792489083
2.28,-0.3530110995960311,-0.1113417365934623,1.6368591335229474,0.0274681915864998,0.1213038782503217,0.0297109143593652,0.3466638065134058,0.1387644840469662,0.011506604427467,-0.3594296003522071,-0.1141982706465778,1.6359832062012205,0.3538142300739085,0.1436680256335707,-0.0134698451348759,0.2934702346638569,-0.2483821327313284,-0.1462501929402102,0.0551541098962471,10.82070114898761,-1.4483382857218996,0.165180350005885,-1.2911999324958057
2.3000000000000003,-0.3461649340639249,-0.1086076783831664,1.637091803106849,0.0303760217223082,0.1136991929313428,0.0296847655038676,0.3380440254241501,0.1349129527428917,0.0116727379898153,-0.3524181117235083,-0.111401745900341,1.635804711323403,0.3559740958332216,0.1462292178480597,-0.0164999126308776,0.4721295367097201,-0.4309890544627826,-0.1925765652037267,0.0083066781174167,10.739647311752378,-1.4572355564540789,0.1616477792471641,-1.2801202774002205
2.32,-0.3395250093635841,-0.1059572704570035,1.6373170610146364,0.0324179562171514,0.1075707549695352,0.0296166284235894,0.3263282155707637,0.1305292752880759,0.0108719037016468,-0.3452986298068439,-0.1084771615433798,1.6354747130707856,0.3581339615925347,0.1487904100625486,-0.0195299801268793,0.6267339230201122,-0.5857904926693192,-0.2191838727407885,-0.0400417144084273,10.673317208181288,-1.463361237873572,0.159209674546832,-1.2695437212524143
2.34,-0.333459971104476,-0.1035248685269283,1.63751140057753,0.0336005639881753,0.1039633912459424,0.0295564352317452,0.3126644984870422,0.1258507637097748,0.0096431722272273,-0.3381791478901795,-0.1055525771864186,1.635144714818168,0.3602938273518478,0.1513516022770376,-0.022560047622881,0.7247334271449561,-0.6831858541860747,-0.2339255789150562,-0.0614365737209738,10.619836540971846,-1.4660675804521217,0.1575173270728004,-1.259520922776476
2.36,-0.3273698971601421,-0.1010641533452683,1.6376883058383451,0.0339358956860266,0.1032386027388361,0.0295259852300715,0.2974166214176572,0.1205443780111698,0.0081143859767369,-0.3310056693295322,-0.1025639630240952,1.6347389648781503,0.3624536931111609,0.1539127944915266,-0.0255901151188827,0.8108524398821362,-0.7623938534692509,-0.2653192849302481,-0.0764393125245215,10.597262528159265,-1.4617135022104228,0.1566640405185825,-1.2517459469676449
2.38,-0.3215694708486338,-0.0987122787358353,1.637833683069825,0.0331621648486607,0.1052488271577703,0.0295076634572646,0.2837600657171051,0.1150596482865143,0.0065179661289228,-0.3237781941249021,-0.0995113190564096,1.6342574632507327,0.364613558870474,0.1564739867060156,-0.0286201826148845,0.7401559465499418,-0.6828277850276038,-0.2742364862327768,-0.079820992390704,10.570896700995036,-1.4542892572761317,0.1570236732900688,-1.2473793267190276
2.4,-0.3162912860272753,-0.0965767377749387,1.6379431959250514,0.0313421233025963,0.1088636519250749,0.0294666642466348,0.272787559652029,0.1101428879643993,0.0050996980690342,-0.3073814675627786,-0.0929592963215096,1.6381595813762713,0.2982117026498954,0.117267428310551,-0.0158367540314422,0.6053550728765656,-0.548625303253808,-0.2458380161057462,-0.0709134029944287,10.555135785761196,-1.4447120411051029,0.1587294316186575,-1.245453654482543
2.42,-0.3109488465268503,-0.0943962699971756,1.6380372926195468,0.0291833061986029,0.1140456780353197,0.0294404972109466,0.2623380040919272,0.1081054527055996,0.0044144528768208,-0.3073814675627786,-0.0929592963215096,1.6381595813762713,0.2982117026498954,0.117267428310551,-0.0158367540314422,0.5334180227806946,-0.5224777780050899,-0.1018717629399847,-0.0342622596106733,10.549908398468688,-1.4343603307886703,0.1608217714992594,-1.247817346568202
2.44,-0.3057904177788677,-0.0922522636936561,1.638111872126264,0.0275047098704267,0.1202674786364888,0.0294676978925561,0.2543072808038184,0.1063709487674564,0.0030280090692578,-0.3073814675627786,-0.0929592963215096,1.6381595813762713,0.2982117026498954,0.117267428310551,-0.0158367540314422,0.4166030690991624,-0.4015361644054388,-0.0867251969071607,-0.0693221903781471,10.593262977627091,-1.42371019735679,0.1624527131054267,-1.2517481368961816
2.46,-0.3007654560719146,-0.0901387572073098,1.63815042868014,0.0262058897230676,0.1267654856731622,0.0295194400116917,0.2487861016900063,0.1050539830992305,0.0008895087605673,-0.3043993505362796,-0.0917866220384041,1.6380012138359568,0.3011020300364534,0.1177089843153584,-0.0203076980635152,0.3032779292511638,-0.2760589556906029,-0.0658482834112975,-0.1069250154345236,10.54162658452151,-1.4139557940592071,0.163659297919593,-1.256030792367253
2.48,-0.2960725175903009,-0.0881510819162123,1.6381419148797225,0.0253717028157784,0.1326326317826984,0.0295816047982974,0.2455842189413367,0.1042220263541114,-0.0016875796076309,-0.2984351164832817,-0.0894412734721931,1.637684478755328,0.3068826848095696,0.1185920963249731,-0.0292495861276613,0.2096758785571217,-0.1600941374334821,-0.0415978372559515,-0.1288544184099154,10.475325176131264,-1.404679624163641,0.1645011611186954,-1.260322638974624
2.5,-0.2911805728899966,-0.0860728579959117,1.6380749063629725,0.0249864981876654,0.1381043644235604,0.0296590751639698,0.2438739281004162,0.1036325634650054,-0.0049056755731066,-0.2924708824302838,-0.0870959249059821,1.6373677436746992,0.3126633395826857,0.1194752083345878,-0.0381914741918073,0.1845853657605405,-0.0855145420460237,-0.0294731444553032,-0.1609047982737872,10.451236932583017,-1.397105236660524,0.164826959421013,-1.2640288452679904
2.52,-0.2863077710949545,-0.0840048228585921,1.6379386117226666,0.0251573760256429,0.1426107376503328,0.0297491009078896,0.2434976363084234,0.103161075807545,-0.0085666614949788,-0.2862176156386301,-0.0847064207392903,1.636603914190863,0.3184439943558018,0.1203583203442025,-0.0471333622559533,0.1855176140155236,-0.0188145895996388,-0.0235743828730213,-0.1830492960936101,10.451236932583017,-1.3915978447583826,0.1645850202107258,-1.266644567075052
2.54,-0.2816768640273537,-0.0820500798066066,1.6377380486465312,0.0258178671117896,0.1459230780042241,0.0298444091554791,0.243960036089154,0.1025903159000253,-0.0123625728972028,-0.2799643488469764,-0.0823169165725985,1.635840084707027,0.3242246491289179,0.1212414323538172,-0.0560752503200994,0.1933166043229703,0.0231199890365282,-0.0285379953759802,-0.1897955701111994,10.433008720548967,-1.387527036704409,0.1637544098177596,-1.268233113194667
2.56,-0.2767872639772001,-0.0800075050097166,1.637445773555,0.0269629400407115,0.1484090099533511,0.0299497295985112,0.2449558413513773,0.1016590701035441,-0.0166763424308728,-0.2735665656859948,-0.0799053346056664,1.634852708021587,0.330005303902034,0.1221245443634319,-0.0650171383842454,0.2262048542989033,0.0497902631111643,-0.046562289824064,-0.2156884766835006,10.418204780169615,-1.385037228364271,0.1624036481296378,-1.2685307832374306
2.58,-0.2718748567595373,-0.0779891805756998,1.6370641564638098,0.0284291927080165,0.1499407416017295,0.030050146114607,0.2461929165357158,0.1001855853657467,-0.021274881308128,-0.2670242661556852,-0.0774716748384939,1.6336417841345436,0.3357859586751501,0.1230076563730466,-0.0739590264483915,0.2492392028245896,0.0618537592169246,-0.073674236889866,-0.2299269438627573,10.401546571364634,-1.383855500715347,0.1606818071352812,-1.2674155507175615
2.6,-0.2669375500127647,-0.0760078833144218,1.636587445810315,0.0299995503396713,0.1506386772462089,0.0301308856479018,0.2474009098394552,0.0980172303280095,-0.0261534832300037,-0.2595652109327515,-0.0729799013074124,1.636000412398403,0.2469078090572164,0.1035018224912925,-0.0335453719470397,0.2736867191867822,0.0603996651869706,-0.1084177518868641,-0.2439300960937883,10.385909933655968,-1.3837253563551055,0.1589277053403086,-1.2650423006804703
2.62,-0.2621600828017021,-0.0741798948669101,1.6361295408100112,0.0311696571883873,0.1490772576279839,0.0301126578676263,0.2552217031427307,0.0946089330891977,-0.0217967236505706,-0.2595652109327515,-0.0729799013074124,1.636000412398403,0.2469078090572164,0.1035018224912925,-0.0335453719470397,0.4789641218129843,0.3910396651637754,-0.1704148619405869,0.2178379789716576,10.369449743221594,-1.3743927994048462,0.1564359793122512,-1.2563914540783128
2.64,-0.2569813331268558,-0.0723300971133211,1.635733290010625,0.0317129279425075,0.1435287507302179,0.029916388286812,0.2615776466439225,0.0905828296930028,-0.0181138164653194,-0.2595652109327515,-0.0729799013074124,1.636000412398403,0.2469078090572164,0.1035018224912925,-0.0335453719470397,0.4188416517085232,0.3177971750595892,-0.2013051698097484,0.1841453592625592,10.857488504482715,-1.3863071995112466,0.1561173208782241,-1.2550740122880977
