t,x,y,z,roll,pitch,yaw,v_x,v_y,v_z,ref_x,ref_y,ref_z,ref_v_x,ref_v_y,ref_v_z,a_com,a_x,a_y,a_z,thrust,wind_x,wind_y,wind_z
0.0,-1.6964620493042055,1.5243279930062197,2.95242728788057,0.0137655762058806,0.1366705530216185,0.025721366997812,0.0067456128788025,-0.0053176344621496,0.037448990356365,-1.6962610839619154,1.5241223455174195,2.953558348001126,-0.0042443473875534,-0.1064556683168702,-0.0623629870298265,1.92107223191557,0.3372806439401292,-0.265881723107481,1.8724495178182503,10.564617157790051,-1.284944371369092,0.1623948043216751,-1.1889675659114565
0.02,-1.6963960771133009,1.5245216527169687,2.9529356044323283,0.0212249382208181,0.1373839459852628,0.0262577375107203,0.0002475827084518,0.0187775193956219,0.0134482852952165,-1.6962610839619154,1.5241223455174195,2.953558348001126,-0.0042443473875534,-0.1064556683168702,-0.0623629870298265,1.7312096052736572,-0.3249015085175374,1.2047576928885797,-1.2000352530574208,10.563447049399656,-1.3072421629373818,0.1570972605036869,-1.204619686880534
0.04,-1.696454126289294,1.5249142043517656,2.9529221425103827,0.0352588296923509,0.139345488751039,0.0272768851403326,-0.0057743106221218,0.0207393337050607,-0.0135813163757135,-1.6962610839619154,1.5241223455174195,2.953558348001126,-0.0042443473875534,-0.1064556683168702,-0.0623629870298265,1.3880843644738212,-0.301094666528683,0.0980907154719396,-1.351480083546508,9.202089910653283,-1.305243488528517,0.1409359555598014,-1.1873166019367951
0.06,-1.696623561556594,1.5252855325498451,2.952353325356857,0.050642178775858,0.1424902814735004,0.0284440114862534,-0.0106417659122992,0.0159145324241436,-0.0418417411431299,-1.696303527435791,1.523057788834251,2.952934718130828,-0.0064356128737342,-0.1264556686148934,-0.0823629873278497,1.4539793984415796,-0.2433727645088719,-0.2412400640458582,-1.413021238370817,8.993479396960083,-1.298355850701819,0.1243039597860385,-1.1698805689878655
0.08,-1.6968728264206916,1.5255208448594029,2.9512286322884185,0.0654955889856794,0.1463219776843945,0.0296347880721416,-0.0138515925886761,0.0075375997503828,-0.0691656036945229,-1.6963884143835422,1.5209286754679134,2.951687458390231,-0.0108181438460957,-0.1664556692109398,-0.1223629879238962,1.4379407611585744,-0.1604913338188423,-0.4188466336880362,-1.3661931275696526,9.002499406963125,-1.2907604612652857,0.1095044727997878,-1.154458312393905
0.1,-1.6971531122586652,1.525561972428331,2.949663154779173,0.0789563348323008,0.1502464353673033,0.0307670756228421,-0.0153587011383926,-0.0030500236796944,-0.0942591334159873,-1.6964733013312931,1.518799562101576,2.9504401986496345,-0.0152006748184573,-0.2064556698069863,-0.1623629885199426,1.363868010439212,-0.0753554274858248,-0.529381171503867,-1.2546764860732176,9.045515297359088,-1.2830215276972738,0.0950707209950444,-1.1411807421199769
0.12,-1.6974638836876412,1.525361637836402,2.947504399916358,0.092439422800318,0.1543687535883375,0.0319378891763286,-0.0155091041477166,-0.0167155998788074,-0.1202799484250518,-1.6967773148276624,1.5146704487054363,2.9471929388792355,-0.0195832057908189,-0.2464556704030327,-0.2023629891159891,1.469569161059573,-0.0075201504662005,-0.6832788099556492,-1.3010407504532264,9.105900701862083,-1.2759185718993649,0.0818207756369585,-1.127784799945475
0.14,-1.697764709675491,1.5248627333572282,2.9448222354486364,0.1052433133776016,0.1582493459900477,0.033061130968501,-0.014472222973398,-0.0327590335778495,-0.146654687808415,-1.6970813283240314,1.510541335309297,2.943945679108837,-0.0239657367631804,-0.2864556709990792,-0.2423629897120356,1.5444204131044943,0.0518440587159271,-0.8021716849521033,-1.3187369691681583,9.083064987957188,-1.2699369292557985,0.0697073398444416,-1.1140545497398393
0.16,-1.6980326723681487,1.52401901465311,2.9416105976894342,0.1173953672585482,0.1616946544819969,0.0341063382948622,-0.0123346785919417,-0.0510664447863583,-0.1731940894477408,-1.6974949050947097,1.5054122218982555,2.9396984193235367,-0.028348267735542,-0.3264556715951257,-0.282362990308082,1.6156037884592718,0.1068772190728167,-0.9153705604254412,-1.3269700819662915,9.083064987957188,-1.2658085486543569,0.0589792268401328,-1.1035256738827113
0.18,-1.6982391712750962,1.5228577969204058,2.9380675676931918,0.1283605070264712,0.1644510043928073,0.0350012266761092,-0.0094982566834835,-0.0704630976912577,-0.1984336190936593,-1.698018045139697,1.4992831084723135,2.934451159523336,-0.0327307987079036,-0.3664556721911721,-0.3223629909041284,1.5978965000142562,0.1418210954229093,-0.96983264524497,-1.261976482295926,9.07845262959836,-1.2626083783122568,0.0485223538648945,-1.092477626431808
0.2,-1.6983925423780046,1.521213047183959,2.9338176275578696,0.1392022444819104,0.1667762215288984,0.0358133183004676,-0.0059717066272256,-0.0931605538190573,-0.2252355297403376,-1.6987140841092705,1.519334642035843,2.928145886738508,-0.0027220332586614,-0.1704630991813738,-0.2984336205837755,1.7649033148342756,0.176327502812894,-1.1348728063899824,-1.3400955323339112,9.080854173684202,-1.2603397361638369,0.0390215320699055,-1.0806480289431035
0.22,-1.6984398232102902,1.5189184713362671,2.929174347379947,0.1443041600685725,0.1686377978468907,0.0361407198600213,0.0012114407025337,-0.133086950083373,-0.2366076885597648,-1.6987140841092705,1.519334642035843,2.928145886738508,-0.0027220332586614,-0.1704630991813738,-0.2984336205837755,2.1065616062855046,0.3591573664879698,-1.996319813215783,-0.5686079409713648,10.1286236642718,-1.24562446620195,0.0348205997174547,-1.0617203904774304
0.24,-1.698347024297172,1.5160662081982814,2.924572567108036,0.14293610542234,0.1700643935660902,0.0359444370653579,0.0081672599923807,-0.164502960559235,-0.247205872403862,-1.6987140841092705,1.519334642035843,2.928145886738508,-0.0027220332586614,-0.1704630991813738,-0.2984336205837755,1.6938643961410838,0.3477909644923525,-1.5708005237930978,-0.5299091922048595,10.1286236642718,-1.244220775385222,0.0364835937416359,-1.0564855125579693
0.26,-1.6981094552281435,1.5124752744909613,2.9194875834891043,0.1383844798225198,0.1711587084622557,0.0354412261144577,0.0151786623252385,-0.1921818627886013,-0.2607587278491867,-1.698741304441857,1.517630011044029,2.9251615505326702,-0.001366788573697,-0.190463099479397,-0.3184336208817987,1.580317438062593,0.3505701166428869,-1.3839451114683154,-0.6776427722662306,9.96289721242465,-1.2441874740334071,0.0411242726872143,-1.05133542067144
0.28,-1.6977362195176882,1.5083805565607866,2.914106972357839,0.133025134937411,0.171794695727092,0.0348028234474059,0.0217449604826696,-0.2157187491870312,-0.2766999931186131,-1.69879574510703,1.5142207490604016,2.919192878120995,0.0013437007962317,-0.2304631000754435,-0.3584336214778451,1.4587882224770514,0.3283149078715577,-1.1768443199214966,-0.7970632634713232,9.76898263068415,-1.245032860567315,0.0464622222111287,-1.0457591703814717
0.3,-1.6972378605788316,1.5038434140568964,2.908381470102281,0.1279180242311119,0.172006592804872,0.034115435445031,0.0277223622156132,-0.2368326644811767,-0.2950165706434265,-1.6988501857722034,1.5108114870767742,2.9132242057093194,0.0040541901661606,-0.27046310067149,-0.3984336220738916,1.4291813764773245,0.2988700866471814,-1.0556957647072762,-0.915828876240668,9.605756405200736,-1.246667767801712,0.0513504913011356,-1.039118506785518
0.32,-1.6966596855064016,1.4991578272611137,2.9025846521209915,0.1236563754534992,0.1719108590427485,0.0334592080046594,0.0328125510268053,-0.2554234061662103,-0.3142433053345259,-1.6987691019688802,1.5054022250633443,2.905255533267842,0.0067646795360894,-0.3104631012675364,-0.438433622669938,1.3612430214836304,0.2545094405596004,-0.929537084251676,-0.9613367345549712,9.46409575800135,-1.2482849359643082,0.0558439233944417,-1.0312571181071828
0.34,-1.695951917871363,1.4938554513813125,2.896077050181186,0.1199344215698229,0.1716226202503791,0.0327934054261578,0.0376662381875194,-0.2739239895692439,-0.3355505196976722,-1.6986880181655568,1.4999929630499145,2.897286860826364,0.0094751689060183,-0.3504631018635829,-0.4784336232659845,1.4316312804138438,0.242684358035709,-0.9250291701516838,-1.0653607181573126,9.344536813813647,-1.2490118315627172,0.0594157713882432,-1.0234444192575252
0.36,-1.6951502351271015,1.4881807385298411,2.889134111016502,0.1167048652464378,0.1712291134052882,0.0321444379339235,0.0422420337771243,-0.2925608845446628,-0.3576401849542415,-1.6985391721279854,1.4935837010215836,2.888318188369985,0.0121856582759471,-0.3904631024596293,-0.518433623862031,1.4630661901892257,0.2287897794802453,-0.9318447487709408,-1.1044832628284678,9.272090762662629,-1.2491769328191027,0.0623270392540098,-1.0152326397538256
0.38,-1.6943064340249216,1.482447142815772,2.8821234117169925,0.1137587836386115,0.1707955489129439,0.0315256482476573,0.0463370406280222,-0.3099444867889863,-0.3791895876415473,-1.6983225638561656,1.486174438978351,2.8783495158987047,0.0148961476458759,-0.4304631030556757,-0.5584336244580773,1.3994065387490269,0.2047503425448928,-0.869180112216178,-1.0774701343652882,9.227602585708157,-1.2492739337483847,0.0652094648525201,-1.006394312451577
0.4,-1.6933375086183398,1.4760620796037478,2.874294087007124,0.1107261256404233,0.1703206633589176,0.0308740801992144,0.0503210953481812,-0.3275582848983521,-0.4026223004666387,-1.6919895819935205,1.4669499184763226,2.863163932334915,0.0676948600660029,-0.4099444882791024,-0.4791895891316634,1.479197929786546,0.1992027360079511,-0.8806899054682876,-1.1716356412545703,9.184845690935616,-1.2493272670060571,0.0679478653655186,-0.997803061237408
0.42,-1.6922857048848643,1.4693111163317492,2.8662250998620538,0.1079524741038142,0.170990039222741,0.0303638591809226,0.0550400585249829,-0.3467755019574902,-0.4019324339140686,-1.6919895819935205,1.4669499184763226,2.863163932334915,0.0676948600660029,-0.4099444882791024,-0.4791895891316634,0.9900075262622922,0.2359481588400835,-0.9608608529569046,0.0344933276285069,10.588763266960086,-1.2423457651249867,0.0705306375949698,-0.982401051095691
0.44,-1.6911306578437844,1.4621919873234432,2.858166875068357,0.1058781757243876,0.1736500804642733,0.0301115305286801,0.0605121844987162,-0.3643958784226544,-0.4041072606779036,-1.6919895819935205,1.4669499184763226,2.863163932334915,0.0676948600660029,-0.4099444882791024,-0.4791895891316634,0.9289129411565078,0.2736062986866658,-0.8810188232582117,-0.1087413381917506,10.588763266960086,-1.2401662776005205,0.0717371247563556,-0.9866891748804412
0.46,-1.689919545993645,1.4551048698102709,2.850420361136473,0.1044785306880513,0.1772077318832471,0.0300124319593411,0.0668654916788602,-0.3807641440485455,-0.4112092622143024,-1.6913126333928603,1.4628504735935317,2.8583720364435985,0.071966423953599,-0.4299444885771257,-0.4991895894296866,0.9469992839860142,0.3176653590072006,-0.8184132812945555,-0.3551000768199419,10.248159808320452,-1.236548095785874,0.0725513756454816,-0.9915022559844004
0.48,-1.688502661626361,1.4473169498765872,2.842079231617572,0.1035146370497269,0.1812987697454689,0.0299706170191381,0.0745974878894626,-0.3971627831113851,-0.4227129504596324,-1.6899587361915405,1.4546515838279497,2.848788244660965,0.0805095517287912,-0.4699444891731721,-0.5391895900257331,1.0735850825153566,0.386599810530118,-0.8199319531419808,-0.5751844122664995,9.959736728964344,-1.2329397035129568,0.0730224702426366,-0.9955045013417984
0.5,-1.6869211640771482,1.439207551820973,2.833472257836506,0.1031583708587071,0.18523437104822,0.0299468828383155,0.0832299087652367,-0.4129689602411553,-0.4375381173531223,-1.6886048389902204,1.4464526940623674,2.839204452878332,0.0890526795039835,-0.5099444897692186,-0.5791895906217795,1.166339893699519,0.4316210437887047,-0.7903088564885113,-0.7412583446744975,9.735932734202834,-1.2297779331219576,0.0730440900065488,-0.9981497564005188
0.52,-1.6851597566321437,1.4307871321411283,2.824538755512412,0.1034844290156713,0.1886661797491063,0.0299121191783134,0.0924975702738149,-0.4283483112266239,-0.4550582824339971,-1.6868237854001409,1.436253804266983,2.8276206610658963,0.0975958072791758,-0.549944490365265,-0.619189591217826,1.2543625582670654,0.4633830754289109,-0.7689675492734277,-0.8760082540437392,9.566572623315553,-1.2276849175794744,0.0725798532814172,-0.999167255917739
0.54,-1.683308738911888,1.422503725131251,2.81571748556317,0.1044775520802174,0.1913034832122509,0.0298571378604806,0.101869311914606,-0.4428941761948335,-0.4726136427370671,-1.6850427318100611,1.4260549144715986,2.8160368692534608,0.106138935054368,-0.5899444909613115,-0.6591895918138725,1.2324796189245155,0.4685870820395538,-0.7272932484104794,-0.8777680151534961,9.436091196376765,-1.2261462354649075,0.0715145809768176,-0.9981665749786064
0.56,-1.6811631350595004,1.41347480177152,2.806063109712193,0.1059635597634878,0.1933364098046639,0.029746671392414,0.1121770183006654,-0.4592349317882551,-0.4919206083697502,-1.6830481000256017,1.414856024661313,2.803453077426124,0.1146820628295603,-0.6299444915573579,-0.6991895924099188,1.3656756809787949,0.5153853193029696,-0.8170377796710787,-0.9653482816341596,9.39099722344963,-1.2251313589856827,0.0700491189086357,-0.9954926792799674
0.58,-1.6788081345143655,1.404106792962155,2.7960156068649336,0.1073355785901676,0.1945502621955235,0.0295341663218456,0.1227592320083072,-0.4767053465116432,-0.5118639085642454,-1.6808398900467625,1.4026571348361263,2.789869285583886,0.1232251906047525,-0.6699444921534043,-0.7391895930059653,1.4273523217912307,0.529110685382092,-0.8735207361694058,-0.9971650097247542,9.321412097177015,-1.2249310684030743,0.0687534445742406,-0.9916933082989396
0.6,-1.6763742946509976,1.394872971920731,2.7860944890922736,0.1080011830680586,0.1949353357217917,0.0291975456443281,0.132818464905542,-0.4942556354517566,-0.5314268447769787,-1.6726701729139504,1.3802715256365727,2.770422411436721,0.1500339952199151,-0.5767053480017593,-0.6118639100543615,1.4070441372126088,0.5029616448617401,-0.87751444700567,-0.9781468106366652,9.321412097177015,-1.225538756160063,0.067973600092913,-0.9864430595860912
0.62,-1.6735696899012342,1.3847337804846247,2.775503392184581,0.1067917375393511,0.1950765733451099,0.0286743916433976,0.1473746967713434,-0.5185469322915716,-0.5252725794821224,-1.6726701729139504,1.3802715256365727,2.770422411436721,0.1500339952199151,-0.5767053480017593,-0.6118639100543615,1.448987551370307,0.7278115932900675,-1.2145648419907478,0.3077132647428149,9.289178891908705,-1.220768950469918,0.0689702579728703,-0.9730430221260628
0.64,-1.6704721348164795,1.3741298341341606,2.765042655050251,0.1033016084580403,0.1953723365942028,0.0280061946106847,0.1615848445592421,-0.5400735795678386,-0.5214879519548121,-1.6726701729139504,1.3802715256365727,2.770422411436721,0.1500339952199151,-0.5767053480017593,-0.6118639100543615,1.303503211188234,0.7105073893949376,-1.0763323638133535,0.1892313763655118,10.978501287922882,-1.222431578539661,0.0712194821536102,-0.975892882841797
0.66,-1.6670978215420615,1.36313344515151,2.754590855391697,0.0989729990878177,0.1955080558238335,0.0272650270226224,0.175090887071621,-0.5582467273436905,-0.5238156068072931,-1.6711698329617513,1.3745044721565551,2.7643037723361776,0.1554889478622367,-0.5967053482997825,-0.6318639103523847,1.1380844229904632,0.6753021256189442,-0.9086573887925942,-0.1163827426240493,10.60294887639884,-1.223647801459693,0.074378635765703,-0.9773845117221476
0.68,-1.6636496614766103,1.3523736228653485,2.7445723001256987,0.0948576795419207,0.1952608714544853,0.0265284115416223,0.1871323010189866,-0.573400230098064,-0.5306179285005458,-1.6681691530573528,1.36297036519652,2.7520664941350903,0.1663988531468799,-0.636705348895829,-0.6718639109484311,1.0257873512540374,0.6020706973682788,-0.7576751377186719,-0.3401160846626339,10.254546846219457,-1.2253557057315567,0.0776931464009464,-0.9763790194131722
0.7000000000000001,-1.6597828553480825,1.3407543139296956,2.733847940369861,0.0908982729531778,0.1945580023015511,0.0257449941382171,0.1988295318563641,-0.5877179574374181,-0.541619822909837,-1.6651684731529546,1.3514362582364847,2.739829215934003,0.1773087584315231,-0.6767053494918754,-0.7118639115444776,1.0757139559615472,0.5848615418688752,-0.7158863669677051,-0.5500947204645612,9.974128708960052,-1.22767885848576,0.0807520361030764,-0.9735365055452946
0.72,-1.6556917418011865,1.3288607422416634,2.722867842587259,0.087463690844252,0.1934037421997953,0.0249671279318681,0.209627499785389,-0.6009387458536758,-0.5559577156817453,-1.661622297984324,1.3379021512466471,2.725591937703113,0.1882186637161662,-0.7167053500879219,-0.7518639121405241,1.114630574318736,0.5398983964512452,-0.6610394208128867,-0.7168946385954167,9.742806248199486,-1.2303650285692034,0.0833840177383675,-0.969093368617534
0.74,-1.651391740773165,1.316711811476307,2.711580609177481,0.0845880546819135,0.1917748269594805,0.0241977732773763,0.2197738306331723,-0.6133829432639918,-0.5720159996925444,-1.6580761228156935,1.3243680442568095,2.711354659472224,0.1991285690008094,-0.7567053506839684,-0.7918639127365705,1.1354234498977445,0.5073165423891676,-0.6222098705157997,-0.8029142005399503,9.555759018478057,-1.233112525667645,0.0854458803944867,-0.9632981162851711
0.76,-1.6471229371333886,1.3049368810046171,2.7005489694496343,0.0820828917675714,0.1897323755583387,0.0234517643521648,0.2290022620047062,-0.6253641636984417,-0.5883709033393149,-1.6542572000149471,1.3098339372520709,2.696117381226433,0.2100384742854526,-0.7967053512800147,-0.8318639133326169,1.1137733858073848,0.4614215685766934,-0.5990610217224968,-0.8177451823385251,9.397942328187128,-1.2362087847656196,0.0873760108083599,-0.9561218722185424
0.78,-1.642447073040401,1.2923009121353215,2.688589250857289,0.0794608380363015,0.1869896408990085,0.022632421491241,0.2380060472555613,-0.6375041304960012,-0.6067675844339209,-1.6501655295820843,1.2942998302324311,2.679880102965741,0.2209483795700957,-0.8367053518760612,-0.8718639139286634,1.1904671540890954,0.4501892625427536,-0.6069983398779732,-0.9198340547303008,9.318388882623369,-1.2399236160128368,0.0892785120890325,-0.9479866253900636
0.8,-1.637600158052352,1.2794268915529252,2.676249725481433,0.0767899534572283,0.1836329816460306,0.0217774987662852,0.2461275854043836,-0.6491750700443749,-0.6262777709714044,-1.6305467706776229,1.2604257056105217,2.658250871635593,0.2757527709968542,-0.7375041319861173,-0.706767585924037,1.2070807663242462,0.4060769074411149,-0.5835469774186863,-0.9755093268741744,9.318388882623369,-1.244249495602359,0.0912203785551908,-0.9385602374587192
0.8200000000000001,-1.6325898822551963,1.2662983599840616,2.663817130718915,0.0739258726251544,0.1811439406303265,0.02099336623893,0.2544605668553747,-0.6630106258142713,-0.6144243547615298,-1.6305467706776229,1.2604257056105217,2.658250871635593,0.2757527709968542,-0.7375041319861173,-0.706767585924037,1.0017043715201013,0.4166490725495575,-0.6917777884948184,0.5926708104937284,9.24571635227403,-1.2447509883328192,0.093384376879694,-0.9204214045217328
0.84,-1.6276900110572476,1.253590026064069,2.652221906595498,0.0714140149870154,0.1813868570655018,0.0204698538093944,0.2612521037611865,-0.6741094788827203,-0.6069368026220096,-1.6305467706776229,1.2604257056105217,2.658250871635593,0.2757527709968542,-0.7375041319861173,-0.706767585924037,0.7506213260027631,0.33957684529059,-0.5549426534224522,0.3743776069760118,11.215575383634132,-1.244105871570109,0.0947961573516793,-0.9260747288822716
0.86,-1.622383278143364,1.239995057519301,2.640101172478266,0.0692891310888225,0.1835287595289893,0.0200972828444591,0.2692327550769219,-0.6848348733108273,-0.6058453455797341,-1.6277892429676544,1.2530506642906605,2.6511831957763525,0.2833021157451128,-0.7575041322841405,-0.7267675862220602,0.6706641475749021,0.3990325657867666,-0.5362697214053469,0.0545728521137711,10.722233863280962,-1.2423474855509546,0.0959629935062694,-0.9317673618088276
0.88,-1.6169077016873876,1.2261933516823282,2.627940462937615,0.0676485527978844,0.1866410664582292,0.0198300836926492,0.2780474082095996,-0.694817956457173,-0.610509155065282,-1.6222741875477171,1.238300581650938,2.6370478440578715,0.29840080524163,-0.797504132880187,-0.7667675868181066,0.7055338012345058,0.4407326566338854,-0.4991541573172886,-0.2331904742773949,10.316338402040856,-1.2402199261489175,0.0968762416177556,-0.9364965896994742
0.9,-1.611248390551021,1.2122011214767403,2.615634383484464,0.0665549429591076,0.1900300057729148,0.0196235513187088,0.2875408938131649,-0.7039674115075769,-0.6198509015437585,-1.61675913212778,1.2235504990112156,2.622912492339391,0.3134994947381472,-0.8375041334762334,-0.8067675874141531,0.8079403194119456,0.4746742801782638,-0.4574727525201938,-0.467087323923826,10.00708834130728,-1.2383928711393608,0.0974210706302165,-0.9397597737985648
0.92,-1.6056905911571413,1.1987462628905854,2.603737966785204,0.0661910558392142,0.1931065980547232,0.0194693286607619,0.2970585960833843,-0.7119581438053171,-0.6319323361338837,-1.6104891422330172,1.206800416341691,2.606777140591108,0.3285981842346643,-0.8775041340722799,-0.8467675880101996,0.8666018706911487,0.4758851135109709,-0.3995366148870083,-0.6040717295062559,9.773175940171312,-1.2369621454666582,0.0974816200442103,-0.941658210764024
0.94,-1.5996392528406853,1.1844248168145028,2.5909520842434155,0.0667644081811266,0.1959675839920987,0.0193547649709609,0.3076044340827217,-0.7198525462053187,-0.6460774003125087,-1.6042191523382543,1.1900503336721662,2.590641788842825,0.3436968737311816,-0.9175041346683264,-0.886767588606246,0.9664614955843316,0.5272918999668696,-0.3947201200000805,-0.7072532089312522,9.59582448767469,-1.2360033688564898,0.0967680676165269,-0.9418754223113892
0.96,-1.5933684824990264,1.1699356618158574,2.577871599545684,0.0681660729337606,0.1982140554447705,0.0192637389166299,0.3189077464881817,-0.728679396026944,-0.6612462204988488,-1.5975716952060783,1.1723002509877405,2.573506437079641,0.3587955632276987,-0.9575041352643728,-0.9267675892022924,1.0437567424386702,0.5651656202730032,-0.4413424910812646,-0.7584410093170069,9.478054938437708,-1.2357494346890034,0.0953882996895114,-0.9407425872976454
0.98,-1.5868670252918742,1.1552602838551502,2.564478724117328,0.0699335940163486,0.199654549711026,0.0191488790231359,0.3305973777914689,-0.7383933212989504,-0.6772613958322617,-1.5905467708364895,1.1535501682884133,2.555371085301555,0.3738942527242159,-0.9975041358604192,-0.9667675897983388,1.103962935470293,0.5844815651643603,-0.4856962636003215,-0.800758766670645,9.43537682153783,-1.2363084427546078,0.0938073589132922,-0.9385211398970044
1.0,-1.5804732806852115,1.1411298888477774,2.551450591789638,0.0715939050071942,0.2002157690590656,0.0189852980164097,0.3417534098280825,-0.7484798580439228,-0.6932942995470034,-1.5703371564023008,1.1183406177902029,2.530615654325715,0.3691899137938665,-0.8383933227890665,-0.7772613973223779,1.0991465732965318,0.5578016018306792,-0.5043268372486198,-0.8016451857370821,9.38928731899614,-1.237718609001589,0.0921649872125898,-0.9348970282954496
1.02,-1.5734563871825693,1.1259839617241447,2.537710634134027,0.0718436816333606,0.2001451889540376,0.0186635507158533,0.359618941099633,-0.7653809539357745,-0.6782364215608739,-1.5703371564023008,1.1183406177902029,2.530615654325715,0.3691899137938665,-0.8383933227890665,-0.7772613973223779,1.4418425186245865,0.8932765635775219,-0.8450547945925868,0.7528938993064727,9.38928731899614,-1.232891233387999,0.0915712752152265,-0.9227596073991764
1.04,-1.5660824566497282,1.1105143787549638,2.5242770764769618,0.0698928424759541,0.199577103543328,0.0181587712417809,0.3767051920220652,-0.780539415655036,-0.6663755525499757,-1.5703371564023008,1.1183406177902029,2.530615654325715,0.3691899137938665,-0.8383933227890665,-0.7772613973223779,1.2868558058037425,0.8543125461216133,-0.7579230859630748,0.5930434505449111,11.450643189801667,-1.235359447772597,0.0925638900623544,-0.9277613056210948
1.06,-1.5583813358014609,1.094761663491196,2.510996177889936,0.0664352000876917,0.1983308209161647,0.0175144039072171,0.3924702455030078,-0.793482901067922,-0.6622231247742748,-1.566645257264362,1.109956684562312,2.522843040352491,0.376908420994346,-0.8583933230870897,-0.797261397620401,1.040809039068867,0.7882526740471296,-0.6471742706442962,0.2076213887850453,10.982491497748017,-1.2379793815724012,0.0948920490424012,-0.9303857983551368
1.08,-1.5507848854732311,1.0795875468372,2.498398276667554,0.0627809042589517,0.1962368595252568,0.0168345848910938,0.4062849262726142,-0.8030710622256978,-0.66403835842374,-1.5592614589884848,1.0931888181065306,2.507297812406044,0.392345435395305,-0.8983933236831362,-0.8372613982164475,0.8456850955819244,0.6907340384803173,-0.4794080578887916,-0.0907616824732615,10.541648395312222,-1.2421298971298158,0.0977182432885889,-0.9295901675366892
1.1,-1.542519588400128,1.063437952033529,2.4850510111338866,0.0592325496492889,0.1928799217602345,0.0160922213751866,0.4193692631174726,-0.8113890005414981,-0.6707881651575734,-1.5518776607126077,1.0764209516507492,2.491752584459596,0.407782449796264,-0.9383933242791828,-0.877261398812494,0.8454996443513172,0.6542168422429218,-0.415896915790015,-0.3374903366916704,10.185533989945723,-1.2480358841862376,0.1003829853176026,-0.9260773159993386
1.12,-1.5340106367689137,1.0471346949934128,2.471519056258876,0.0562520326316687,0.1882619046279903,0.0153429959207867,0.4307184075180447,-0.8186275587671806,-0.6820110534745261,-1.543722011716682,1.0576530851651655,2.474207356483346,0.423219464197223,-0.9783933248752292,-0.9172613994085403,0.8762890875539092,0.5674572200286054,-0.3619279112841267,-0.5611444158476309,9.651341274324295,-1.254885561016494,0.1025189613611316,-0.91986339119278
1.14,-1.5257376114335803,1.0315194441883435,2.4584358002780813,0.0539957379739515,0.182905481711828,0.0146433361423728,0.4393151598657606,-0.8248516649920055,-0.6945641142848427,-1.535566362720757,1.038885218679582,2.456662128507096,0.4386564785981821,-1.0183933254712756,-0.9572614000045868,0.8219230270125183,0.4298376173857948,-0.3112053112412416,-0.6276530405158298,9.651341274324295,-1.262291152146074,0.1042617250581405,-0.9099678468771356
1.16,-1.5168773810991991,1.0149511299257017,2.444390149531405,0.051983261190604,0.1768217071362785,0.0139346611474911,0.4460365908777163,-0.8316198745859118,-0.7093824060892446,-1.5270247883648076,1.0191173521790973,2.4381169005159453,0.4540934929991411,-1.058393326067322,-0.9972614006006332,0.8811470761966071,0.3360715505977829,-0.3384104796953169,-0.7409145902200986,9.421702989032385,-1.2688212707161677,0.1056158240369402,-0.8989065417283693
1.18,-1.507905756565338,0.9982484156855296,2.430031186963159,0.0500641428989057,0.1707113660643223,0.013257698202767,0.4506134329461313,-0.8382423151006383,-0.7258101234042834,-1.5180972886488344,0.9983494856637112,2.418571672509893,0.4695305074001001,-1.0983933266633683,-1.0372614011966796,0.9147050041859524,0.228842103420751,-0.3311220257363245,-0.8213858657519391,9.31845219452407,-1.274815669007745,0.1068683031854727,-0.8872944762622023
1.2,-1.4988639876729537,0.9814167720274036,2.4153249626259137,0.0481368613643612,0.1649050701382486,0.0126219415668949,0.4532293116969335,-0.8445030947360832,-0.7439448324659734,-1.4853750849180314,0.9563362999304976,2.3937406807929444,0.5021053603016592,-0.9382423165907544,-0.8258101248943995,0.9681268718957268,0.1307939375401079,-0.3130389817722456,-0.9067354530845008,9.31845219452407,-1.2798711242793546,0.1080490353051007,-0.8761581375241857
1.22,-1.4902408796770454,0.9652839127577816,2.401352993166696,0.0458352619190021,0.1616867481192662,0.0121185798092709,0.4543001006829983,-0.8529609880160097,-0.7258764141544278,-1.4853750849180314,0.9563362999304976,2.3937406807929444,0.5021053603016592,-0.9382423165907544,-0.8258101248943995,0.9989372954148577,0.0535394493032415,-0.422894663996326,0.90342091557728,9.216190310996351,-1.2803442913169492,0.1096324897600327,-0.856301250775573
1.24,-1.4811548145274964,0.948158748254204,2.386976479728467,0.0433483651726505,0.1628541579459932,0.0118117274668813,0.4547527092354839,-0.8591211801506176,-0.7133042671557127,-1.4853750849180314,0.9563362999304976,2.3937406807929444,0.5021053603016592,-0.9382423165907544,-0.8258101248943995,0.7003779368925909,0.0226304276242789,-0.3080096067303917,0.6286073499357558,10.865950348809749,-1.278183896421378,0.1111090550227845,-0.8651133367960514
1.26,-1.4720369904465949,0.930924760574176,2.3727556491845574,0.0413954575130787,0.167196746084569,0.0116892599459566,0.4574187571488072,-0.8640998932891955,-0.7094039582331818,-1.4803540313150148,0.94695387676459,2.3854825795440004,0.5124037457727648,-0.9582423168887776,-0.8458101251924227,0.3431756317236041,0.1333023956661655,-0.2489356569288947,0.1950154461265452,10.392905148974023,-1.2740405939096902,0.1122576272840656,-0.8750086070161107
1.28,-1.4633055386520908,0.9144688917040784,2.3592589285602545,0.0401476987745965,0.1728501135339097,0.0116835319406109,0.4618151743856581,-0.8679516468591157,-0.7115126547314977,-1.4703119241089817,0.928189030432775,2.3689663770461125,0.533000516714976,-0.998242317484824,-0.8858101257884692,0.3106891171488121,0.2198208618425456,-0.1925876784960145,-0.1054348249157954,10.062337291200492,-1.2690942474943854,0.1131036400647188,-0.8854829271587743
1.3,-1.4540068774646049,0.8970770299482719,2.3449625794916096,0.039739618952608,0.1795209339022221,0.0117762135627345,0.4680357992730061,-0.87110554161288,-0.7182273278907918,-1.4602698169029484,0.90942418410096,2.3524501745482245,0.5535972876571871,-1.0382423180808704,-0.9258101263845157,0.484071435180437,0.311031244367399,-0.1576947376882131,-0.3357336579647041,10.062337291200492,-1.2636724151708705,0.11328422106545,-0.894935995198616
1.32,-1.4445687313656903,0.8796288417670497,2.3304931744744333,0.0405899557252754,0.1864094088267628,0.0119775918366838,0.4756512844123354,-0.8736721647386313,-0.7285325377714661,-1.4491978711498048,0.8886593377393425,2.3339339720205343,0.5741940585993982,-1.0782423186769168,-0.965810126980562,0.6534151032493315,0.3807742569664651,-0.1283311562875644,-0.5152604940337147,9.81898884307884,-1.2585909913538025,0.112573157039481,-0.9028716118872476
1.34,-1.4349577671510747,0.8621325171801915,2.3158008772034044,0.0429990407226729,0.1930614819349503,0.0122979044141694,0.4851992282242877,-0.8760962142398854,-0.7401959443156877,-1.438125925396661,0.8678944913777251,2.315417769492844,0.5947908295416094,-1.1182423192729634,-1.0058101275766085,0.7633385540448605,0.4773971905976143,-0.1212024750627038,-0.58317032721108,9.59837557649189,-1.2532192835399336,0.1106127350060388,-0.9096790159587754
1.36,-1.425630371935689,0.8454428253748587,2.301620278997654,0.0462159363078132,0.1986883200872409,0.0126605008311825,0.4961834708545832,-0.8807914869096772,-0.751931838915626,-1.426539060369962,0.8461296450012066,2.2959015669502527,0.6153876004838206,-1.1582423198690095,-1.0458101281726548,0.8373028031509235,0.5492121315147785,-0.234763633489593,-0.5867947299969145,9.5816941759158,-1.2486729939586054,0.1078193142631114,-0.9150650386912792
1.38,-1.415572478291949,0.8277590666833444,2.2864443787904207,0.049543969052038,0.2035217265019181,0.0130097711538401,0.5090517754337637,-0.887357615537021,-0.7650742062827087,-1.4144372760697077,0.8233647986097868,2.27538536439276,0.6359843714260317,-1.198242320465056,-1.0858101287687012,0.9765105323353406,0.6434152289590211,-0.3283064313671868,-0.6571183683541371,9.5816941759158,-1.2451943592990835,0.1050635754058944,-0.9188860908104528
1.4,-1.405246224038533,0.8099325537715804,2.270997737076969,0.0524158941579214,0.207038168379944,0.0132780841987013,0.5228976625279793,-0.8949115408775322,-0.7789496360374093,-1.3901198895202609,0.7833911859064934,2.248190668476285,0.5645926761112062,-0.9873576170271372,-0.8650742077728248,1.0503546167288158,0.6922943547107818,-0.3776962670255623,-0.6937714877350287,9.55234684172683,-1.242996732127977,0.1027866508144836,-0.9209109032347058
1.42,-1.3945501814959178,0.791874258248885,2.2556318503997974,0.0528917865471763,0.2089037409600767,0.0133010735857595,0.5458156292808528,-0.9096238252446116,-0.7569048405292617,-1.3901198895202609,0.7833911859064934,2.248190668476285,0.5645926761112062,-0.9873576170271372,-0.8650742077728248,1.751897200451323,1.1458983376436749,-0.7356142183539749,1.102239775407382,11.77919974480028,-1.2362434349131006,0.1019909313239189,-0.9115213250519076
1.44,-1.383972455563441,0.7744748369154607,2.2414061243884853,0.0507237712487097,0.2090628851885725,0.0130605088123032,0.5663146276443312,-0.9209495609295024,-0.741718452684439,-1.3901198895202609,0.7833911859064934,2.248190668476285,0.5645926761112062,-0.9873576170271372,-0.8650742077728248,1.39562494826088,1.0249499181739177,-0.5662867842445407,0.7593193922411312,11.247053303716712,-1.2382510120963532,0.1036513695403052,-0.921273675524968
1.46,-1.3724337972358829,0.7559593443590682,2.226668093988301,0.0469427485155317,0.2075403134346106,0.0126308584982766,0.5863201243642295,-0.9295592892273132,-0.7331874164045713,-1.384473962759149,0.773517609736222,2.2395399263985567,0.5757008562466948,-1.0073576173251604,-0.885074208070848,1.169536126398418,1.0002748359949187,-0.4304864148905352,0.4265518139933866,11.247053303716712,-1.2412968788261285,0.1066314142356249,-0.9269941675182254
1.48,-1.360511364727179,0.7373049250002863,2.2120267248694425,0.0430278408023055,0.2040070834827803,0.0121223818369706,0.604745537083877,-0.9353970334645586,-0.731626947113581,-1.3731821092369247,0.7537704573956793,2.2222384422431003,0.5979172165176717,-1.0473576179212067,-0.9250742086668944,0.9695490653867944,0.921270635982374,-0.2918872118622684,0.0780234645495148,10.768994871671566,-1.2463950904500614,0.1096663232532334,-0.9280355988361648
1.5,-1.348865073994553,0.7194923128846265,2.1980849896859604,0.0397481867759385,0.1986119742373308,0.011612760196957,0.6198520824976906,-0.9394227332184436,-0.7359053444420414,-1.3618902557147006,0.7340233050551365,2.204936958087644,0.6201335767886488,-1.087357618517253,-0.965074209262941,0.8104299114485763,0.7553272706906811,-0.2012849876942446,-0.2139198664230179,10.361484383571224,-1.2545805078082368,0.1125817339443154,-0.9231533205285414
1.52,-1.336336218554334,0.7006704197326742,2.1832775184831035,0.0369792979678217,0.1914883830431325,0.0111017512803326,0.6318679440357783,-0.942658665998658,-0.7447745829420485,-1.3494875841789276,0.7122761526847914,2.1856354739023853,0.6423499370596258,-1.1273576191132997,-1.005074209858987,0.7640608304162856,0.6007930769043823,-0.1617966390107306,-0.4434619250003546,9.748417616278855,-1.2637578789320894,0.1149082869945224,-0.9142957713140756
1.54,-1.3236035608774837,0.6817900625275667,2.1682631753897263,0.0349779995140833,0.1837578182756276,0.0106547405020369,0.6405177129031232,-0.9453422952121864,-0.756277366564237,-1.3370849126431543,0.6905290003144463,2.1663339897171263,0.6645662973306028,-1.1673576197093465,-1.045074210455034,0.7320081937264817,0.432488443367246,-0.1341814606764191,-0.5751391811094297,9.748417616278855,-1.2725339652722611,0.1165566787881323,-0.9029758613115848
1.56,-1.310726869868016,0.6628519369099414,2.1529943418061057,0.0334698035865227,0.1759911835136107,0.0102680259957018,0.6465135926552859,-0.9483294401899516,-0.7699724719639004,-1.3241268321006072,0.6677818479292001,2.1460325055169664,0.6867826576015799,-1.2073576203053926,-1.0850742110510805,0.7622819705143048,0.2997939876081323,-0.1493572488882488,-0.6847552699831672,9.463882724457108,-1.280232050263962,0.1177158566845811,-0.8913993830795254
1.58,-1.2984061172113126,0.6448062590215334,2.1382170687188267,0.0322602621342378,0.1688882455346895,0.0099473499673961,0.6499714194797731,-0.9510382408290315,-0.7848055807920751,-1.3106133425512854,0.6440346955290528,2.1247310213019053,0.7089990178725568,-1.247357620901439,-1.1250742116471266,0.773490925542921,0.1728913412243626,-0.1354400319540039,-0.741655441408734,9.463882724457108,-1.2875911546654266,0.1187275184046061,-0.8787437985357647
1.6,-1.2853881255240158,0.6257586288333482,2.1223389153035344,0.0312063285693168,0.1619619597890651,0.0096632821910803,0.6514942625679353,-0.9535581844607532,-0.8022929423325055,-1.265907546237324,0.5972543469800818,2.098976789679223,0.7191781937145448,-1.0037402020781443,-0.8454012980731782,0.8866749413171978,0.0761421544081097,-0.1259971815860849,-0.8743680770215201,9.343041997618457,-1.294077333834278,0.1195520703232798,-0.8661024362380527
1.62,-1.2723240929984845,0.6064799823005351,2.106556850510531,0.0249481192469727,0.1571342249012366,0.0091106222493318,0.6548926039447832,-0.9712995643381822,-0.7725614571899042,-1.265907546237324,0.5972543469800818,2.098976789679223,0.7191781937145448,-1.0037402020781443,-0.8454012980731782,1.7394442308202624,0.1699170688423956,-0.8870689938714482,1.4865742571300633,9.22088401838664,-1.2898153499047278,0.1233237223084473,-0.8396361488676763
1.64,-1.2598677271961498,0.5879545720288226,2.0921290195170137,0.013928275086797,0.1562657331588791,0.0083745390686101,0.6565764622840119,-0.9768109107304316,-0.7479299731456907,-1.265907546237324,0.5972543469800818,2.098976789679223,0.7191781937145448,-1.0037402020781443,-0.8454012980731782,1.264832325035909,0.0841929169614341,-0.2755673196124686,1.231574202210678,11.68560807013182,-1.290023206289977,0.1320949975769113,-0.8495103129407614
1.66,-1.2467127202264086,0.5684277272932444,2.0773544073824106,0.0014774266043397,0.1583062566348476,0.0076069370302376,0.6590877192848231,-0.9752204716359838,-0.7312717278507614,-1.2587157643001785,0.5872169449593004,2.0905227766984917,0.7330195485614992,-1.0142805943279671,-0.8575204415293989,0.8460689164354497,0.1255628500405614,0.0795219547223891,0.8329122647464604,11.68560807013182,-1.2895145870805542,0.1419649638456345,-0.8609949034493982
1.68,-1.2334978434626065,0.5489834707381769,2.0628235347348625,-0.0101604424773138,0.1622333114023898,0.0068944223565321,0.6624911641753454,-0.9692042499828528,-0.7229990036976021,-1.2443322004258874,0.5671421409177375,2.073614750737028,0.7607022582554078,-1.0353613788276124,-0.8817587284418401,0.5390183786678552,0.1701722445261122,0.3008110826565435,0.4136362076579691,10.601487713870483,-1.288149148781015,0.1514570145186125,-0.8719764225343413
1.7,-1.220204899198143,0.5296942002231546,2.048382839243584,-0.0202834500073855,0.1672037751137216,0.006257372436503,0.6666077292807432,-0.9606601651206832,-0.7215351808789743,-1.2299486365515966,0.5470673368761746,2.056706724775564,0.7883849679493166,-1.0564421633272576,-0.9059970153542812,0.4798183813779808,0.2058282552698909,0.4272042431084921,0.073191140931389,10.601487713870483,-1.2864233316686997,0.159521670329608,-0.8815453134060265
1.72,-1.207484840598788,0.5115560588612835,2.0346473341051303,-0.0283331626298175,0.1723398593389026,0.005733124466123,0.6720241148292356,-0.9497695270146348,-0.7244460271185512,-1.2141809371926102,0.5259384936096294,2.038586784468478,0.8160676776432252,-1.0775229478269028,-0.9302353022667226,0.6253324247895835,0.2708192774246221,0.5445319053024145,-0.1455423119788468,10.26143837397194,-1.2844561027481087,0.1668085219039512,-0.8905455575323269
1.74,-1.193974716782516,0.492693728495711,2.0201116649461617,-0.0351162724148633,0.1777709902892673,0.0052827153259875,0.6788599728939289,-0.9372335408152076,-0.7290237387858797,-1.198413237833624,0.5048096503430842,2.020466844161393,0.8437503873371339,-1.098603732326548,-0.954473589179164,0.7497255324151272,0.3417929032346611,0.6267993099713653,-0.2288855833664227,10.025316667150037,-1.2820657498383976,0.1726935877090768,-0.8979113818698298
1.76,-1.1803086322325058,0.4740908011060609,2.0054744477664577,-0.0402909057029497,0.1827688973716145,0.0049528111678706,0.6874564262710661,-0.9239765144477072,-0.7344745190330603,-1.1819534707322898,0.4831537874640479,2.001740946681496,0.8714330970310427,-1.1196845168261933,-0.9787118760916051,0.8357014480018388,0.4298226688568607,0.6628513183750184,-0.2725390123590299,9.969715414385972,-1.2802019824034387,0.1771561075136561,-0.904446573041538
1.78,-1.1671533104209744,0.4566695604327457,1.99146111017632,-0.0439696474662906,0.1867279890192718,0.0047597222081663,0.6968668021350015,-0.910762647304914,-0.7403392371390861,-1.1648016358886082,0.4609709049725206,1.982409092028789,0.8991158067249513,-1.1407653013258383,-1.0029501630040465,0.8624911263761963,0.4705187931967725,0.6606933571396523,-0.2932359053012923,9.943809921460344,-1.279291539015523,0.1808873039570097,-0.9103111268856624
1.8,-1.153104622619335,0.4386059209763567,1.9765818442807968,-0.0467030502531192,0.1898622450875899,0.0046915062562445,0.7074856495440885,-0.8964870872509076,-0.7473053320663477,-1.1323099703142243,0.4111314280675,1.9544441483193653,0.770213416972648,-0.9098285568978144,-0.7344913472090763,0.9553507388501862,0.5309423704543514,0.7137780027003215,-0.3483047463630817,9.919590448445888,-1.2796406434958074,0.1837303312593481,-0.9148759447501826
1.82,-1.1386898134662382,0.4207029203930232,1.9620088996643168,-0.053244633345545,0.1899970616533953,0.004519687782766,0.7330611457765435,-0.8913306725746474,-0.7097805432216414,-1.1323099703142243,0.4111314280675,1.9544441483193653,0.770213416972648,-0.9098285568978144,-0.7344913472090763,2.285171983511124,1.278774811622746,0.2578207338130134,1.8762394422353168,9.885014129832598,-1.2703011140662115,0.1879354292213783,-0.9066338480461548
1.84,-1.124527331207739,0.4039098213178255,1.9488411210275527,-0.0623924915113251,0.1856888060886364,0.0044417750341483,0.7558020910996867,-0.8762131277257568,-0.6782672717376098,-1.1323099703142243,0.4111314280675,1.9544441483193653,0.770213416972648,-0.9098285568978144,-0.7344913472090763,2.0849322747242214,1.1370472661571596,0.7558772424445304,1.57566357420158,12.810009639514648,-1.2815258020535745,0.198231054305495,-0.9167437553651954
1.86,-1.109207939969067,0.3866051637183484,1.9355636936956884,-0.0716175439927016,0.1775015325096318,0.004719232252101,0.774262527003236,-0.8550618675347287,-0.6513576317048476,-1.1246078361444978,0.4020331424985219,1.9470992348472749,0.7848827399401773,-0.9096417388163944,-0.7333217692230743,1.9444100828467608,0.9230217951774644,1.0575630095514044,1.3454820016381095,12.353950186955444,-1.2966373661894213,0.2083014040726968,-0.9191665522490396
1.88,-1.0935814651413631,0.369756800545497,1.9227598347184531,-0.07916847211633,0.1671151201132302,0.0053937599658285,0.7868910518457439,-0.8310937770568466,-0.6305568518973168,-1.109203567805045,0.3838365713605656,1.9324094079030931,0.8142213858752358,-0.9092681026535548,-0.7309826132510704,1.707792025873733,0.6314262421253991,1.1984045238941032,1.0400389903765406,11.517262930731704,-1.312636533875906,0.2165389083083203,-0.9165597856969356
1.9,-1.077762643611028,0.3534063202422709,1.910312993762343,-0.0845744896591309,0.155838121101128,0.0063982631859678,0.7939532971847881,-0.8057023635376388,-0.6150565033683485,-1.0937992994655918,0.3656400002226093,1.917719580958912,0.8435600318102945,-0.9088944664907148,-0.7286434572790664,1.5287740139174848,0.3531122669522102,1.2695706759603909,0.7750174264484155,11.517262930731704,-1.329570658779318,0.2233277527615662,-0.9104346418211888
1.92,-1.0626519961621812,0.3383495652813256,1.8987386238751331,-0.0877681045415073,0.1452935784166696,0.0075494535659346,0.7960556488435286,-0.7810318155680794,-0.6039967889270293,-1.076928098829386,0.347462110892795,1.9031467118133305,0.8728986777453531,-0.9085208303278752,-0.7263043013070625,1.3558881804364085,0.1051175829370254,1.2335273984779682,0.5529857220659573,11.201473750461446,-1.3455351245699965,0.2282604109056724,-0.9031456135968704
1.94,-1.0467429466901732,0.3230076270881536,1.886771098294412,-0.0892366744783074,0.135171728259478,0.0088567684832398,0.7945095501881849,-0.7547749474843285,-0.5933356363076826,-1.0600568981931802,0.3292842215629806,1.8885738426677487,0.9022373236804117,-0.9081471941650352,-0.7239651453350585,1.419043443479232,-0.0773049327671859,1.312843404187547,0.5330576309673374,10.962787695462794,-1.3592184881705156,0.2312959188207853,-0.8950943244119602
1.96,-1.0308966415795486,0.3082004075944774,1.8750070137949948,-0.0884535228751563,0.1265567737125861,0.0102076799151169,0.7901275727030044,-0.7277018550326376,-0.5835555960899066,-1.0424522314085978,0.3111156731372373,1.874059452421468,0.9315759696154704,-0.9077735580021954,-0.7216259893630547,1.455853055977617,-0.2190988742590272,1.3536546225845436,0.4890020108888004,10.856641104927805,-1.3704085653293587,0.2324357903833888,-0.889116284641362
1.98,-1.0159462180516212,0.2946386275144489,1.8640078658995556,-0.085178446818517,0.1199690108123754,0.0115198338466565,0.7837685411595557,-0.7019210332163887,-0.5746673369169217,-1.024114098475639,0.2929564656155651,1.8596035410744869,0.9609146155505288,-0.9073999218393556,-0.7192868333910507,1.400079646678987,-0.3179515771724317,1.2890410908124483,0.4444129586492429,10.856641104927805,-1.3808411001306065,0.2314466290092267,-0.8845689646524381
2.0,-1.0003604123766867,0.2808580920686827,1.8526149956885989,-0.0797644677036693,0.1150469809945734,0.0128416613400168,0.7750161539130431,-0.6780610314556705,-0.5650387901666728,-0.9767577909936436,0.2595425758536295,1.835274499053709,0.8298384574972842,-0.6804137737580852,-0.5606468418002111,1.3588716634179605,-0.4376193623256308,1.193000088035906,0.4814273375124467,10.83185610819055,-1.3889877720978772,0.2286915313633195,-0.8822083158783799
2.02,-0.9849023031279276,0.2674399216265358,1.8415373498941048,-0.0765626207100175,0.1110853858610925,0.0139077411683563,0.771366363353779,-0.6637895751566057,-0.5427169333834315,-0.9767577909936436,0.2595425758536295,1.835274499053709,0.8298384574972842,-0.6804137737580852,-0.5606468418002111,1.337217938738993,-0.1824895279632088,0.7135728149532394,1.116092839162064,10.83185610819055,-1.387983317095273,0.2267300730773163,-0.8775154728658074
2.04,-0.9702958171923692,0.2549985347901082,1.831427895923432,-0.0764193773401871,0.1068824138940865,0.0147521486696662,0.7661747700444507,-0.6463757798448007,-0.5226328817387086,-0.9767577909936436,0.2595425758536295,1.835274499053709,0.8298384574972842,-0.6804137737580852,-0.5606468418002111,1.3542175219649957,-0.259579665466414,0.8706897655902546,1.004202582236147,11.619590169048024,-1.395425899577468,0.2284723336586359,-0.8790691875136533
2.06,-0.9550531640386588,0.2422831033504052,1.8211730217792923,-0.0772863531489543,0.1027107227153637,0.0155617842165291,0.7581727743099748,-0.6260924439979898,-0.5040206511665589,-0.9684594064186706,0.2527384381160487,1.8296680306357072,0.83905244076483,-0.6761123218664246,-0.557842742776869,1.4334057133972535,-0.4000997867237954,1.0141667923405429,0.9306115286074834,11.479054373642612,-1.4028277819818948,0.2309942858178609,-0.8799394480915518
2.08,-0.9400001976810388,0.2299897527308718,1.811261926754537,-0.0781720373120472,0.0996600073221531,0.0162966551256161,0.7474502765975021,-0.604416210831871,-0.4880016160412702,-0.9518626372687248,0.239130162640887,1.818455093799703,0.8574804072999214,-0.6675094180831032,-0.5522345447301846,1.4503797156358436,-0.5361248856236345,1.0838116583059387,0.8009517562644369,11.331729971772802,-1.408940527869844,0.2333156303691969,-0.881157137550781
2.1,-0.9259187023936356,0.2187240265064875,1.802124978364004,-0.0783352043460944,0.0985795392292784,0.0169090507998529,0.7355704307558865,-0.5827443503826497,-0.4745691872876139,-0.9352658681187792,0.2255218871657253,1.8072421569636987,0.8759083738350127,-0.6589065142997818,-0.5466263466835004,1.4064409112838032,-0.5939922920807805,1.0835930224610657,0.6716214376828122,11.200552822340796,-1.412287370811948,0.2350171485056797,-0.8842129653253772
2.12,-0.9113370485708469,0.2073159956283481,1.7927725688628622,-0.0772409944698199,0.0994051383739682,0.0174940228379373,0.7234245313319958,-0.5593717900633651,-0.4614100372650155,-0.917747700642079,0.2123437568797296,1.7963096300300287,0.8943363403701041,-0.6503036105164604,-0.5410181486368162,1.4722114980626224,-0.607294971194533,1.1686280159642293,0.6579575011299216,11.099274094651264,-1.41346445087133,0.2356300213889026,-0.889997621590986
2.14,-0.8969897854827997,0.1963797178689987,1.7836814446117666,-0.0743706682928585,0.1018889175020727,0.0180808382207821,0.7121868607074813,-0.5359921999092881,-0.4483252605142465,-0.9002295331653787,0.199165626593734,1.7853771030963588,0.9127643069051956,-0.641700706733139,-0.5354099505901319,1.4526715556649017,-0.5618835312257264,1.168979507703849,0.6542388375384484,11.045413811673823,-1.4135902481349671,0.2348918076812248,-0.8978013299150708
2.16,-0.8828501347476275,0.1858891111370563,1.7748570170703173,-0.0701826901421629,0.1055298751416792,0.0186838300822168,0.7025732286418678,-0.5147121499859333,-0.434755659335077,-0.8822506665253012,0.1862025689023214,1.774584781113856,0.931192273440287,-0.6330978029498177,-0.5298017525434476,1.3503671004537854,-0.4806816032806749,1.064002496167743,0.678480058958475,11.049066241912442,-1.4122836077602647,0.2329902968892725,-0.9078362198301132
2.18,-0.8695790770895037,0.1762995206080038,1.7667298959386954,-0.0656438944071436,0.1095799926756488,0.0192681464085249,0.6950260866257371,-0.4960785773393467,-0.4214102748445528,-0.8638111007218463,0.1734545838054918,1.76393266408252,0.9496202399753784,-0.6244948991664963,-0.5241935544967633,1.2065121936673389,-0.3773571008065357,0.9316786323293302,0.6672692245262096,11.072841882964894,-1.410079660037582,0.23052718185341,-0.9191769589493192
2.2,-0.8557474965052273,0.1665710449071975,1.758452873194693,-0.060636710306716,0.1140529720495093,0.0199024902138689,0.6886857780453736,-0.47796631807754,-0.4069856935377999,-0.8348277727582168,0.1514955917410365,1.745659382196468,0.7388907205137433,-0.4722242005911424,-0.3980989802292841,1.2003353639048722,-0.3170154290181748,0.9056129630903326,0.7212290653376446,11.101558102410308,-1.407646248975021,0.227808815050729,-0.9310947309634544
2.22,-0.8419681359826078,0.157161428616945,1.7505457793769037,-0.0567175503094047,0.1168921198138863,0.0205717098732286,0.6891779481277347,-0.4633154447205974,-0.3845159213685379,-0.8348277727582168,0.1514955917410365,1.745659382196468,0.7388907205137433,-0.4722242005911424,-0.3980989802292841,1.341436713797638,0.0246085041180565,0.7325436678471298,1.1234886084630995,11.129541718258224,-1.4022480372879431,0.2255807386652875,-0.93914497188373
2.24,-0.8288790266175879,0.1485078138043443,1.7434456287537392,-0.0539614804664409,0.1172215128502154,0.0212762079136913,0.688423025629919,-0.448321094631761,-0.3640271643848494,-0.8348277727582168,0.1514955917410365,1.745659382196468,0.7388907205137433,-0.4722242005911424,-0.3980989802292841,1.2700291387414548,-0.0377461248907862,0.7497175044418214,1.0244378491844286,11.57905265212321,-1.4062760096510798,0.2250715168997519,-0.9491150773236808
2.26,-0.8151327902394376,0.1397080435355117,1.736378259779023,-0.0513368836820256,0.115931035380456,0.0220812386607163,0.6860837779667628,-0.4325346562198203,-0.3438529632140061,-0.8274388655530794,0.1467733497351251,1.741678392394175,0.7476636472913445,-0.4674533252415016,-0.3934367213062304,1.2861591175329274,-0.1169623831578092,0.7893219205970359,1.0087100585421616,11.49818278138082,-1.4113630044330254,0.224762376791213,-0.9570360780176383
2.28,-0.8014517365597644,0.1312199380560406,1.729698220471796,-0.0487403974611853,0.1136410283612578,0.0229256946986544,0.6819836247544485,-0.41718688786183,-0.3252222464198436,-0.8126610511428045,0.1373288657233022,1.7337164127895894,0.765209500846547,-0.4579115745422199,-0.3841122034601229,1.2242026570377025,-0.2050076606157136,0.7673884178995116,0.931535839708128,11.49818278138082,-1.4169135754850457,0.2243887582408107,-0.962579790076414
2.3000000000000003,-0.7885499176855112,0.1234345588593067,1.7236828221499616,-0.0462299298135834,0.1111899725651981,0.0237327299610565,0.6762159145100152,-0.4032168993137117,-0.3089030673749379,-0.7978832367325297,0.1278843817114794,1.7257544331850037,0.7827553544017495,-0.4483698238429382,-0.3747876856140154,1.112140578117249,-0.2883855122216672,0.6984994274059159,0.8159589522452854,11.409247352149578,-1.4227823274920448,0.2238268667453656,-0.9670682687013216
2.32,-0.7751071041071861,0.1155178044610561,1.71767603956168,-0.0435889728209758,0.1090374943316804,0.0245494916087746,0.6682451110350511,-0.3892940258631923,-0.2926781944944353,-0.7822281296444947,0.1189169852346206,1.7182586794727233,0.8003012079569519,-0.4388280731436565,-0.3654631677679079,1.140862188373497,-0.3985401737482019,0.6961436725259729,0.811243644025128,11.331448387531964,-1.427825864444904,0.2231144711268065,-0.971129742561277
2.34,-0.7618407909419922,0.107872148227071,1.71198578258313,-0.0409925296755044,0.1080339018306152,0.0253014990304156,0.6589530851157196,-0.3760580038393492,-0.277164762854812,-0.7665730225564596,0.1099495887577619,1.7107629257604429,0.8178470615121545,-0.4292863224443748,-0.3561386499218004,1.1204916174814237,-0.4646012959665768,0.6618011011921554,0.775671581981166,11.279803464958604,-1.430177895054153,0.222274360640462,-0.9758319042178708
2.36,-0.7494087719418643,0.1008490781448453,1.706862576363321,-0.0385561568279257,0.1081969293062932,0.0259597264869981,0.6502765995634829,-0.3639684890055207,-0.2629041694680724,-0.7504792691295447,0.1012207360483851,1.7035002849943153,0.8353929150673569,-0.4197445717450931,-0.346814132075693,1.0305366250132164,-0.4338242776118328,0.6044757416914237,0.7130296693369814,11.244457656842314,-1.4308876362058232,0.2213108046205158,-0.9822255984915664
2.38,-0.7364950274395577,0.093697962812078,1.701759930375684,-0.0360350976058079,0.1093020541362118,0.026607310696324,0.6416704468273643,-0.3518582224079143,-0.248134957737384,-0.7339468693637495,0.0927304271064905,1.6964707571743405,0.8529387686225594,-0.4102028210458114,-0.3374896142295855,1.0474421668144809,-0.4303076368059322,0.6055133298803195,0.7384605865344174,11.209754097459154,-1.4310403081037608,0.2204934604185811,-0.991815847939179
2.4,-0.7237467064636679,0.0867833098800532,1.696949075052352,-0.033574637532526,0.1111272915276265,0.0272200238419204,0.6337279276212497,-0.3402941452020228,-0.2337094684512464,-0.7044115050981895,0.0761050516916823,1.6893531824888148,0.6625314242982391,-0.3226573257871639,-0.2636140250778772,1.0061141015160622,-0.3971259603057275,0.5782038602945766,0.7212744643068799,11.209754097459154,-1.4303804369652455,0.2196596668776952,-1.0023020866196275
2.42,-0.7110984878354769,0.0800649713383932,1.69237015196192,-0.0321119428979235,0.1116829218144808,0.0277999930622933,0.6314780341287507,-0.3318510325314933,-0.2252152617747717,-0.7044115050981895,0.0761050516916823,1.6893531824888148,0.6625314242982391,-0.3226573257871639,-0.2636140250778772,0.6093023046023869,-0.1124946746249522,0.422155633526472,0.4247103338237357,11.197849684348512,-1.428062802493883,0.2196098304799009,-1.0135264484259157
2.44,-0.6991301592475594,0.0738418055867196,1.6881541587138362,-0.0321472780147727,0.1093961033931438,0.0283369357471225,0.6282415768079025,-0.3234971625646582,-0.2189657663596966,-0.7044115050981895,0.0761050516916823,1.6893531824888148,0.6625314242982391,-0.3226573257871639,-0.2636140250778772,0.5461638773195886,-0.1618228660424103,0.4176934983417563,0.3124747707537553,10.812012620694986,-1.4336849618766152,0.2209944988859371,-1.0156678926353186
2.46,-0.6866220427510221,0.0674684770039465,1.6838313780245855,-0.0333316417359178,0.1048329301267302,0.0288909209927989,0.6224089718687578,-0.3142050439786342,-0.2136909028370835,-0.6977861908552071,0.0728784784338106,1.686717042238036,0.666703619792414,-0.3168171464630138,-0.2667098385459758,0.6086602775256921,-0.2916302469572362,0.4646059293011984,0.2637431761306513,10.737416749262591,-1.442068435147783,0.2234439208532535,-1.0134235613769886
2.48,-0.6742683805164071,0.0612880596396788,1.679598500859581,-0.0354345338988195,0.099239805476594,0.0294230099860912,0.6129895388066162,-0.3042250558327286,-0.2099158117278622,-0.6845355623692424,0.0664253319180673,1.6814447617364785,0.6750480107807639,-0.3051367878147136,-0.2729014654821731,0.7116480792630314,-0.4709716531070773,0.4989994072952836,0.1887545554610653,10.656864510058767,-1.450533195765371,0.2264293225670274,-1.008406382009878
2.5,-0.6627408960053681,0.0556159361168373,1.6756319009958949,-0.0378075302248073,0.0941889570459871,0.0299057505463425,0.6008050071236275,-0.2932624943240399,-0.2077976851712416,-0.6712849338832776,0.0599721854023241,1.676172481234921,0.6833924017691139,-0.2934564291664134,-0.2790930924183704,0.8263277607514471,-0.609226584149436,0.5481280754344342,0.1059063278310332,10.49036928177793,-1.458253992757244,0.2297593297653531,-1.0017904683504288
2.52,-0.6508874160825687,0.0498824704733107,1.6714886915818394,-0.0400726748423485,0.090256674945279,0.0303893844508632,0.5850101036616612,-0.2807003282137869,-0.2066792958659572,-0.6576170858478954,0.0541030568189958,1.6705906193865536,0.6917367927574638,-0.2817760705181132,-0.2852847193545677,1.0106158857258756,-0.7897451730983163,0.628108305512648,0.0559194652642203,10.49036928177793,-1.4645584377042036,0.2328216773696648,-0.9964842425564984
2.54,-0.6393803158820418,0.0444073536872788,1.6673549965917718,-0.0418430653049004,0.0889630179909979,0.0308067431734111,0.5667373307376875,-0.2675656664783509,-0.20672761439645,-0.643949237812513,0.0482339282356675,1.6650087575381862,0.7000811837458137,-0.2700957118698131,-0.291476346290765,1.125184322584327,-0.9136386461986834,0.6567330867717991,-0.0024159265246417,10.435480384877335,-1.4664133103347234,0.2351010967031082,-0.994193073587578
2.56,-0.628782847813255,0.0394567985919231,1.6634213480054283,-0.042888697043232,0.0903822190263986,0.0311350211707731,0.5500568162476793,-0.2543093782011183,-0.2073262037641255,-0.630072780002422,0.0426568086185467,1.659272105016414,0.7084255747341636,-0.2584153532215129,-0.2976679732269622,1.0657474510543787,-0.834025724500409,0.6628144138616315,-0.0299294683837741,10.378944138955376,-1.462523363157218,0.2365802712042169,-0.9951703102942586
2.58,-0.6179514624132658,0.0345235624606333,1.659266363464576,-0.043036462104165,0.0939601079442176,0.0314522861549939,0.534258223703405,-0.2397866694698212,-0.208146431514971,-0.6159877124176222,0.0373716979676335,1.6533806618212366,0.7167699657225135,-0.2467349945732128,-0.3038596001631595,1.0737520300764865,-0.7899296272137146,0.7261354365648565,-0.0410113875422765,10.328840604059224,-1.457133261799846,0.2372912918998286,-1.0002943607653836
2.6,-0.6074148302365868,0.0298857368011754,1.655095053119766,-0.0419266650687285,0.0989778169751845,0.0317914109730539,0.5204722944510576,-0.2248414009352995,-0.2089413326663146,-0.5912385512280955,0.0225342289871423,1.6488590418888276,0.564119305094978,-0.2058495467970249,-0.1847157804611847,1.0174044976803698,-0.6892964626173725,0.7472634267260803,-0.0397450575671809,10.328840604059224,-1.4512337229824113,0.2369953898021979,-1.007827056828816
2.62,-0.5975955624994694,0.0257700996015022,1.6513014056424669,-0.0393559537277759,0.1037398353247277,0.0322199684082094,0.5138043585185111,-0.2095127476554413,-0.1903879312557624,-0.5912385512280955,0.0225342289871423,1.6488590418888276,0.564119305094978,-0.2058495467970249,-0.1847157804611847,1.2486569633767877,-0.3333967966273221,0.7664326639929137,0.9276700705276127,11.60136692846936,-1.4357746074835258,0.2342912058719061,-1.0140655904979854
2.64,-0.5873860709406954,0.0217232152021438,1.647696301982532,-0.0356825858960518,0.1078343101850025,0.0327784686719999,0.5075202329973203,-0.1962212231765276,-0.1712578041198304,-0.5912385512280955,0.0225342289871423,1.6488590418888276,0.564119305094978,-0.2058495467970249,-0.1847157804611847,1.206354654295913,-0.3142062760595421,0.6645762239456856,0.9565063567965978,11.60136692846936,-1.4360743275316146,0.2331206332450813,-1.036958383510431
