t,x,y,z,roll,pitch,yaw,v_x,v_y,v_z,ref_x,ref_y,ref_z,ref_v_x,ref_v_y,ref_v_z,a_com,a_x,a_y,a_z,thrust,wind_x,wind_y,wind_z
0.0,0.8117053763472744,2.4962976630117235,2.827188292317255,0.0148497207779178,0.136515090921751,0.0255600911050605,0.0054462703658838,-0.0058405575467949,0.0171980253909832,0.8118672715637018,2.496093949864246,2.8277063842924166,-0.0945895542951103,-0.1065478261426446,-0.0827486253624366,0.9480849786604476,0.2723135182941918,-0.2920278773397453,0.8599012695491636,10.555205170947374,-1.2850949916778165,0.1605986442341261,-1.174564934703748
0.02,0.8119389851090872,2.496468012273715,2.8272886824818872,0.0214784642612753,0.1311856680052712,0.025929134764655,0.0178938619322432,0.0182741730556963,-0.0065096056303753,0.8118672715637018,2.496093949864246,2.8277063842924166,-0.0945895542951103,-0.1065478261426446,-0.0827486253624366,1.8017453596988329,0.622379578317969,1.2057365301245602,-1.1853815510679286,10.554131306894304,-1.2972873796763145,0.154214473950404,-1.181073955675937
0.04,0.8123815621186639,2.496880894930664,2.8268450869069754,0.036013286682286,0.1160322234457329,0.0264642953657284,0.0243514293137513,0.0208731485525313,-0.0366080178791931,0.8118672715637018,2.496093949864246,2.8277063842924166,-0.0945895542951103,-0.1065478261426446,-0.0827486253624366,1.5446433811883993,0.3228783690754084,0.1299487748417508,-1.5049206124408898,9.18210878644095,-1.3294543976136808,0.1397447220111646,-1.1497691340212195
0.06,0.8128389659464721,2.4972541484841964,2.825803010669634,0.0511707832921229,0.0950594701769349,0.0265035322006479,0.0200559466999439,0.0159410676757298,-0.0659564838476878,0.8109213760207507,2.4950284716028195,2.8268788980387924,-0.1145895545931335,-0.1265478264406678,-0.1027486256604598,1.503420306638105,-0.2147741306903738,-0.246604043840074,-1.467423298424736,8.874670424522265,-1.359079422479536,0.1254970547960482,-1.108598522479661
0.08,0.8131039380228343,2.4974867592700867,2.8241908530171256,0.0657541957756202,0.0723944402682515,0.0260258127344696,0.0060878977217226,0.0072345136177056,-0.0937395794230364,0.8090295849348484,2.492897515079967,2.825223925531544,-0.15458955518918,-0.1665478270367142,-0.1427486262565063,1.6146291180734371,-0.6984024489110642,-0.4353277029012097,-1.3891547787674312,8.870512950326884,-1.3828473563197112,0.111310122946342,-1.0591046473156411
0.1,0.813019097224049,2.4975175613050085,2.822155708802752,0.078955710517397,0.0519667222593917,0.0252464535048741,-0.0145137594738083,-0.0038224205505738,-0.1190879959053255,0.8071377938489462,2.4907665585571137,2.823568953024295,-0.1945895557852264,-0.2065478276327607,-0.1827486268525527,1.72425802199339,-1.0300828597765468,-0.5528467084139739,-1.267420824114455,8.915338375176361,-1.3982845974990443,0.0981523457086921,-1.0121891614878058
0.12,0.8124490823521564,2.4972955384689968,2.819497618094084,0.0921907909028914,0.0333312035813034,0.0242817588782043,-0.0415740867716961,-0.0180916446969858,-0.1453655362123525,0.8032460027332416,2.4866356020044584,2.819913980487244,-0.2345895563812729,-0.2465478282288071,-0.2227486274485992,2.016420836405928,-1.3530163648943945,-0.7134612073205995,-1.3138770153513502,8.964666194771326,-1.4044524148721065,0.0860890218964459,-0.9676851588592276
0.14,0.8112939423391937,2.4967618682555086,2.8163120965803587,0.1047843332566946,0.0185672625939967,0.0233594671072967,-0.0725583615721104,-0.0348315820028451,-0.1718696179945749,0.7993542116175372,2.482504645451803,2.816259007950193,-0.2745895569773194,-0.2865478288248536,-0.2627486280446457,2.203813250385805,-1.5492137400207109,-0.8369968652929681,-1.3252040891111192,8.991428885769892,-1.402682815736492,0.0751726048148469,-0.9271752933901076
0.16,0.8094838766649524,2.495868666659899,2.8125948219897827,0.116765905418695,0.0083501785394174,0.0226731417656677,-0.106628737408187,-0.053904270413751,-0.1985214507273998,0.7944624204869315,2.477373688884247,2.8116040353982403,-0.3145895575733658,-0.3265478294209,-0.3027486286406921,2.3637248892634983,-1.7035187918038326,-0.9536344205452923,-1.332591636641245,8.985676306313508,-1.398565132848567,0.0655613885308993,-0.8999169102189757
0.18,0.8071112163183325,2.494645872358833,2.80856837798184,0.1276034855660411,0.0034109457603413,0.0224241083254811,-0.1412462558715711,-0.0740664529715558,-0.2239765049064752,0.7885706293414246,2.471242732301789,2.8059490628313872,-0.3545895581694122,-0.3665478300169464,-0.3427486292367385,2.373207730750011,-1.730875923169202,-1.0081091278902414,-1.2727527089537685,8.993356141116237,-1.3890691356418243,0.0562041769423412,-0.8790281383998957
0.2,0.8039083694975319,2.4929017163726237,2.803803422819126,0.1377403471978838,0.0034452248509125,0.0226905656387753,-0.1766015710936926,-0.099124914092484,-0.2510898073205319,0.8000489035247539,2.490942549710255,2.7973695527365163,-0.2412462573616872,-0.174066454461672,-0.3239765063965913,2.555902950035827,-1.767765761106077,-1.2529230560464066,-1.355665120702834,9.00724921575602,-1.3691274006846257,0.0477901843597679,-0.8647794028078664
0.22,0.7999966362854785,2.490476300492679,2.798638523369929,0.1416754766621343,0.0089154417012553,0.0232732889084122,-0.2121141618873123,-0.1401829711386613,-0.2628641087627294,0.8000489035247539,2.490942549710255,2.7973695527365163,-0.2412462573616872,-0.174066454461672,-0.3239765063965913,2.777382908303234,-1.7756295396809854,-2.052902852308869,-0.5887150721098772,8.990271519154703,-1.3366064189342537,0.0431522355171881,-0.8619338719196253
0.24,0.7954322674093722,2.487307060922629,2.7932660462812837,0.1387545606165639,0.0191416540953662,0.0240408793587635,-0.2418291404974161,-0.1737075457956746,-0.2738246959882944,0.8000489035247539,2.490942549710255,2.7973695527365163,-0.2412462573616872,-0.174066454461672,-0.3239765063965913,2.305976762709132,-1.4857489305051874,-1.676228732850661,-0.5480293612782489,9.84677380248013,-1.312816700802771,0.0434577505029663,-0.8741999774598991
0.26,0.7903347259503821,2.483540908391049,2.7876458155218584,0.1329849529354418,0.0317008912171795,0.0248785396965219,-0.2658971763797855,-0.2006122995876109,-0.2875264094728627,0.7976364409511371,2.4892018851656386,2.7941297876725506,-0.2612462576597104,-0.1940664547596952,-0.3439765066946145,1.930591282646936,-1.203401794118472,-1.3452376895968163,-0.6850856742284167,9.84677380248013,-1.289652657386317,0.0466908296176936,-0.8873975020275928
0.28,0.7850956663140952,2.4795098944053025,2.7820256830000925,0.1270550656866248,0.044170035354361,0.0256405571494126,-0.284062008360939,-0.2222347007701948,-0.3033614617740774,0.7928115158039033,2.485720556076405,2.7876502575446187,-0.3012462582557569,-0.2340664553557416,-0.3839765072906609,1.6188253729065,-0.9082415990576714,-1.0811200591291967,-0.7917526150607368,9.621905770558442,-1.2688002135224217,0.0506710135684826,-0.9012341088766826
0.3,0.7792518864717612,2.4748530134837448,2.775755287822716,0.1212782389918381,0.0566346526620121,0.0263140178048377,-0.2990824785676468,-0.2422977100563674,-0.3230023292494619,0.7879865906566695,2.482239226987172,2.781170727416687,-0.3412462588518034,-0.2740664559517881,-0.4239765078867074,1.5920918174160548,-0.751023510335394,-1.0031504643086302,-0.982043373769223,9.4237929822184,-1.2511474125546822,0.0547015192111882,-0.9126613299348432
0.32,0.7731444008711781,2.46981487929297,2.769059637378189,0.1163335334096084,0.0675536407075085,0.0267937057623199,-0.3108336683342786,-0.2606367516026233,-0.3455934110115629,0.7811616654796335,2.476757897868136,2.7726911972589527,-0.3812462594478498,-0.3140664565478345,-0.4639765084827539,1.5690505735544538,-0.5875594883315904,-0.9169520773127936,-1.1295540881050503,9.243545323784929,-1.237180057613525,0.0581941690446519,-0.9200709210774508
0.34,0.7671484470261432,2.464700305876123,2.7622644766937725,0.1124421381413275,0.076080797674572,0.0270479857603037,-0.3197473491203478,-0.2769695479288199,-0.3685748335266963,0.7743367403025974,2.4712765687491,2.7642116671012182,-0.4212462600438963,-0.3540664571438811,-0.5039765090788004,1.4784787129073258,-0.4456840393034594,-0.8166398163098304,-1.1490711257566704,9.096118353361817,-1.2251958715219442,0.0613437394790588,-0.9243015383814976
0.36,0.7606657191563779,2.458981659451115,2.754626190865659,0.1089237605935176,0.083089772147109,0.0271050510410977,-0.3280473137842103,-0.2940066574448332,-0.3940992122067447,0.7665118151106601,2.464795239615163,2.754732136928583,-0.4612462606399427,-0.3940664577399275,-0.5439765096748468,1.589533281410384,-0.4149982331931257,-0.8518554758006613,-1.276218934002421,9.015562780041364,-1.217038389491456,0.0641621104017325,-0.9255452242104356
0.38,0.7540243401498398,2.4529261018711,2.74646675282136,0.1056903345820008,0.088332997338369,0.0269693922492634,-0.33569171648856,-0.3106309607689688,-0.4205929655088973,0.7576868899038218,2.457313910466325,2.7442526067410467,-0.5012462612359891,-0.4340664583359739,-0.5839765102708933,1.6099094056455907,-0.3822201352174814,-0.8312151662067807,-1.3246876651076294,8.946972134000134,-1.2107510708459033,0.0667507478519885,-0.9242692662621264
0.4,0.7472338746412173,2.4465436155469145,2.737768412965416,0.102600523881035,0.0920955087914315,0.0266742512193128,-0.3430284756817859,-0.326706319932584,-0.4478919424674205,0.7372397543254118,2.437394553832651,2.725437104545915,-0.4356917179786761,-0.4106309622590849,-0.5205929669990135,1.6259453793721006,-0.366837959661298,-0.8037679581807622,-1.364948847926159,8.89742183569706,-1.2062566145277696,0.0690896326615441,-0.9211863856824888
0.42,0.7406752624103732,2.4401729077644445,2.729219196144817,0.0999928267825349,0.0944539663189757,0.0262851300697313,-0.3470590622872659,-0.3431773976737062,-0.4506738607227647,0.7372397543254118,2.437394553832651,2.725437104545915,-0.4356917179786761,-0.4106309622590849,-0.5205929669990135,0.8591872606099666,-0.2015293302739973,-0.823553887056111,-0.1390959127672092,8.853907385780076,-1.191118615119448,0.0699881491194424,-0.9207902629953868
0.44,0.7336950776622584,2.433146896676934,2.720140346415245,0.0980708822599204,0.0955231614683744,0.0257892661249226,-0.3508649175691712,-0.3587219671764848,-0.4574100580703358,0.7372397543254118,2.437394553832651,2.725437104545915,-0.4356917179786761,-0.4106309622590849,-0.5205929669990135,0.8681798923019135,-0.190292764095265,-0.7772284751389302,-0.3368098673785541,10.22448672914743,-1.190078238030993,0.0711135575653189,-0.9201056526313643
0.46,0.7266343967004754,2.4258124344592327,2.7108724876052284,0.0970380071641356,0.0950046682038744,0.0252001046493935,-0.3550966716431545,-0.3739769051017828,-0.4692280538641439,0.732882837145625,2.4332882442100603,2.720231174875925,-0.4556917182766993,-0.4306309625571081,-0.5405929672970367,0.9877827420918984,-0.2115877036991648,-0.7627468962648987,-0.5908997896904078,9.89934395524324,-1.190631606720806,0.0715791647898406,-0.9165222938165416
0.48,0.7194845189138281,2.418178493526377,2.701323150531836,0.0967676274395663,0.0928160697066537,0.024502921519997,-0.3597976748096391,-0.3887292013651222,-0.485076337424886,0.7241690027860515,2.4250756249648786,2.7098193155359445,-0.4956917188727457,-0.4706309631531545,-0.5805929678930831,1.1078106422515577,-0.2350501583242292,-0.7376148131669702,-0.7924141780371041,9.62639653856786,-1.1922603100101672,0.0714600719720193,-0.9100464613378828
0.5,0.7125981750427991,2.4106560882998456,2.691930929451726,0.0972415262559949,0.0891156669517607,0.0237333555784366,-0.3649723314086492,-0.4024413231722705,-0.5027606021249229,0.7154551684264779,2.416863005719697,2.6994074561959644,-0.5356917194687922,-0.510630963749201,-0.6205929684891296,1.148403863360708,-0.2587328299505059,-0.6856060903574129,-0.8842132350018433,9.421214398118536,-1.1948889184709035,0.0706842535437193,-0.9008984515453056
0.52,0.7052271892673277,2.4024586754776505,2.681659775198407,0.0986105132617579,0.0836487108623506,0.0228243364864018,-0.3722047063862454,-0.4166647359447561,-0.5235054004702105,0.7047413340371022,2.406650386444713,2.686995596826182,-0.5756917200648387,-0.5506309643452475,-0.6605929690851761,1.308586429224027,-0.3616187488798106,-0.7111706386242811,-1.037239917264382,9.141034305328503,-1.199336126593234,0.0693035241523215,-0.8886841771671421
0.54,0.6976852013484423,2.393972467550807,2.670965174072056,0.100902022347546,0.0772827509601113,0.02187578555931,-0.3818635962075287,-0.4314799571615964,-0.544902239117074,0.6940274996477263,2.396437767169729,2.674583737456399,-0.6156917206608852,-0.590630964941294,-0.7005929696812225,1.3879928281186424,-0.4829444910641661,-0.7407610608420129,-1.069841932343174,9.141034305328503,-1.202677882253849,0.0671920292205302,-0.8763472528836234
0.56,0.6903163963268333,2.3856120693966893,2.660406201550328,0.1032102600042238,0.0711657339950713,0.020957414451742,-0.3934197979695065,-0.4477401736856278,-0.5654763707569361,0.6823136652434493,2.385225147879844,2.6611718780717157,-0.6556917212569315,-0.6306309655373403,-0.7405929702772689,1.4328601932030014,-0.5778100880988873,-0.8130108262015712,-1.0287065819931052,9.109945384798266,-1.2052425908573567,0.0647087295357072,-0.8645755550811735
0.58,0.6823021406133054,2.376467571817787,2.648864685170377,0.1051205567505049,0.0653058933152612,0.0199972605117954,-0.4075032406047824,-0.4657364421362138,-0.5875915749076289,0.6695998308242711,2.3730125285750576,2.6467600186721305,-0.695691721852978,-0.6706309661333868,-0.7805929708733154,1.5900403212131786,-0.7041721317637945,-0.8998134225292997,-1.1057602075346395,9.101405708310269,-1.2063243005185988,0.0625121620297688,-0.8546812155274615
0.6,0.6739860694532182,2.366954383888149,2.636876633020101,0.1062201817682901,0.0605697823550888,0.0190890586484483,-0.4235262326659778,-0.4845919633126064,-0.6101053282293178,0.6619269785830663,2.353180749710976,2.619485106424996,-0.5075032420948985,-0.5657364436263299,-0.687591576397745,1.6726745365255486,-0.8011496030597726,-0.9427760588196332,-1.125687666084446,9.075998438582246,-1.2060504890017585,0.060950301772495,-0.8459859315644722
0.62,0.6652967504857624,2.356990988221063,2.624695829754702,0.1049538241288184,0.0592902196284978,0.0183837352789303,-0.4441985802300877,-0.5101201695461913,-0.6067754655537806,0.6619269785830663,2.353180749710976,2.619485106424996,-0.5075032420948985,-0.5657364436263299,-0.687591576397745,1.6508507297403805,-1.0336173782054952,-1.2764103116792436,0.1664931337768627,9.060268486331552,-1.193459959708021,0.0604379349386719,-0.8413198431173099
0.64,0.6566803372446579,2.3470816266987318,2.6131679492871505,0.1013102918522554,0.0621840199121592,0.0179791952370429,-0.4613290176649863,-0.5310927969026503,-0.607126131773073,0.6619269785830663,2.353180749710976,2.619485106424996,-0.5075032420948985,-0.5657364436263299,-0.687591576397745,1.3540919021074798,-0.8565218717449308,-1.0486313678229495,-0.017533310964618,10.621382021532554,-1.1848901744149722,0.0619916292060762,-0.848320804175081
0.66,0.6472915221548885,2.336264631811128,2.600965074404222,0.096594251465792,0.0677692940837493,0.0177415203857492,-0.4762823598160196,-0.5492511693560042,-0.6133685546792924,0.6568519461621173,2.347523385274713,2.6126091906610185,-0.5275032423929217,-0.5857364439243531,-0.7075915766957682,1.216857402677776,-0.7476671075516639,-0.9079186226676916,-0.3121211453109729,10.242620178215477,-1.1762694936453273,0.0646359923025113,-0.8565385118142187
0.68,0.6376335073595956,2.3251120794034867,2.5885766058063178,0.0918927916257967,0.0746106913551064,0.0176082744101945,-0.4884796687347078,-0.5650074131705795,-0.6251328280188027,0.6467018813202193,2.336208656402186,2.598857359133064,-0.5675032429889681,-0.6257364445203996,-0.7475915772918147,1.1569698474992385,-0.6098654459344099,-0.787812190728765,-0.5882136669755123,9.8847600907402,-1.1678109949514277,0.0673589432047698,-0.8643355888916829
0.7000000000000001,0.6277579747523976,2.3136637029945213,2.575906643824834,0.0875536677296641,0.0817415794583152,0.0175062573944611,-0.4982679201531058,-0.5790407507181149,-0.641270395353962,0.6365518164783214,2.32489392752966,2.585105527605109,-0.6075032435850146,-0.665736445116446,-0.7875915778878612,1.1759735414217871,-0.4894125709198976,-0.701666877376772,-0.8068783667579682,9.356251921321928,-1.1589259286327074,0.070136449711453,-0.8712556875854347
0.72,0.6182145531620705,2.30254107532448,2.5635365842638294,0.0839125400609372,0.0881705326340489,0.017396090884717,-0.5057150679889091,-0.5911160895990946,-0.660036118806112,0.624401751606621,2.31157919862733,2.569353696047352,-0.6475032441810611,-0.7057364457124925,-0.8275915784839076,1.176250607503968,-0.3723573917901651,-0.6037669440489835,-0.9382861726074998,9.356251921321928,-1.1506526330122666,0.0726460224074994,-0.8764611132498948
0.74,0.6080335391291962,2.2905959607404345,2.5501096163890207,0.0806849713619966,0.094139100815565,0.0172434413647102,-0.5119116093987525,-0.6028206521588662,-0.6817660094711171,0.6122516867349208,2.2982644697250016,2.5536018644895946,-0.6875032447771076,-0.745736446308539,-0.8675915790799541,1.2723816825864258,-0.309827070492169,-0.5852281279885796,-1.086494533250254,9.166368469140252,-1.143241431752776,0.0747226410202912,-0.8802115891853558
0.76,0.5977381981458612,2.278415007781033,2.536232224534312,0.0778245273964579,0.0991537097022743,0.0170330168278753,-0.5172647068992295,-0.6146147471897678,-0.7049315581295549,0.5991016218483193,2.283949740807772,2.536850032916936,-0.7275032453731539,-0.7857364469045853,-0.9075915796760003,1.3270257863866115,-0.2676548750238539,-0.5897047515450837,-1.1582774329218892,9.0628714554623,-1.1372677696192512,0.0764797520285419,-0.8821765770794257
0.78,0.587342682898624,2.266001627166045,2.5218779463875416,0.0750215281733711,0.1033140433095866,0.0167575719566343,-0.5219957293291183,-0.6260182782259728,-0.7293207952686787,0.5849515569468167,2.26863501187564,2.5190982013293763,-0.7675032459692004,-0.8257364475006318,-0.9475915802720468,1.3668009927877345,-0.2365511214944382,-0.5701765518102475,-1.2194618569561888,8.995659900971077,-1.1320386834136995,0.0783220866108989,-0.8829509683215523
0.8,0.5773837011062715,2.2540029755899917,2.5077794344838398,0.0723508713619633,0.1065753642384199,0.0164436746563963,-0.526068757514172,-0.6363240394665175,-0.7534992167888439,0.5612428964321681,2.234700713254747,2.485411906624108,-0.6219957308192344,-0.7260182797160889,-0.8293207967587948,1.3298442959141363,-0.2036514092526864,-0.515288062027236,-1.2089210760082625,8.936044661379128,-1.1277637859806375,0.0801995151958282,-0.882633023336269
0.8200000000000001,0.5668414477058733,2.241149547550378,2.492698457765941,0.069555098390968,0.1096726746021439,0.0160919979671553,-0.5277122735233764,-0.6484727560899846,-0.7519789646204175,0.5612428964321681,2.234700713254747,2.485411906624108,-0.6219957308192344,-0.7260182797160889,-0.8293207967587948,0.6176642031181284,-0.0821758004602157,-0.607435831173353,0.0760126084213219,8.87914894948426,-1.116943005830902,0.0814894607620329,-0.8842928194218593
0.84,0.5562829274068836,2.2280721172050395,2.477650733126625,0.0672063893990083,0.1124245703827138,0.015751216081351,-0.5280631031317391,-0.6587629152892496,-0.7533294792971004,0.5612428964321681,2.234700713254747,2.485411906624108,-0.6219957308192344,-0.7260182797160889,-0.8293207967587948,0.5192165917328199,-0.0175414804181373,-0.5145079599632507,-0.067525733834145,10.5019104179828,-1.115532342221647,0.0829324819755261,-0.8874194421778251
0.86,0.5457215989369519,2.214795289139254,2.4625047453076,0.0654817015395669,0.1142862887933042,0.015400166416621,-0.5281340733880147,-0.6685021822465604,-0.7611724897224096,0.5550229391239757,2.227440530457586,2.47711869865652,-0.6419957311172576,-0.7460182800141121,-0.849320797056818,0.625242293384237,-0.0035485128137779,-0.4869633478655433,-0.3921505212654608,10.129543137675682,-1.114355827685828,0.0840016308539733,-0.8881074607116944
0.88,0.5356864210647402,2.202008248353728,2.447925027505587,0.0643431645397764,0.1150617285352683,0.0150440267681356,-0.5283055356415206,-0.6770724108484356,-0.773122973228791,0.5425830245075911,2.2129201648632644,2.460532282721344,-0.6819957317133041,-0.7860182806101585,-0.8893207976528644,0.7353439223062063,-0.0085731126752974,-0.4285114300937587,-0.5975241753190697,9.793413377927209,-1.113889413216176,0.0846594092528707,-0.8867203533650655
0.9,0.5251166938116472,2.1883807074417403,2.432295895574806,0.0638622046984816,0.1147637796455163,0.0146563035668523,-0.5287243062665804,-0.6852767598613336,-0.7893139573737871,0.5301431098912064,2.1983997992689424,2.443945866786168,-0.7219957323093505,-0.826018281206205,-0.9293207982489108,0.9077922107307492,-0.0209385312529897,-0.4102174506449008,-0.8095492072498045,9.539672867776062,-1.1140887401337995,0.0847168429005411,-0.883805665522809
0.92,0.5145373163322475,2.174595423532842,2.4163098893059107,0.064373311919777,0.113125289242494,0.0142597422405707,-0.5292904754394671,-0.6929725640554569,-0.8084481751046603,0.5157031952450194,2.181879433644818,2.42535945082119,-0.761995732905397,-0.8660182818022515,-0.9693207988449574,1.0315815986860606,-0.0283084586443327,-0.384790209706165,-0.9567108865436602,9.188457192356507,-1.115529140678333,0.0840633313529597,-0.8793624237422601
0.94,0.5044754959911829,2.1613583576077224,2.4007602648706867,0.0659321266318321,0.1101007685182745,0.0138658376288435,-0.5299321954289706,-0.700164496343077,-0.827378817831863,0.5012632805988324,2.165359068020694,2.4067730348562115,-0.8019957335014435,-0.906018282398298,-1.0093207994410038,1.0130460609464311,-0.0320859994751787,-0.3595966143810025,-0.9465321363601342,9.188457192356507,-1.1179240914364432,0.0824644611015557,-0.8729360459463295
0.96,0.4938612481393722,2.147263731276379,2.3839993746872654,0.0684830510553463,0.1053088376878328,0.0134026009188515,-0.5317138164920583,-0.709161385122618,-0.8477216349400445,0.4858233659377441,2.147838702381669,2.387186618876332,-0.8419957340974898,-0.9460182829943444,-1.0493208000370502,1.115737860365049,-0.0890810531543828,-0.4498444389770484,-1.0171408554090766,9.144487177894009,-1.12153575832747,0.0801600665963357,-0.8638666914889368
0.98,0.4831881026223006,2.1329664851032506,2.3668304867114576,0.0710767982694692,0.0994193437804943,0.0128544745813746,-0.535763865069339,-0.7200708031289821,-0.8681179006637897,0.4693834512617548,2.129318336727742,2.366600202881552,-0.8819957346935363,-0.9860182835903908,-1.0893208006330966,1.1741230239944398,-0.2025024288640375,-0.5454709003182068,-1.01981328618726,9.11658029534101,-1.1253281876290764,0.0778060404602183,-0.853558552773863
1.0,0.4724102875814567,2.118439733707126,2.3492535505668157,0.073191921786537,0.0931902590139627,0.012236378231871,-0.5419868073942269,-0.7319202613020639,-0.8885253902271605,0.4563999093688337,2.0969629449468017,2.323424591678268,-0.5915755570985768,-0.8200708046190982,-0.9681179021539058,1.2202461846422463,-0.3111471162443924,-0.5924729086540903,-1.0203744781685398,9.111345072556103,-1.1282879874284637,0.0758590994405587,-0.8440030815016907
1.02,0.4619435758975647,2.104359088556805,2.332438355868629,0.0734981471210586,0.0912282134284035,0.0118175633936818,-0.5588066998248,-0.7490567521786269,-0.8804529818162283,0.4563999093688337,2.0969629449468017,2.323424591678268,-0.5915755570985768,-0.8200708046190982,-0.9681179021539058,1.2666213705084348,-0.8409946215286568,-0.8568245438281497,0.4036204205466076,9.104363907128572,-1.126158475521884,0.0751305598691316,-0.8363155523589818
1.04,0.450625397375565,2.0892117184015677,2.314877270441644,0.0717262461917412,0.095859402745029,0.0117280980648414,-0.5713570051713682,-0.7646153328405693,-0.8764674448236269,0.4563999093688337,2.0969629449468017,2.323424591678268,-0.5915755570985768,-0.8200708046190982,-0.9681179021539058,1.0191468265486332,-0.6275152673284101,-0.7779290330971189,0.19927684963007,10.902793426841528,-1.1161621726867093,0.075554074808105,-0.8453207617973343
1.06,0.4391099591351949,2.0737704725610886,2.297322048547528,0.0684904391596096,0.1040958348342738,0.0117895087766343,-0.5790687131298512,-0.7782455192697738,-0.8795161034948342,0.4504841537978479,2.0887622369006107,2.313743412656729,-0.6027378955044244,-0.8400708049171214,-0.988117902451929,0.7977260517015363,-0.3855853979241486,-0.6815093214602275,-0.1524329335603647,10.427757357493649,-1.1071099653218193,0.0774067338020273,-0.8546611468443988
1.08,0.4280615339891762,2.058878318854413,2.280524475106424,0.0649374862855608,0.1135106486366939,0.0119045647525573,-0.5831703706690169,-0.7885459279343384,-0.8884721622695271,0.4386526426558764,2.0723608208082287,2.2943810546136505,-0.6250625723161194,-0.8800708055131679,-1.0281179030479757,0.7126236769876954,-0.2050828769582846,-0.5150204332282304,-0.4478029387346427,10.006525989497275,-1.0969535099856036,0.0799428213428959,-0.8646292520361247
1.1,0.4163767204445759,2.0430113214049324,2.2626100585223226,0.0613769807336997,0.1240650000438658,0.0120545356645072,-0.5847705707013717,-0.7975773268647928,-0.9027282958282764,0.4268211315139048,2.0559594047158467,2.2750186965705725,-0.6473872491278145,-0.9200708061092144,-1.0681179036440218,0.8475909255493761,-0.0800100016177418,-0.4515699465227174,-0.7128066779374664,9.403960962698877,-1.0867486355647038,0.0824719982486903,-0.874223608277181
1.12,0.4046845964076484,2.026976381981303,2.244365591177829,0.0582522747382879,0.1346968354137721,0.0122152857605347,-0.584086815195657,-0.8054750166497507,-0.9211888173988144,0.4138733865313485,2.0375579885936626,2.253656338497692,-0.6697119259395097,-0.9600708067052608,-1.1081179042400682,1.0045295941226968,0.0341877752857378,-0.3948844892478986,-0.9230260785269008,9.403960962698877,-1.07655536866147,0.0847004662883638,-0.8841905479842054
1.14,0.3930287342717311,2.0107931494896025,2.225724386165054,0.0556625019480562,0.1450792617205949,0.0123794237318672,-0.5812692775117446,-0.8125509815753987,-0.9420244354090808,0.4009256415487922,2.0191565724714784,2.232293980424812,-0.6920366027512047,-1.0000708073013074,-1.1481179048361148,1.1092010368943517,0.1408768841956176,-0.3537982462823996,-1.0417809005133172,9.098531111346349,-1.0669185743839713,0.0864503660385146,-0.8933393116250873
1.16,0.3820267338636868,1.9952852989086372,2.2076142978915527,0.0534486456381138,0.15455097650125,0.0125174323706592,-0.5767752790804144,-0.8194217536481438,-0.9632765514958505,0.3874197796459436,1.9997551563343927,2.20993162233703,-0.7143612795628999,-1.0400708078973535,-1.1881179054321611,1.139139992430631,0.2246999215665124,-0.3435386036372556,-1.062605804338479,9.098531111346349,-1.0575913500414342,0.088134777525361,-0.902764428376605
1.18,0.3705555376859119,1.9788243060045192,2.188099472787101,0.0511669799812002,0.1640299411209021,0.0126279604783498,-0.5703801243265826,-0.8262348138605135,-0.9871698987872014,0.3733558008228025,1.9793537401824064,2.1865692642343477,-0.7366859563745949,-1.0800708084934,-1.2281179060282077,1.282778077618986,0.3197577376915894,-0.3406530106184802,-1.1946673645675532,9.033857727276882,-1.0495493607041029,0.0898732311837308,-0.911159215638506
1.2,0.3592284682246203,1.9622312881794488,2.1680912460541357,0.0488723130215679,0.1729766161785907,0.0126994007856158,-0.5624558209565587,-0.8326196282360612,-1.0124723584912938,0.3420365314695827,1.9375125653114933,2.138740977847741,-0.5796951521819192,-0.9262348153506296,-1.0781955716401943,1.3636118450530494,0.3962151685011961,-0.319240718777386,-1.2651229852046195,8.963128888864958,-1.042579866019975,0.0916934578061752,-0.918613016945804
1.22,0.3481374946317576,1.945492394286992,2.147883233779485,0.0462670076462077,0.1812343368261183,0.0127049778711084,-0.5468792093470581,-0.840638913775282,-1.0070842778631328,0.3420365314695827,1.9375125653114933,2.138740977847741,-0.5796951521819192,-0.9262348153506296,-1.0781955716401943,0.9164758352629194,0.7788305804750262,-0.4009642769610411,0.2694040314080492,8.905713018307324,-1.0339222008060822,0.0935443026522616,-0.9226273406878488
1.24,0.337896915921818,1.9294655279677264,2.1287558669123365,0.04389283911229,0.1884198583848847,0.0126771630464748,-0.5317300756431562,-0.8461047984767871,-1.0067081412249528,0.3420365314695827,1.9375125653114933,2.138740977847741,-0.5796951521819192,-0.9262348153506296,-1.0781955716401943,0.8054713314566603,0.7574566851950959,-0.2732942350752554,0.0188068319090017,10.698226762967352,-1.030483468636686,0.0957081660787612,-0.9305202018504218
1.26,0.3274309697315468,1.9124926893865597,2.1085745748339235,0.0419267599630221,0.1954506283081995,0.0126558997928919,-0.5155536766317222,-0.8509697858139416,-1.011696625080276,0.3362395799477635,1.9282502171579872,2.127959022131339,-0.5815581577529866,-0.9462348156486527,-1.096400706210793,0.8806658815104299,0.8088199505716986,-0.2432493668577229,-0.2494241927661677,10.305326134538518,-1.0277609838916837,0.0974520742187069,-0.9375544722685676
1.28,0.3172920919638472,1.8954295880170693,2.0882449722108114,0.040584950584525,0.2020276067563469,0.0126578892701978,-0.4990362663262331,-0.8551376604348863,-1.0212034690729563,0.3246456769041251,1.9097255208509747,2.1063951106985352,-0.5852841688951212,-0.9862348162446992,-1.1328109753519902,0.975417993422504,0.8258705152744572,-0.208393731047235,-0.4753421996340101,10.005293427804643,-1.0258450732763111,0.0987122802008907,-0.943372878986648
1.3,0.3074874978837709,1.878292315065943,2.0676845078442825,0.0400968316032711,0.2082054306566556,0.0127066885052416,-0.48211288994742,-0.8585054947405835,-1.0343744506481236,0.3130517738604867,1.891200824543962,2.084831199265732,-0.5890101800372559,-1.0262348168407458,-1.169221244493187,1.0853775053212995,0.8461688189406541,-0.1683917152848602,-0.6585490787583637,9.773890494741863,-1.0246200668552945,0.0992609856105575,-0.9481815275068356
1.32,0.2984917321551573,1.8619557397377493,2.047883180258937,0.0406930864907855,0.2137323334120311,0.012821288726559,-0.4655483679265492,-0.8611176198578464,-1.0493325685284096,0.3012715702597416,1.8706761282071471,2.0614467743758675,-0.5927361911793906,-1.0662348174367922,-1.2056315136343845,1.1235567163350972,0.8282261010435416,-0.1306062558631471,-0.7479058940143002,9.598074326412643,-1.0238326817601622,0.0989046086556009,-0.9526958921530468
1.34,0.2893710706543692,1.844709115037272,2.0267235301735,0.0427507164076195,0.2192037249039878,0.0130415362530521,-0.4472821419558936,-0.8635673857615452,-1.0658895367673424,0.2894913666589965,1.850151431870332,2.038062349486004,-0.5964622023215252,-1.1062348180328387,-1.242041782775582,1.2387388359325464,0.913311298532779,-0.1224882951849415,-0.8278484119466412,9.469610208591805,-1.02353673302423,0.0972932479585414,-0.9566950631075812
1.36,0.2806255516759716,1.8273947860685096,2.005229903412508,0.0459906264794539,0.2243276470438449,0.0133485221261671,-0.4280805606573552,-0.8680898114888218,-1.082674026585009,0.277618012779698,1.828626735518616,2.01376766786761,-0.6001882134636599,-1.146234818628885,-1.278452051916779,1.2950599959678166,0.9600790649269192,-0.2261212863638284,-0.839224490883328,9.437564699135692,-1.0236525141865096,0.0947994606109744,-0.9602672246469988
1.38,0.2726815489939461,1.8108411622120293,1.9844990874509565,0.0491555489888863,0.2288862746941596,0.0136497670519466,-0.4090085999773038,-0.8741799529080277,-1.0986913225400958,0.2656515086218462,1.8061020391519989,1.9885627295206865,-0.6039142246057946,-1.1862348192249317,-1.3148623210579762,1.281974333206593,0.95359803400257,-0.304507070960297,-0.8008647977543415,9.440654981591251,-1.0236501931209572,0.0920650311878001,-0.9627879375368508
1.4,0.2647185817954104,1.7932813494736934,1.962344998953776,0.0521781606968779,0.2333772597174357,0.0139461625185864,-0.3882068286064893,-0.8814761680479654,-1.1158977791219635,0.2522311189950809,1.7671321645666278,1.929564521323952,-0.4196634107933534,-0.974179954398144,-1.090203442310146,1.3982226178577477,1.0400885685407228,-0.3648107569968806,-0.8603228290933851,9.43711876908037,-1.0241465230263582,0.089622626640891,-0.9649438955595148
1.42,0.2573362655956098,1.775479618739855,1.940289394279383,0.052606816526353,0.2361088509023755,0.0139773789579889,-0.3505855447309371,-0.8977776467687233,-1.0863757269179792,0.2522311189950809,1.7671321645666278,1.929564521323952,-0.4196634107933534,-0.974179954398144,-1.090203442310146,2.526188223026434,1.8810641937776096,-0.8150739360378967,1.4761026101992147,12.707104188433732,-1.0176657504762423,0.0890433752290449,-0.9550227241071394
1.44,0.2507326746049211,1.757369205916176,1.918891816115719,0.0492143904048241,0.2354888836833211,0.0135697085234828,-0.3119268614134615,-0.9117662894081188,-1.055240498565929,0.2522311189950809,1.7671321645666278,1.929564521323952,-0.4196634107933534,-0.974179954398144,-1.090203442310146,2.57855500390621,1.932934165873784,-0.6994321319697738,1.5567614176025146,12.707104188433732,-1.0258641395264787,0.0921040408752116,-0.9547766541952044
1.46,0.2451797312916566,1.7399529151897284,1.8990914198834024,0.0442488480059413,0.2309848581858403,0.0128915947917293,-0.2751102115378697,-0.9204659822008366,-1.030416278288889,0.2480344848871474,1.7573903650226463,1.9186624869008504,-0.4217943729565633,-0.9941799546961672,-1.0885058662641558,2.262405951146133,1.8408324937795872,-0.4349846396358936,1.241211013851995,12.07066545606176,-1.038981311125187,0.0969551207575007,-0.9497891847583388
1.48,0.2400554577552323,1.7214773236609764,1.878726809652384,0.0389009243358793,0.2218491566081271,0.0120302666927856,-0.2400396041455905,-0.9265355191209816,-1.0073640724982964,0.2396412166712803,1.7379067659346836,1.8968584180546475,-0.4260562972829831,-1.0341799552922135,-1.085110714172176,2.1202540962701995,1.7535303696139606,-0.3034768460072445,1.152610289529632,12.07066545606176,-1.056979891467685,0.1019265159818199,-0.9387033414362091
1.5,0.2355839455131093,1.7029016422124943,1.858791921433004,0.0340785093565091,0.2089335561101346,0.0111377666860627,-0.209759070601023,-0.9307769537229154,-0.9870852875571334,0.2312479484554132,1.7184231668467207,1.8750543492084444,-0.430318221609403,-1.07417995588826,-1.081715562080196,1.834481941799985,1.514026677228375,-0.2120717300966912,1.0139392470581488,11.800555670443828,-1.0772082084123005,0.1063164882524524,-0.9232255490157976
1.52,0.2316600781330706,1.6842555007063316,1.839243273787193,0.029999883130546,0.1931385914809285,0.0102873831371762,-0.1849996202495488,-0.9337434716432964,-0.9686309125707327,0.2226415840232252,1.6969395677289556,1.8534200379668404,-0.4345801459358228,-1.1141799564843065,-1.078320409988216,1.5511242426202898,1.2379725175737086,-0.148325896019047,0.922718749320034,11.569209123906148,-1.0973575342690318,0.109778377571421,-0.9053296687625144
1.54,0.2283379268968122,1.6664960350707825,1.821018378912559,0.026910586526316,0.1763291287968058,0.0095589792886802,-0.1666338531262925,-0.9356914287574604,-0.9505845785794717,0.2140352195910371,1.6754559686111905,1.8317857267252364,-0.4388420702622426,-1.154179957080353,-1.074925257896236,1.2910907302243089,0.9182883561628176,-0.0973978557081978,0.9023166995630604,11.385010084951318,-1.1181605046375205,0.1126014086903093,-0.8838116158946527
1.56,0.2251576009356539,1.6477600012629607,1.8022119489476047,0.0242606765249147,0.1576733472899586,0.0088813326365132,-0.1530521153275905,-0.9378144821226292,-0.9309197720432498,0.2053223070506886,1.652972369478524,1.810236294285932,-0.4431039945886624,-1.1941799576763994,-1.071530105804256,1.1996620079537734,0.679086889935096,-0.1061526682584468,0.9832403268110856,11.36170627284264,-1.1380795358929003,0.1148130587519089,-0.8612770410830327
1.58,0.2221870937236945,1.6289838011553297,1.7838007021475926,0.0219647549480623,0.1389161519676846,0.0082923275074421,-0.1452799620462696,-0.9396799684705376,-0.911147684731934,0.1965028464021795,1.6294887703309564,1.7887717406489272,-0.4473659189150823,-1.2341799582724458,-1.068134953712276,1.0663276262350994,0.3886076640660457,-0.0932743173954142,0.9886043655657872,11.307897429635888,-1.156292584076107,0.1166530081313908,-0.8389522683970088
1.6,0.2193118301820702,1.610174554419456,1.7657808825982737,0.0199339153520908,0.1208489162380733,0.0077959882882178,-0.1431049018103572,-0.9411456212194746,-0.8917762505094624,0.2149230956213811,1.5819998027318023,1.738243317910996,-0.2078814613057415,-1.0396799699606536,-0.8740695909945703,0.977409188679262,0.1087530117956203,-0.0732826374468587,0.9685717111235836,11.307897429635888,-1.1717824606670293,0.1181588673362363,-0.8192393593157233
1.62,0.2166025075798453,1.59225181275146,1.749182014544088,0.0173373552805448,0.104590654771432,0.0073506252376477,-0.1426449219253857,-0.944750456652394,-0.8563933934351742,0.2149230956213811,1.5819998027318023,1.738243317910996,-0.2078814613057415,-1.0396799699606536,-0.8740695909945703,1.7784494614217456,0.0229989942485742,-0.1802417716459725,1.7691428537144116,11.253981432334513,-1.1788141659509832,0.1196752789967481,-0.7961906426070068
1.64,0.213711918711778,1.5733500061241483,1.7324268963703209,0.0142966174564257,0.0885347237913627,0.0069491985041234,-0.1469034853472637,-0.9452444217288372,-0.8211791254757767,0.2149230956213811,1.5819998027318023,1.738243317910996,-0.2078814613057415,-1.0396799699606536,-0.8740695909945703,1.7737136408050438,-0.2129281710938985,-0.0246982538221529,1.7607133979698764,12.455174962105955,-1.1922119036298666,0.1219674485857635,-0.7811694797847224
1.66,0.2106868715161633,1.5544574572223937,1.7163397778433036,0.0119267039908922,0.073877626822463,0.0066777306836386,-0.1557479328806932,-0.9441457938995764,-0.7894362795668091,0.2128442810083236,1.571603003032196,1.7295026220010503,-0.2204017611576359,-1.0596799702586768,-0.8666539722470975,1.6485141049436558,-0.4422223766714736,0.0549313914630311,1.5871422954483794,12.20940370760036,-1.2027352513813063,0.1236697538715333,-0.7692137319345148
1.68,0.2076090848531749,1.536541290594213,1.7016146012561253,0.0106893700361723,0.0615539513244776,0.0065498532244221,-0.1679495408758373,-0.9420571004336444,-0.7621610612887445,0.2086866517822088,1.550809403632983,1.7120212301811588,-0.2454423608614247,-1.0996799708547234,-0.851822734752152,1.4976476639866425,-0.6100803997572054,0.1044346732965995,1.363760913903228,11.795268716525245,-1.2110430671222292,0.1246790244925243,-0.7589721245662026
1.7,0.2040859438153038,1.517733340044018,1.6866547462574175,0.0108241652508412,0.0504754150810623,0.0065557372261159,-0.1839013824087711,-0.9390135153377152,-0.7353485797896884,0.204529022556094,1.53001580423377,1.6945398383612675,-0.2704829605652135,-1.1396799714507695,-0.8369914972572065,1.5673495323835889,-0.7975920766466887,0.1521792547964695,1.3406240749528064,11.795268716525245,-1.2166837207530004,0.1246484571140298,-0.7514619178392432
1.72,0.2002130195494839,1.4989934856226697,1.672211820937776,0.0129535087559202,0.0415483347568633,0.0067208449703671,-0.2026049711013121,-0.9354672359681456,-0.7102854178529917,0.1991193633447897,1.5072222048047546,1.6778000084161235,-0.2955235602690022,-1.179679972046816,-0.8221602597622609,1.5736600757564043,-0.9351794346270494,0.1773139684784708,1.2531580968348333,11.678881930653915,-1.220428600096383,0.1233903359517059,-0.746598172282602
1.74,0.1961643558227239,1.4812431059440494,1.6589509025880165,0.0167764024838946,0.0352955958283907,0.0070114904738289,-0.222689085169665,-0.9338368517749022,-0.6868717106536051,0.1937097041334854,1.4844286053757392,1.6610601784709793,-0.320564159972791,-1.2196799726428629,-0.8073290222673154,1.544531867061019,-1.004205703417646,0.0815192096621786,1.1706853599693312,11.5838083374465,-1.2217923726511046,0.1207526770646049,-0.7443280902785981
1.76,0.1914649670774159,1.462554201416242,1.6454717194832476,0.0213776273914771,0.0317331249153328,0.007385770019724,-0.2462529095893064,-0.935310518682872,-0.6622918609499104,0.1876740299295864,1.4606350059318227,1.644691129463209,-0.3456047596765798,-1.259679973238909,-0.7924977847723699,1.704108657694364,-1.1781912209820735,-0.0736833453984953,1.2289924851847325,11.5838083374465,-1.2193596173540435,0.1175818973607948,-0.7456597610205471
1.78,0.1862866293245106,1.4438129517447416,1.6324819153752546,0.0257284265227099,0.0317935475937244,0.0078108570908846,-0.2698956514816298,-0.9387383060141684,-0.6379108248553338,0.1810123407330927,1.435841406473005,1.628692861392812,-0.3706453593803684,-1.2996799738349554,-0.7776665472774243,1.7067248542315367,-1.182137094616166,-0.1713893665648114,1.2190518047288323,11.597427731054267,-1.2132521854272926,0.1145966098719129,-0.7521675123148654
1.8,0.180944777779205,1.4259320478075324,1.6205894810782873,0.029320131103322,0.0346094722484892,0.0082534428861711,-0.2908265295585788,-0.9432068411505032,-0.6151387766572685,0.1727918467504292,1.3968760364440331,1.600586374132488,-0.2720979991010888,-1.0387383075042844,-0.6028539991281094,1.5625585128818162,-1.046543903847449,-0.2234267568167414,1.1386024099032666,11.597427731054267,-1.2050588708362509,0.1117960893136148,-0.7622188125752298
1.82,0.1748668520653109,1.406926889816742,1.608582037004307,0.0298484643408245,0.0413983489887413,0.0086178787722757,-0.3152202848322339,-0.9561763565374052,-0.5864966709590941,0.1727918467504292,1.3968760364440331,1.600586374132488,-0.2720979991010888,-1.0387383075042844,-0.6028539991281094,1.9897448608725328,-1.2196877636827557,-0.6484757693451082,1.432105284908719,11.568320029986351,-1.1928810728052084,0.1111309611578859,-0.7742807313790897
1.84,0.1683581079683933,1.3877092548038403,1.5971384849664942,0.0263565335090484,0.0521309870751565,0.0088086546385393,-0.3337396515088305,-0.9642625691401878,-0.5594154117304176,0.1727918467504292,1.3968760364440331,1.600586374132488,-0.2720979991010888,-1.0387383075042844,-0.6028539991281094,1.6894883676504031,-0.9259683338298323,-0.4043106301391264,1.3540629614338218,11.987990235829784,-1.180175696090594,0.1134454016074908,-0.7933607772433017
1.86,0.1615353467356066,1.3683885884411582,1.5862044361769176,0.021737214733587,0.0646356803206029,0.0089261680601703,-0.347063721482052,-0.967271643816814,-0.5353540712799849,0.1700708667594183,1.3864886533689902,1.5945578341412068,-0.2725384686249806,-1.0587383078023076,-0.5958426339826646,1.3834137805917337,-0.6662034986610749,-0.1504537338313016,1.2030670225216369,11.76519302531142,-1.1666399728728207,0.1167334745093285,-0.81385679891357
1.88,0.1548482621158818,1.3500080653902062,1.5762372380042229,0.0178340470381677,0.0770613268616674,0.0090382086422182,-0.35576955653566,-0.9675525153114009,-0.5150562710426693,0.1646289067773965,1.3657138872189043,1.5825007541586449,-0.2734194076727642,-1.0987383083983542,-0.5818199036917748,1.1043902698447132,-0.4352917526803973,-0.0140435747293499,1.0148900118657822,11.400434807135753,-1.1551267116828958,0.1197427871353132,-0.8321742860675747
1.9,0.1476684572393816,1.330669231484136,1.5661428930884975,0.0147625286438138,0.0900881926308622,0.0091886722096071,-0.3613457007762015,-0.9665155948584224,-0.4955592365940401,0.1591869467953747,1.3449391210688189,1.5704436741760823,-0.2743003467205478,-1.1387383089944003,-0.5677971734008851,1.0152622086290808,-0.2788072120270768,0.051846022648927,0.9748517224314552,11.400434807135753,-1.1435485484131347,0.1222653001519516,-0.8503551820585447
1.92,0.1404115281251666,1.311361034428891,1.556418986695311,0.0129554324578439,0.1027194842374117,0.0093969806485624,-0.3637014799361341,-0.9646777524899848,-0.4778488236892221,0.1537009398609638,1.3221643548889308,1.5590877307080648,-0.2751812857683315,-1.178738309590447,-0.5537744431099954,0.8980340824277544,-0.1177889579966312,0.0918921184218823,0.8855206452409031,11.299369122592909,-1.1333279935167928,0.1238557836776904,-0.8666263583035292
1.94,0.1335020119621586,1.2930591727009122,1.5474996347508585,0.0125403201761092,0.1141903962638147,0.0096713853900283,-0.3632100284881036,-0.9621595984843064,-0.4619563011104007,0.1482149329265528,1.2993895887090428,1.5477317872400471,-0.2760622248161151,-1.2187383101864937,-0.5397517128191056,0.8049144334033774,0.0245725724015294,0.1259077002839059,0.79462612894107,11.182300000470605,-1.123357061436978,0.1245286498467773,-0.8826527847522072
1.96,0.1262669902477838,1.2738418102507332,1.538432014031582,0.0135395886629703,0.1256286230462933,0.0100611689998682,-0.3600133816381356,-0.9598253388501669,-0.4456907215231361,0.1427069025159473,1.2756148225142536,1.5367264120293018,-0.2769431638638987,-1.2587383107825398,-0.5257289825282159,0.8370131397305265,0.1598323424983977,0.11671298170699,0.8132789793632272,11.182300000470605,-1.1139391933626737,0.1240325494504072,-0.8976862053082771
1.98,0.1191228096463313,1.254666079710564,1.529685714691605,0.0159019739235695,0.1363866049659019,0.0105598928213115,-0.354287395798127,-0.9580318310849344,-0.4297995042867821,0.1371768486291471,1.2508400563045632,1.5260716050758285,-0.2778241029116823,-1.2987383113785862,-0.5117062522373261,0.8493149727823637,0.2862992920004303,0.089675388261623,0.7945608618177002,11.179292614035148,-1.1056932592698483,0.1225322203981258,-0.9111047556590434
2.0,0.1121184364696342,1.2355063961504889,1.5212553828861195,0.0191292335198552,0.1464678800366581,0.0111411137959889,-0.3461792413174306,-0.9582832647364984,-0.4140806246155478,0.1014084398564249,1.206764488156317,1.5081957394772658,-0.312788008325259,-1.0580318325750504,-0.3581734371252221,0.8844328211949158,0.4054077240348203,-0.0125716825781996,0.7859439835617155,11.180842842633863,-1.09717075958201,0.1201844144340866,-0.9249889521821464
2.02,0.1056536641443437,1.217215050815942,1.5136291351394546,0.0200910630283322,0.1553665296925378,0.0115589045053589,-0.334549589765547,-0.9660311749217154,-0.3894935142113886,0.1014084398564249,1.206764488156317,1.5081957394772658,-0.312788008325259,-1.0580318325750504,-0.3581734371252221,1.414041111038442,0.5814825775941806,-0.3873955092608572,1.229355520207959,11.196391860379665,-1.0852557440599275,0.1192995454639412,-0.9370596232102482
2.04,0.0991202285833727,1.197842648202887,1.5061170312623589,0.0182989163341985,0.163667090242438,0.0117811059872033,-0.3192485405796885,-0.9706230204500228,-0.3630682829101888,0.1014084398564249,1.206764488156317,1.5081957394772658,-0.312788008325259,-1.0580318325750504,-0.3581734371252221,1.5439397663654244,0.7650524592929225,-0.2295922764153746,1.3212615650599917,11.917778947698023,-1.07823507537082,0.1212144882160784,-0.9512143189260728
2.06,0.0929209448144144,1.178409974547002,1.4991251538427082,0.0152871394050453,0.1702948140612136,0.0118747578159639,-0.3014878004088397,-0.9721714380034452,-0.3374718377494603,0.0982805597731723,1.1961841698305669,1.5046140051060135,-0.3044881308306854,-1.0780318328730736,-0.34384822369291,1.55966301905438,0.8880370085424388,-0.0774208776711138,1.2798222580364254,11.908963175746976,-1.073883014406901,0.124131058325808,-0.96270519391988
2.08,0.0873763579777653,1.159950920210875,1.4929496616741582,0.0127130165272433,0.1747419455287728,0.0119458140744237,-0.2831558714709828,-0.9710289136690138,-0.3138810854898789,0.0920247996066672,1.1750235331790655,1.497450536363509,-0.2878883758415382,-1.1180318334691202,-0.3151977968282861,1.4948984686345326,0.916596446892845,0.0571262167215702,1.1795376129790702,11.908963175746976,-1.0714010609294138,0.1270345293895858,-0.9729230140896256
2.1,0.0819236827412261,1.140557889743412,1.4869311974521306,0.0110306623262729,0.1774213085838298,0.0120647516148675,-0.2631820675431681,-0.9685322766249308,-0.2892216613673011,0.085769039440162,1.1538628965275648,1.4902870676210047,-0.2712886208523911,-1.1580318340651663,-0.286547369963662,1.5915976548219135,0.9986901963907392,0.1248318522041436,1.2329712061288882,11.89333571550651,-1.070687135048967,0.1290563090082199,-0.9821590086778887
2.12,0.0768736268356322,1.1212248520328627,1.481405417020324,0.0108308521780963,0.1781236538212485,0.0122680668925445,-0.2429575860714143,-0.9650688952775424,-0.2645925789627036,0.0803432670231142,1.1307022598462615,1.4845561202217314,-0.2546888658632439,-1.1980318346612129,-0.257896943099038,1.6028227921788507,1.0112240735876867,0.1731690673694275,1.2314541202298743,11.89333571550651,-1.0715146972199665,0.1297723810786633,-0.9907027733324963
2.14,0.072229037215823,1.1019676219453185,1.4763788546879313,0.0125854324475922,0.1768786850793105,0.0125874989997742,-0.2226121285905767,-0.961058742118912,-0.2392610894647752,0.0749174946060663,1.1075416231649582,1.4788251728224582,-0.2380891108740967,-1.2380318352572597,-0.2292465162344139,1.6368440126077244,1.0172728740418828,0.2005076579315146,1.2665744748964205,11.96914359771381,-1.0734661117586972,0.1287750247390707,-0.9973967157904726
2.16,0.0681959518180954,1.083732639069512,1.4720829460882336,0.0159514336221592,0.1736901766754112,0.012974905384758,-0.2031196222876236,-0.9591379033771988,-0.2142084657264527,0.0699067160637472,1.0833809864687536,1.4738104860948007,-0.2214893558849495,-1.2780318358533058,-0.2005960893697899,1.5900325308121022,0.9746253151476536,0.0960419370856668,1.2526311869161282,11.96914359771381,-1.0767141336256028,0.1259975673501153,-1.0032485346580218
2.18,0.0643435333889027,1.0645432359787343,1.4680885736684948,0.0199608025969611,0.16806610801651,0.0133545354705169,-0.1835379026326212,-0.9600406671043802,-0.1864544193812564,0.0653109313961567,1.058220349757648,1.4695120600387586,-0.2048896008958023,-1.3180318364493522,-0.1719456625051659,1.6989304102328044,0.9790859827501176,-0.0451381863590727,1.3877023172598133,12.040093291819176,-1.0833855582465552,0.1227468014698939,-1.0059289126165465
2.2,0.0608535463165942,1.0453144397463985,1.464663302563721,0.0236381616303979,0.16068532632669,0.0136420628461176,-0.1668389871011654,-0.9627909164674304,-0.1573886060915887,0.0551666382572716,1.0165412026235154,1.458765852699432,-0.1577286555859122,-1.0600406685944963,-0.1493698436387733,1.6816949438553612,0.8349457765727902,-0.1375124681525119,1.4532906644833825,12.137557092756651,-1.091544975721231,0.1197245265200176,-1.0068041378835364
2.22,0.057636398682993,1.0259349597306155,1.4616225781578764,0.0238460432732638,0.152313402248959,0.0136406309594975,-0.1560954277742293,-0.9735535918831216,-0.1480565610431583,0.0551666382572716,1.0165412026235154,1.458765852699432,-0.1577286555859122,-1.0600406685944963,-0.1493698436387733,0.8921131008746286,0.5371779663468079,-0.5381337707845657,0.4666022524215218,12.21276212275825,-1.1048175580685142,0.1200662799278339,-1.0083025983616998
2.24,0.0547438425630553,1.007383414994443,1.458911429880953,0.0207292759418152,0.1441763900348743,0.0134238472103331,-0.1491159179029069,-0.97835359494814,-0.1377106388417388,0.0551666382572716,1.0165412026235154,1.458765852699432,-0.1577286555859122,-1.0600406685944963,-0.1493698436387733,0.6685650560452163,0.3489754935661171,-0.2400001532509188,0.5172961100709763,10.904528523221416,-1.114568793999721,0.1233193625374784,-0.9996380535737563
2.26,0.0518115890991428,0.9878062497684552,1.456285937637747,0.0167563658461863,0.1362520386024467,0.0132031831355369,-0.1446501830666045,-0.9790613645259688,-0.1253271578320524,0.0535893517014125,1.0059407959375706,1.4572721542630442,-0.1525668061765704,-1.0800406688925197,-0.1419529284902766,0.6591553825175234,0.2232867418151221,-0.0353884788914293,0.619174050484321,11.0334289560833,-1.1228922554303593,0.1272345455004689,-0.993241831459609
2.28,0.0489406973472949,0.968241400115532,1.4539171663660402,0.0135574846781264,0.1296301239668944,0.0130969821111958,-0.1428164344304009,-0.977589668118684,-0.112152519265355,0.0504347785896943,0.9847399825656806,1.4542847573902689,-0.1422431073578867,-1.120040669488566,-0.1271190981932834,0.6691405415514429,0.0916874318101779,0.0735848203642364,0.6587319283348693,11.147097320686044,-1.1297507212521023,0.1304628936711118,-0.989020990917176
2.3000000000000003,0.0460787905959271,0.948718937489238,1.451818438758974,0.0116550909348965,0.1250477898472941,0.0131324563349654,-0.1435287071190423,-0.9751007446294708,-0.0983955066992003,0.047280205477976,0.9635391691937908,1.4512973605174937,-0.1319194085392031,-1.1600406700846124,-0.1122852678962901,0.6999240445639059,-0.0356136344320703,0.1244461744606517,0.6878506283077339,11.147097320686044,-1.1345029298738514,0.1324659991064979,-0.9872619123852394
2.32,0.0433283171759177,0.9302255954469588,1.4500843657066944,0.0112492841240961,0.1232739128305459,0.0133030467298449,-0.1457573362927789,-0.9719525613871284,-0.0848491648500234,0.0446418173071919,0.9403383557920983,1.4490516551595678,-0.1215957097205195,-1.2000406706806588,-0.0974514375992968,0.7042393471259568,-0.1114314586868309,0.1574091621171225,0.6773170924588456,11.186795602801794,-1.135544078835027,0.133203427614462,-0.9892783837093112
2.34,0.0403961523326323,0.9108287156561208,1.4485356640024856,0.0126871529488348,0.1239920371718495,0.013643727538711,-0.1470651795538558,-0.9681126098631706,-0.0707632140124531,0.0420034291364079,0.917137542390406,1.446805949801642,-0.1112720109018358,-1.2400406712767054,-0.0826176073023036,0.7329217091551091,-0.0653921630538428,0.1919975761978942,0.7042975418785159,11.21839879403069,-1.1333250562528994,0.1321860694566628,-0.9952435037772632
2.36,0.0374567535409848,0.8914953429285236,1.4472673486585832,0.0159741040935701,0.1265053165898253,0.0141382728659787,-0.1465504733729255,-0.9659187769157423,-0.0568034161630926,0.0396231334360909,0.8929367289738128,1.444931090201141,-0.1009483120831522,-1.2800406718727515,-0.0677837770053103,0.7070250728385081,0.0257353090465164,0.1096916473714126,0.697989892468024,11.1996049629779,-1.1293066902495266,0.1296102969192427,-1.00328664499504
2.38,0.0346940095530756,0.873137927949665,1.4463229942507725,0.0196342999770198,0.1297804164378548,0.014665608236447,-0.1441352075715616,-0.9666335533763184,-0.0433243368562537,0.037500930206241,0.8677359155423182,1.443427076358065,-0.0906246132644686,-1.320040672468798,-0.0529499467083171,0.6856201449051124,0.1207632900681945,-0.0357388230288024,0.6739539653419425,11.1996049629779,-1.124444859678186,0.1263229736639615,-1.0122826105815017
2.4,0.0318554045876499,0.8537813854165838,1.4456095041423611,0.023204312484956,0.1334974721118125,0.0152142860957899,-0.1397148879424443,-0.9689786408392028,-0.0287292581852669,0.0274872491744975,0.8248062502808491,1.4441567774079598,-0.0976053408165529,-1.0666335548664343,-0.0055716824528056,0.7714515251207137,0.2210159814558659,-0.1172543731442155,0.7297539335493387,11.22469650974108,-1.1197068496810911,0.1232685888512573,-1.0212108159578506
2.42,0.0291062353765659,0.834292161860927,1.445154775073146,0.0237795050700351,0.137393839566544,0.0155639174908148,-0.135315872660628,-0.9789904367887916,-0.0176344407716029,0.0274872491744975,0.8248062502808491,1.4441567774079598,-0.0976053408165529,-1.0666335548664343,-0.0055716824528056,0.7789132927168468,0.2199507640908135,-0.5005897974794449,0.554740870683201,11.265005064343312,-1.1159133755973492,0.1230633652556447,-1.0300164195141663
2.44,0.0264596970492482,0.8146491760266529,1.444922338128279,0.0207247614295682,0.1414795593534844,0.0156601535574241,-0.1294133794896941,-0.9843677253380788,-0.0061133077212208,0.0274872491744975,0.8248062502808491,1.4441567774079598,-0.0976053408165529,-1.0666335548664343,-0.0055716824528056,0.700876530745291,0.2951246585466957,-0.2688644274643548,0.576056652519104,11.06054499741822,-1.111771373991849,0.1260454758658026,-1.0360013637823366
2.46,0.0240685426084686,0.7959367407614828,1.4449166052378113,0.0169691165809748,0.1451813778008554,0.0156787448494164,-0.122518499214467,-0.9850872182035604,0.0049076802225304,0.026511195766332,0.8141399147321847,1.4441010605834317,-0.0882993674655511,-1.0866335551644577,0.0019788484278839,0.6509977328100064,0.3447440137613541,-0.0359746432740892,0.5510493971875676,11.10771166102677,-1.1081570686544815,0.1301686364791607,-1.0428953008367567
2.48,0.0217040398417419,0.7762534600024035,1.4451359017425274,0.0137481103867515,0.1486586786954698,0.0157336927553399,-0.1142266514953078,-0.9834108903994088,0.016416642367904,0.0245590889500009,0.7928072436348561,1.4439896269343755,-0.0696874207635477,-1.1266335557605045,0.0170799101892632,0.7141796398111959,0.4145923859579611,0.0838163902075861,0.5754481072686782,11.110433984869816,-1.1051700261588164,0.1336525420912551,-1.0498293226393405
2.5,0.0195156202166764,0.7566182203352313,1.4455841141352033,0.0118872091588276,0.1515458569367035,0.0158707342691779,-0.1050200476451848,-0.9805875228714596,0.0278035892288251,0.0226069821336698,0.7714745725375274,1.4438781932853195,-0.0510754740615442,-1.1666335563565506,0.0321809719506424,0.7456465608188955,0.460330192506149,0.1411683763974547,0.5693473430460576,11.115050376300132,-1.1030797673300698,0.1357898635999526,-1.0560989177934188
2.52,0.0176139145954338,0.7380244706372123,1.4462224887260455,0.0116076404586807,0.1536633636121109,0.016096088648811,-0.0956371719471994,-0.977071577243948,0.0388077519507093,0.021585472652439,0.7481419014103964,1.4445218127243324,-0.0324635273595407,-1.206633556952597,0.0472820337120216,0.7441300746999285,0.4691437848992688,0.1757972813755892,0.5502081360942074,11.119258517110213,-1.1018254300963717,0.1365734770990373,-1.062167488691388
2.54,0.0158088182032731,0.7185287963789359,1.447124450670244,0.0132750376307781,0.15523653480022,0.0164623974981336,-0.0853748516619395,-0.9729083971997788,0.0508203455659632,0.0205639631712081,0.7248092302832653,1.4451654321633454,-0.0138515806575372,-1.2466335575486436,0.0623830954734009,0.8169297568987566,0.5131160142629945,0.2081590022084578,0.600629680762697,11.180867001867227,-1.1014337048347194,0.1355161283046119,-1.067840383096167
2.56,0.0142895506137847,0.700070262482708,1.448209664280952,0.016596876538314,0.1560797202109813,0.0169211716200843,-0.0751207372497524,-0.9708056769331552,0.0627951466040344,0.0200077523575273,0.7004765591412332,1.4461865781463925,0.0047603660444662,-1.28663355814469,0.0774841572347801,0.7952423448221356,0.5127057206093556,0.1051360133311696,0.5987400519035603,11.222932804328591,-1.100990154062153,0.1325310607126041,-1.0740858258199395
2.58,0.0129032898183459,0.6806487800486966,1.4496060312517958,0.0205675148364957,0.1562736786140093,0.0174198317284543,-0.0640994913533066,-0.9715661377707104,0.0762477521503568,0.0199168402113966,0.6751438879842999,1.4475852506734743,0.0233723127464696,-1.3266335587407363,0.0925852189961594,0.8703716990176112,0.5510622948222903,-0.0380230418777494,0.6726302773161177,11.288606899918705,-1.1013567795532375,0.128986255980592,-1.079139727095614
2.6,0.0117380251577473,0.6611912561081886,1.4512799737055548,0.0241567648693406,0.1558060843639546,0.0178688518480203,-0.0530530571971325,-0.9741120970564,0.0905054979638647,0.0096983152506806,0.6320704731601611,1.4534184188593136,-0.013670951838765,-1.0102490455904585,0.0777926806777939,0.9107537152458998,0.5523217078087055,-0.1272979642844895,0.7128872906753979,11.345549607666726,-1.1024287486796425,0.125772875506891,-1.0834643955647745
2.62,0.0107688422788639,0.6413913273857489,1.4530759936475386,0.0178872378385462,0.1548065129561257,0.0176164925551275,-0.0445722681343135,-0.9997821982738364,0.0886093082936066,0.0096983152506806,0.6320704731601611,1.4534184188593136,-0.013670951838765,-1.0102490455904585,0.0777926806777939,1.3550584995739507,0.4240394531409508,-1.283505060871809,-0.0948094835129052,11.345549607666726,-1.106001451496053,0.1319197697018292,-1.088227093828836
2.64,0.009989019790581,0.6223280712150704,1.4547470643646665,0.0040156601778488,0.1537019538897706,0.0168529508197143,-0.0379777078028583,-1.0044490061851925,0.0874639506539593,0.0096983152506806,0.6320704731601611,1.4534184188593136,-0.013670951838765,-1.0102490455904585,0.0777926806777939,0.4079802880329987,0.3297280165727584,-0.2333403955677992,-0.0572678819823667,10.392403980620657,-1.1098502728207198,0.1467377570241502,-1.0815378391429633
