t,x,y,z,roll,pitch,yaw,v_x,v_y,v_z,ref_x,ref_y,ref_z,ref_v_x,ref_v_y,ref_v_z,a_com,a_x,a_y,a_z,thrust,wind_x,wind_y,wind_z
0.0,-1.802934904116492,0.40231409413612,1.9396637051130976,0.016378444575235,0.1363904351854662,0.0261788176729967,0.005410061232108,0.0072608494985812,0.0045523394056029,-1.802767419225248,0.4024951975536651,1.9398048788425784,0.1055357862565429,-0.0884331267116692,-0.0953333954635378,0.5067358583128145,0.2705030616054005,0.3630424749290601,0.2276169702801451,10.545208086132334,-1.2886930725011496,0.1600260966076728,-1.1708618502972097
0.02,-1.8029408325782104,0.4026689449083642,1.9395407861146692,0.0255816623318418,0.138734389657355,0.026868381390467,-0.005709467912711,0.0245032849808449,-0.0179253433650734,-1.802767419225248,0.4024951975536651,1.9398048788425784,0.1055357862565429,-0.0884331267116692,-0.0953333954635378,1.521669915341093,-0.5559764572409517,0.8621217741131871,-1.1238841385338174,10.54535401976682,-1.3121031852864231,0.1530650468050822,-1.1867002716283217
0.04,-1.803134289462848,0.4031507459733657,1.93890151544172,0.03974360570785,0.1443678676667967,0.0280225619021901,-0.0135996182519577,0.0247814021112159,-0.0480998127432885,-1.802767419225248,0.4024951975536651,1.9398048788425784,0.1055357862565429,-0.0884331267116692,-0.0953333954635378,1.559511481018143,-0.3945075169623354,0.0139058565185491,-1.5087234689107545,9.193024338092528,-1.302021328921641,0.1367998446381965,-1.1716686106297294
0.06,-1.803456997267357,0.4035933934306157,1.937614940789319,0.0550058206336155,0.1520367897023999,0.0294134514835062,-0.0178710469931995,0.019112412636416,-0.0788875027477718,-1.8017120613626825,0.4016108662865484,1.938851544887943,0.1255357865545661,-0.1074030261276391,-0.115333395761561,1.579766122697485,-0.2135714370620897,-0.2834494737399922,-1.5393845002241646,8.791729809978733,-1.287456791486625,0.1204619794706833,-1.1579783623142794
0.08,-1.8038283900645808,0.4038855603065509,1.9357343069613864,0.0697159560473509,0.1603968390434478,0.0309045902229334,-0.0187464210534505,0.0100749398390098,-0.1075547627587812,-1.7996013456375517,0.399842203752315,1.9369448769786723,0.1655357871506126,-0.1453428249595788,-0.1553333963576074,1.5035408132538648,-0.0437687030125498,-0.4518736398703106,-1.4333630005504707,8.858831249217019,-1.2740346211344291,0.1053058863450123,-1.147729884383671
0.1,-1.8041869421395105,0.4039670248652754,1.9333012896527075,0.083740239792209,0.1688420049202969,0.0324540537008092,-0.0168040487717684,-0.0017741896021371,-0.1342493231287534,-1.7974906299124207,0.3980735412180816,1.9350382090694016,0.205535787746659,-0.1832826237915185,-0.1953333969536539,1.4635353018801711,0.0971186140841018,-0.5924564720573516,-1.3347280184986092,8.971869110257558,-1.2626283356327788,0.0920385755372261,-1.1389070068953593
0.12,-1.8044677165195049,0.4037996646892945,1.9305144407179844,0.0964304125926882,0.1766531382004779,0.0339490174047166,-0.0126658907981257,-0.0154923420095003,-0.1578006824452871,-1.7933799141574875,0.3944078887422512,1.9311315411303285,0.2455357883427054,-0.2212224226234581,-0.2353333975497003,1.3783854527516497,0.2069078986821371,-0.6859076203681617,-1.1775679658266855,9.178964698437085,-1.2524149722751925,0.079116962855519,-1.1315416036693375
0.14,-1.8046589750108284,0.4033174161001423,1.927100727898955,0.1091458140832748,0.1845077921437804,0.0355200318818547,-0.0064841934933166,-0.0322791592027442,-0.1823486884707227,-1.7892691984025544,0.3907422362664209,1.927224873191256,0.285535788938752,-0.2591622214553979,-0.2753333981457468,1.5187290845247037,0.3090848652404552,-0.8393408596621951,-1.2274003012717818,9.178964698437085,-1.244931852247929,0.0671156189610758,-1.127115739981343
0.16,-1.8047083043333227,0.4024664526705788,1.9231981166412488,0.1209475953635573,0.1919284283061917,0.0370461483707042,0.0014143379846066,-0.0520798773914106,-0.2066810087347596,-1.78415848263272,0.386128088819792,1.9223182052372811,0.3255357895347984,-0.2971020202873376,-0.3153333987417933,1.6174957880365466,0.3949265738961657,-0.99003590943332,-1.216616013201842,9.20064191883921,-1.2384819537982694,0.0562648597823641,-1.1223736607534858
0.18,-1.8045823358126745,0.4011763991971567,1.9188114558035232,0.131002904567331,0.1989052840973329,0.0384454195699837,0.0109320370753242,-0.0755228664462579,-0.2307347386409003,-1.7780477668479844,0.3805654464023646,1.9164115372684056,0.3655357901308448,-0.3350418191192773,-0.3553333993378397,1.745524458583081,0.4758849545358797,-1.1721494527423646,-1.2026864953070342,9.231140785527714,-1.2330298256831929,0.0477847802020406,-1.1171453078452729
0.2,-1.8042721046588608,0.3994964685478387,1.914203040863976,0.138530378498201,0.2051331646125163,0.039607609342511,0.0213621047506427,-0.0996796516958708,-0.2531102709700187,-1.804035733958908,0.3974002558748438,1.9072747188714785,0.1109320385654403,-0.1665510948483957,-0.3092670171786505,1.7269923511115062,0.5215033837659226,-1.2078392624806429,-1.11877661645592,9.270558606449413,-1.2283158956509332,0.0411088524974333,-1.1116280126500206
0.22,-1.8036776068717928,0.3970947227719839,1.9090419547600816,0.1409142516447226,0.2112411357782144,0.0403829691486743,0.0378524731131131,-0.1377329020112169,-0.2607713530999754,-1.804035733958908,0.3974002558748438,1.9072747188714785,0.1109320385654403,-0.1665510948483957,-0.3092670171786505,2.1087166047707173,0.8245184181235229,-1.9026625157673047,-0.3830541064978376,10.3960820574448,-1.2117668607062448,0.039551873195568,-1.0998763787164951
0.24,-1.8027368790667675,0.3939965309348944,1.903760126453138,0.1372077110422006,0.2168841086806856,0.0406310207061761,0.055466517113833,-0.1691105012578501,-0.2670551685489618,-1.804035733958908,0.3974002558748438,1.9072747188714785,0.1109320385654403,-0.1665510948483957,-0.3092670171786505,1.8263998857989268,0.8807022000359945,-1.568879962331661,-0.3141907724493159,10.3960820574448,-1.2081402548851117,0.0434475678799255,-1.101481882633039
0.26,-1.8015128141954069,0.3905344165246012,1.8986136588698208,0.1315323010313474,0.221870932538217,0.0406190404793019,0.0725968635816933,-0.1933243647712789,-0.2743132692182745,-1.8029264135732537,0.3957347449263598,1.904182048699692,0.1309320388634636,-0.1847567405288233,-0.3249734728862006,1.5267940117135728,0.8565173233930135,-1.2106931756714414,-0.3629050334656353,10.299623955650532,-1.205818571528404,0.0497708157006823,-1.1039077139187683
0.28,-1.7998683407268898,0.3864357252626763,1.8930327788422296,0.1253169657610081,0.2267697419537027,0.040496405325049,0.0910317172983053,-0.2151392015658767,-0.2834747877401229,-1.800707772801945,0.3924037230293919,1.8979967083561189,0.17093203945951,-0.2211680318896784,-0.3563863843013007,1.4997202718790532,0.9217426858305988,-1.090741839729889,-0.4580759260924244,10.185048933330108,-1.204711353106887,0.0564199375925795,-1.1055316578323886
0.3,-1.7978506839269537,0.3819248732783423,1.887252510086784,0.1196143084650284,0.2313459942710572,0.0403261981750781,0.109893423504307,-0.234828422552107,-0.2941716303424098,-1.7984891320306362,0.389072701132424,1.8918113680125457,0.2109320400555565,-0.2575793232505335,-0.3877992957164008,1.464455381450929,0.9430853103000854,-0.9844610493115148,-0.5348421301143436,9.98478482647988,-1.203443259623584,0.0623860303661705,-1.1076404029501197
0.32,-1.795451325195753,0.3770373393558973,1.881243368440823,0.1146748707305343,0.2356286929014543,0.0401371420179142,0.1291921671700074,-0.253028962754302,-0.3062243249406963,-1.794270491229525,0.3839211146674133,1.8840553820982175,0.2509320406516029,-0.2939906146113886,-0.4192122071315009,1.456853302331511,0.9649371832850224,-0.9100270101097456,-0.6026347299143253,9.98478482647988,-1.2028268477366264,0.0673005604154591,-1.1097125055118913
0.34,-1.7928083083520374,0.3720669463777691,1.8753077625461323,0.1107191448862136,0.2394419567263239,0.0399502472925909,0.1481282759217647,-0.2693670662049092,-0.3179935176156184,-1.790051850428414,0.3787695282024026,1.8762993961838896,0.2909320412476494,-0.3304019059722437,-0.450625118546601,1.3820489637134448,0.9468054375878652,-0.8169051725303605,-0.5884596337461051,9.913900362008462,-1.202475695713035,0.0717083853470356,-1.1109313403065595
0.36,-1.7896310510866094,0.3665000018422528,1.8688150230277232,0.1070727336595602,0.2432016948029106,0.0397344745476767,0.1686737098705765,-0.286415767898898,-0.3306755980737015,-1.7848332096124018,0.3727076594533706,1.867758087484184,0.3309320418436958,-0.3668131973330988,-0.4820380299617011,1.4778432345320796,1.0272716974405862,-0.8524350846994405,-0.6341040229041556,9.89893963601844,-1.202692518909593,0.0755579005328692,-1.111810613809338
0.38,-1.786036523328905,0.3605956678397672,1.8620669494482445,0.1036536197516807,0.2467160278819093,0.0394832632123862,0.1898183336076628,-0.303068574265489,-0.3434999475381875,-1.7786145687814885,0.3657355084203172,1.858431455999101,0.3709320424397422,-0.4032244886939539,-0.5134509413768011,1.4907003488741364,1.0572311868543154,-0.83264031832955,-0.6412174732242981,9.887343817599684,-1.2033896708088414,0.0791565378295196,-1.1124000563773793
0.4,-1.7820132562266364,0.3543643828156739,1.855061375720972,0.1003271215045962,0.2499991793198026,0.0391917477448669,0.2115146730736429,-0.3191120012217229,-0.3564114279097851,-1.776545606648522,0.3454422391264928,1.8448919520713352,0.2898183350977789,-0.3651215506055444,-0.3839398549995923,1.4956846426546675,1.0848169732990047,-0.8021713478116949,-0.6455740185798808,9.8793820174933,-1.203954703557816,0.0824508373376052,-1.1122037149868205
0.42,-1.7776842364180656,0.3480574754298412,1.8483717378238709,0.0946755824779485,0.2516515602496306,0.0385728181950353,0.2433899195252129,-0.3426633180981814,-0.3457006076424168,-1.776545606648522,0.3454422391264928,1.8448919520713352,0.2898183350977789,-0.3651215506055444,-0.3839398549995923,2.052691850816603,1.5937623225785014,-1.177565843822928,0.5355410133684152,9.8793820174933,-1.1941907893635373,0.0877623930463899,-1.1007691681264886
0.44,-1.7724644388615758,0.3410134865008365,1.841590458056929,0.0861990929847478,0.2504372383038158,0.037458845954228,0.2766272394412532,-0.3599918996654795,-0.3331961348938149,-1.776545606648522,0.3454422391264928,1.8448919520713352,0.2898183350977789,-0.3651215506055444,-0.3839398549995923,1.9757030476872277,1.6618659958020143,-0.8664290783649053,0.6252236374300946,11.585291035841692,-1.2013336403712322,0.095808600776334,-1.1056702437481494
0.46,-1.766595927248834,0.3336730338081409,1.8350226031063388,0.0776395722067843,0.2462995615796191,0.0361152125887297,0.3082126887858362,-0.3730549435872184,-0.3241275095572257,-1.773647423297544,0.3417910236204373,1.8410525535213396,0.3098183353958021,-0.3775321458735555,-0.3920278364918733,1.768137220562877,1.5792724672291507,-0.6531521960869424,0.4534312668294626,11.405381063208551,-1.211615023940342,0.1035990626393394,-1.107168384752237
0.48,-1.7604690155690952,0.3264859547215827,1.8289252256654027,0.0701858393944986,0.2400286533480581,0.0347549081299849,0.3347117296772485,-0.3828762131618458,-0.3180709756912935,-1.7678510565955885,0.3344885926083265,1.8333737564213477,0.3498183359918486,-0.4023533364095777,-0.4082037994764352,1.4451108146881195,1.3249520445706124,-0.4910634787313711,0.3028266932966095,11.170317562749004,-1.2260614116575408,0.1112480986111034,-1.103704308438316
0.5,-1.7535209655399928,0.3187390189253237,1.8226095429735925,0.0633584008576036,0.23208505422047,0.0333663354059373,0.3583023054145321,-0.3913436757110958,-0.3138833949102821,-1.762054689893633,0.3271861615962155,1.825694959321356,0.389818336587895,-0.4271745269455999,-0.4243797624609971,1.270579610293036,1.1795287868641813,-0.423373127462498,0.2093790390505695,10.964512993985409,-1.2410709805908862,0.1177903457379322,-1.0978102648511563
0.52,-1.7461446402154666,0.310837792503243,1.8163535551069816,0.0576500926110083,0.2237683265919587,0.0320985198532873,0.3778462228160179,-0.3984347573533431,-0.3119975350493489,-1.754258323161875,0.3186426710573035,1.817207364072136,0.4298183371839414,-0.4519957174816221,-0.440555725445559,1.0437966919714243,0.9771958700742904,-0.3545540821123655,0.0942929930466573,10.783503790137727,-1.2548473241023097,0.1229248498239669,-1.0908443409504542
0.54,-1.7384149474256172,0.3028066247471132,1.8101211795730887,0.0530515749130266,0.2158789641992393,0.0309888028460109,0.3940034447651871,-0.4045128348409328,-0.3113022265026013,-1.746461956430117,0.3100991805183916,1.808719768822916,0.469818337779988,-0.4768169080176443,-0.4567316884301209,0.8638320164173144,0.8078610974584621,-0.3039038743794853,0.0347654273373798,10.527726038986655,-1.267594316987518,0.1271873906160988,-1.0825470447259329
0.56,-1.7307943824978125,0.2950658403720453,1.8042038983912976,0.0494381208347244,0.2091478720565251,0.030068274922929,0.4072585920534924,-0.4100512279921234,-0.311583187505128,-1.737665589683458,0.300935160216079,1.7998277744990818,0.5098183383760344,-0.5016380985536665,-0.4729076514146829,0.7184213029566309,0.6627573644152618,-0.2769196575595295,-0.0140480501263307,10.527726038986655,-1.2782006985374574,0.1305521476698929,-1.0748165779628094
0.58,-1.7225208601984905,0.2868083292202401,1.797960639493409,0.0461821323654427,0.2030070064234833,0.0292173943771286,0.4192455443201621,-0.4154134217281049,-0.3127556076087545,-1.7278692229218977,0.2911506101503659,1.7905313811006338,0.5498183389720809,-0.5264592890896886,-0.4890836143992447,0.6591940442787017,0.5993476133334841,-0.2681096867990756,-0.0586210051813251,10.452066933264176,-1.2875755903322064,0.1333681371128866,-1.067654588462495
0.6,-1.7140283235514997,0.2784485004819777,1.7916841391544227,0.0433737191467128,0.1980678171152905,0.0284798603179851,0.429262512846318,-0.4203003559116539,-0.3148624923826841,-1.7015585829824824,0.2660376581338349,1.7823228591129712,0.5192455458102783,-0.4646670605618661,-0.3309137081541608,0.5671436053129633,0.5008484263077956,-0.2443467091774509,-0.1053442386964809,10.31609746221966,-1.2952659627490106,0.1356538862460212,-1.061710833944756
0.62,-1.705297422557744,0.2699545003896249,1.785569691784166,0.039857090410419,0.194301467405068,0.0277662244933388,0.4434427704318275,-0.4282996042146419,-0.295360635772411,-1.7015585829824824,0.2660376581338349,1.7823228591129712,0.5192455458102783,-0.4646670605618661,-0.3309137081541608,1.270226446201531,0.7090128792754752,-0.3999624151493991,0.9750928305136548,10.31609746221966,-1.2931023981178067,0.1379736080248019,-1.0497476572108548
0.64,-1.696756912554717,0.2617693737662163,1.7801322008837197,0.0359613047273002,0.1919120771598854,0.0271193940023322,0.4547587896904852,-0.4328183786526935,-0.2781066386739087,-1.7015585829824824,0.2660376581338349,1.7823228591129712,0.5192455458102783,-0.4646670605618661,-0.3309137081541608,1.0561392310668922,0.5658009629328858,-0.2259387219025826,0.8626998549251141,11.779102249027346,-1.2991013755336964,0.1416574182562561,-1.05507531582493
0.66,-1.6875510198689272,0.253081712363467,1.77472582898746,0.0322549774510843,0.1911118361290421,0.0265463980270526,0.4653971682315718,-0.4357306921650867,-0.2636363472762834,-1.6963661275243795,0.2613909875282162,1.7790137220314295,0.5392455461083014,-0.4745177883286183,-0.334545328263242,0.9097334789790203,0.5319189270543312,-0.1456156756196591,0.7235145698812645,11.27318117093273,-1.3013133121579656,0.1448981574421114,-1.062215009259067
0.68,-1.6781326826847585,0.2443492388821825,1.7695691616471028,0.0292703203372774,0.1917294463165459,0.026081598834537,0.4760716108489904,-0.4375187537817336,-0.2527694433970092,-1.685981216608174,0.2520976463169789,1.7723954478683464,0.5792455467043479,-0.4942192438621228,-0.3418085684814046,0.7668612805763396,0.5337221308709311,-0.0894030808323453,0.5433451939637096,11.27318117093273,-1.302392622192706,0.1475416279138372,-1.0696880083416644
0.7000000000000001,-1.668496541028061,0.2355882946670827,1.7646020479174325,0.0270383009868183,0.1932847629489843,0.0257043111412441,0.4871460644977711,-0.4386541096768377,-0.2445091201439145,-1.6755963056919685,0.2428043051057415,1.7657771737052632,0.6192455473003944,-0.5139206993956273,-0.3490718086995671,0.6931188514121426,0.5537226824390312,-0.0567677947552053,0.4130161626547349,11.072890779191766,-1.302725818197655,0.149436440308224,-1.0768145470423127
0.72,-1.6591317539356338,0.2272495196337697,1.7600173422514909,0.0256175709071589,0.1952747381946219,0.0254139422891571,0.498162805563107,-0.4391771425804882,-0.2385230752667811,-1.6632113947459606,0.232525891117829,1.758795737531272,0.6592455478964409,-0.5336221549291318,-0.3563350489177297,0.6274449784443555,0.5508370532667978,-0.0261516451825205,0.2993022438566681,10.927826295482191,-1.302587850680479,0.150758215989326,-1.0841256067839835
0.74,-1.6490404721400544,0.2184665084154544,1.755308184055008,0.0249934303438333,0.1976323860546284,0.0251813539642382,0.5104710595525802,-0.4391641696884104,-0.2327407201255025,-1.650826483799953,0.2222474771299164,1.7518143013572804,0.6992455484924873,-0.5533236104626363,-0.3635982891358922,0.6799428570570878,0.6154126994736581,0.0006486446038872,0.2891177570639308,10.822569823883896,-1.302054456976188,0.1512127817621792,-1.0911027739397234
0.76,-1.6386897075184514,0.2096829803336949,1.7507099016205188,0.0253192417164485,0.1998833102362869,0.0250186552925878,0.5240311791433961,-0.4392456096022775,-0.2274037438157181,-1.6374415728390437,0.2114765267536663,1.744651284177835,0.7392455490885337,-0.5730250659961408,-0.3708615293540547,0.7286405010497298,0.6780059795407967,-0.0040719956933527,0.2668488154892193,10.805896336951264,-1.3013758558894313,0.1507236235026274,-1.0981783541378427
0.78,-1.628595325214281,0.2013346421847916,1.7464365644610669,0.0264174317152573,0.2014949627560428,0.0249117316184344,0.5378021873668875,-0.4395869029539018,-0.2226941900610341,-1.6230566618632334,0.2002130399890785,1.7373066859929356,0.7792455496845802,-0.5927265215296453,-0.3781247695722173,0.7279028870865717,0.6885504111745655,-0.0170646675812152,0.2354776877342007,10.79350837941456,-1.30176343190404,0.149507683264113,-1.1042782873233936
0.8,-1.6176830667786322,0.192534486146254,1.742031649393444,0.0282832286244861,0.2024343357699822,0.0248338387807603,0.5526440480555939,-0.4404803488285442,-0.2180592103966301,-1.6017052158459366,0.1793552970370965,1.7353018549580153,0.6378021888570036,-0.4698029560821443,-0.2515843266903772,0.7787202814928526,0.7420930344353205,-0.0446722937321203,0.2317489832202007,10.784006233641776,-1.303441794535654,0.1475373062229995,-1.1096933419942565
0.8200000000000001,-1.6064203566249569,0.1836137432287977,1.7378048957496297,0.0276915159931551,0.2015617838921561,0.0245366943786904,0.572973673694245,-0.4508582448055779,-0.2043514250973212,-1.6017052158459366,0.1793552970370965,1.7353018549580153,0.6378021888570036,-0.4698029560821443,-0.2515843266903772,1.331256719541526,1.0164812819325575,-0.5188947988516879,0.6853892649654469,10.773209150203002,-1.3011783863446285,0.1475354807260393,-1.1086901659767827
0.84,-1.5947596999266798,0.1745215245930118,1.733846937423144,0.0229637105453781,0.1978785946330604,0.0238929950971012,0.5918134115785735,-0.4567884946409127,-0.1921280134286657,-1.6017052158459366,0.1793552970370965,1.7353018549580153,0.6378021888570036,-0.4698029560821443,-0.2515843266903772,1.1613735181683726,0.9419868942164232,-0.29651249176674,0.6111705834327754,11.439912047168036,-1.3070732648964778,0.1519294468465723,-1.1122297246815849
0.86,-1.5833625121409638,0.1658312469828345,1.7302874706538522,0.0174561488346479,0.1923918548937546,0.0232069484895084,0.606525613034858,-0.4575410358987526,-0.1832689364863626,-1.5953271939573666,0.1746572674762751,1.7327860116911116,0.6578021891550268,-0.4758461667077928,-0.2573623540162458,0.8595033948517845,0.7356100728142245,-0.0376270628919955,0.4429538471151545,11.24916561046848,-1.3185599694970318,0.1579536809288687,-1.1123584485736613
0.88,-1.5711090433572954,0.1566988845712796,1.7266924256014382,0.0120925668085946,0.1857442186461932,0.022555897150457,0.617746285132634,-0.4556889249489273,-0.1768016480109263,-1.5825711501802266,0.1652612083546322,1.727754325157304,0.6978021897510732,-0.4879325879590898,-0.268918408667983,0.6541399267755754,0.5610336048887998,0.0926055474912673,0.3233644237718117,11.035471115674229,-1.3307326364521868,0.1635710681570404,-1.110175228092018
0.9,-1.5586714331274707,0.1476207077052978,1.7231981373563292,0.007692132361801,0.1793239802967333,0.0220287090353592,0.6252712373398296,-0.4523492254226888,-0.1730551629076629,-1.5698151064030863,0.1558651492329893,1.7227226386234964,0.7378021903471197,-0.5000190092103868,-0.2804744633197202,0.4522572533279888,0.3762476103597811,0.1669849763119235,0.1873242551631723,10.847300400519998,-1.341444470584158,0.1679723690634844,-1.1067283604113638
0.92,-1.5461203086757036,0.1386196345165053,1.7197521034063767,0.0044014922792855,0.1740709645532294,0.0216300527118902,0.6293674163613208,-0.4481798362900781,-0.1717163634630825,-1.5550590625961442,0.1458647690487816,1.717113149357102,0.7778021909431662,-0.5121054304616838,-0.2920305179714574,0.2998119088197031,0.2048089510745587,0.2084694566305361,0.0669399722290201,10.674869800863236,-1.3517536160417127,0.1715681794019792,-1.1041012321303325
0.94,-1.5341500977713576,0.1301496205278753,1.7164903266414522,0.0022204928730046,0.1710955175848485,0.0213528635654077,0.6304181811801103,-0.4438375133440381,-0.1716896573946697,-1.5403030187892015,0.1358643888645739,1.7115036600907074,0.8178021915392126,-0.5241918517129808,-0.3035865726231947,0.2233863720451694,0.0525382409394759,0.2171161473019989,0.0013353034206409,10.467280874299831,-1.359041794909116,0.1740704151755048,-1.1025185929058112
0.96,-1.521538776595483,0.1213219695223215,1.7130484757781583,0.0007262952255919,0.1707156682634365,0.0211405351693571,0.6309909811677054,-0.4392154670302484,-0.1725612859472568,-1.524546974967358,0.1255618481490837,1.7056052694580195,0.857802192135259,-0.5362782729642778,-0.3151426272749319,0.2369132134679863,0.0286399993797537,0.2311023156894853,-0.0435814276293564,10.405939821360334,-1.359459828684522,0.1754379231540475,-1.1031201707932818
0.98,-1.508900377995004,0.1125914161444081,1.7095810892851275,5.7482125190367936e-05,0.1725148850633524,0.0209993342003579,0.6330896107257384,-0.4341675442613731,-0.1741544095626968,-1.5077909311306137,0.1149571469023111,1.6994179774590383,0.8978021927313055,-0.5483646942155748,-0.3266986819266691,0.2847095588334391,0.1049314779016541,0.2523961384437667,-0.0796561807719975,10.405939821360334,-1.3573958930309742,0.1759917954345532,-1.106576629808859
1.0,-1.4962005575942583,0.1039650058287533,1.706078124485777,0.0003281426517169,0.175599468925027,0.0209340949408124,0.6369868070857615,-0.4288334966090852,-0.1760857215396404,-1.4772458974587173,0.0908830389313395,1.7008733688069926,0.7330896122158546,-0.4545384504802595,-0.1938124684444564,0.3441299528439104,0.1948598180011529,0.2667023826143949,-0.09656559884718,10.3710114863552,-1.354428588689571,0.1756916895408629,-1.1117161215332427
1.02,-1.4839806852466615,0.0958293532588014,1.7028712513457194,0.0002371364235331,0.1779530749425537,0.0208571256078263,0.6488732247648956,-0.4273846833464731,-0.1613983257309727,-1.4772458974587173,0.0908830389313395,1.7008733688069926,0.7330896122158546,-0.4545384504802595,-0.1938124684444564,0.9475040643095174,0.594320883956706,0.0724406631306018,0.734369790433384,10.359442102308094,-1.343892727432642,0.1749311076528903,-1.1111288289812988
1.04,-1.4708826654921583,0.0873129389016302,1.6997911024048318,-0.0007694701977861,0.1788888092048671,0.0207217863458275,0.6601436736894135,-0.4242700123590363,-0.1475802907942983,-1.4772458974587173,0.0908830389313395,1.7008733688069926,0.7330896122158546,-0.4545384504802595,-0.1938124684444564,0.905072212355596,0.5635224462258948,0.155733549371842,0.6909017468337192,11.474346773587058,-1.3474896776581748,0.1766387939192308,-1.1249424654480382
1.06,-1.457574888553006,0.0788712268288105,1.6969514138645558,-0.0020021745759604,0.1789315807164568,0.0205825826416666,0.6699883003409328,-0.4200835100033184,-0.1370791378500231,-1.4699150013365587,0.0863376544265369,1.698935244122548,0.7530896125138777,-0.4586126317240367,-0.1977440802208083,0.7495293340512017,0.4922313325759653,0.2093251177858968,0.5250576472137586,11.307163465578014,-1.3514707703123614,0.1784590585913866,-1.135951189004592
1.08,-1.444763125113687,0.070938007852579,1.6944224659911384,-0.0029784169084666,0.1785676890930725,0.0204760296524126,0.6780913489954687,-0.4152698181697534,-0.1296542729576238,-1.4552532090922417,0.0772468854169317,1.695058994753659,0.7930896131099242,-0.4667609942115913,-0.2056073037735122,0.5999159216854711,0.4051524327267963,0.2406845916782501,0.3712432446199676,11.123659973418398,-1.355722984109191,0.1801129651598376,-1.1450504643581585
1.1,-1.4311227154494304,0.0626927084990437,1.691891958595319,-0.0034621346075872,0.1781399439416433,0.0204134068587655,0.6854879793567407,-0.4095684363386357,-0.123884334992104,-1.4405914168479246,0.0681561164073265,1.69118274538477,0.8330896137059707,-0.4749093566991458,-0.213470527326216,0.5488808605048883,0.3698315180635958,0.285069091555884,0.2884968982759882,10.971578100876286,-1.3596080568863596,0.1811263603047948,-1.1524890602276847
1.12,-1.417344343397842,0.0545671584950463,1.689455961385569,-0.0030689135695146,0.1779661034514875,0.0204212398581632,0.6920240865276147,-0.4034127433748905,-0.1200079570663827,-1.4239296245738051,0.0586579292733436,1.6869133348382457,0.8730896143020171,-0.4830577191867004,-0.2213337508789199,0.4889773988541617,0.3268053585437025,0.3077846481872592,0.1938188962860666,10.753902333750377,-1.3626425844399528,0.1811465768747146,-1.1590453074436111
1.14,-1.4034394416937606,0.0465654267199006,1.687090031161014,-0.0016064820365294,0.1782038657366276,0.0205105948581414,0.6982083487721558,-0.3972260214717845,-0.1167904653124344,-1.4072678322996857,0.0491597421393607,1.6826439242917213,0.9130896148980636,-0.4912060816742549,-0.2291969744316238,0.4660281123557676,0.3092131122270525,0.3093360951552992,0.1608745876974106,10.753902333750377,-1.364575647770193,0.1800398548785856,-1.164635284795705
1.16,-1.3901111339135586,0.0390717742046275,1.6848978236018963,0.000740101633329,0.178719643596394,0.0206678388421441,0.7044918123125035,-0.3921123259129194,-0.1141398468101498,-1.3896060400106651,0.0394578459431889,1.6781779331563795,0.95308961549411,-0.4993544441618095,-0.2370601979843276,0.4261970635055154,0.314173177017385,0.2556847779432575,0.1325309251142326,10.724163966230662,-1.365552060334332,0.1777368885793548,-1.170833120367497
1.18,-1.3759484958946526,0.0312689678212146,1.682641365564456,0.0036254004408504,0.1793458591891365,0.0208675571141285,0.711461032922948,-0.3885569266870678,-0.1116671765459803,-1.3709442477067435,0.0295522406848283,1.67351536143222,0.9930896160901564,-0.507502806649364,-0.2449234215370315,0.4102590578145084,0.3484610305222291,0.1777699612925759,0.1236335132084757,10.70557160694534,-1.3660301754034836,0.1749005420952743,-1.1767609560249332
1.2,-1.361642645101492,0.0235230300894946,1.6804304149953282,0.0063420105462121,0.1798873623160409,0.0210596071967236,0.7187639436925309,-0.3862018905770732,-0.1095604509435118,-1.3403754442485052,0.0118411214868612,1.677058006737157,0.8001839622814304,-0.3860016154952408,-0.1644862497462061,0.3978598797062995,0.3651455384791446,0.11775180549973,0.1053362801234233,10.69356494983731,-1.3663042864660198,0.1721857200326998,-1.1820881825299483
1.22,-1.3471409638914698,0.0157182107412899,1.6782888005590046,0.0055045355559316,0.1789726792957235,0.0209993852715763,0.731098297731218,-0.3934768572793324,-0.1045327514617466,-1.3403754442485052,0.0118411214868612,1.677058006737157,0.8001839622814304,-0.3860016154952408,-0.1644862497462061,0.7588464801091173,0.616717701934355,-0.3637483351129594,0.2513849740882596,10.67984672250168,-1.3644685688441,0.1727350796357753,-1.18246241667527
1.24,-1.3331487892942486,0.0082120887388121,1.6763291164676997,0.0001026902584376,0.175654217936089,0.0206303359465181,0.7409358635043632,-0.3950841930043167,-0.1019870364942887,-1.3403754442485052,0.0118411214868612,1.677058006737157,0.8001839622814304,-0.3860016154952408,-0.1644862497462061,0.514397446458738,0.4918782886572603,-0.0803667862492141,0.1272857483728962,10.911865131787636,-1.369316811723213,0.1790308875592225,-1.1834481087584428
1.26,-1.3182500097453147,0.0003501677456325,1.674288245692804,-0.0067829968292193,0.1704701058296923,0.0202087138358183,0.748036504114289,-0.3908135997306279,-0.1023519913526002,-1.3323736046256909,0.0079811053319087,1.675413144239695,0.8179285481531269,-0.3854905532568754,-0.1750500643862513,0.4146994575267989,0.3550320304962884,0.2135296636844419,-0.0182477429155759,10.718297857464677,-1.3791108585417071,0.1870199812691366,-1.1820443437984016
1.28,-1.303253717753046,-0.0073891394579498,1.6722046473233314,-0.0131330905257425,0.1648134970678381,0.0198893126501609,0.7511033314755946,-0.3834545815160426,-0.1059569507786091,-1.3163699253800625,0.0002610730220039,1.672123419244771,0.8534177198965198,-0.3844684287801446,-0.1961776936663416,0.4374823185279054,0.1533413680652795,0.3679509107292644,-0.1802479713004422,10.51774819507864,-1.389432004891815,0.1944014850028242,-1.1776971820399489
1.3,-1.2882342428506128,-0.0149623581648631,1.6700216630672622,-0.0183604002110575,0.1598764910545453,0.0196937655752002,0.750586882514645,-0.3744753642807473,-0.1121387755590973,-1.3003662461344336,-0.0074589592879008,1.6688336942498467,0.8889068916399128,-0.3834463043034137,-0.2173053229464319,0.545683102415103,-0.02582244804748,0.4489608617647661,-0.3090912390244109,10.332919256393325,-1.398803953176774,0.2002477555789303,-1.1723276829722105
1.32,-1.2740073601880562,-0.0219817821002485,1.6678142182919928,-0.0221948868476347,0.1569620482018152,0.019591539776828,0.7469700589808286,-0.3651109322623133,-0.1198974389040021,-1.2825881083016353,-0.0151278853739691,1.664487587790918,0.9243960633833056,-0.3824241798266829,-0.2384329522265223,0.6343714534919775,-0.1808411766908213,0.4682216009217005,-0.3879331672452399,10.184441147703184,-1.406408623678706,0.2050335053894504,-1.1671440827844153
1.34,-1.2591258602960995,-0.0291755110507836,1.665318830168751,-0.0251673846865698,0.1567564130540004,0.0195179328695612,0.7417109093662538,-0.3549103367123578,-0.1292985211173684,-1.2648099704688371,-0.0227968114600373,1.6601414813319897,0.9598852351266988,-0.3814020553499521,-0.2595605815066127,0.7417734678200717,-0.2629574807287371,0.5100297774977752,-0.4700541106683151,10.074988925070102,-1.4075596156295869,0.2082943254216064,-1.16370749517579
1.36,-1.2443343924170418,-0.0361607929184399,1.6626264524753993,-0.0271586387512144,0.1591357465131341,0.0194608100521136,0.7380434160569294,-0.3443633141142097,-0.1394712146782986,-1.246144603342454,-0.0304401844341873,1.6552671841410584,0.9953744068700916,-0.3803799308732213,-0.280688210786703,0.7552712875920445,-0.1833746654662238,0.5273511299074052,-0.5086346780465114,9.956743406070927,-1.404867057842817,0.2104034918252164,-1.1631189815466672
1.38,-1.2295938794111985,-0.0429311144264351,1.6597279812930077,-0.0282393330672556,0.1631316518081137,0.0194317719184328,0.7364561917643915,-0.3333366541962913,-0.1498783102241228,-1.226592006922486,-0.0380580042964191,1.6498646962181254,1.0308635786134843,-0.3793578063964904,-0.3018158400667933,0.7622567605475258,-0.079361214626894,0.5513329958959173,-0.5203547772912098,9.956743406070927,-1.4006639812157888,0.2115313402986312,-1.1648189125611714
1.4,-1.2155992832223417,-0.049153324644887,1.6567814533452991,-0.0282373357226219,0.1676774705261831,0.0194631950459646,0.7369072122110027,-0.3223279895526684,-0.1597730207336568,-1.192771069822979,-0.0595979471362496,1.652234065781801,0.8180736588697801,-0.3067090186130098,-0.1558364999462734,0.7404380675426154,0.0225510223305636,0.5504332321811467,-0.4947355254766986,9.94681252699138,-1.395725462440577,0.2116610717786585,-1.1684291117251555
1.42,-1.2007144997209922,-0.0555290327583597,1.653750035136495,-0.0289970411308442,0.1702849097820949,0.0195151805885235,0.7517987976287365,-0.3153709250636459,-0.1414562670461057,-1.192771069822979,-0.0595979471362496,1.652234065781801,0.8180736588697801,-0.3067090186130098,-0.1558364999462734,1.2305116092590227,0.7445792708866861,0.3478532244511251,0.9158376843775518,9.952663789652432,-1.3823739484746247,0.211278307990096,-1.1605450458579292
1.44,-1.1855239881066302,-0.0617419399195844,1.6511152219770873,-0.0315536644348517,0.168140644733987,0.0195949167098889,0.7660757467075091,-0.3058671612184692,-0.1231213463100424,-1.192771069822979,-0.0595979471362496,1.652234065781801,0.8180736588697801,-0.3067090186130098,-0.1558364999462734,1.2553108386177525,0.7138474539386319,0.4751881922588352,0.916746036803169,11.881975465711548,-1.3889783262239388,0.2158154067855491,-1.178539751011335
1.46,-1.1708670908458367,-0.0674406497238284,1.64891227563233,-0.0342160808577225,0.1627668984998784,0.0197853083930253,0.7755367151796341,-0.2945062773367368,-0.1096573201180674,-1.184590333234281,-0.0626650373223797,1.6506757007823385,0.8343971522908579,-0.3013834914963535,-0.1570281378907035,0.9998244949776643,0.4730484236062482,0.5680441940866171,0.673201309598749,11.685082069904638,-1.4020456790494606,0.2210876660731131,-1.1913825356415486
1.48,-1.1552988374581454,-0.0731944152326288,1.646834672732337,-0.0365652947102525,0.1553872870193913,0.0201097243654762,0.780386014547491,-0.2815577618495494,-0.0989509196530972,-1.1682288600568855,-0.0687992176946399,1.647558970783413,0.8670441391330133,-0.2907324372630409,-0.1594114137795637,0.8743665830150187,0.242464968392847,0.6474257743593698,0.5353200232485102,11.421934183441408,-1.4159133020268744,0.2255467167419602,-1.1969296402306664
1.5,-1.139685436158426,-0.078682231857761,1.6449317871715368,-0.0381899329427642,0.1478326395772537,0.0205219735632832,0.7805512283578164,-0.2680540212064517,-0.0918442359300593,-1.15186738687949,-0.0749333980669001,1.6444422407844876,0.8996911259751688,-0.2800813830297283,-0.1617946896684239,0.7630256556932785,0.0082606905162707,0.6751870321548864,0.3553341861518934,10.991609805192638,-1.4285039154718766,0.2288241285695677,-1.19877300219053
1.52,-1.1241106635267333,-0.0838956662195513,1.643141455689681,-0.0389451901602824,0.1412976037663142,0.0209781889848422,0.7768539456451267,-0.2541069172690464,-0.0875320281512131,-1.1338735643599869,-0.0805350257274947,1.6412063469911191,0.9323381128173244,-0.2694303287964157,-0.1641779655572842,0.7529720174519828,-0.1848641356344882,0.6973551968702668,0.2156103889423097,10.991609805192638,-1.4397966473216943,0.2310951979472139,-1.1988257850524775
1.54,-1.1094145065508545,-0.0885865955884717,1.6415107059712175,-0.0386392364769267,0.1370051556018581,0.021419812965099,0.7702466799574808,-0.2405199894958482,-0.0843333212205571,-1.115879741840483,-0.0861366533880893,1.6379704531977506,0.9649850996594798,-0.258779274563103,-0.1665612414461444,0.772159783026596,-0.3303632843822957,0.6793463886599057,0.1599353465327996,10.831864629748452,-1.448445593618782,0.2319457556198573,-1.1988792383323066
1.56,-1.0941010701522018,-0.093245268042577,1.6398559051854265,-0.037043143332242,0.135416915113183,0.0218654753508608,0.7616237017007927,-0.226193960601356,-0.0813376072941321,-1.0970697446499258,-0.091472004692851,1.6346749775071607,0.9976320865016352,-0.2481282203297904,-0.1689445173350046,0.8493602884378888,-0.4311489128344004,0.7163014447246124,0.1497856963212487,10.792984617550246,-1.4514331154066176,0.2310734329828637,-1.2016293866964498
1.58,-1.0789517231765848,-0.0976220063296431,1.6382588525105113,-0.0340518114092655,0.1367012436698979,0.0223066639539882,0.7541142607415059,-0.2126541769745409,-0.0785201223284216,-1.0774435727883147,-0.0965410796417799,1.631319919919349,1.0302790733437903,-0.2374771660964778,-0.1713277932238648,0.7868539663018614,-0.3754720479643425,0.6769891813407521,0.1408742482855246,10.77141483709056,-1.450834289831748,0.2287363784989451,-1.207768433119585
1.6,-1.0646795786046517,-0.1015516114134646,1.636795802333351,-0.0306191063349647,0.1397329008084649,0.0227142267182898,0.7488464950062207,-0.2018311877870377,-0.0756426578243259,-1.0412460101395096,-0.1082547151783702,1.6343328463940905,0.8027999418163636,-0.1827555297555983,-0.0982470096737357,0.618801771100786,-0.26338828676426,0.541149459375162,0.1438732252047873,10.758721324554244,-1.447399463078617,0.2254578769677686,-1.2164629011382568
1.62,-1.04964925177595,-0.1054915086428352,1.635354576345856,-0.0274386941084587,0.1413108036063588,0.0231701380439333,0.7545815048701665,-0.1925677586503182,-0.0684467897038634,-1.0412460101395096,-0.1082547151783702,1.6343328463940905,0.8027999418163636,-0.1827555297555983,-0.0982470096737357,0.6528437322929375,0.2867504931972908,0.4631714568359771,0.3597934060231254,10.770161352169453,-1.4374325307984783,0.2218819290020789,-1.221179514700816
1.64,-1.0345027584043218,-0.1092504841386218,1.6340526082393336,-0.0250468799011676,0.1382135622656702,0.0236987561667197,0.759252264019925,-0.1836629251106047,-0.0621241354749853,-1.0412460101395096,-0.1082547151783702,1.6343328463940905,0.8027999418163636,-0.1827555297555983,-0.0982470096737357,0.5939023655092828,0.2335379574879226,0.4452416769856734,0.3161327114439064,11.06713304179084,-1.4449835571553225,0.2207315126085162,-1.2283385996722884
1.66,-1.0200695347306443,-0.1126577712624266,1.6329134895899002,-0.0232620626226771,0.1323629863625502,0.0242314079066488,0.7593910678825668,-0.1753954548241694,-0.0580767907683716,-1.033218010721346,-0.1100822704759262,1.633350376297353,0.8125370780313351,-0.1767758003118098,-0.1021923871427985,0.4603024294513572,0.0069401931320933,0.4133735143217659,0.2023672353306821,10.98264251699038,-1.4573004855659517,0.2200497383902064,-1.230090238133755
1.68,-1.004923007074643,-0.1160787661738922,1.6317777825042197,-0.0217729701632557,0.1250076491551695,0.0247818412833988,0.7549246580056803,-0.1671520435414011,-0.0557849896322815,-1.0171620118850186,-0.1137373810710381,1.6313854361038782,0.8320113504612783,-0.1648163414242327,-0.1100831420809241,0.4825841875067119,-0.2233204938443256,0.4121705641384157,0.114590056804506,10.849306310185057,-1.4702332117856352,0.2195696496140387,-1.2268708171456846
1.7,-0.989909913789646,-0.1193405326067595,1.6306664475607713,-0.0207358229302537,0.1179125744443737,0.0252863884437307,0.7464303814377181,-0.1594400047424065,-0.0555388229284287,-1.0011060130486913,-0.1173924916661501,1.6294204959104035,0.8514856228912213,-0.1528568825366557,-0.1179738970190497,0.5737788661503546,-0.42471382839811,0.3856019399497271,0.0123083351926386,10.721786296591745,-1.481784698325927,0.2193464428310857,-1.2208282086846112
1.72,-0.9751058123427392,-0.12245288031909,1.6295399472388508,-0.0202411878872964,0.1122959622558051,0.0257187061962674,0.7343430409103092,-0.1521481036141456,-0.0571038258495981,-0.9840763005908668,-0.1204496293168832,1.6270610179700224,0.8709598953211644,-0.1408974236490786,-0.1258646519571753,0.7101493808226942,-0.6043670263704448,0.3645950564130432,-0.0782501460584696,10.6002304492622,-1.491006541946322,0.2195536269082922,-1.2143892742347249
1.74,-0.961296344799199,-0.1252766398964157,1.6284306913949065,-0.0203221053138942,0.1094326650832695,0.0260420067087968,0.7198844635295851,-0.1454168586982759,-0.0595703570796443,-0.9670465881330425,-0.1235067669676163,1.6247015400296414,0.8904341677511075,-0.1289379647615015,-0.133755406895301,0.8069137102265049,-0.7229288690362046,0.3365622457934869,-0.1233265615023081,10.457677991902528,-1.4968562413854405,0.2202122112329359,-1.2085915968563878
1.76,-0.9470638044653252,-0.1281078987696564,1.6272072564112157,-0.020922648231224,0.1097005654036001,0.0262829626500634,0.70453746102232,-0.1380322338887527,-0.0626596725495274,-0.9495300188644694,-0.12626491814616,1.6221447932158073,0.9099084401810504,-0.1169785058739245,-0.1416461618334266,0.865458028456447,-0.7673501253632586,0.3692312404761602,-0.1544657734941543,10.457677991902528,-1.4949632299920117,0.2210230887960561,-1.2051562811636
1.78,-0.9331190793026976,-0.1307856991626702,1.6259206405230395,-0.0218678351429873,0.1126097772697092,0.0264467723276604,0.6910206086390406,-0.1300968351807142,-0.0658476808866345,-0.9315265927851478,-0.1287240828525143,1.61939077752852,0.9293827126109936,-0.1050190469863474,-0.1495369167715522,0.7997487858139729,-0.6758426191639688,0.3967699354019277,-0.1594004168553542,10.415529967463044,-1.49007659935277,0.2222218950413492,-1.2056380166185106
1.8,-0.919421670231814,-0.1332969787260422,1.6245720479755914,-0.0229019831529277,0.1172881957162365,0.0265653365527296,0.6797169077302591,-0.1214525872147078,-0.0688591373531523,-0.8985680488707455,-0.1372905409217059,1.6226282564787078,0.7324494949930102,-0.0999322413500095,-0.0975158745249592,0.7272646478117936,-0.5651850454390761,0.4322123983003155,-0.1505728233258944,10.403759533810444,-1.483196123617323,0.2234740122665194,-1.2093139973797804
1.82,-0.906552937116834,-0.1354955522960439,1.6232933916690886,-0.0231524387159532,0.1215095069668492,0.0267334869118753,0.6753101539574605,-0.1107033105773655,-0.0656056540298385,-0.8985680488707455,-0.1372905409217059,1.6226282564787078,0.7324494949930102,-0.0999322413500095,-0.0975158745249592,0.6032237992140002,-0.2203376886399266,0.537463831867116,0.1626741661656931,10.411459082948568,-1.4716454978338716,0.2236790132505881,-1.2139265119128415
1.84,-0.8930970017736384,-0.1375978225281702,1.622006132216209,-0.0222947035943801,0.124600744901085,0.0270219167711859,0.6704687848161006,-0.1001743834339256,-0.063394710252645,-0.8985680488707455,-0.1372905409217059,1.6226282564787078,0.7324494949930102,-0.0999322413500095,-0.0975158745249592,0.58988438346147,-0.2420684570679954,0.526446357171994,0.110547188859672,10.804923072353631,-1.470231859197388,0.2236817391616388,-1.2238584798343206
1.86,-0.8797415529495374,-0.1394945946879528,1.620744383960541,-0.020528941836009,0.1268328069087734,0.0273955498451214,0.6653059503009713,-0.0901191010369097,-0.0629662130100045,-0.8912435539208153,-0.138289863335206,1.6216530977334582,0.7407352722638041,-0.0938993225838685,-0.1038495132526241,0.5655686832766186,-0.2581417257564666,0.5027641198507953,0.0214248621320266,10.6201490799358,-1.4692914980451577,0.2226350348328002,-1.231236383985752
1.88,-0.8671529120484903,-0.1411186982028626,1.6195376183346903,-0.0181702287551237,0.1284924428497411,0.0278090948904228,0.6600949044725989,-0.0815527652013547,-0.064075083797162,-0.8765945640209551,-0.1402885081622062,1.6197027802429589,0.7573068268053919,-0.0818334850515866,-0.116516790707954,0.5043974194410688,-0.2605522914186198,0.4283167917777539,-0.0554435393578758,10.538077042666371,-1.469060268377079,0.220623446002354,-1.2366044048847824
1.9,-0.8540109808034333,-0.1426707667821649,1.6182325407138176,-0.0155814248484049,0.13003987371577,0.0282558710396641,0.6543994966591825,-0.0741440787008681,-0.0664288509238092,-0.861945574121095,-0.1422871529892064,1.6177524627524598,0.7738783813469797,-0.0697676475193048,-0.1291840681632839,0.4818363973126683,-0.2847703906708188,0.3704343250243276,-0.1176883563323565,10.538077042666371,-1.4683753008348364,0.2183204150991649,-1.2401227250699305
1.92,-0.8409840158509536,-0.1440851318596468,1.6168693809440962,-0.0132899933478269,0.1315960193889594,0.0286813740050244,0.6486288104771482,-0.0676372389195375,-0.0698111627031192,-0.8464680064941553,-0.1436825059395925,1.615168781389194,0.7904499358885676,-0.0577018099870229,-0.1418513456186138,0.4665828327421835,-0.2885343091017178,0.3253419890665305,-0.1691155889655009,10.469495017679035,-1.467182723677492,0.2162420305572272,-1.2424027669152278
1.94,-0.8280718812205994,-0.1453755777014041,1.615431436971884,-0.0114209680724893,0.1333043667755196,0.0290745611233185,0.6429592800673749,-0.0616506305689585,-0.0738130723318041,-0.8309904388672158,-0.1450778588899786,1.6125851000259284,0.8070214904301554,-0.045635972454741,-0.1545186230739438,0.4582530285953554,-0.2834765204886624,0.2993304175289476,-0.2000954814342453,10.413721078405615,-1.4655768382566725,0.2146372393847579,-1.243784959466724
1.96,-0.8159055651345637,-0.1464919304521066,1.6139872336912784,-0.0099752601884915,0.1350524283283051,0.0294226015906907,0.6380496478415014,-0.0561506364333269,-0.078008640839681,-0.8150985823767365,-0.1461715659020577,1.6096847367262794,0.8235930449717432,-0.0335701349224591,-0.1671859005292736,0.4241380058118087,-0.2454816112936741,0.2749997067815833,-0.2097784253938486,10.38342569390079,-1.4634264234669978,0.2132896615473009,-1.2449069196079012
1.98,-0.8031945863601506,-0.147557435913111,1.612376816341503,-0.0087953870486448,0.1369256172023638,0.0297633334492695,0.6333635108696717,-0.0506985123156338,-0.082830923091736,-0.7987924370227175,-0.1469636269758297,1.6064676914902472,0.840164599513331,-0.0215042973901773,-0.1798531779846035,0.432839298215759,-0.2343068485914867,0.2726062058846533,-0.2411141126027485,10.337117201987894,-1.4613727223384452,0.2123334513674908,-1.245719425004163
2.0,-0.7905722672831985,-0.1485167799340176,1.6106660798919403,-0.0080198504815093,0.1387548396931982,0.0300743201338146,0.6291506537659906,-0.0455098819870089,-0.0880153802118437,-0.7715264108166671,-0.1500923615288927,1.6082352701869165,0.6580632789211768,-0.0277974392174511,-0.0620241113418009,0.4229321615028782,-0.2106428551840566,0.2594315164312466,-0.2592228560053859,10.337117201987894,-1.4593970365113391,0.2118217581065166,-1.2461306477759375
2.02,-0.7779084206452173,-0.1493329581128861,1.6090799294443112,-0.0065248723605367,0.137741230067698,0.0304531008291137,0.6377483224270384,-0.0366475114630864,-0.069159105022381,-0.7715264108166671,-0.1500923615288927,1.6082352701869165,0.6580632789211768,-0.0277974392174511,-0.0620241113418009,1.1269656513501198,0.4298834330523915,0.4431185261961217,0.9428137594731352,10.31726802067442,-1.442742330703922,0.2089255303021167,-1.2384092860076004
2.04,-0.7657256109183517,-0.1499651887578968,1.6079491624062898,-0.0040764995050418,0.131626794731813,0.0309022529053256,0.6433732394207075,-0.030581099201391,-0.0509198638716987,-0.7715264108166671,-0.1500923615288927,1.6082352701869165,0.6580632789211768,-0.0277974392174511,-0.0620241113418009,1.001387745415405,0.2812458496834535,0.3033206130847694,0.9119620575341169,11.969318887039664,-1.4584740965185656,0.2079210741742775,-1.2505769916761165
2.06,-0.7528523726989472,-0.1505277927284405,1.6071048865079458,-0.0014910922730447,0.1220808011886783,0.031357400002392,0.6430615042766172,-0.0260357660705524,-0.0345884186460967,-0.7649457780274553,-0.1503703359210672,1.6076150290734983,0.6630032325314777,-0.0232172245978146,-0.0578627489918138,0.847751931916403,-0.0155867572045109,0.2272666565419303,0.8165722612800984,11.792595648414135,-1.475590171133777,0.2064533112409871,-1.2548065169940803
2.08,-0.7400501338312683,-0.1510119979862728,1.6065541846118705,0.0007185474143674,0.111481133299279,0.0317528559653398,0.6367596609229264,-0.022581380819785,-0.0214227280457781,-0.7517845124490318,-0.1509262847054163,1.6063745468466624,0.6728831397520798,-0.0140567953585415,-0.0495400242918398,0.7499690261912433,-0.3150921676845442,0.17271926253837,0.6582845300159336,11.39173496445892,-1.4923667737111077,0.2050671393766076,-1.2532578799498315
2.1,-0.7274313118915156,-0.1514358580493668,1.6062340681028069,0.0024024812369145,0.1015603242934557,0.0320821486497307,0.6253405067395945,-0.0198810736987427,-0.0112315071216789,-0.7386232468706082,-0.1514822334897653,1.6051340646198264,0.6827630469726819,-0.0048963661192684,-0.0412172995918657,0.7770935026341005,-0.5709577091665918,0.1350153560521148,0.5095610462049597,11.39173496445892,-1.5060941237496013,0.2040245649333238,-1.2485302955046054
2.12,-0.7156916982473398,-0.1517947918870855,1.6060971977236722,0.0034233305449668,0.0938529185151464,0.0323391030505928,0.6110041281743332,-0.0179633208824427,-0.0036788469089032,-0.7249679859311546,-0.1515801608121507,1.604309718627989,0.6926429541932839,0.0042640631200045,-0.0328945748918917,0.8158618181416426,-0.7168189282630633,0.0958876408150044,0.3776330106387853,11.22712486324872,-1.5171005461269478,0.2033805416087065,-1.2422991399582617
2.14,-0.703656780500696,-0.1521385274263024,1.6061023887479828,0.0037141261616019,0.0884230608749118,0.0325529518488783,0.593100596817041,-0.01646070860011,0.0037859378027731,-0.711312724991701,-0.151678088134536,1.6034853726361518,0.702522861413886,0.0134244923592776,-0.0245718501919176,0.9727760399036378,-0.895176567864614,0.0751306141166313,0.373239235583817,11.104011339357385,-1.5236486816132473,0.2034527253077988,-1.2366292948415325
2.16,-0.6920059393827263,-0.1524533843176679,1.60625387086634,0.0031002414453254,0.0867536752097997,0.0327132483566801,0.5732857046487903,-0.0149999348892773,0.0109969011844049,-0.6974104663717323,-0.1515470047259396,1.6028690947618138,0.7124027686344879,0.0225849215985507,-0.0162491254919435,1.0568370313876445,-0.990744608412536,0.073038685541638,0.3605481690815932,11.09774039788772,-1.5223578241103035,0.2042020014268248,-1.234377691932013
2.18,-0.6807377379752036,-0.152734825938788,1.6065511413861864,0.0016399898727794,0.0885796112609531,0.0328220309664052,0.5549608246107247,-0.0131229993822436,0.0183728805461245,-0.6832612100712485,-0.1511869105863613,1.6024608850049753,0.72228267585509,0.0317453508378237,-0.0079264007919695,0.9921305192004348,-0.9162440019032768,0.0938467753516842,0.3687989680859786,11.084923248356972,-1.5155971751343655,0.2056609702864032,-1.237087156978873
2.2,-0.670350529849378,-0.1529596909201568,1.6069737513783824,-0.0003867847963191,0.0925888473714165,0.0328777379413231,0.5396621152362351,-0.0105388391693991,0.0257379790732895,-0.6529896967446674,-0.1533909759079002,1.6074697854134925,0.5752117802072909,0.0173717632023234,0.01236009669465,0.8587390011604129,-0.7649354687244814,0.1292080106422228,0.368254926358251,11.08272746916191,-1.5055575202697042,0.2079951995487958,-1.2442347406313206
2.22,-0.6596953855762784,-0.153129882210366,1.607513561619297,-0.0028463341033231,0.0977712335440402,0.032901691623304,0.5268382985118455,-0.0064813938388987,0.0275515623899574,-0.6529896967446674,-0.1533909759079002,1.6074697854134925,0.5752117802072909,0.0173717632023234,0.01236009669465,0.6786055968624745,-0.6411908362194796,0.202872266525022,0.090679165833394,11.097300431805706,-1.4971237884338788,0.2109971810420905,-1.2530687176994744
2.24,-0.6492800775475136,-0.153208008139614,1.6080781210539454,-0.0052658720021452,0.1029159514842034,0.0329151719119707,0.5154882746732445,-0.0014794718871097,0.0288339793976399,-0.6529896967446674,-0.1533909759079002,1.6074697854134925,0.5752117802072909,0.0173717632023234,0.01236009669465,0.623471847259745,-0.5675011919300477,0.2500960975894485,0.0641208503841228,10.699272781570471,-1.4891378763283891,0.2137381234826943,-1.2587510962030084
2.26,-0.6390760256669746,-0.1531760132174701,1.6086700867111532,-0.0074380043949395,0.1078551729030919,0.0329348929569845,0.5056095335579046,0.0043999393209157,0.0302836425212976,-0.6472375789425946,-0.1532172582758769,1.607593386380439,0.5792619713266042,0.0234707157192368,0.0111575399243551,0.5793499058191367,-0.4939370557669964,0.2939705604012768,0.0724831561828878,10.711645475016669,-1.481232404809846,0.2164171775788663,-1.2652119994988311
2.28,-0.6295524550753625,-0.1530309156650994,1.6092602710291932,-0.0091728961947264,0.1122043391352891,0.0329698740480783,0.4974476381721619,0.0105267351059572,0.0317548956580545,-0.6357333433384488,-0.1528698230118305,1.607840588314332,0.5873623535652306,0.0356686207530636,0.0087524263837653,0.5155549162597188,-0.4080947692871345,0.3063397892520723,0.0735626568378416,10.727653134117643,-1.4741821177263077,0.2187687320120231,-1.2719003740167905
2.3000000000000003,-0.6196838851398819,-0.1527487248552377,1.6099119276416922,-0.0106475811762529,0.1163252973884961,0.0330279902493411,0.4899253822823447,0.0173664967718749,0.0333238284685995,-0.624229107734303,-0.152522387747784,1.608087790248225,0.5954627358038571,0.0478665257868905,0.0063473128431755,0.5143642276695854,-0.3761127944908599,0.3419880832958855,0.0784466405272511,10.740471642043303,-1.467891267267592,0.2207593852975455,-1.2786970710234906
2.32,-0.6099557277037878,-0.152323677806048,1.6105947621749264,-0.0116658731381892,0.1199261038099702,0.0331179617278878,0.4833166654897251,0.0247572418414441,0.0348654642474446,-0.6123198530182258,-0.1515650572320462,1.6082147365050885,0.6035631180424836,0.0600644308207173,0.0039421993025857,0.5016843908350873,-0.3304358396309798,0.36953725347846,0.0770817889422556,10.749872279927333,-1.4625798393443068,0.2222824878783877,-1.2853987610070332
2.34,-0.6003524564595727,-0.1517463610531509,1.611305206206111,-0.0120880535148824,0.1230113188753508,0.0332518867900067,0.477378828797886,0.0325507902058415,0.0360885039357405,-0.6004105983021486,-0.1506077267163084,1.608341682761952,0.61166350028111,0.0722623358545441,0.0015370857619959,0.4936930391607211,-0.2968918345919558,0.3896774182198714,0.0611519844147964,10.75636859955921,-1.4585042778167308,0.2231361255841807,-1.2915249294763032
2.36,-0.5913332507612178,-0.1510489630809753,1.611999646001367,-0.011752285449931,0.1254639056568541,0.0334341472635721,0.4723226142608463,0.040371702247478,0.0369407253720069,-0.5882988340301059,-0.1493454485747249,1.6084085011803009,0.6197638825197366,0.084460240888371,-0.0008680277785939,0.467595583768757,-0.2528107268519847,0.3910456020818239,0.0426110718133164,10.745393611230613,-1.454987356008005,0.2231504218066622,-1.2976025496743897
2.38,-0.5819387119470976,-0.1501549740414701,1.6127452951990044,-0.0104886657820937,0.127550414233437,0.0336935984034286,0.467416546385739,0.0485283026197551,0.0375626332673325,-0.5759845602020973,-0.1477782228072958,1.6084151917601346,0.627864264758363,0.0966581459221978,-0.0032731413191837,0.4769339604663838,-0.2453033937553667,0.4078300186138566,0.0310953947662836,10.734136308490632,-1.4523370652794834,0.2220657530135234,-1.303104050598995
2.4,-0.5726390068831049,-0.1491018252846219,1.6135005625207646,-0.0082798826704364,0.1291756535052326,0.0340215847804825,0.4628096598517608,0.0562489349055893,0.0379193968696947,-0.5585678846278106,-0.1477285589104823,1.6146234268623711,0.4852236109636761,0.0750286822864412,0.0252909868571057,0.4498856707486464,-0.2303443266989058,0.3860316142917069,0.0178381801181064,10.72405545118272,-1.4505051937418418,0.219975202986456,-1.3076536251049171
2.42,-0.563394584781591,-0.147886216905679,1.6142885176337858,-0.0047568628930909,0.1294288100571198,0.0344463271965262,0.4616752090542392,0.0642180900916733,0.0408626469598353,-0.5585678846278106,-0.1477285589104823,1.6146234268623711,0.4852236109636761,0.0750286822864412,0.0252909868571057,0.4285356872099469,-0.0567225398760806,0.3984577593042028,0.1471625045070309,10.713475185064452,-1.4469927350203786,0.2159663129357034,-1.3112788475540242
2.44,-0.5546417570607991,-0.1466200448939337,1.615084940792421,-0.0010334872699483,0.1278596148017035,0.0348720380597217,0.4595959109215172,0.068654060535082,0.0428192595236367,-0.5585678846278106,-0.1477285589104823,1.6146234268623711,0.4852236109636761,0.0750286822864412,0.0252909868571057,0.2637690619858675,-0.1039649066361003,0.2217985221704327,0.0978306281900685,10.879792812014784,-1.450562671223341,0.2118061730752541,-1.31358148335049
2.46,-0.5454871238669512,-0.1452141023229066,1.6159527031804086,0.002425128607954,0.124903948278437,0.0352692891870343,0.4558109477497174,0.0717539277803394,0.0438118711229861,-0.5537156485181738,-0.1469782720876179,1.6148763367309422,0.4887850238792635,0.0803287582197784,0.0228366575750604,0.2496016873804352,-0.1892481585899913,0.1549933622628729,0.0496305799674738,10.816171726588436,-1.4553343409070087,0.2080771200390549,-1.3126023851918591
2.48,-0.536429484872169,-0.1437566518146494,1.61682908367198,0.0051718607741106,0.1212843894052808,0.0355934470147562,0.4499669472662322,0.073930517585376,0.0437419234328411,-0.5440111762989003,-0.1454776984418891,1.6153821564680844,0.4959078497104383,0.0909289100864528,0.0179279990109696,0.3118283883393272,-0.2922000241742606,0.1088294902518258,-0.0034973845072529,10.748983310946642,-1.4604764789834768,0.2052529994218723,-1.3094044877774036
2.5,-0.5275141238924284,-0.1422623463331958,1.617693263900802,0.0071682521708537,0.1178545627185314,0.0358472395088004,0.4417559411537052,0.0755606818624324,0.0426961166542923,-0.5343067040796268,-0.1439771247961603,1.6158879762052265,0.5030306755416132,0.1015290619531272,0.0130193404468789,0.4218168108557444,-0.4105503056263476,0.0815082138528211,-0.0522903389274371,10.685092415834331,-1.4652212796354052,0.2030643536694557,-1.304693651179369
2.52,-0.5192183370819855,-0.1408170305955709,1.618487813375007,0.0084002443660825,0.1156177894279917,0.0360360568334783,0.4318502837780063,0.0765892187054894,0.0410039676857339,-0.5242460905687945,-0.1419465435570977,1.6161483630141642,0.510153501372788,0.1121292138198017,0.0081106818827882,0.50508242944607,-0.4952828687849464,0.051426842152849,-0.084607448427923,10.631138035500951,-1.4681217627022125,0.2016390170538712,-1.2997338650236918
2.54,-0.5107025211554532,-0.1392794325231324,1.6192853671457317,0.0088590984308435,0.1150735693551572,0.0361824600219632,0.4204686087567598,0.0771846150207777,0.038826818868656,-0.5141854770579622,-0.1399159623180352,1.6164087498231017,0.5172763272039629,0.1227293656864761,0.0032020233186974,0.5801659246138742,-0.5690837510623242,0.0297698157644174,-0.108857440853893,10.590768872506487,-1.466426918638332,0.2009883169063169,-1.2954830029377014
2.56,-0.5024069031958537,-0.1377302738928562,1.6200365760954678,0.0083556502015893,0.1162653578881043,0.0362707677960998,0.4099005624756993,0.0778028627492828,0.0364093609466421,-0.5039467929013506,-0.1376203772823058,1.6165464201679371,0.5243991530351377,0.1333295175531505,-0.0017066352453932,0.5429317067024784,-0.5284023140530253,0.0309123864252539,-0.1208728961006967,10.561408781075444,-1.462439683001548,0.201381177489721,-1.2931520936304333
2.58,-0.4947098993509007,-0.1362434941577854,1.6207048642082311,0.0070429549434874,0.1185365917243723,0.0363002222836539,0.4010176182938995,0.0787481020261847,0.034060359265635,-0.4935300380989595,-0.1350597884499095,1.6165613740486702,0.5315219788663126,0.1439296694198249,-0.0066152938094839,0.4618386718458724,-0.4441472090899928,0.0472619638450931,-0.1174500840503519,10.54330677641974,-1.4566645442888964,0.2028106177185419,-1.2919781477330472
2.6,-0.4867755938045834,-0.1346517589290072,1.6213600607524992,0.0049189179520276,0.1216503669887214,0.036276864488544,0.3930393170371227,0.0804810953982406,0.0315816200911846,-0.4746590184362057,-0.1323060890564761,1.6224078821715129,0.4128665215550245,0.0916816421841584,0.0233089451528883,0.4266166454395302,-0.3989150628388394,0.0866496686027951,-0.1239369587225234,10.535464004403366,-1.450305460526312,0.2051777268904038,-1.292276764801781
2.62,-0.4789526646703702,-0.1329450727629969,1.6220185692916045,0.0044990814449648,0.1241849731388024,0.0363615705214237,0.3896938127623494,0.0895469377622186,0.0346543480367436,-0.4746590184362057,-0.1323060890564761,1.6224078821715129,0.4128665215550245,0.0916816421841584,0.0233089451528883,0.5070097475602537,-0.1672752137386629,0.453292118198903,0.1536363972779515,10.531920031781738,-1.440171791993602,0.2052371789070424,-1.2962784580593023
2.64,-0.4711949108444137,-0.1310734155310624,1.6227398470308931,0.0072914358575363,0.1252531543557067,0.0366569222713157,0.3861316686228407,0.0967169222273719,0.0372853183113785,-0.4746590184362057,-0.1323060890564761,1.6224078821715129,0.4128665215550245,0.0916816421841584,0.0233089451528883,0.4213654965917013,-0.1781072069754363,0.3584992232576654,0.1315485137317433,10.8358770943114,-1.4402678534546756,0.2025353370323569,-1.302089921188167
