t,x,y,z,roll,pitch,yaw,v_x,v_y,v_z,ref_x,ref_y,ref_z,ref_v_x,ref_v_y,ref_v_z,a_com,a_x,a_y,a_z,thrust,wind_x,wind_y,wind_z
0.0,1.001995533848225,0.549160313370163,2.4013517658567305,0.0121467325380757,0.1362890996561667,0.025761173295129,0.002906687637252,-0.0048094303586758,0.0059135193367715,1.0020871656535986,0.5489451272224237,2.401535749005892,-0.0970556609283048,-0.1064103682344736,-0.0940697088720679,0.4078883558704445,0.1453343818626024,-0.2404715179337945,0.2956759668385755,10.546901768034331,-1.2847878586705634,0.1639734852725473,-1.1659573211752077
0.02,1.0021755919175344,0.5493428738435093,2.4012392890704315,0.019165923701185,0.1311805999753369,0.0261722021065177,0.0145863196241048,0.0190401962738555,-0.0182425603489803,1.0020871656535986,0.5489451272224237,2.401535749005892,-0.0970556609283048,-0.1064103682344736,-0.0940697088720679,1.7949475477321493,0.5839815993426406,1.192481331626572,-1.2078039842875936,10.546009743655304,-1.2971843371591083,0.157176276817254,-1.1722277814638566
0.04,1.0025494136040325,0.5497731158650002,2.4005502355037383,0.0338858996665123,0.1164947879517217,0.026764218350391,0.0206811678304723,0.0218744700534422,-0.0491527187808502,1.0020871656535986,0.5489451272224237,2.401535749005892,-0.0970556609283048,-0.1064103682344736,-0.0940697088720679,1.5816274662508325,0.3047424103183755,0.1417136889793325,-1.5455079215934948,8.83783755721879,-1.3267553972571642,0.1433466185471868,-1.142955474727845
0.06,1.0029152219992792,0.550152886622017,2.399332649434573,0.0484167598122666,0.0973091998398207,0.0268904508338496,0.0167004882521911,0.0176389034781288,-0.0773646890518173,1.0011166090443155,0.547881023540079,2.4005950519171715,-0.117055661226328,-0.1264103685324968,-0.1140697091700911,1.4402266320694015,-0.1990339789140602,-0.2117783287656693,-1.410598513548355,8.83783755721879,-1.3566935943651293,0.1282800749185973,-1.1005348711806855
0.08,1.0031226507601785,0.5504254737627008,2.397485829530104,0.0631453554350548,0.0753518214824095,0.0265258896686684,0.003569081635389,0.009498731328773,-0.1057506117756264,0.9991754958257494,0.5457528161753895,2.39871365773973,-0.1570556618223745,-0.1664103691285433,-0.1540697097661376,1.615902883250569,-0.6565703308401076,-0.4070086074677866,-1.4192961361904524,8.846530388098017,-1.379843270555101,0.1140399966672446,-1.0532989207417345
0.1,1.002983886577281,0.5505028673976464,2.395084125574415,0.0771593075997743,0.0543354975521097,0.0257970915758419,-0.0171840917234383,-0.0016653694872687,-0.1329488242043393,0.9972343826071832,0.5436246088107001,2.3968322635622887,-0.1970556624184209,-0.2064103697245897,-0.194069710362184,1.7993569065152697,-1.037658667941366,-0.5582050408020898,-1.359910621435647,8.879231298893046,-1.3948969173198824,0.1008435518723165,-1.007354890435986
0.12,1.002364347631136,0.5503276445559362,2.392148767243999,0.0904864110126397,0.0361978687283169,0.0249139583115376,-0.043714774778064,-0.0155864574749704,-0.1592178804274091,0.9932932693588148,0.5394964014162082,2.392950869355045,-0.2370556630144673,-0.2464103703206362,-0.2340697109582305,1.99232097624676,-1.3265341527312855,-0.6960543993850852,-1.3134528111534884,8.982871313758096,-1.4007325709249627,0.0893315929676028,-0.965572266457806
0.14,1.0012463251539312,0.5498796473910904,2.388871401998871,0.1025463960066681,0.0225115204440633,0.0241068581153045,-0.0724678736944592,-0.0311098952138264,-0.1844350618998417,0.9893521561104464,0.5353681940217164,2.389069475147801,-0.2770556636105138,-0.2864103709166827,-0.274069711554277,2.0637490508427523,-1.437654945819759,-0.7761718869428016,-1.2608590736216312,8.982871313758096,-1.3994301400027784,0.0782908440519035,-0.9260973661617689
0.16,0.9994539530368683,0.5490658922470742,2.384900337874875,0.1146382266081392,0.0122416406268303,0.0234477584451853,-0.1051909549307413,-0.0497068601149219,-0.2113619322494406,0.9844110428471768,0.5302399866123235,2.3841880809256564,-0.3170556642065603,-0.3264103715127291,-0.3140697121503234,2.313927125015501,-1.6361540618141053,-0.9298482450547731,-1.3463435174799434,8.972696433196688,-1.3957277175993028,0.0680136093276623,-0.8988479853056275
0.18,0.9969828231466892,0.5478567193926067,2.380389077150906,0.126137228306327,0.0067240756955301,0.023164346450706,-0.1402939410753519,-0.070525469328516,-0.2384182890108147,0.978469929569006,0.5241117791880294,2.3783066866886107,-0.3570556648026067,-0.3664103721087755,-0.3540697127463698,2.4483058260028634,-1.7551493072305295,-1.0409304606797047,-1.352817838068708,8.962591374804106,-1.3884345622922452,0.0591645552843962,-0.8784438151369826
0.2,0.9938020238043436,0.5461998529289146,2.3753367295751224,0.1367785571171098,0.0065100439300032,0.0234327717802955,-0.1752496743513691,-0.0941417769722532,-0.2653768348483097,0.9899681260929216,0.544330445926181,2.3684681627003656,-0.240293942565468,-0.1705254708186321,-0.3384182905009308,2.503196191501987,-1.747786663800864,-1.1808153821868637,-1.3479272918747467,8.980841530537873,-1.369371874420241,0.0503064852544388,-0.863720669723945
0.22,0.9901273432036004,0.5440015090985283,2.3701754791139207,0.1412527714376502,0.0115546851075958,0.0240106180447525,-0.2089219256086424,-0.1330850106361458,-0.2761145821020155,0.9899681260929216,0.544330445926181,2.3684681627003656,-0.240293942565468,-0.1705254708186321,-0.3384182905009308,2.6294938529201497,-1.683612562863665,-1.947161683194626,-0.5368873626852899,8.982754500528245,-1.3371948807835403,0.0446882500138679,-0.8617811779650686
0.24,0.985630494645432,0.540984940183324,2.364532135256797,0.1398976109562283,0.0215661175741246,0.0248581600613095,-0.2382695303102607,-0.1660158226935182,-0.2877182211110464,0.9899681260929216,0.544330445926181,2.3684681627003656,-0.240293942565468,-0.1705254708186321,-0.3384182905009308,2.280550768308138,-1.467380235080913,-1.6465406028686207,-0.5801819504515471,10.007615742179496,-1.3124475377340732,0.0439343986554194,-0.8740627580989003
0.26,0.9806080457697508,0.5373595142098779,2.3586296289984525,0.1353972220596845,0.0339617121979077,0.0257808421308985,-0.2619709157113729,-0.1940750309914566,-0.3019692110377569,0.987565186667267,0.5426251912179947,2.365083979795356,-0.2602939428634912,-0.1905254711166553,-0.3584182907989541,1.9698766167772737,-1.1850692700556096,-1.4029604148969186,-0.7125494963355239,9.589543540213526,-1.2893642125167128,0.0462225471724037,-0.8871341422301324
0.28,0.9751657817529136,0.5332243381971634,2.3524136392499084,0.1299983907361212,0.0469833181585914,0.0266582756132981,-0.2806661380711376,-0.217809326676787,-0.3190305575911203,0.9827593078159576,0.539214681801622,2.358315613985338,-0.3002939434595376,-0.2305254717127018,-0.3984182913950005,1.7348758435214542,-0.9347611179882364,-1.1867147842665238,-0.8530673276681722,9.589543540213526,-1.269450801028685,0.0492949167949438,-0.9005827575719787
0.3,0.9696911993648654,0.5288841965125145,2.346162565412784,0.1250290490379149,0.0587318795033844,0.0273561553815368,-0.2944949393316984,-0.2378488683477805,-0.3381180151056464,0.9779534289646484,0.5358041723852494,2.351547248175319,-0.3402939440555841,-0.2705254723087482,-0.438418291991047,1.5468920526788603,-0.6914400630280398,-1.001977083549671,-0.9543728757263032,9.399639772182129,-1.2517253815551594,0.0529011021752923,-0.911706159442691
0.32,0.9636781684288808,0.5239244514810061,2.3391645651869277,0.1204017005006063,0.0696472568962559,0.0278925517282199,-0.3059211352439366,-0.2570962714555235,-0.3608150385236661,0.9711475500835368,0.5303936629390744,2.342778882335498,-0.3802939446516305,-0.3105254729047946,-0.4784182925870934,1.5938752707277146,-0.5713097956119073,-0.9623701553871502,-1.1348511709009856,9.23365985370765,-1.2369090974470949,0.0563080597485559,-0.919299334834591
0.34,0.9574644186764976,0.518592965164126,2.3316930114260077,0.1165443312621073,0.0785605197405023,0.0281970428457368,-0.3149013840511847,-0.2752174686815222,-0.3852158010395899,0.964341671202425,0.5249831534928994,2.334010516495677,-0.420293945247677,-0.3505254735008412,-0.5184182931831399,1.58462919077472,-0.4490124403624063,-0.9060598612999348,-1.2200381257961912,9.00792556619217,-1.2256230050729588,0.0590948208354436,-0.9234761521992316
0.36,0.9514065146635896,0.5131914967549173,2.3241318314997605,0.1132881308473776,0.0851569504526453,0.0282683636235031,-0.3223614987744504,-0.2923908525650606,-0.4094670976540922,0.9565357923064122,0.5185726440318232,2.324242150640955,-0.4602939458437234,-0.3905254740968876,-0.5584182937791863,1.5319136832571805,-0.3730057361632843,-0.8586691941769226,-1.212564830725113,9.00792556619217,-1.2173236956653166,0.0618615088291018,-0.9244894152757268
0.38,0.944883008316607,0.5071592040700276,2.3156644592043647,0.1100462115849346,0.090382029794822,0.0281411597377674,-0.3296127675087118,-0.3098589441684914,-0.4360291166607705,0.9477299133954982,0.511162134555846,2.313473784771332,-0.5002939464397699,-0.430525474692934,-0.5984182943752328,1.6303803055065615,-0.3625634367130703,-0.8734045801715412,-1.3281009503339158,8.954204461639165,-1.211171520223191,0.0644863498305237,-0.9230911265292092
0.4,0.9382178823026956,0.5007830847086181,2.306657532901136,0.10690544899873,0.0941287578830176,0.027844063321916,-0.3365677857399404,-0.326785397579741,-0.463345773389275,0.9284023699411714,0.491666256861603,2.2938630033713263,-0.4296127689988279,-0.3660456499962045,-0.5360291181508867,1.6439866472259397,-0.3477509115614313,-0.8463226705624799,-1.3658328364252237,8.89497992442557,-1.2064921317968615,0.0670054533581579,-0.9196804311218036
0.42,0.9314398813986668,0.4939344202749638,2.297307334861568,0.1000264921772628,0.0967413030776536,0.0271546931088864,-0.3408165455915904,-0.3551958228818844,-0.4689181645871718,0.9284023699411714,0.491666256861603,2.2938630033713263,-0.4296127689988279,-0.3660456499962045,-0.5360291181508867,1.463092418294258,-0.2124379925825009,-1.4205212651071664,-0.2786195598948382,8.85265917650031,-1.1912877393188537,0.0710299731990694,-0.917582330761816
0.44,0.9249317480566632,0.4869921277179007,2.2883323542771308,0.090020629038962,0.0981045918260697,0.0261416318119649,-0.3441985688585,-0.3734343715102525,-0.4755865658151323,0.9284023699411714,0.491666256861603,2.2938630033713263,-0.4296127689988279,-0.3660456499962045,-0.5360291181508867,0.9855839796591804,-0.1691011633454781,-0.911927431418405,-0.3334200613980265,9.90677971198329,-1.189264848316463,0.0791969395759453,-0.9162780796825476
0.46,0.9180061515077372,0.4793760244409239,2.278701318628798,0.0790502298378883,0.0981808547727357,0.0249340407198938,-0.3482777264521473,-0.3869334950729855,-0.4873752109681228,0.9241062422511832,0.4880058003616409,2.2885027121898176,-0.4496127692968512,-0.377282991161747,-0.5560291184489099,0.9190185229075504,-0.2039578796823621,-0.6749561781366514,-0.5894322576495248,9.90677971198329,-1.1896187424300502,0.0878828645258639,-0.912070951318792
0.48,0.9109930039201174,0.4715306652551781,2.268787258874957,0.0687786000499661,0.0968220441234411,0.0236912819892053,-0.3529175324486855,-0.3968354827504607,-0.5036082994016742,0.9155139868712066,0.4806848873617169,2.2777821298268,-0.4896127698928976,-0.3997576734928323,-0.5960291190449564,0.9786346608181772,-0.2319902998269146,-0.4950993838737622,-0.8116544216775684,9.602779124871631,-1.1907895464644989,0.0959029458460926,-0.9057479777398638
0.5,0.9038802060804556,0.4635161722789531,2.258506899627711,0.0596527305848226,0.0939289553167888,0.0224675214329558,-0.3582472460294832,-0.404213583919764,-0.5235823338010275,0.90692173149123,0.4733639743617928,2.267061547463782,-0.5296127704889441,-0.4222323558239175,-0.6360291196410028,1.097502020390353,-0.266485679039885,-0.3689050584651632,-0.9987017199676652,9.354306276612078,-1.1930342561307,0.10258337049568,-0.8976345770889009
0.52,0.8970151587717874,0.4557838750040964,2.2483447162519745,0.0521366150740354,0.0897324818021269,0.0213501093026251,-0.3642820016841461,-0.4094864711944969,-0.5451019038914838,0.8963294760814512,0.4649193272453144,2.254340965070962,-0.5696127710849905,-0.4447070381550027,-0.6760291202370493,1.148165398474441,-0.3017377827331441,-0.2636443637366426,-1.0759785045228176,9.15995290504361,-1.1967101822106336,0.1085718663378218,-0.8867370842270414
0.54,0.8896455080867602,0.4475499039982173,2.237193071940347,0.0454345718974843,0.0840916176587617,0.0202534390117668,-0.3726450445332249,-0.4137314328882394,-0.5689707903370894,0.8857372206716723,0.4564746801288361,2.241620382678142,-0.609612771681037,-0.4671817204860879,-0.7160291208330958,1.282267450290776,-0.4181521424539397,-0.2122480846871249,-1.1934443222802793,9.010722153915594,-1.2009533362408251,0.1134432136311687,-0.8744106502577956
0.56,0.882080294106755,0.4392369745411667,2.2255569614172845,0.0397690151886161,0.0780192867981532,0.0192679586663953,-0.3836376385162948,-0.4173842324726818,-0.5934602844084758,0.8741449652469923,0.4474681659540806,2.2278998002704204,-0.6496127722770834,-0.4896564028171731,-0.7560291214291421,1.3545436382350275,-0.5496296991534949,-0.1826399792221211,-1.224474703569317,8.936517768190242,-1.2042928673437248,0.1173199640331332,-0.8632923498263594
0.58,0.8742708008423131,0.4308584192694901,2.213424636990954,0.0349047124023812,0.0723248619421483,0.0184057502378866,-0.3968180512206313,-0.420348839120866,-0.618535096688511,0.861552709807411,0.437899784721048,2.2131792178477983,-0.6896127728731298,-0.5121310851482583,-0.7960291220251886,1.4241298944566994,-0.6590206352168226,-0.1482303324092132,-1.2537406140017635,8.866686762603877,-1.2065205058371085,0.1203427785923963,-0.8536576065915865
0.6,0.8665889397505921,0.4228500878627831,2.201428605907404,0.0308930496408213,0.0678085187267037,0.0177010905661418,-0.4112037822326071,-0.4225355225407436,-0.6429447373043848,0.8544298982812816,0.4098409773134468,2.1824978821565284,-0.4968180527107474,-0.4496296637076151,-0.7047177133395692,1.420881237229036,-0.7192865505987911,-0.1093341709938772,-1.2204820307936903,8.866686762603877,-1.2078819699194836,0.1230048001621419,-0.8447207103052693
0.62,0.8581657159727275,0.4143166877316085,2.1885615600447794,0.0254319920224127,0.0660375915688297,0.0169967133691835,-0.4303217056731418,-0.4297469427420328,-0.6410610287064143,0.8544298982812816,0.4098409773134468,2.1824978821565284,-0.4968180527107474,-0.4496296637076151,-0.7047177133395692,1.0259726313111093,-0.955896172026735,-0.3605710100644616,0.0941854298985245,8.832054200980565,-1.196246427398434,0.1258231083867061,-0.8380781466599936
0.64,0.8493739392534795,0.4056891132022659,2.1757442056187632,0.0186768415554129,0.0685907958562168,0.016331139227749,-0.447400691243909,-0.4323224684394619,-0.6411754463226843,0.8544298982812816,0.4098409773134468,2.1824978821565284,-0.4968180527107474,-0.4496296637076151,-0.7047177133395692,0.8636234308648427,-0.8539492785383601,-0.1287762848714541,-0.0057208808134978,10.527866574123436,-1.1896388847667705,0.1303063368370209,-0.8449925366486434
0.66,0.8402718260783275,0.3970444929309086,2.162861256668394,0.0120713628519423,0.0737123214603147,0.0157197639183132,-0.461613901531298,-0.4319213693770839,-0.64736708764788,0.8494617177541741,0.4053446806763707,2.175450705023133,-0.5168180530087706,-0.4554858286249649,-0.7219542366697809,0.7754235123970179,-0.7106605143694489,0.0200549531189003,-0.3095820662597837,10.175898748696454,-1.182926632873559,0.1346752374486477,-0.8530320800694027
0.68,0.8313867261505314,0.3888598504535049,2.1504526229432006,0.0064583370588544,0.0797571713217074,0.0151847914971172,-0.4727064052280675,-0.4297190824417435,-0.6584755413060818,0.8395253566999591,0.3963520874022184,2.1613563507563414,-0.5568180536048171,-0.4671981584596646,-0.7564272833302041,0.792608744408037,-0.5546251848384781,0.1101143467670179,-0.5554226829100894,9.827150441207776,-1.1754836436119602,0.1388754871889595,-0.8615527238456268
0.7000000000000001,0.8218307682531217,0.3803026154362837,2.1371212713878216,0.0014003570575803,0.0864256051252305,0.014666558898018,-0.4821117913978829,-0.4261820987454128,-0.6742616360553448,0.8295889956457442,0.3873594941280661,2.14726199648955,-0.5968180542008635,-0.4789104882943642,-0.7909003299906274,0.9356446041422132,-0.47026930849077,0.1768491848165382,-0.7893047374631534,9.547836226055551,-1.1684477952587708,0.1425003975289159,-0.8692588485990318
0.72,0.812106998080578,0.3718264036113852,2.12343719323674,-0.0027491950347015,0.0927472068079426,0.0141995307211473,-0.4896709808835093,-0.4217148328279116,-0.6934939724203943,0.8176526345617269,0.3777812843621788,2.1314439898897373,-0.63681805479691,-0.4906228181290638,-0.8253733766510507,1.0570957531317549,-0.3779594742813169,0.2233632958750564,-0.9616168182524754,9.326828239843962,-1.1625667904587351,0.1453488477808534,-0.875307663148265
0.74,0.8022499259125129,0.3634477454778153,2.1093485088146884,-0.0059829653882557,0.098267935709555,0.0137944682091541,-0.4956231653636173,-0.4165668275878192,-0.7144042555296493,0.8057162734777097,0.3682030745962915,2.1156259832899247,-0.6768180553929565,-0.5023351479637634,-0.859846423311474,1.11710608017597,-0.297609224005399,0.2574002620046201,-1.0455141554627456,9.15678715555532,-1.1569597416073798,0.1476530044254598,-0.8800303156960805
0.76,0.7927831383058425,0.355585217453355,2.0955681359157303,-0.0083506796611348,0.1026675069958581,0.013466372068569,-0.5005586128850207,-0.411452138873611,-0.7351154215245485,0.7927799123787912,0.3583320565845367,2.0989461505236013,-0.7168180559890028,-0.5140474777984632,-0.8943194699718973,1.094841403752211,-0.2467723760701701,0.2557344357104113,-1.0355582997449595,9.088300917273044,-1.152617338287919,0.149387410229306,-0.883090958377784
0.78,0.7827227558366103,0.347415412947968,2.080627720589858,-0.0102534698161431,0.1064962993735669,0.0131763126027666,-0.5051903170977917,-0.4058778784942285,-0.7578788564784513,0.7788435512649716,0.3481682303269145,2.081404491590768,-0.7568180565850493,-0.5257598076331628,-0.9287925166323204,1.1944653967280947,-0.2315852106385518,0.2787130189691261,-1.1381717476951436,9.047240986709769,-1.149241482865663,0.1506679092945561,-0.8850825601502933
0.8,0.7725743852738495,0.3393608093587785,2.065223840524217,-0.0115819167102102,0.1095892971745887,0.012944584548265,-0.5093973957953044,-0.3998973203502357,-0.7813989641363153,0.7574632399817207,0.3271215190232566,2.042733777765936,-0.5953614083563176,-0.4062485019507755,-0.7655487486405359,1.2315255286820632,-0.2103539348756344,0.2990279071996421,-1.1760053828931971,8.961246990754262,-1.14628250382708,0.1514844029758214,-0.886983543347107
0.8200000000000001,0.7623956863569725,0.3313339126129835,2.049792719381662,-0.015497468632283,0.1121660173151177,0.0125505271358654,-0.5082397400221749,-0.4009899620398916,-0.7605711290250281,0.7574632399817207,0.3271215190232566,2.042733777765936,-0.5953614083563176,-0.4062485019507755,-0.7655487486405359,1.0444289685924082,0.057882788656477,-0.0546320844827974,1.041391755564358,8.961246990754262,-1.1284830689335037,0.1530746909141231,-0.8843652991277489
0.84,0.7527572453906802,0.3237635377082016,2.035514965994907,-0.0213431576747376,0.1140851629566192,0.012046585760276,-0.5064496834118315,-0.3955095371812849,-0.7435239385355747,0.7574632399817207,0.3271215190232566,2.042733777765936,-0.5953614083563176,-0.4062485019507755,-0.7655487486405359,0.8997861730472101,0.0895028305171685,0.2740212429303362,0.8523595244726678,11.59474612559552,-1.1290133099103543,0.1582343827082662,-0.8895335002302697
0.86,0.7426525825572141,0.3159474856074637,2.020786633991462,-0.0275068855816986,0.1151531453217229,0.0115512768410207,-0.5042032606175326,-0.3863197556837915,-0.7304214707441504,0.7515096258981575,0.3230590340037488,2.03507829027953,-0.6133956266080227,-0.4063226266420849,-0.7670827270729528,0.808042637438966,0.1123211397149437,0.4594890748746666,0.6551233895712161,11.261891333903804,-1.130331831489034,0.1634674683412056,-0.8929451296210668
0.88,0.7325931958511896,0.3083383412036056,2.006275168529757,-0.0328729623894856,0.1149190178657344,0.0111706338177963,-0.5019484077631878,-0.3751355429380046,-0.7215356694367409,0.7396023977310312,0.3149340639647333,2.0197673153067197,-0.6494640631114331,-0.4064708760247038,-0.7701506839377866,0.7230636918911962,0.1127426427172395,0.5592106372893452,0.4442900653704784,10.96730017491518,-1.132638409331692,0.1680734469259518,-0.8943514391981605
0.9,0.7225790565895401,0.3009676706639088,1.991904326443894,-0.0371155298202754,0.1130383722827765,0.0109525112728536,-0.4997169426911771,-0.3627352773569937,-0.715958220868358,0.7276951695639048,0.3068090939257178,2.0044563403339084,-0.6855324996148434,-0.4066191254073226,-0.7732186408026205,0.6889375069267236,0.1115732536005359,0.6200132790505464,0.2788724284191413,10.73157323379928,-1.1358768289756909,0.171606954511877,-0.893746223048234
0.92,0.7131051441237187,0.2942025946908699,1.97833459987789,-0.0400758772442282,0.1093684696628609,0.0109213713124174,-0.4978037132871553,-0.3502567186648689,-0.7126816184836374,0.7139845195716079,0.2986767114175713,1.988991967517856,-0.7216009361182537,-0.4067673747899414,-0.7762865976674543,0.6521330327716371,0.0956614702010916,0.6239279346062387,0.1638301192360303,10.55838645221229,-1.140825246072415,0.1744148858741251,-0.8905250583435392
0.94,0.7031613881381634,0.2873406079007025,1.964119945961731,-0.0421494803882423,0.1033288353841799,0.0110822447205055,-0.4971314538287006,-0.336790651553204,-0.7088989992025723,0.700273869579311,0.2905443289094249,1.973527594701804,-0.7576693726216641,-0.4069156241725602,-0.7793545545322882,0.7001698095120058,0.0336129729227335,0.6733033555832463,0.1891309640532579,10.438420467014112,-1.148145085242653,0.1763053746583356,-0.8833954536403322
0.96,0.6931976284430708,0.2807551634858278,1.949988966077142,-0.0430926925644397,0.095818152133819,0.0114134266289155,-0.4996297727822211,-0.3226388901996461,-0.7043611480865112,0.685661508674429,0.282408240166713,1.9579865229641304,-0.7937378091250744,-0.407063873555179,-0.7824225113971219,0.7535018907625766,-0.1249159476760242,0.7075880676778945,0.2268925558030543,10.495229911755814,-1.1555956895074169,0.1772687793918442,-0.8755788469156448
0.98,0.6836561845137917,0.2747679090584589,1.9366542492725185,-0.0426538446094722,0.0882115141691706,0.011857946319326,-0.5048295291886454,-0.3085290820597413,-0.6995010523144667,0.6701474368569615,0.2742684451894356,1.9423687523048363,-0.8298062456284847,-0.4072121229377978,-0.7854904682619558,0.7901656208424304,-0.2599878203212169,0.7054904069952433,0.2430047886022246,10.495229911755814,-1.1628875460622483,0.1772011087831594,-0.8677577288859085
1.0,0.6734784459675933,0.2687565419921486,1.922721316888808,-0.0404679350797452,0.0803830889261209,0.0124388258293394,-0.512879928895295,-0.293548101285742,-0.6940199513588804,0.6584147080543594,0.2593414549554718,1.9016791966567952,-0.564772113673461,-0.3167781236841085,-0.6812638005260889,0.8934220560198395,-0.4025199853324779,0.7490490386999615,0.2740550477793146,10.524820144378282,-1.1691163281865589,0.1757640578484083,-0.8611395222366949
1.02,0.6629966664408119,0.2630418894525512,1.909038345964708,-0.0363789134114112,0.0773251752340266,0.0129520081468336,-0.5341296065368631,-0.2794541129986721,-0.674551350998703,0.6584147080543594,0.2593414549554718,1.9016791966567952,-0.564772113673461,-0.3167781236841085,-0.6812638005260889,1.6040695945710437,-1.0624838820784075,0.7046994143534963,0.9734300180088696,10.543725544164772,-1.170523204503207,0.1726025659965408,-0.8545452789914074
1.04,0.6526811037877157,0.2578458816002578,1.8964008774686951,-0.0316628176673563,0.0812500718412117,0.0132549826606829,-0.5498622694334183,-0.2685082838244449,-0.6567147209105063,0.6584147080543594,0.2593414549554718,1.9016791966567952,-0.564772113673461,-0.3167781236841085,-0.6812638005260889,1.3090771854928671,-0.7866331448277586,0.5472914587113603,0.8918315044098346,11.55307926020214,-1.1601286449499923,0.1690317415020304,-0.8698693399980455
1.06,0.6415629989512254,0.2525813374207225,1.883444845725078,-0.0264187697462195,0.0894240283555181,0.013501159156726,-0.5605232193560314,-0.2587530098484595,-0.6399308392492222,0.6527669869176248,0.2561736737186307,1.8948665586515343,-0.5767606305704241,-0.3184279320089819,-0.6776163501684134,1.1073842007395076,-0.5330474961306564,0.4877636987992706,0.8391940830642042,11.38254219258215,-1.1488004842832478,0.1651537662104528,-0.8877580881739932
1.08,0.6302821220039555,0.2474955820985255,1.8708012814349109,-0.0211421677999388,0.0995681934442971,0.0137512545955593,-0.5665688844540058,-0.2504957790206136,-0.6253751094375781,0.6414715446441556,0.2498381112449486,1.8812412826410123,-0.6007376643643504,-0.3217275486587289,-0.6703214494530623,0.8896645403897733,-0.3022832548987164,0.4128615413922953,0.7277864905822051,11.21950231064875,-1.138103922397339,0.1611720208343336,-0.9053966225853112
1.1,0.6189240998418934,0.2425603623872925,1.8584259222703383,-0.0159765736565178,0.110327145997313,0.0140406258767419,-0.5685788483395335,-0.2435943498581309,-0.6129148423197344,0.6301761023706863,0.2435025487712664,1.8676160066304908,-0.6247146981582766,-0.3250271653084757,-0.6630265487377112,0.7192494976604265,-0.1004981942763882,0.3450714581241326,0.623013355892188,11.0820236752852,-1.1286296406279088,0.157393343576969,-0.9211046036103352
1.12,0.6081362687833982,0.2379874507164667,1.846883845532572,-0.0112742910795612,0.1200886043689031,0.0143622345397169,-0.5667275033529723,-0.2382062164330034,-0.6026942979569421,0.6176818084075207,0.2370020054650969,1.8543554756557368,-0.6486917319522029,-0.3283267819582226,-0.6557316480223601,0.5850619350505709,0.0925672493280627,0.2694066712563767,0.5110272181396147,10.973829778241452,-1.1195700103080697,0.1535201110349907,-0.9361550940785244
1.14,0.5968527090579184,0.233272614858479,1.834935824344048,-0.0066187385628134,0.1290030564454765,0.0147438858239398,-0.5615926896807206,-0.2336483436854178,-0.5926959027465311,0.6051875144443553,0.2305014621589274,1.8410949446809823,-0.6726687657461291,-0.3316263986079695,-0.648436747307009,0.6064413042815772,0.2567406836125829,0.2278936373792811,0.4999197605205507,10.890253861067322,-1.1122640743428789,0.1498392246521014,-0.9485963061181044
1.16,0.5856961691347708,0.2286369050204799,1.8231813722859216,-0.002349983422442,0.1360374700846957,0.0151489355434072,-0.5542883376521118,-0.2301965244399236,-0.583285693186584,0.5920937946363415,0.2239184284365142,1.828016786224112,-0.6966457995400553,-0.3349260152577164,-0.6411418465916578,0.6201222835528587,0.3652176014304398,0.1725909622747073,0.4705104779973545,10.86820211032591,-1.1073423915131075,0.1464667158578034,-0.9581376472575612
1.18,0.5747030882853336,0.2240598160639283,1.811610744615932,0.0014585645784777,0.1409937619728093,0.0155518960107949,-0.5455102896478512,-0.2276785975273491,-0.5742586431293031,0.5784006489834796,0.2172529042978573,1.8151210002851248,-0.7206228333339816,-0.3382256319074633,-0.6338469458763067,0.6420313766453046,0.4389024002130315,0.1258963456287273,0.4513525028640441,10.854152494295704,-1.1047544121028363,0.1436139762706457,-0.9646037285404964
1.2,0.5644300814363764,0.2197504677258153,1.8007842377548635,0.0046338950068339,0.1437897533078491,0.0159139965463484,-0.5364563419686602,-0.2260336597678467,-0.5658253703902563,0.547427573802941,0.2126758861875608,1.782897812459467,-0.5423542728342601,-0.2377498025025964,-0.5375763987390538,0.6240991065153729,0.4526973839595494,0.0822468879751181,0.4216636369523407,10.84869247376173,-1.1041075615905198,0.1410002880922277,-0.9688189359331336
1.22,0.5537353338025449,0.2152060542975394,1.7896263921063942,0.0064184522532373,0.1473169158501912,0.0161982018596028,-0.5332113906318459,-0.2280522724458826,-0.5501011137579159,0.547427573802941,0.2126758861875608,1.782897812459467,-0.5423542728342601,-0.2377498025025964,-0.5375763987390538,0.8090994267732484,0.1622475668407175,-0.1009306339017954,0.7862128316170169,10.850827853795636,-1.1038825922994078,0.1397476523982547,-0.9701988782625496
1.24,0.5431316138574144,0.2106363314911192,1.778792032302742,0.0063400853799805,0.1532925714088193,0.0163727053614911,-0.5269076689931687,-0.228686374753787,-0.5342141872964555,0.547427573802941,0.2126758861875608,1.782897812459467,-0.5423542728342601,-0.2377498025025964,-0.5375763987390538,0.8551804263233979,0.3151860819338603,-0.0317051153952196,0.7943463230730197,11.32286493779884,-1.0974056131107688,0.1400610162800582,-0.9808286001063252
1.26,0.532686682403905,0.2060627048971298,1.7682678314518727,0.0050331511553648,0.1603811579258736,0.016467168161944,-0.5176034257479085,-0.2285523483409408,-0.5190574691842439,0.5420040310745985,0.2102983881625348,1.7775220484720764,-0.5417230694715418,-0.2397640434976459,-0.530239949861004,0.8892595366080616,0.4652121622630067,0.0067013206423105,0.7578359056105821,11.288066423870076,-1.0915510764759546,0.141466778911263,-0.9910007321028782
1.28,0.5229598219625381,0.2017286137480756,1.7585438061468917,0.0029118472872814,0.1674692974976297,0.0164894341149888,-0.5065227076939378,-0.2275750800464528,-0.5053161652084834,0.5311569456179133,0.2055433921124829,1.7667705204972954,-0.5404606627461054,-0.2437925254877449,-0.5155670521049043,0.8839694577094476,0.5540359026985353,0.0488634147243996,0.6870651987880227,11.257097336998411,-1.085931029027995,0.1438691608664916,-1.0013948498116838
1.3,0.5129719527325801,0.1972050513590028,1.7485851964983403,0.0002835739689067,0.1748463159369207,0.0164721999699456,-0.4926383878437952,-0.2247092065151664,-0.4913131858978754,0.520309860161228,0.200788396062431,1.7560189925225145,-0.539198256020669,-0.2478210074778438,-0.5008941543488046,0.9963320209294034,0.6942159925071301,0.1432936765643183,0.7001489655304005,11.23362588227883,-1.0812366892218603,0.1467433789195604,-1.0113734082604289
1.32,0.503293556107788,0.1927548562303446,1.738900452450048,-0.0020756668823993,0.1814556891529034,0.0164616871837905,-0.4757875208769584,-0.2204904397427129,-0.4779006816625074,0.5095258950408147,0.1958319759128741,1.746001109435538,-0.5379358492952325,-0.2518494894679428,-0.4862212565927049,1.0973205781335644,0.8425433483418371,0.2109383386226765,0.6706252117683997,11.226135672965029,-1.0780549389647027,0.1493209544165307,-1.0200882950235777
1.34,0.4939791002395581,0.1883983776173982,1.729482359447066,-0.0038908293685967,0.1864603118738571,0.0164861213500362,-0.4566117915878684,-0.2155068146124999,-0.4645868332274363,0.4987419299204013,0.1908755557633172,1.735983226348562,-0.5366734425697961,-0.2558779714580417,-0.4715483588366052,1.1935280404739137,0.9587864644545002,0.2491812565106485,0.6656924217535554,11.21522972310686,-1.077204210678086,0.151618756485331,-1.0271323849548104
1.36,0.4854995037274274,0.1843571294463661,1.72078341799612,-0.0050375176004111,0.1893480059659622,0.0165564121595163,-0.4371188791995328,-0.2102170542768587,-0.4517495247240299,0.4879895249681238,0.1858184235640079,1.7263321657054884,-0.5354110358443596,-0.2599064534481407,-0.4568754610805055,1.196611557063821,0.9746456194167809,0.2644880167820621,0.6418654251703182,11.235312150352,-1.0787581691635404,0.153382224554375,-1.032115627497836
1.38,0.4778122638531887,0.1806254926551724,1.7127712184695514,-0.0054605626638388,0.190299178627101,0.0166809863413823,-0.4181253922506509,-0.2047262055436003,-0.43913614090396,0.4772686801839823,0.180660579314946,1.7170479275063173,-0.5341486291189231,-0.2639349354382396,-0.4422025633244058,1.1726033192018466,0.949674347444096,0.2745424366629195,0.6306691910034967,11.265570135187772,-1.081943514343928,0.154341463533329,-1.0349404271046594
1.4,0.4696777432466636,0.1765995128490478,1.7041431618387586,-0.0049394827944864,0.1890986885271271,0.0169041367610348,-0.396585976126249,-0.1983121439971873,-0.4243511944674583,0.4569059942406561,0.1703891823779923,1.6908144114243533,-0.4260429482310353,-0.2131292972350347,-0.3844671406955822,1.345066237803498,1.0769708062200956,0.3207030773206484,0.7392473218250845,11.308953706637112,-1.0873616337188778,0.1545165898689471,-1.036525357643737
1.42,0.462363402536968,0.1728777539814552,1.6962081395595745,-0.0038923526283714,0.1849901509103004,0.0171682501739103,-0.3747855707515639,-0.1936993741799701,-0.4116010755250293,0.4569059942406561,0.1703891823779923,1.6908144114243533,-0.4260429482310353,-0.2131292972350347,-0.3844671406955822,1.2836479783543822,1.0900202687342542,0.2306384908608627,0.6375059471214528,11.27603403766625,-1.0962338599842696,0.1541551195723018,-1.0354778060406329
1.44,0.4550869805224613,0.1690583314527101,1.6881370314434818,-0.0023871224508129,0.1772815457164074,0.0174797234963506,-0.3545950440054112,-0.1885664644770394,-0.3960019445197255,0.4569059942406561,0.1703891823779923,1.6908144114243533,-0.4260429482310353,-0.2131292972350347,-0.3844671406955822,1.301284961515132,1.009526337307634,0.2566454851465352,0.7799565502651873,11.27603403766625,-1.1105062669925343,0.1534378007759122,-1.027933697037995
1.46,0.4481745562857631,0.1653384886440846,1.680402723196801,-0.0002661481934332,0.1673522187959629,0.0178207737724087,-0.3381556239740905,-0.1838398796251682,-0.3780708099765392,0.4526455647583458,0.168257889405642,1.6869697400173975,-0.4276264594271121,-0.2148099155733215,-0.3735333406539066,1.2390729612637597,0.8219710015660381,0.2363292425935595,0.8965567271593144,11.397641986448434,-1.124565964925677,0.1521535076981385,-1.0192557543804377
1.48,0.4415498667347222,0.1616994486468026,1.6730489752956768,0.0022102301555705,0.1562966693119692,0.0181573077452609,-0.3255932875269633,-0.1804497797527819,-0.3581544229812268,0.4441247057937251,0.1639953034609413,1.6792803972034858,-0.4307934818192659,-0.2181711522498953,-0.3516657405705555,1.1895036203209135,0.6281168223563588,0.1695049936193141,0.9958193497656226,11.506822283990005,-1.1390429429656284,0.1504056700055646,-1.009568638780118
1.5,0.4354517919166397,0.1582940284257977,1.6664457934182428,0.0045175231512961,0.1456039187997607,0.0184423142148279,-0.3172453757710822,-0.1782267385294567,-0.3378866210450332,0.4356038468291043,0.1597327175162406,1.6715910543895742,-0.4339605042114196,-0.2215323889264691,-0.3297981404872043,1.101604895469962,0.417395587794056,0.1111520611662614,1.0133900968096798,11.595376333432796,-1.1524525174067255,0.1486414336692079,-1.0003568345705436
1.52,0.4291678278600398,0.1547468646084782,1.6599223938233445,0.0067449804084885,0.1348448636430505,0.0186996943472186,-0.3118854187020864,-0.176635600449925,-0.3154648390995726,0.4269246367448759,0.1553020697377112,1.6649950915798302,-0.4371275266035733,-0.2248936256030428,-0.3079305404038532,1.155418934607049,0.267997853449789,0.0795569039765839,1.1210890972730283,11.662038270276753,-1.1641474953272228,0.1470085775700135,-0.9924361977170416
1.54,0.4229569308117848,0.1512246359543087,1.653853755103329,0.0087008805958908,0.1251320290189307,0.0189183834652125,-0.3096813809198009,-0.1756709021588743,-0.2925061754675564,0.4182454266606475,0.1508714219591818,1.658399128770086,-0.4402945489957271,-0.2282548622796166,-0.286062940320502,1.1542190661942835,0.1102018891142753,0.0482349145525348,1.1479331816008105,11.718266366469834,-1.1730180942281885,0.1456380927471464,-0.9878359599845556
1.56,0.4170700119574212,0.1478902084928835,1.6485158351865772,0.0102433846772584,0.117282989144766,0.0190969032112946,-0.3101517472214222,-0.1753295629685585,-0.2705359301208083,0.4094870410166153,0.1463567432637381,1.6523498559624257,-0.4434615713878808,-0.2316160989561903,-0.2641953402371509,1.098896534593742,-0.0235183150810641,0.0170669595157893,1.0985122673374064,11.74883374773708,-1.179932667385174,0.1444176879880232,-0.9851001607466994
1.58,0.4108409441881301,0.1443820409093843,1.6433493356787523,0.0114603593548865,0.1107756003152657,0.0192607951139383,-0.3129017693938176,-0.1755064040150669,-0.2472713791333124,0.4006494798127793,0.14175803365138,1.646847273156849,-0.4466285937800346,-0.2349773356327641,-0.2423277401537998,1.171359495793444,-0.1375011086197697,-0.0088420523254223,1.16322754937479,11.74883374773708,-1.184733758660158,0.1435291805550341,-0.9842145105540576
1.6,0.4045300507369846,0.1408640092478839,1.63864649588996,0.0120949814983347,0.1066772393687543,0.0194044058792011,-0.3181002069524882,-0.1762323600492548,-0.2241925917343474,0.3951958557184392,0.135606720708631,1.6309857667220866,-0.3312045415879647,-0.1693639106776741,-0.2251094297073767,1.183407361204924,-0.2599218779335333,-0.0362978017093923,1.1539393699482536,11.766681453125784,-1.1868710504910829,0.1431368918898728,-0.9857221162055168
1.62,0.3983889146433125,0.1374440762105146,1.634458048736244,0.0100229242915168,0.1061789997883982,0.0193951649580494,-0.3275186531056202,-0.1827857895069943,-0.2178548676868909,0.3951958557184392,0.135606720708631,1.6309857667220866,-0.3312045415879647,-0.1693639106776741,-0.2251094297073767,0.6554031425365654,-0.4709223076565988,-0.3276714728869742,0.3168862023728236,11.76939579786631,-1.192557252266348,0.1455407326354713,-0.9848118828767274
1.64,0.3917583826199716,0.1337632012513487,1.6301693547223772,0.0047005111522024,0.1089571684429426,0.0192002865266481,-0.3346560615816583,-0.184204163996922,-0.2112715236563644,0.3951958557184392,0.135606720708631,1.6309857667220866,-0.3312045415879647,-0.1693639106776741,-0.2251094297073767,0.4906495810957313,-0.3568704238019055,-0.070918724496384,0.329167201526323,10.715602677674724,-1.184801359017145,0.1502673115271608,-0.9921860827469376
1.66,0.3850156262615322,0.1301060097330326,1.6260189957968072,-0.0011915873024706,0.1137070952424151,0.0189627556269101,-0.3389537275613214,-0.1813101423303601,-0.2040916339520027,0.3918838103025596,0.1339130816018542,1.628734672425013,-0.3348650960267941,-0.1681354120101956,-0.2206770398221895,0.442707890278913,-0.2148832989831539,0.1447010833280929,0.3589944852180865,10.750644759753412,-1.177437800154388,0.1554440321803619,-1.0004674446615731
1.68,0.3782168192281367,0.1265352129019873,1.6220161019205517,-0.006510703489918,0.1193507415431844,0.0187439540768937,-0.3404853086643578,-0.1760125651174922,-0.1965884178598762,0.3852597194708003,0.1305258033883007,1.6242324838308653,-0.3421862049044529,-0.1656784146752385,-0.2118122600518153,0.4655865030437983,-0.0765790551518208,0.2648788606433944,0.375160804606324,10.784345599888184,-1.170195622576903,0.1605828841502309,-1.0099785519067193
1.7,0.3717540961351504,0.1232560730644773,1.6183540001589822,-0.010692200937686,0.1247605077599764,0.0185787314834271,-0.3396101370120186,-0.1695982068438835,-0.1892944636572959,0.378635628639041,0.1271385251747473,1.619730295236718,-0.3495073137821118,-0.1632214173402813,-0.202947480281441,0.4876261000823518,0.0437585826169623,0.3207179136804336,0.3646977101290166,10.80933342782646,-1.1640764392447092,0.1650214098058343,-1.019376006908025
1.72,0.3649903851041239,0.1199441461914903,1.6146508007124465,-0.0141419640207221,0.1299220938653977,0.0184637705228503,-0.3367039961426982,-0.1620508138868989,-0.1814118014403291,0.3716454823633988,0.1238740968279416,1.615671345631089,-0.3568284226597706,-0.1607644200053242,-0.1940827005110666,0.5646794640020811,0.1453070434660197,0.3773696478492322,0.3941331108483381,10.832721412987668,-1.1594423320575424,0.168667153724825,-1.0280219475451284
1.74,0.3583012157067944,0.1167899801250101,1.6111014848305476,-0.0166595961602209,0.1341476439686842,0.0184203448635655,-0.3323269179390507,-0.1538882023999954,-0.1739437827493158,0.3646553360877565,0.120609668481136,1.6116123960254602,-0.3641495315374295,-0.1583074226703671,-0.1852179207406923,0.5948914671103853,0.2188539101823733,0.4081305743451738,0.3734009345506661,10.861047932055952,-1.1568733649017944,0.1715519608738223,-1.035442012904036
1.76,0.3517093720645156,0.1138042471822863,1.6076978423654649,-0.0182765725842519,0.1372565306689267,0.0184574063923789,-0.3270923468238343,-0.1452126868473866,-0.1668090938284172,0.3574821620901728,0.1174066650677043,1.6077750659140908,-0.3714706404150883,-0.15585042533541,-0.1763531409703181,0.6196149829971197,0.2617285557608206,0.4337757776304407,0.356734446044929,10.846388597066834,-1.1559713904970106,0.1735602857985624,-1.0412944992258824
1.78,0.3452279620023923,0.1109987769438724,1.6044353433376295,-0.0188546026579461,0.1392223559629441,0.0185905804078655,-0.3213988258912019,-0.1359333864935806,-0.1598017202088056,0.3501259603706476,0.1142650865876465,1.6041593552969806,-0.3787917492927471,-0.1533934280004528,-0.1674883611999438,0.6473501384708599,0.2846760466316211,0.4639650176902987,0.3503686809805825,10.839377316433456,-1.156214902188094,0.1747809288472377,-1.0470487302882772
1.8,0.3391770923220054,0.1085094015437949,1.6014661172178437,-0.0182430106725373,0.1401198435937462,0.0188198712314994,-0.3159095320543745,-0.1267363335603633,-0.1530983582738694,0.3291580207078322,0.1042021076191934,1.5964452573271892,-0.3097890629841737,-0.1429822988399437,-0.1267039054402528,0.6317697181611829,0.2744646918413668,0.4598526466608688,0.3351680967468087,10.842970290292214,-1.15763933867926,0.174831920485338,-1.0518430741620968
1.82,0.33287881433203,0.1061228518257876,1.5984859517497692,-0.0147077610368193,0.141428440625971,0.0192595697366663,-0.3140705128164378,-0.1133975896444566,-0.1452244175209663,0.3291580207078322,0.1042021076191934,1.5964452573271892,-0.3097890629841737,-0.1429822988399437,-0.1267039054402528,0.7799086869497386,0.0919509618968361,0.6669371957953307,0.3936970376451576,10.853938438225669,-1.160738428348188,0.1721406499898644,-1.0562648206084964
1.84,0.32663100493184,0.1039442624040203,1.5956717106059033,-0.0087330929255469,0.1440608307613806,0.0198552455142836,-0.310580677280744,-0.1056054944155731,-0.1365789262363163,0.3291580207078322,0.1042021076191934,1.5964452573271892,-0.3097890629841737,-0.1429822988399437,-0.1267039054402528,0.6075364591428623,0.1744917767846882,0.3896047614441781,0.432274564232496,10.958647711940102,-1.1579641464563486,0.1670819193423502,-1.0640343836821784
1.86,0.3207787764768016,0.1019821934324385,1.5931644014574542,-0.0027848951547368,0.1470807767541828,0.0204452515610903,-0.3055127567008234,-0.1014184296016611,-0.1278070078003325,0.3260601300779905,0.1027722846307939,1.5951782182727867,-0.307467110402768,-0.1443920813092163,-0.1200843424865422,0.5480918805452127,0.2533960289960307,0.2093532406955991,0.4385959217991897,10.998056442912455,-1.1548999682747256,0.1614067015550467,-1.0728142932926443
1.88,0.3147391685770399,0.099980233236135,1.590709430113145,0.0029943235630738,0.1502685416550424,0.0210434540269284,-0.2986219848330729,-0.0990276000480888,-0.1181486915846303,0.319864348818307,0.099912638653995,1.5926441401639817,-0.3028232052399567,-0.1472116462477615,-0.1068452165791211,0.6051484838659691,0.344538593387525,0.1195414776786155,0.4829158107851096,10.998056442912455,-1.152292752042871,0.1561560767038207,-1.0812899776668536
1.9,0.3088518263641508,0.0980101163500152,1.5884508644187263,0.0080058289810926,0.1530633570753496,0.021594738138501,-0.2904170656064592,-0.0980694694568989,-0.1081921610117773,0.3136685675586235,0.0970529926771962,1.590110062055177,-0.2981793000771455,-0.1500312111863068,-0.0936060906717,0.646860137110774,0.410245961330688,0.0479065295594931,0.4978265286426531,11.036924456479028,-1.1504310308427803,0.1516181349680067,-1.0891172270373384
1.92,0.3031398914069925,0.0960473174619469,1.5863946098279564,0.0121626672908389,0.1551708974085078,0.0220837555952526,-0.2812359576780368,-0.0981354556619822,-0.0979464689477458,0.3077049815570806,0.09405236845347,1.5882379402417426,-0.2935353949143342,-0.152850776124852,-0.0803669647642789,0.6878795367714479,0.4590553964211208,-0.0032993102541664,0.5122846032015759,11.095246931556176,-1.1495778947969253,0.1480619719312284,-1.0956193227254454
1.94,0.2978894517938785,0.0941743886329811,1.584633711232662,0.015371372657601,0.1564131111836591,0.0224857773653851,-0.271974377956966,-0.098893068973337,-0.087930329587161,0.3017413955555377,0.0910517442297439,1.5863658184283087,-0.2888914897515229,-0.1556703410633972,-0.0671278388568578,0.6831432583103368,0.4630789860535361,-0.0378806655677368,0.5008069680292375,11.123282052412833,-1.1495404640449405,0.1450440929490061,-1.1011749814887253
1.96,0.2925547494675967,0.0921822580207943,1.5829890797026458,0.0180477194117845,0.156907348213165,0.0228422852535237,-0.2620488166106088,-0.1002043240860299,-0.0770448860305027,0.2958939071830651,0.0879806308825541,1.5848246747625605,-0.2842475845887116,-0.1584899060019425,-0.0538887129494367,0.7394745422190967,0.4962780673178596,-0.0655627556346481,0.5442721778329148,11.123282052412833,-1.1504871012095907,0.1427263689364241,-1.1057354798081804
1.98,0.2874182214042055,0.0901592580806383,1.581565229922003,0.0200700413733967,0.1566204583290631,0.023131659614066,-0.2521868248610139,-0.1019440948082525,-0.0658723233629866,0.2901625164396627,0.0848390284119007,1.583614509244497,-0.2796036794259003,-0.1613094709404877,-0.0406495870420156,0.7501863768333772,0.493099587479745,-0.0869885361111273,0.5586281333758069,11.152892130570764,-1.1523113040802695,0.1410467481393669,-1.1095407246355198
2.0,0.2824768444953363,0.0880964766263097,1.5803679968357234,0.021445773266336,0.1556224049327527,0.0233535083775013,-0.242548658093137,-0.1041607103425412,-0.0544102062907216,0.2748088801611548,0.0850620533402257,1.5782716137538535,-0.2616135704471112,-0.0989360889004934,-0.0456463123102589,0.7569474401346611,0.4819083383938466,-0.1108307767144357,0.5731058536132511,11.175161654492513,-1.1545184163284044,0.1400209657086528,-1.1123885141300869
2.02,0.2779835074502733,0.0860327160361351,1.5793461719358866,0.0200840485236889,0.1528162455208493,0.0233346760918618,-0.2310782399213567,-0.1120588760403696,-0.0536767525422848,0.2748088801611548,0.0850620533402257,1.5782716137538535,-0.2616135704471112,-0.0989360889004934,-0.0456463123102589,0.697297405751225,0.5735209085890133,-0.3949082848914181,0.0366726874218376,11.195596096285044,-1.159080952477368,0.1416791952749157,-1.112144317312678
2.04,0.2734785728183078,0.0837392569054917,1.5782910591555,0.0151989840243678,0.1465597078439977,0.0230303376635909,-0.2206463828991482,-0.1159658855914206,-0.0516904732034469,0.2748088801611548,0.0850620533402257,1.5782716137538535,-0.2616135704471112,-0.0989360889004934,-0.0456463123102589,0.5657598213369773,0.5215928511104251,-0.1953504775525527,0.0993139669418961,10.552635181622463,-1.1700667052386249,0.1471180667493249,-1.103778488949776
2.06,0.2691372237181781,0.0814238911879204,1.5772969857596002,0.0094637812915789,0.1382240181064181,0.022687232796786,-0.2144276552788968,-0.1152346592466096,-0.0477165390828885,0.2721927444566837,0.0840726924512208,1.5778151506307512,-0.2634989195643306,-0.0983344877189416,-0.0416011100997133,0.370807961001251,0.3109363810125734,0.0365613172405507,0.198696706027918,10.633743869026148,-1.1815486755176352,0.1530149209863237,-1.094311745557967
2.08,0.2650889654289448,0.0792643192782118,1.576441907120661,0.0044945077423075,0.1297599462651293,0.0224464175699242,-0.2122403541029286,-0.1122386497905616,-0.042480774536364,0.2669604730477415,0.0820939706732109,1.576902224384546,-0.2672696177987695,-0.097131285355838,-0.0335107056786223,0.3208332490631368,0.1093650587984079,0.1498004728024013,0.2617882273262237,10.788425131288932,-1.1928341818394983,0.1586412089873226,-1.0848518135859626
2.1,0.2608378171055423,0.0770658973132987,1.5756597929474347,0.0001548987030847,0.1213345620940742,0.0223099661005422,-0.2131851264033636,-0.1078626603633339,-0.0359621596315427,0.2617282016387993,0.080115248895201,1.5759892981383408,-0.2710403160332084,-0.0959280829927343,-0.0254203012575312,0.3953929009360065,-0.047238615021751,0.2187994713613847,0.325930745241065,10.788425131288932,-1.2022702085823846,0.163280960937932,-1.0768861156685128
2.12,0.2565374702669739,0.0749641067225199,1.5750156778306232,-0.0032011377360761,0.1141680082591415,0.0222825005070374,-0.2169291251880749,-0.1026724871172876,-0.0287531412052246,0.2563073953181351,0.0781966872353464,1.5754808921131902,-0.2748110142676473,-0.0947248806296307,-0.0173298968364401,0.4819890348723941,-0.1871999392355661,0.2595086623023129,0.3604509213159072,10.841741658153296,-1.2095903260524188,0.1669160991285315,-1.0710457377682674
2.14,0.252133228830218,0.0729717975638554,1.5745167610669162,-0.0056075155315979,0.1089961549719849,0.0223400526660988,-0.2233659425159017,-0.0970343186809219,-0.021505977521107,0.2508865889974709,0.0762781255754917,1.5749724860880396,-0.2785817125020862,-0.0935216782665271,-0.009239492415349,0.5606758022534817,-0.3218408663913361,0.2819084218182853,0.362358184205881,10.879923790351311,-1.2148121668034544,0.1695301048783675,-1.0678804316566006
2.16,0.2478072397074633,0.0711862760528156,1.574175606456349,-0.0071156412354909,0.1067032145614698,0.0224460483946018,-0.2315792003299001,-0.0913486582145612,-0.0147765695974557,0.2453715152209458,0.0743896439747146,1.5746663401734162,-0.2823524107365251,-0.0923184759034235,-0.0011490879942579,0.6022235254887595,-0.4106628906999227,0.2842830233180368,0.3364703961825622,10.88664165741011,-1.2159955994388334,0.1714081422266248,-1.0684317947478414
2.18,0.2430887634638814,0.0694264292457375,1.5739528450204427,-0.0078733305371819,0.1072148193276142,0.0225985825589252,-0.2395057720670159,-0.0849895740094062,-0.0078730691463355,0.2397621739885597,0.072531242433015,1.5745624543693202,-0.286123108970964,-0.0911152735403198,0.006941316426833,0.6142613651991167,-0.3963285868557917,0.3179542102577495,0.3451750225560135,10.883478137183374,-1.211957901248235,0.1723278952979452,-1.0733406245256347
2.2,0.2382304535013251,0.0677982793760241,1.5738653991270757,-0.0076166417673233,0.1098945018321456,0.0228052390155019,-0.2456554210174301,-0.0782255238815426,-0.0012401184293255,0.2311134748605306,0.0651769505452672,1.573559191563126,-0.2307017441445644,-0.0850658593909166,-0.0144121368654672,0.5647269064775154,-0.3074824475207099,0.3382025063931808,0.3316475358505001,10.854091036553656,-1.2068931119953996,0.1723490672507908,-1.0804478214806157
2.22,0.233466394832925,0.0663948781943475,1.5738065777755683,-0.0056824174685745,0.115001226608929,0.023103306607606,-0.2548680152907339,-0.0702139915788187,-0.0052846906842835,0.2311134748605306,0.0651769505452672,1.573559191563126,-0.2307017441445644,-0.0850658593909166,-0.0144121368654672,0.6430690239151504,-0.4606297136651879,0.4005766151361937,-0.2022286127479023,10.854091036553656,-1.2072345134304032,0.1711811106127795,-1.0884654077987177
2.24,0.2283055298149497,0.0650586829614709,1.5736535942243823,-0.0018957219612639,0.1230215728812693,0.0235408915422638,-0.2602385440877713,-0.0643371174790198,-0.0097646452863991,0.2311134748605306,0.0651769505452672,1.573559191563126,-0.2307017441445644,-0.0850658593909166,-0.0144121368654672,0.4567554651608212,-0.2685264398518711,0.2938437049899426,-0.2239977301057784,10.209468590061988,-1.1950453833103714,0.1673593740033198,-1.097571742998379
2.26,0.2230796043435595,0.0638080293550993,1.5734158349533147,0.0022326598432738,0.1322517013965509,0.0240299568517285,-0.2617172411924048,-0.0610998893072111,-0.0137905814893404,0.2288064574190849,0.064326291951358,1.5734150701944714,-0.2289409385600742,-0.0850811164672187,-0.0157199504092935,0.2686743087539147,-0.073934855231672,0.1618614085904381,-0.2012968101470682,10.223015323954314,-1.1835653166700677,0.1633169479174425,-1.1079881929424762
2.28,0.2178663133848184,0.0626053548980263,1.5731013942339465,0.0059978300735884,0.141565370251072,0.0245252758383393,-0.259322958073691,-0.0592730780939678,-0.0174873634189372,0.2241924225361937,0.0626249747635397,1.573126827457162,-0.2254193273910935,-0.0851116306198228,-0.0183355774969462,0.2384115532874965,0.1197141559356906,0.0913405606621661,-0.1848390964798386,10.254482089711928,-1.1733678246297852,0.1598463505720461,-1.117723221020782
2.3000000000000003,0.2129899152265251,0.0614883272127833,1.5727361943946885,0.0090449747108896,0.1496475848093006,0.0249777976276715,-0.2540266690913372,-0.0583108937954573,-0.0207942038533905,0.2195783876533024,0.0609236575757214,1.5728385847198525,-0.221897716222113,-0.085142144772427,-0.0209512045845989,0.3158784151688645,0.2648144491176896,0.0481092149255252,-0.1653420217226635,10.284574840696225,-1.1647322485147389,0.1568187657967727,-1.1265864537433234
2.32,0.2079901228827674,0.0603276386146001,1.572285693604031,0.0116902878095931,0.156808207995432,0.0254187858138065,-0.2461544047343322,-0.0577561685640158,-0.0240823543599956,0.2151404333288601,0.0592208146802728,1.5724195606281606,-0.2183761050531324,-0.0851726589250311,-0.0235668316722516,0.42746988181349,0.3936132178502471,0.0277362615720734,-0.1644075253302552,10.313910474222212,-1.158678929626835,0.1544451895803493,-1.133493321994962
2.34,0.2031662948268168,0.0591741931706802,1.571768696013136,0.0138077355175356,0.1622997520653384,0.0258116010029588,-0.2366269718607953,-0.0575607768148768,-0.0274612992483874,0.2107024790044178,0.0575179717848243,1.5720005365364689,-0.2148544938841518,-0.0852031730776353,-0.0261824587599042,0.5055378908998135,0.4763716436768456,0.0097695874569484,-0.1689472444195917,10.342545918495489,-1.1553935064462155,0.1526695186981262,-1.138211288227257
2.36,0.1985453984362254,0.0580210176996246,1.5711843519749562,0.0154306995135957,0.1659918678171014,0.0261463825790943,-0.2260729246204653,-0.0577021659852974,-0.0307990603134617,0.2063525649592001,0.0558143660355606,1.5715161217675853,-0.2113328827151712,-0.0852336872302394,-0.0287980858475569,0.5535082496588346,0.527702362016498,-0.0070694585210272,-0.1668880532537161,10.360294169699046,-1.154686862161486,0.1514852860561161,-1.1404284222164602
2.38,0.1943547799213023,0.0569193768266954,1.570569204363472,0.0164955748491501,0.1679194237761183,0.0264036748000093,-0.215713737675835,-0.0582149107982158,-0.0337756782641974,0.2020906911932069,0.0541099974324819,1.5709663163215106,-0.2078112715461905,-0.0852642013828436,-0.0314137129352096,0.5395273760932242,0.5179593472315155,-0.0256372406459235,-0.1488308975367841,10.360294169699046,-1.156246004085148,0.1507833237444213,-1.140930247983249
2.4,0.1901540272889003,0.0557461683986577,1.5698632666034535,0.0170248964114875,0.1685137913561112,0.026603867508833,-0.2050190274229711,-0.0590566685840729,-0.0366383578850421,0.1835690930375105,0.0540086312867846,1.5688804204502622,-0.207957011790861,-0.0618301359978258,-0.0362667754629967,0.5551583516762681,0.5347355126431987,-0.0420878892928522,-0.1431339810422358,10.37598979181348,-1.1596296338211358,0.1507260217656028,-1.1401198247947957
2.42,0.1861906431060239,0.0545524905906926,1.5691066838792929,0.0167868480994176,0.1670581369392533,0.026709773198346,-0.1920245652468705,-0.0601818494516135,-0.0388525480564929,0.1835690930375105,0.0540086312867846,1.5688804204502622,-0.207957011790861,-0.0618301359978258,-0.0362667754629967,0.6614845375103968,0.6497231088050295,-0.0562590433770299,-0.1107095085725377,10.391456991584164,-1.1616345297815407,0.1511533585588386,-1.1378457182229715
2.44,0.1826614599772748,0.0534009519297168,1.5683528026223472,0.0158540623112623,0.163115405473085,0.0267160586205193,-0.1803465079459995,-0.0609339169737469,-0.0403598959641762,0.1835690930375105,0.0540086312867846,1.5688804204502622,-0.207957011790861,-0.0618301359978258,-0.0362667754629967,0.5899464501017669,0.5839028650435479,-0.0376033761066714,-0.0753673953841644,10.46015139154042,-1.1716358368045316,0.152799449075568,-1.131862280144704
2.46,0.179158687828276,0.0521783651583259,1.5675354828830197,0.0142877248166016,0.1568586852753811,0.0266531914362562,-0.1709674044819922,-0.0612462931911034,-0.0412276108245407,0.1814895229196019,0.0533903299268063,1.5685177526956322,-0.2064056666138662,-0.0625531810377478,-0.0367649949027565,0.4712167488763015,0.4689551732003638,-0.0156188108678231,-0.0433857430182239,10.46015139154042,-1.1835032567018993,0.1549137072924555,-1.1242744170998438
2.48,0.1758059459358408,0.0509567510700041,1.5667080056651994,0.0123412007121536,0.1497069782570062,0.0265627459819204,-0.1650553761831819,-0.0608486845501404,-0.0414331618701014,0.1773303826837847,0.0521537272068498,1.5677924171863724,-0.2033029762598766,-0.0639992711175918,-0.0377614337822762,0.2964473919164844,0.2956014149405189,0.0198804320481481,-0.0102775522780373,10.48138871439278,-1.1951830107135408,0.157381872063794,-1.1157745160821873
2.5,0.1725375677627833,0.0497550221111633,1.565881431942888,0.0104078540970638,0.1427264753613687,0.0264901800353994,-0.1622085643276652,-0.0593618360650733,-0.0411974570887999,0.1731712424479675,0.0509171244868933,1.5670670816771124,-0.200200285905887,-0.0654453611974358,-0.0387578726617959,0.1610171800009606,0.1423405927758303,0.0743424242533565,0.0117852390650732,10.499113813982149,-1.20481026635927,0.1596186650171783,-1.1081734657301634
2.52,0.1694598970276741,0.0486484626286594,1.5651027405256488,0.0089144858704796,0.136959370646518,0.0264655895750946,-0.1619734386533255,-0.0572705341134923,-0.0407737258392956,0.1691672367298497,0.0496082172629446,1.5662919242238764,-0.1970975955518974,-0.0668914512772798,-0.0397543115413156,0.107335643045851,0.011756283716989,0.1045650975790471,0.0211865624752189,10.508957377328445,-1.2132117981898731,0.1615548113761343,-1.1013085426648697
2.54,0.1662013339397095,0.0475312653908517,1.564292662082707,0.0078733112806016,0.1324806873713235,0.0264973967355137,-0.1640424122961315,-0.0545894697711008,-0.0402519819468865,0.165163231011732,0.0482993100389959,1.5655167667706404,-0.1939949051979078,-0.0683375413571238,-0.0407507504208353,0.1713255281031981,-0.103448682140303,0.1340532171195781,0.0260871946204558,10.513164190427233,-1.21944771297615,0.1629127347124723,-1.0964886538564735
2.56,0.1628791953313355,0.0464718602695878,1.5634928838152224,0.0075567617539285,0.1304059671115863,0.0265993728937632,-0.1680572449899624,-0.0515327301904365,-0.0397583246023181,0.161236792552464,0.0469542505630511,1.5647166983454166,-0.1908922148439182,-0.0697836314369678,-0.041747189300355,0.2535065876722911,-0.2007416346915452,0.1528369790332152,0.0246828672284187,10.514095279858338,-1.221593576079627,0.1634325812779996,-1.0948644374198253
2.58,0.1594777931643882,0.0454758139260293,1.5627011738567336,0.0081108812479185,0.1309365337908177,0.0267785171032159,-0.1715353426730733,-0.0483146240741981,-0.039450924495372,0.1573879213520457,0.0455730388351101,1.563891718948205,-0.1877895244899286,-0.0712297215168118,-0.0427436281798747,0.2374229627394029,-0.1739048841555415,0.1609053058119196,0.0153700053473055,10.514095279858338,-1.2189366701730042,0.1629474596640407,-1.0961346126969451
2.6,0.1561978675100657,0.0445875542382586,1.561952623363006,0.0094685336997444,0.1331402587694565,0.027017137470754,-0.1733224260606171,-0.0454298524032834,-0.0393717896225836,0.1509010260307345,0.0430600827223194,1.560728627631965,-0.1636224637946586,-0.0414748271734489,-0.0194060463701812,0.1697191574000865,-0.089354169377194,0.1442385835457315,0.0039567436394206,10.497459836769847,-1.215055432594893,0.1616227919280919,-1.0996999834348151
2.62,0.1527474399106931,0.0436618154766276,1.561217745648284,0.0102702197443655,0.1361699006976042,0.0272289535786115,-0.171452469697945,-0.0470149263165242,-0.0338582418714436,0.1509010260307345,0.0430600827223194,1.560728627631965,-0.1636224637946586,-0.0414748271734489,-0.0194060463701812,0.3016968880881713,0.0934978181336074,-0.0792536956620362,0.2756773875569971,10.841541953439446,-1.2066166430534335,0.1605746610721957,-1.1031565335018
2.64,0.1493507478611838,0.0427113922083863,1.560604192675353,0.0094132668194786,0.1390743971956347,0.0273198995816004,-0.1682714496347246,-0.0477595003394657,-0.0278173750972308,0.1509010260307345,0.0430600827223194,1.560728627631965,-0.1636224637946586,-0.0414748271734489,-0.0194060463701812,0.3433851718625825,0.1590510031610176,-0.0372287011470753,0.302043338710641,10.841541953439446,-1.203464508561155,0.1615754269706274,-1.1086526471017115
