t,x,y,z,roll,pitch,yaw,v_x,v_y,v_z,ref_x,ref_y,ref_z,ref_v_x,ref_v_y,ref_v_z,a_com,a_x,a_y,a_z,thrust,wind_x,wind_y,wind_z
0.0,-0.4609704151762678,-1.7858928878642326,2.668786589279468,0.0120867731844874,0.1364272974528942,0.0259560742913519,0.0065131851135839,-0.004885455972917,0.0167746379497647,-0.4607734079711336,-1.7861061375145888,2.66929347372514,0.1065538783872587,0.0934716463291969,-0.0831346386132573,0.9323059298492224,0.325659255679196,-0.2442727986458519,0.8387318974882368,10.552365273259056,-1.2857545592886712,0.164582731197222,-1.1742892569172303
0.02,-0.4609407831617639,-1.7862160686310675,2.668912627415049,0.0030383753820131,0.1387192520793904,0.0253510316274692,-0.0034255359114816,-0.0232972398083995,-0.0051387957156569,-0.4607734079711336,-1.7861061375145888,2.66929347372514,0.1065538783872587,0.0934716463291969,-0.0831346386132573,1.5149014280040227,-0.496936051253277,-0.9205891917741248,-1.0956716832710844,9.23073834793422,-1.2991443025201617,0.1744946250482423,-1.1654473071381033
0.04,-0.4610870951917701,-1.7866720640064415,2.668521945674009,-0.0120329459679145,0.1443376214243961,0.0243014424931938,-0.0110185429532289,-0.0229662459707681,-0.0347461463456436,-0.4607734079711336,-1.7861061375145888,2.66929347372514,0.1065538783872587,0.0934716463291969,-0.0831346386132573,1.5283639325955298,-0.3796503520873688,0.0165496918815701,-1.4803675314993352,8.806334029901336,-1.2901211013415257,0.1904617600682151,-1.154283344065758
0.06,-0.4613590339588633,-1.7870585546624034,2.6675047947084902,-0.028557784972701,0.1520079190010341,0.0230428440754097,-0.0154200997509218,-0.0152877163709612,-0.0653538313584819,-0.459707869187261,-1.7851714210512968,2.668462127339008,0.1265538786852819,0.1134716466272201,-0.1031346389112806,1.5930818410423502,-0.2200778398846405,0.3839264799903458,-1.5303842506419154,8.806334029901336,-1.2783439922190196,0.2065209589806441,-1.1413491265094269
0.08,-0.4616850618033778,-1.7872484600365142,2.665895426574554,-0.0445280529729281,0.1603800100316323,0.0216948007221733,-0.0166791330494636,-0.003735565837711,-0.0939761297389331,-0.4575767916195158,-1.783301988124713,2.6667994345667423,0.1665538792813283,0.1534716472232666,-0.143134639507327,1.5445657248635332,-0.0629516649270931,0.5776075266625059,-1.4311149190225574,8.9577560276457,-1.268097610845366,0.2217813217345245,-1.130689454842808
0.1,-0.4620078909689254,-1.787173729498144,2.663736290202149,-0.0597590581560646,0.1688413349160733,0.0202861245495802,-0.0153255938460063,0.0109596214886123,-0.1205435565687325,-0.4554457140517706,-1.781432555198129,2.6651367417944773,0.2065538798773748,0.193471647819313,-0.1831346401033735,1.5195466160073683,0.0676769601728673,0.7347593663161708,-1.3283713414899707,8.9577560276457,-1.2606944748846658,0.2355747965877246,-1.1231052384742846
0.12,-0.4622692022285664,-1.7867835316113876,2.6612069776411063,-0.0729203012833745,0.176674159155549,0.0189610075849498,-0.0120782960513916,0.029215644458659,-0.1443858723987535,-0.4513146364542231,-1.7775631222417427,2.66147404899241,0.2465538804734212,0.2334716484153594,-0.2231346406994199,1.510201428442788,0.1623648897307357,0.9128011485023352,-1.1921157915010527,9.06518166726255,-1.2556939511135583,0.2489036256084232,-1.1180202424809595
0.14,-0.46246082595562,-1.7859709736279534,2.658057091156365,-0.0849555085238885,0.1845632053386026,0.0176430148458566,-0.0070782431107318,0.050993954278287,-0.1693464853751915,-0.4471835588566756,-1.7736936892853563,2.6578113561903423,0.2865538810694678,0.2734716490114059,-0.2631346412954664,1.6750578409182086,0.2500026470329865,1.0889154909814018,-1.2480306488218962,9.160529106789,-1.2535235576635757,0.2605490861502141,-1.114990307669645
0.16,-0.462537085377328,-1.7846877604079354,2.6544102590865366,-0.0947131665472974,0.1920321804934239,0.0164637592505034,-0.0006321180190566,0.075723563588268,-0.1940663190652924,-0.442052481244227,-1.768824256314069,2.6531486633733734,0.3265538816655142,0.3134716496074524,-0.3031346418915128,1.7777628378021,0.3223062545837609,1.2364804654990482,-1.2359916845050458,9.183010828606712,-1.2532799062077289,0.2696904184484769,-1.1139889715495102
0.18,-0.4624772852680936,-1.782994700893228,2.650490844993392,-0.1017736806442049,0.1987244567209404,0.01550489076621,0.0067404554757196,0.1007561137041151,-0.2172369167784568,-0.4359214036168772,-1.7629548233278804,2.647485970541504,0.3665538822615606,0.3534716502034988,-0.3431346424875592,1.7448925494307497,0.368628674738817,1.251627505792354,-1.158529885658223,9.25397770579275,-1.2532379437618708,0.2771258145174443,-1.11454197057907
0.2,-0.4622504818477825,-1.7806942974128797,2.645891538062715,-0.1071675653694125,0.2053488186415816,0.0146667463670034,0.0156924075008842,0.1276566993339184,-0.241440943202343,-0.4621402624943076,-1.7779568952080222,2.639628999154469,0.1067404569658358,0.2007561151942312,-0.317236918268573,1.8638762347695,0.4475976012582308,1.3450292814901663,-1.2102013211943097,9.25397770579275,-1.25418941419468,0.2825725916502555,-1.115928942214176
0.22,-0.4618098415490185,-1.777723439646799,2.6409142994497614,-0.1070613681565644,0.2115275169429514,0.0142697325231218,0.0282122088472406,0.1667768223384632,-0.2543141632643476,-0.4621402624943076,-1.7779568952080222,2.639628999154469,0.1067404569658358,0.2007561151942312,-0.317236918268573,2.1522367692750133,0.6259900673178159,1.9560061502272408,-0.6436610031002279,9.2762116487811,-1.2534583367197336,0.2827796995037057,-1.1213945231124918
0.24,-0.4611045609474541,-1.774050243785621,2.6356971880523465,-0.1009139892542444,0.2172605593476878,0.0143878423420999,0.0418195535417779,0.1972544012370723,-0.2666950990445698,-0.4621402624943076,-1.7779568952080222,2.639628999154469,0.1067404569658358,0.2007561151942312,-0.317236918268573,1.7799790841122811,0.6803672347268648,1.5238789449304526,-0.6190467890111101,10.063102031150263,-1.2585187278813763,0.2780026045068755,-1.1307137689414355
0.26,-0.4601771554913516,-1.7700651529117832,2.630496563378306,-0.0936678809234252,0.2223362626423097,0.0146869758654395,0.0552137213956849,0.2204346526318687,-0.2801176298536148,-0.4610728579246492,-1.77594933405608,2.6364566299717835,0.126740457263859,0.2207561154922544,-0.3372369185665962,1.4974078607249606,0.6697083926953513,1.1590125697398228,-0.6711265404522493,9.94846917318864,-1.262131714582958,0.271755767891434,-1.1442688172329192
0.28,-0.4589216696929894,-1.76543393674844,2.624727671084108,-0.0862480002747286,0.2273320990054249,0.0150702519461484,0.0697005330529122,0.2413981889450416,-0.2961796727670137,-0.4589380487853325,-1.7719342117521957,2.630111891606412,0.1667404578599054,0.2607561160883008,-0.3772369191626427,1.5060932817205903,0.7243405828613652,1.0481768156586413,-0.8031021456699428,9.827209839160789,-1.2651640082758906,0.2654581808624012,-1.1565333680697416
0.3,-0.4573723229411701,-1.76040616480837,2.6186188733846576,-0.0796488766852986,0.2320074750869982,0.0154686231341555,0.0845775335052017,0.2603518442722444,-0.3139884497546222,-0.4568032396460158,-1.7679190894483108,2.6237671532410407,0.2067404584559519,0.3007561166843473,-0.4172369197586891,1.4980977358922545,0.7438500226144735,0.9476827663601404,-0.8904388493804261,9.71326293621587,-1.2677530838750544,0.2599910788521179,-1.166096575444397
0.32,-0.4556211354024786,-1.7552932684075908,2.6124709450544565,-0.0742966218248991,0.2361767984735643,0.0158397023878383,0.0990849664224089,0.2770305630882264,-0.3322977990812331,-0.4526684304768968,-1.761903967114624,2.615422414845867,0.2467404590519983,0.3407561172803937,-0.4572369203547355,1.435163356515319,0.72537164586036,0.8339359407990993,-0.9154674663305468,9.625553126714294,-1.2686012324725926,0.2550252730298742,-1.1751569657980805
0.34,-0.4534742562902741,-1.7495791906498357,2.605615468783564,-0.0696172556248892,0.240296464163964,0.0162143716379627,0.1149098318827827,0.2935940864046183,-0.3523449833645404,-0.4485336213077777,-1.7558888447809369,2.607077676450693,0.2867404596480448,0.3807561178764402,-0.4972369209507821,1.5220596811397369,0.7912432730186936,0.8281761658195996,-1.002359214165366,9.55758575114669,-1.2681384942175464,0.250948665271306,-1.183331064266704
0.36,-0.4510044752200513,-1.743532474072938,2.598354546961898,-0.0655823584992421,0.2441540649895495,0.0165890345551776,0.1313496212301676,0.3102020506002167,-0.372766035054915,-0.4433988121237575,-1.7488737224323487,2.5977329380406182,0.3267404602440912,0.4207561184724867,-0.5372369215468284,1.55170108320644,0.821989467369244,0.8303982097799173,-1.021052584518728,9.523848068914049,-1.2678997878255114,0.2475596146265857,-1.1911263570876571
0.38,-0.4481995954416529,-1.737156968637778,2.5906826100211084,-0.0618128417205536,0.2477625725574778,0.0169851312540316,0.1483856748798157,0.3264270566781337,-0.3934212786896296,-0.4372640029248362,-1.7408586000688595,2.587388199615642,0.3667404608401376,0.4607561190685331,-0.5772369221428749,1.5653410457401522,0.851802682482404,0.8112503038958496,-1.0327621817357302,9.518367798530562,-1.2677633101190369,0.2445686422306846,-1.1979862149969878
0.4,-0.4452141405752006,-1.7308050728336288,2.583009157634581,-0.0583543801877346,0.250972228138317,0.017386030376886,0.1650781148619131,0.3412872781579431,-0.4132892579287604,-0.4407803116976621,-1.7208356158038711,2.571011546086627,0.2483856763699318,0.4264270581682498,-0.4934212801797457,1.4951591336973504,0.8346219991048703,0.7430110739904683,-0.9933989619565404,9.515268694337465,-1.2673320434332451,0.241518261975036,-1.2048750918640785
0.42,-0.4416731746852261,-1.7238114535276148,2.5747039556918097,-0.0548835210697131,0.2540425669028682,0.0178323472291685,0.1884282359962112,0.3572840568359657,-0.4152662536378427,-0.4407803116976621,-1.7208356158038711,2.571011546086627,0.2483856763699318,0.4264270581682498,-0.4934212801797457,1.418655699151281,1.1675060567149036,0.7998389339011341,-0.0988497854541137,9.508721560185222,-1.2655121636831603,0.2376439385509349,-1.2019784750841105
0.44,-0.4376605546413508,-1.716517007126831,2.566363396898097,-0.052026157683297,0.2567775578920961,0.0182697963280847,0.211617379044934,0.3714973436581408,-0.4190231099911682,-0.4407803116976621,-1.7208356158038711,2.571011546086627,0.2483856763699318,0.4264270581682498,-0.4934212801797457,1.372832698549855,1.1594571524361428,0.7106643411087549,-0.1878428176662783,10.707640084426204,-1.2698526522190892,0.2367401730096573,-1.217369604107213
0.46,-0.4334270374781069,-1.7093271012676023,2.558329197373324,-0.0499973467618121,0.2591716881455329,0.0186598917130795,0.23289648327003,0.3847331908404135,-0.4265036965939119,-0.4382964549339628,-1.716571345222189,2.566077333284829,0.2683856766679551,0.446427058466273,-0.5134212804777689,1.3076191180692858,1.0639552112547968,0.6617923591136332,-0.3740293301371822,10.257445082528648,-1.2728527674749135,0.236242307395305,-1.2311166328741456
0.48,-0.4285386198659414,-1.701491598632668,2.549687519953324,-0.0484253604092171,0.2615359736260764,0.0190497229759376,0.2548312693542787,0.3981548799128613,-0.4374191790337641,-0.4333287414065642,-1.7080428040588238,2.556208907681235,0.3083856772640015,0.4864270590623195,-0.5534212810738154,1.3968037934995885,1.0967393042124338,0.6710844536223892,-0.5457741219926121,10.257445082528648,-1.2752925445852823,0.2361334282940215,-1.242384035212979
0.5,-0.4232147592816411,-1.6933925734111588,2.540801078597008,-0.0474942432632498,0.263770027844545,0.0194107376703507,0.2764746705059869,0.4111029663809376,-0.4507834858748763,-0.4283610278791655,-1.699514262895459,2.54634048207764,0.348385677860048,0.526427059658366,-0.5934212816698619,1.4271426469890307,1.0821700575854103,0.6474043234038163,-0.6682153420556086,10.09098564708438,-1.2770790645621253,0.2364390780805506,-1.2504859502895784
0.52,-0.4174600335932579,-1.6850392633794864,2.5316258693605502,-0.0473287449639286,0.2658879205020599,0.0197321580757473,0.2979560925363295,0.4236611333038686,-0.4660788711825758,-0.4213933143219646,-1.6889857217022917,2.5344720564442427,0.3883856784560944,0.5664270602544125,-0.6334212822659083,1.4604005106655458,1.0740711015171294,0.6279083461465496,-0.7647692653849736,9.967196331324883,-1.2785620432544758,0.2374296575006217,-1.2568133320716428
0.54,-0.4115934584850906,-1.676872112560902,2.5226196184282896,-0.0479735336589049,0.2677937719518093,0.0199933810134122,0.31853438273097,0.4354976823749171,-0.4811963758953456,-0.4144256007647636,-1.6784571805091244,2.522603630810845,0.4283856790521409,0.6064270608504589,-0.6734212828619548,1.4072214377868837,1.0289145097320265,0.5918274535524237,-0.7558752356384896,9.87500760079456,-1.279776214338323,0.2393322777324506,-1.2621342495207717
0.56,-0.4049939537900933,-1.668021741323814,2.5128237135548237,-0.0492722995297654,0.2696875584693868,0.0202374511707281,0.3403606652652131,0.4489350487675071,-0.4976294332704791,-0.4064578871926614,-1.6669286393010558,2.509735205162547,0.4683856796481873,0.6464270614465053,-0.7134212834580012,1.5223294646098662,1.091314126712153,0.6718683196295039,-0.8216528687566782,9.851458581876614,-1.2808801463069572,0.2420086350268177,-1.267411105737006
0.58,-0.3979559578468657,-1.658890705275219,2.5026952251243677,-0.0507084024798906,0.2714691364318123,0.0204851536084065,0.3623748365994617,0.4634777690574576,-0.5144192115021667,-0.3974901736056582,-1.6544000980780862,2.495866779499347,0.5083856802442338,0.6864270620425518,-0.7534212840540476,1.5636584553816733,1.10070856671243,0.7271360144975231,-0.8394889115843795,9.831701647886804,-1.2818347088082516,0.2448068402359957,-1.2732133226558835
0.6,-0.3908605077223704,-1.6499356940844403,2.4927587303036027,-0.0517150439378241,0.273062318616439,0.0207582866539644,0.3834387266608937,0.4783150302341612,-0.5307008523191595,-0.3798372160168926,-1.6357168168223464,2.4769742645492587,0.4185498561915084,0.5634777705475738,-0.6144192129922829,1.52391240844034,1.0531945030716,0.7418630588351793,-0.8140820408496396,9.816768851544111,-1.2828285254603045,0.2474648616710119,-1.2804363765136884
0.62,-0.3828084731023319,-1.6401372111304144,2.4821832337164533,-0.0505234623326045,0.2720029569438681,0.0213559375291557,0.4211162618493568,0.5003801954162768,-0.524783547393851,-0.3798372160168926,-1.6357168168223464,2.4769742645492587,0.4185498561915084,0.5634777705475738,-0.6144192129922829,2.203112951014428,1.883876759423156,1.1032582591057771,0.2958652462654254,9.816768851544111,-1.2790553219367164,0.2459992767418464,-1.2742967494382076
0.64,-0.3740066962770482,-1.629925739241684,2.471735303797232,-0.0463983239048793,0.2653652282297908,0.0224337041850849,0.4561875318677863,0.5189597296289133,-0.5204993490245241,-0.3798372160168926,-1.6357168168223464,2.4769742645492587,0.4185498561915084,0.5634777705475738,-0.6144192129922829,1.9959630682529363,1.753563500921476,0.9289767106318292,0.2142099184663459,11.47414294801547,-1.300339243225547,0.2454603810768501,-1.2922486342824409
0.66,-0.3650578666109638,-1.619921895982518,2.4618370553388007,-0.0416551073883932,0.255425484016207,0.0236416867381549,0.483407966329113,0.5329570930931146,-0.5214963026463031,-0.3756517174549775,-1.6300820391168709,2.470830072419336,0.4297848601099178,0.5834777708455969,-0.634419213290306,1.531234920526822,1.3610217230663328,0.6998681732100609,-0.0498476810889492,11.128747117307284,-1.3239024115220743,0.2432240678111517,-1.303750381305801
0.68,-0.355148069809165,-1.6091321147924276,2.45135340729994,-0.0368725886028981,0.2427925068285206,0.0249211264330983,0.5055101866360465,0.5452323571326777,-0.5269513337617194,-0.3672807203311474,-1.618812483705919,2.45854168815949,0.4522548679467364,0.6234777714416434,-0.6744192138863525,1.293201080852643,1.105111015346677,0.6137632019781569,-0.2727515557708171,10.759738646022017,-1.346206825495035,0.240214837680417,-1.3051325429564566
0.7000000000000001,-0.3448627715811728,-1.5981141293522714,2.4407147931390774,-0.0327051278633035,0.2293752588103174,0.0261137641578588,0.5214176350959981,0.5559659122064986,-0.5367670843899397,-0.3589097232073172,-1.6075429282949676,2.446253303899645,0.4747248757835551,0.6634777720376899,-0.714419214482399,1.0777349876293454,0.7953724229975812,0.536677753691045,-0.4907875314110133,10.433785211369468,-1.366577471491126,0.2374610160376682,-1.3004793288981684
0.72,-0.3348521668734213,-1.5874603596105077,2.430385328959434,-0.0294406876431888,0.2169788472629642,0.0271273921234869,0.5313053971592917,0.5650622596273494,-0.5499874674279864,-0.3494152256916461,-1.5942733728542138,2.431964919609997,0.4971948836203738,0.7034777726337363,-0.7544192150784454,0.942456766506824,0.4943881031646779,0.4548173710425374,-0.6610191519023367,9.892439258721424,-1.38614651341961,0.2349129226856363,-1.290785668339267
0.74,-0.3241569852770893,-1.5760677843382696,2.419218270414722,-0.0267627360199584,0.2051381767715424,0.0280573608065221,0.5374496528518409,0.5738173875469489,-0.5660988508690193,-0.339920728175975,-1.58100381741346,2.4176765353203487,0.5196648914571925,0.7434777732297828,-0.7944192156744919,0.966929184697571,0.3072127846274586,0.4377563959799768,-0.8055691720516456,9.892439258721424,-1.4028340436628193,0.2328617653863952,-1.2779530624249114
0.76,-0.3133729975865735,-1.5644974000597918,2.4077090621839727,-0.02457788576323,0.1950130176252779,0.0288713296378975,0.5405062579442842,0.5827546609852445,-0.5840700023261738,-0.3298644804643834,-1.566734261957805,2.4023881510158,0.5421348992940113,0.7834777738258292,-0.8344192162705383,1.0151108017083648,0.152830254622166,0.4468636719147822,-0.8985575728577222,9.741163936388148,-1.4157278950562804,0.2310782464395022,-1.2644505075278212
0.78,-0.3025547126235469,-1.552750268045921,2.39582139270754,-0.0225603344470744,0.1867735417141138,0.0295997175548946,0.5411839235930467,0.5914511684684884,-0.603765258057428,-0.3192464825568714,-1.551464706487249,2.3860997666963493,0.5646049071308299,0.8234777744218756,-0.8744192168665847,1.0770231792504874,0.0338832824381241,0.4348253741621954,-0.9847627865627095,9.622177032014406,-1.4249277729238676,0.2293911995537257,-1.2521649604208387
0.8,-0.2922831140374256,-1.5414331938720038,2.38414974445059,-0.0207145461565578,0.1807528317632618,0.0302250466535136,0.5399869882792216,0.5993279929825438,-0.6238180384556612,-0.2754955164438946,-1.523177709622497,2.365633129804668,0.5085190508871102,0.6914511699586046,-0.685715140266729,1.0788779127761297,-0.0598467656912515,0.3938412257027679,-1.0026390199116608,9.5175976775472,-1.4320320791391856,0.2276022104647003,-1.2403348525384728
0.8200000000000001,-0.2813043954244411,-1.5293304355594868,2.371785824047645,-0.0181801872944936,0.1720046842321907,0.0309478495808597,0.5576481615251797,0.6101524964899765,-0.6096477426818346,-0.2754955164438946,-1.523177709622497,2.365633129804668,0.5085190508871102,0.6914511699586046,-0.685715140266729,1.2548746938677724,0.8830586622979031,0.5412251753716346,0.7085147886913279,9.427975532529672,-1.4346543589298857,0.223552783049706,-1.2066434897468954
0.84,-0.2700193500188011,-1.5170441897014912,2.359715027336735,-0.0154458277603521,0.1574005443464673,0.0317459804662009,0.5688220203276996,0.617928765306629,-0.5986267121611035,-0.2754955164438946,-1.523177709622497,2.365633129804668,0.5085190508871102,0.6914511699586046,-0.685715140266729,0.8757690777059604,0.5586929401259932,0.3888134408326249,0.5510515260365556,11.17990737893615,-1.460208365132996,0.2230837443302093,-1.2091457504112313
0.86,-0.2586080969547494,-1.504619391746317,2.347773326860808,-0.0133298612981888,0.139533318187458,0.0324985555504272,0.5709176639399617,0.6243150432201126,-0.5959719261672679,-0.2704103259350234,-1.5162631979229109,2.358775978402001,0.501986076345923,0.7114511702566277,-0.7021051167085892,0.361331414393105,0.1047821806131055,0.3193138956741781,0.1327392996917809,10.665106217315952,-1.4858568372547565,0.2227131054704716,-1.2008923717031357
0.88,-0.2478094839582091,-1.49270817444384,2.3364126488486705,-0.0120770930227864,0.1215634474978542,0.0331334548552651,0.5652033096396596,0.6293015762384984,-0.5999585056889094,-0.2602399449172812,-1.5024341745237388,2.3450616755966665,0.4889201272635484,0.7514511708526742,-0.7348850695923096,0.4284045193949413,-0.2857177150151047,0.2493266509192904,-0.1993289760820749,10.665106217315952,-1.511723062099555,0.2226213829504547,-1.1831515262905052
0.9,-0.2366279948588134,-1.4800785499354507,2.3243171875991573,-0.0118941779025836,0.1032283117247812,0.0336931880611359,0.5528090862420296,0.6334940927643405,-0.6095949011566281,-0.250069563899539,-1.4886051511245668,2.331347372791332,0.4758541781811738,0.7914511714487207,-0.76766502247603,0.8124870553739405,-0.6197111698814983,0.2096258262921091,-0.481819773385933,10.250226857004236,-1.5337000148824451,0.2231940808087568,-1.1586808311239178
0.92,-0.2257523811562035,-1.4673728664163166,2.311978832087516,-0.0132597003153164,0.0866913603523257,0.0341297834429062,0.5351092376023627,0.6370144337319633,-0.6239172114419989,-0.2405524803359155,-1.4727761276955924,2.315994072341811,0.4627882290987992,0.8314511720447672,-0.8004449753597503,1.1519613864035103,-0.8849924319833447,0.1760170483811385,-0.7161155142685394,9.924339696844072,-1.550776392175125,0.22491276334275,-1.1309580248031113
0.94,-0.2152758443928364,-1.454596765204037,2.299328456251202,-0.0163953890491444,0.0728164785412502,0.0344440260135295,0.5134253530122788,0.6410132772126472,-0.6403544969562465,-0.2310353967722921,-1.456947104266618,2.3006407718922905,0.4497222800164246,0.8714511726408136,-0.8332249282434708,1.3751054097559063,-1.0841942295041984,0.1999421740341955,-0.8218642757123806,9.668837213124789,-1.5610772450980823,0.2277434491324083,-1.1038637026344214
0.96,-0.2057530728475102,-1.4423549555536943,2.286997183214152,-0.0200297185284307,0.0624842499951994,0.034697396725406,0.4901659458444969,0.6475035144793551,-0.6568220553416828,-0.221844961935728,-1.4401180808227425,2.284467972620677,0.4366563309340501,0.91145117323686,-0.8660048811271912,1.4614236900643984,-1.1629703583890898,0.3245118633353916,-0.8233779192718171,9.568427418120336,-1.567129641800119,0.2311717416082059,-1.078547426576483
0.98,-0.1962258337221052,-1.4293197958325126,2.27367149822746,-0.0236944183902557,0.0547662112886532,0.0349519780723971,0.4637338769604961,0.6556930496452898,-0.6748961420363065,-0.2129811758262232,-1.4222890573639655,2.2674756745269704,0.4235903818516755,0.9514511738329064,-0.8987848340109116,1.6525702417502737,-1.3216034442000424,0.4094767582967396,-0.9037043347311868,9.518124020564755,-1.5697257829358429,0.234383141096786,-1.0585583468938475
1.0,-0.1872502897753986,-1.416110634728737,2.259978154156034,-0.0269060491650862,0.0507402748274736,0.035174836628647,0.4350889546925992,0.6647726354767386,-0.6935417316793684,-0.1730391398740804,-1.396535143350248,2.239926691125645,0.4177520078589717,0.755693051135406,-0.7171744802600023,1.7682112880973515,-1.4322461133948472,0.4539792915724372,-0.9322794821530922,9.474932591268953,-1.5686874912854885,0.237166547656366,-1.0453266712286642
1.02,-0.178838059990934,-1.4026251709135915,2.246298936284615,-0.0270909175737877,0.0508341474243764,0.0355037438267714,0.4081619806639994,0.6820869829494345,-0.6734213117632674,-0.1730391398740804,-1.396535143350248,2.239926691125645,0.4177520078589717,0.755693051135406,-0.7171744802600023,1.8905553789444849,-1.3463487014299862,0.8657173736347945,1.0060209958050514,9.451413644902914,-1.5530251090046048,0.2350844942669972,-1.018394492093005
1.04,-0.1713240248977156,-1.3895312729674485,2.233661879397896,-0.0239593281216582,0.0538690352911765,0.0359631833059811,0.3845190901526474,0.6948579228891023,-0.6578830678907885,-0.1730391398740804,-1.396535143350248,2.239926691125645,0.4177520078589717,0.755693051135406,-0.7171744802600023,1.5520310896652538,-1.1821445255675993,0.6385469969833912,0.7769121936239409,11.79916716941716,-1.5494542656785506,0.2332429794420751,-1.0353409641933138
1.06,-0.1638762759110935,-1.375536953263046,2.220624142479026,-0.0194346373648983,0.0591648156556097,0.0364875784962161,0.3618296658604915,0.703693302209111,-0.6469453565074792,-0.1688616197954907,-1.388978212838894,2.2327549463230447,0.4085556340386669,0.7756930514334291,-0.7256301479047415,1.3346417428869133,-1.1344712146077962,0.4417689660004331,0.5468855691654673,11.394431098144196,-1.542788090536143,0.2298106525700668,-1.051993697161152
1.08,-0.1568596096900515,-1.3613952818459285,2.207752867478845,-0.0151999228679278,0.0658281055978406,0.036979076049839,0.3412589686353802,0.7100757991116774,-0.6409191475580159,-0.1605065796383112,-1.373864351816186,2.218411456717845,0.3901628863980571,0.8156930520294756,-0.7425414831942198,1.118263212912173,-1.0285348612555645,0.3191248451283213,0.3013104474731631,11.039643647057346,-1.5339510495772937,0.2264408144738422,-1.066463883350508
1.1,-0.1502323839706514,-1.3471418179189136,2.1949567265792846,-0.0117892991707794,0.0732414946355483,0.0374166123588589,0.3227630534813456,0.7151632545843278,-0.6389764418088463,-0.1521515394811318,-1.3587504907934778,2.204067967112645,0.3717701387574474,0.8556930526255221,-0.7594528184836981,0.9640476987671646,-0.9247957577017324,0.2543727736325218,0.0971352874584829,10.753493787006846,-1.5228156235097368,0.2233545542232027,-1.079684465822241
1.12,-0.1442596335884672,-1.3335137793155756,2.1828081513333206,-0.0094150026557293,0.0805098725458923,0.0377793109672087,0.3070590922909099,0.7193419250069121,-0.639914473060577,-0.1447161367059828,-1.3416366297409674,2.188878910742971,0.3533773911168377,0.8956930532215686,-0.7763641537731764,0.8138728189964863,-0.7851980595217856,0.208933521129212,-0.0469015625865376,10.535482843540194,-1.510967807612783,0.2210025578296787,-1.0911977322008648
1.14,-0.1382735797667094,-1.3190876343815985,2.1699918210221694,-0.007879659143847,0.0879879738068827,0.0380999538889667,0.2925519754132553,0.7231883669178019,-0.6417008214823471,-0.1372807339308339,-1.3245227686884569,2.173689854373297,0.3349846434762279,0.935693053817615,-0.7932754890626547,0.7557158794145774,-0.7253558438827273,0.1923220955444893,-0.0893174210885028,10.373452183320296,-1.4989462058165304,0.2194796829994452,-1.1001538363147685
1.16,-0.1325590106669548,-1.3045806895781646,2.157133572359556,-0.0072346463946508,0.095007691296836,0.0383597244358393,0.2797972670127109,0.7273773567026366,-0.6440447278602691,-0.1303051498467002,-1.3064089076210452,2.158078014621386,0.3165918958356182,0.9756930544136616,-0.810186824352133,0.6814031826107655,-0.6377354200272217,0.2094494892417364,-0.1171953188961016,10.31123307175585,-1.4883140610880938,0.2188670606134799,-1.1078705855544058
1.18,-0.1273505186619344,-1.2907198230923622,2.1448692756426944,-0.0072573932528633,0.1011300099170925,0.0385592848917795,0.2692134791292917,0.7314894776087577,-0.6468268594262044,-0.1237893844535817,-1.2872950465387325,2.1420433914872383,0.2981991481950085,1.015693055009708,-0.8270981596416113,0.5845219421842579,-0.5291893941709591,0.2056060453060559,-0.1391065782967659,10.31123307175585,-1.478154267081035,0.2189232705982343,-1.1152416526284008
1.2,-0.1220704031335817,-1.2760437073593354,2.13189528454826,-0.0079123862808779,0.1069064116812461,0.0387196810954608,0.2594677926593476,0.7359510104371552,-0.6504656133359649,-0.1138898447054699,-1.2541453492119243,2.112527932671384,0.2472244707175266,0.8314894790988738,-0.6700646969047229,0.5659598262357425,-0.4872843234972057,0.2230766414198726,-0.1819376954880214,10.283991504874392,-1.469087223264369,0.219661721957119,-1.1217078606272202
1.22,-0.1169685010121675,-1.2612185267429548,2.1190665557328705,-0.0074219468268544,0.1125835213853177,0.0389494298699797,0.251546832465382,0.7459647252967385,-0.6311006004845094,-0.1138898447054699,-1.2541453492119243,2.112527932671384,0.2472244707175266,0.8314894790988738,-0.6700646969047229,1.159762711097038,-0.3960480096982771,0.5006857429791678,0.968250642572771,10.248031494453244,-1.4546527680603507,0.2180872738265086,-1.1124428871073797
1.24,-0.1120013872964057,-1.246219451574258,2.1066316863320127,-0.0050234978834884,0.1184950652570772,0.0393082083746211,0.2457372802204214,0.7532829466895193,-0.6135180531393318,-0.1138898447054699,-1.2541453492119243,2.112527932671384,0.2472244707175266,0.8314894790988738,-0.6700646969047229,0.9955566693891597,-0.2904776122480329,0.3659110696390411,0.8791273672588806,11.778130427480392,-1.450987217282932,0.2168328774933761,-1.1322849238226416
1.26,-0.1073742796392584,-1.231861503963907,2.095100109393546,-0.0023662754028906,0.1238031889049036,0.0396795220193296,0.2417068213135875,0.7577262611877602,-0.601227168599069,-0.1114175999982946,-1.2458304544209355,2.105827285702337,0.2428266690351736,0.851489479396897,-0.6747122644004266,0.6838374907681393,-0.2015229453416936,0.2221657249120434,0.6145442270131418,11.505498292496668,-1.44691669292082,0.214861049770951,-1.1505094088479078
1.28,-0.1025733533288778,-1.2166738454151065,2.083177199868768,-0.0001129699605211,0.1287193443829506,0.0400347097576931,0.2386596318714785,0.7609504609557626,-0.5918798070401117,-0.1064731105839441,-1.2292006648389582,2.0924259917642423,0.2340310656704675,0.8914894799929435,-0.684007399391834,0.5173345043440462,-0.1523594721054483,0.1612099884001183,0.4673680779478661,11.237409003769244,-1.442728761658043,0.2132098634557889,-1.1649102094703618
1.3,-0.0978235089987506,-1.201430424092403,2.07140788031028,0.0012225075136509,0.1327375022239673,0.0403220240831923,0.2364945396557048,0.7633411710535553,-0.5856482540484881,-0.1015286211695935,-1.2125708752569806,2.079024697826148,0.2252354623057615,0.93148948058899,-0.6933025343832414,0.3508396063798411,-0.1082546107886855,0.119535504889634,0.3115776495811795,10.865851374853264,-1.4392898754836447,0.2123972292223175,-1.176161086074658
1.32,-0.0931100977731849,-1.1861487034347389,2.0597351557772,0.0012408893458086,0.1357415978244197,0.0405080886869727,0.2349082249434653,0.7649350665661907,-0.5819311914333548,-0.0970239119234783,-1.1939410856452009,2.065158647138483,0.2164398589410555,0.9714894811850364,-0.7025976693746488,0.2172179306381517,-0.0793157356119761,0.0796947756317723,0.1858531307566635,10.865851374853264,-1.436844821602962,0.2128271258722895,-1.183822134310376
1.34,-0.0886572753243182,-1.1716056674664397,2.04870688105974,-0.0002990070234261,0.1376517218507028,0.0405656656027521,0.2338204962876319,0.7660700078353734,-0.5791229957186356,-0.0925192026773631,-1.1753112960334209,2.051292596450818,0.2076442555763494,1.0114894817810829,-0.7118928043660562,0.1609130858987435,-0.0543864327916684,0.0567470634591338,0.140409785735962,10.74073240004509,-1.434839771191898,0.214887952776003,-1.188052289156569
1.36,-0.0839919158584907,-1.1562590145912328,2.037152202779202,-0.0034205496342605,0.1387434461074508,0.0405133562961768,0.2327034396548573,0.768968690072086,-0.576507196920374,-0.0882343835153655,-1.15568150640674,2.037194167388368,0.1988486522116434,1.0514894823771292,-0.7211879393574636,0.2030552731600799,-0.0558528316387321,0.1449341118356317,0.1307899399130785,10.708218228470288,-1.4332636928447045,0.2185464525574917,-1.1903790686578095
1.38,-0.0793507701478027,-1.1408244807044674,2.0256469039566327,-0.0069473147249034,0.1390159811671875,0.0404304884652511,0.2313941377474969,0.7744256379660712,-0.574168005071521,-0.0841694544374856,-1.135051716765158,2.022863359951133,0.1900530488469373,1.0914894829731756,-0.7304830743488709,0.3039916541125243,-0.0654650953680183,0.2728473946992604,0.1169595924426503,10.678961028511369,-1.4332191751324304,0.2227514641432627,-1.1926526081344475
1.4,-0.0747392475398153,-1.1252639333850227,2.014184517974748,-0.0101444923051458,0.1386007225501077,0.0403737076342837,0.2297289417894656,0.7812948008687166,-0.5721908063774949,-0.0677810632604278,-1.1021031988061638,1.9969385037030567,0.2039402234627908,0.8744256394561873,-0.5818308871685864,0.3669727211843617,-0.0832597979015664,0.3434581451322693,0.0988599347013063,10.678961028511369,-1.4342026378379906,0.2264862962951123,-1.1946499839454383
1.42,-0.0703675832413574,-1.1102726066465909,2.0035104158632486,-0.0104028685033209,0.1376494129538428,0.0405167158208691,0.2304576419747728,0.7952247409371025,-0.5515257061592564,-0.0677810632604278,-1.1021031988061638,1.9969385037030567,0.2039402234627908,0.8744256394561873,-0.5818308871685864,1.246616020772562,0.0364350092653606,0.6964970034192941,1.033255010911921,10.662737791294605,-1.4301303563623229,0.2263180071492046,-1.184864494052158
1.44,-0.0657534600286281,-1.0942535224236214,1.9926854458056928,-0.0072721373353264,0.1360110546316655,0.0408976643522322,0.2308267875082627,0.8055143553322348,-0.5323013106053562,-0.0677810632604278,-1.1021031988061638,1.9969385037030567,0.2039402234627908,0.8744256394561873,-0.5818308871685864,1.0904010927615442,0.0184572766744953,0.5144807197566159,0.9612197776950104,11.69947374259209,-1.4375871861744909,0.2246726125935904,-1.2005943592844912
1.46,-0.061370256270028,-1.0788890581026576,1.982713371507795,-0.003211129177172,0.1336856221031621,0.0413186937844377,0.2304515607372023,0.8111444003166551,-0.5183404468276711,-0.0657416610257999,-1.093358942411602,1.9911201948313708,0.1984494406058496,0.8944256397542105,-0.5833634635879995,0.7529009215617244,-0.0187613385530222,0.2815022492210162,0.6980431888842564,11.434513463505937,-1.4452246645883935,0.2212486602057153,-1.2125415621149302
1.48,-0.0567739562386741,-1.0626301626624728,1.9724686544004688,0.0006428727214937,0.1303260162555383,0.0417070008135076,0.2290587459073517,0.8145373094659915,-0.5070107145479112,-0.0616628565565441,-1.075870429622478,1.979483577087999,0.1874678748919671,0.934425640350257,-0.5864286164268258,0.5954296750602343,-0.0696407414925298,0.169645457466816,0.5664866139879932,11.434513463505937,-1.4524979726971328,0.2178684738542418,-1.2191147567431009
1.5,-0.0522194835851518,-1.0463178246621176,1.962418789624679,0.0035354805454342,0.1260301278190298,0.0419986422611635,0.2262891388278204,0.81670086419239,-0.4986485261656974,-0.0575840520872883,-1.0583819168333544,1.9678469593446275,0.1764863091780847,0.9744256409463036,-0.5894937692656519,0.4535357950833202,-0.1384803539765652,0.1081777363199254,0.4181094191106932,11.054052613877502,-1.4597885103840182,0.2152634114029861,-1.2209957329407914
1.52,-0.0477384802178641,-1.029971670481296,1.952509598294229,0.0052882911238552,0.120952591053048,0.0421830688208357,0.2217701719403274,0.818076307592482,-0.4926603564507579,-0.0540543259037266,-1.0388934040144284,1.9560570839593143,0.1655047434642022,1.0144256415423498,-0.592558922104478,0.3813498486037224,-0.2259483443746476,0.0687721700045995,0.2994084857469742,11.054052613877502,-1.4669179247885953,0.2137893963333072,-1.219242759957508
1.54,-0.0435846373477901,-1.0144245769148512,1.9431981958968416,0.005750739630757,0.1157440691581977,0.0422561389588532,0.215518521955429,0.8185940734917012,-0.487767304610319,-0.0505245997201649,-1.0194048911955025,1.9442672085740007,0.1545231777503198,1.0544256421383964,-0.5956240749433043,0.3977850090604737,-0.3125824992449191,0.0258882949609629,0.2446525920219433,10.921923694258112,-1.4742971190014924,0.2134706823363441,-1.21411281007898
1.56,-0.039363682252324,-0.9980451325173422,1.933492821393215,0.0049298986194898,0.1104246562385262,0.0422358250968689,0.2067231748477022,0.8194151891566972,-0.4830368266708943,-0.0472694126794503,-0.9989163783616752,1.9324007043677176,0.1435416120364374,1.0944256427344428,-0.5986892277821304,0.5010234106708077,-0.4397673553863404,0.0410557832497993,0.236523896971233,10.874056860842757,-1.4805401199153088,0.2145030145231747,-1.2078062449533444
1.58,-0.0353426002972923,-0.9816448292837464,1.9238781218481316,0.0029161330651566,0.1059050338060246,0.0421382189686478,0.1956552983055692,0.8206727426627777,-0.4786779975531411,-0.0442887647815827,-0.9774278655129468,1.9204575713404632,0.1325600463225549,1.1344256433304891,-0.6017543806209567,0.5980775937333007,-0.5533938271066491,0.0628776753040238,0.2179414558876602,10.82438155872842,-1.485334384151709,0.2167650806337463,-1.201735938567935
1.6,-0.031565863708419,-0.9652060785498432,1.9143475602747648,4.7180693505830175e-05,0.1029207441381898,0.0419923417214367,0.1824464537709679,0.8234312533383082,-0.4746049758083556,-0.0255598353820139,-0.9406111921506074,1.8999442219704743,0.1534475319812875,0.9206727441528938,-0.4666306182754946,0.7047560947231681,-0.660442226730068,0.1379255337765284,0.2036510872392788,10.82438155872842,-1.4873612085035433,0.2196899389348151,-1.197483830053225
1.62,-0.0282104486869814,-0.949460753389958,1.9055225083971048,-0.0008436100359159,0.1017562361683151,0.0419843625672078,0.1715489780884618,0.8328789660365206,-0.4545789601705791,-0.0255598353820139,-0.9406111921506074,1.8999442219704743,0.1534475319812875,0.9206727441528938,-0.4666306182754946,1.2339525454846716,-0.5448737841253034,0.4723856349106159,1.0013007818888224,10.811399088146572,-1.4806203381288392,0.2197988105711888,-1.18569404129004
1.64,-0.0248940642160931,-0.9327314293375908,1.896637974589423,0.000622233148875,0.1017503450215557,0.0421346442169447,0.1607589469968139,0.8394345788698837,-0.4351118088505321,-0.0255598353820139,-0.9406111921506074,1.8999442219704743,0.1534475319812875,0.9206727441528938,-0.4666306182754946,1.160140951670628,-0.5395015545823958,0.3277806416681572,0.9733575660023502,11.904954589921545,-1.4818299801165211,0.218730715935518,-1.195956250034488
1.66,-0.0217882757566406,-0.9158938488131456,1.8881076299931732,0.0031177650377111,0.1025080902597087,0.0423469982251236,0.1504554102881016,0.8439424137989442,-0.4188973488225473,-0.024025360062201,-0.9314044647090785,1.8952779157877195,0.1450059787164312,0.940672744450917,-0.4642211424199653,0.9866511015229182,-0.5151768354356142,0.2253917464530241,0.8107230013992384,11.728269187598926,-1.482024511686769,0.2165692505268111,-1.2056454319485377
1.68,-0.0190233041676028,-0.8998381315221792,1.88027884841336,0.0054702678976106,0.1036030201765173,0.0425398242559927,0.1411648253096286,0.846030147296734,-0.4059988869663,-0.0209564094225752,-0.9129910098260204,1.8859453034222096,0.1281228721867185,0.9806727450469634,-0.4594021907089067,0.8016294634322786,-0.4645292489236508,0.1043866748894895,0.6449230928123661,11.383027492228392,-1.4810802171213853,0.2140938022378087,-1.214040836923888
1.7,-0.0162978477047556,-0.8829091190192769,1.8722832843550012,0.0071375852795084,0.104885902233874,0.0426787349127458,0.1319067442094108,0.8469189558039238,-0.3943225984258883,-0.0178874587829495,-0.8945775549429626,1.8766126910567,0.1112397656570058,1.0206727456430098,-0.4545832389978481,0.7463875673864316,-0.4629040550108904,0.0444404253594932,0.5838144270205875,11.383027492228392,-1.4793981533737046,0.2123768126763097,-1.220590046550683
1.72,-0.0137530462064784,-0.8659718959662172,1.8645038350846388,0.0075280683541096,0.1061115269203897,0.0427202156436146,0.1230567826046445,0.846901319356871,-0.3842708433756892,-0.0156626634698094,-0.8741641000301025,1.8675210262767423,0.0943566591272932,1.0606727462390562,-0.4497642872867894,0.6696265956473513,-0.4424980802383113,-0.0008818223526441,0.5025877525099559,11.270457155524127,-1.4776173237534165,0.2120029096432154,-1.2255693699764671
1.74,-0.0113805084295632,-0.8490431090945096,1.8569188456777297,0.0061468460929084,0.1071499376074787,0.0426297960301664,0.1146326472617362,0.846276036574522,-0.3747257989685043,-0.0134378681566693,-0.8537506451172422,1.8584293614967855,0.0774735525975805,1.1006727468351027,-0.4449453355757308,0.6373086135630665,-0.421206767145417,-0.0312641391174484,0.4772522203592449,11.16266910588456,-1.4757054898691058,0.2133859629064057,-1.2282278742402593
1.76,-0.0092815582948606,-0.8329600070166084,1.849889386490412,0.0032816778572664,0.1079425067544166,0.0424297540821328,0.1067223089787479,0.8470900622903383,-0.3656966772148141,-0.011635150506772,-0.8323371901894809,1.8494581705096047,0.0605904460678678,1.140672747431149,-0.4401263838646722,0.6015835961449625,-0.3955169141494151,0.0407012857908173,0.4514560876845097,11.16266910588456,-1.4733195011066282,0.216622203502049,-1.2305920514372972
1.78,-0.0072338810724633,-0.8159841926775885,1.8426765982859368,-0.00033062309138,0.1086070437336535,0.0421742009444629,0.0984648281239521,0.8505974396011848,-0.3560595207441243,-0.0102545105201175,-0.8099237352468184,1.8406074533152013,0.0437073395381551,1.1806727480271957,-0.4353074321536136,0.6583359144625903,-0.4128740427397893,0.1753688655423246,0.48185782353449,11.162025602768152,-1.4709237325420308,0.2206022511324891,-1.2338567572975514
1.8,-0.0053510934027224,-0.7989184688841227,1.8356568389407972,-0.0037092660663446,0.1091314571646668,0.0419334176330096,0.0902330418253035,0.8557943757204335,-0.346408381907148,-0.0023106396662657,-0.7734543206975293,1.8248736222487305,0.0736801681571257,0.9257165997169036,-0.3442164252105745,0.6854103361212928,-0.4115893149324291,0.2598468059624326,0.4825569418488135,11.174636941316749,-1.4690491462898303,0.2244086516825753,-1.2378179238946487
1.82,-0.0036722946953206,-0.7815676911834708,1.8288865023764087,-0.0010222231330666,0.1108229981047013,0.0421077595995699,0.0785911810559863,0.8760298430622552,-0.3311182103325703,-0.0023106396662657,-0.7734543206975293,1.8248736222487305,0.0736801681571257,0.9257165997169036,-0.3442164252105745,1.3953462003156465,-0.5820930384658619,1.0117733670910845,0.7645085787288869,11.181151524776396,-1.463237936405525,0.2216160313256788,-1.2477506296008096
1.84,-0.0022707940678882,-0.764836422989051,1.8227281901714367,0.0069824758226764,0.1140636951287943,0.0426534260932694,0.0697924098429804,0.883288951163019,-0.3179226665130309,-0.0023106396662657,-0.7734543206975293,1.8248736222487305,0.0736801681571257,0.9257165997169036,-0.3442164252105745,0.8721172541160661,-0.4399385606502937,0.36295540503819,0.6597771909769679,11.593763191796825,-1.4590222650544518,0.2122930259880737,-1.262404085570555
1.86,-0.0009532375480247,-0.7471578146020074,1.8164912526915329,0.0160415607679052,0.1183178318077888,0.0432924800344471,0.0626241944421524,0.8840702098412222,-0.3066031927872945,-0.0015738379846944,-0.7641971547003602,1.8214314579966249,0.0687232361637604,0.9407404317400474,-0.3418478061038645,0.6710517166779546,-0.3584107700414,0.0390629339101611,0.5659736862868192,11.460955306763935,-1.4536853903868283,0.2018735742608348,-1.2755220780416758
1.88,0.0002406429916839,-0.729505334094671,1.8104534035637057,0.0239563365224836,0.1227800088705355,0.0438726593399707,0.0572563995344148,0.8812910683931003,-0.2978587224976801,-0.0001002346215519,-0.7456828227060222,1.8145471294924127,0.0588093721770298,0.970788095786335,-0.3371105678904446,0.531513428819424,-0.2683897453868801,-0.1389570724060929,0.4372235144807224,11.301097436798957,-1.447937352646182,0.1925772838179937,-1.286383933564635
1.9,0.0012905804554089,-0.712807273697684,1.8048606546732315,0.0298758738909661,0.1267624702173232,0.0443171183410091,0.0536034012381951,0.8767756646247731,-0.2913592099591217,0.0013733687415905,-0.7271684907116841,1.8076628009882016,0.0488955081902992,1.0008357598326223,-0.3323733296770247,0.4358237343872096,-0.1826499148109846,-0.2257701884163632,0.3249756269279175,11.16141651552607,-1.4422779839954285,0.1854574007162479,-1.2943694284199023
1.92,0.0023342039314324,-0.695334419160308,1.7990939984844243,0.0343113852951638,0.130343979052259,0.044644251611912,0.0509862920796483,0.871059468333056,-0.2856840715145196,0.0023512789053965,-0.7071517755150316,1.801015334394661,0.0389816442035687,1.03088342387891,-0.3276360914636048,0.4234718312904354,-0.13085545792734,-0.2858098145858523,0.283756922230105,11.065007338133,-1.4370259054088494,0.1800044322455402,-1.3003724231414644
1.94,0.0033359364772834,-0.6779807899954261,1.7934348899794812,0.0370843175675751,0.1331012101082866,0.0448220926270396,0.0493122407569379,0.8649017462926616,-0.2805169831238325,0.0033291890692025,-0.6871350603183791,1.7943678678011206,0.0290677802168381,1.0609310879251976,-0.3228988532501848,0.410544732626669,-0.0837025661355218,-0.3078861020197221,0.258354419534354,10.993057242849318,-1.432887729418054,0.1764837701335949,-1.304342471831652
1.96,0.0043104048947212,-0.6607479852012734,1.7878774262536512,0.0385161790292077,0.1349579810268295,0.0448628697965356,0.048154316488218,0.8588978030983885,-0.275481424859739,0.0040592526333402,-0.6663671535205695,1.7878388321629155,0.0191539162301075,1.090978751971485,-0.318161615036765,0.3960586115817623,-0.0578962134359921,-0.3001971597136554,0.251777913204676,10.993057242849318,-1.43024566499845,0.1746157115965226,-1.3067777093525847
1.98,0.0052170668234113,-0.6444896898308659,1.782691283293312,0.0387847986753925,0.1359427848072096,0.0447843560596922,0.0472736495100055,0.852944309828012,-0.2706744137894937,0.0045414695978097,-0.6448480551216027,1.781428227480046,0.0092400522433769,1.1210264160177728,-0.313424376823345,0.3851201496818682,-0.0440333489106256,-0.2976746635188265,0.2403505535122668,10.991841364659194,-1.4286786964375386,0.1739981935253123,-1.3081112197723916
2.0,0.0061532100921708,-0.6274989397203494,1.777332136643872,0.0378163071505387,0.1362610331205123,0.0445756687475309,0.0463275797542937,0.8465596329137369,-0.2654794334844068,0.0075807492989115,-0.6018424743394652,1.7691575626038372,0.0320146052651201,0.8821041388485121,-0.249105767135007,0.4142673281004367,-0.0473034877855896,-0.3192338457137511,0.2597490152543458,10.997542456637348,-1.4280869413653212,0.174894199710944,-1.3081984116308767
2.02,0.0070552212380657,-0.6104507813267417,1.7721350441531698,0.0414375848591544,0.1363995586710218,0.0446679249566999,0.0440434485255244,0.8562964305289044,-0.2542927970738372,0.0075807492989115,-0.6018424743394652,1.7691575626038372,0.0320146052651201,0.8821041388485121,-0.249105767135007,0.7502721463763167,-0.1142065614384679,0.4868398807583718,0.5593318205284775,11.00799621427359,-1.424409660660548,0.1704009983161085,-1.3120561907701198
2.04,0.0078771873729477,-0.5941914404302389,1.767404692161445,0.0500140943231324,0.1367291504966723,0.0451008121760913,0.0426389257934225,0.8539519867373728,-0.2442700140612117,0.0075807492989115,-0.6018424743394652,1.7691575626038372,0.0320146052651201,0.8821041388485121,-0.249105767135007,0.5194354630625827,-0.0702261366050952,-0.1172221895765768,0.5011391506312746,11.390095984884285,-1.4248399597515664,0.1593663228998168,-1.318822619254005
2.06,0.0087184426445513,-0.5772043368608755,1.7626121354404112,0.0593984415143487,0.1370594184588889,0.0455543089380875,0.0415605014346272,0.8447982987291413,-0.2355979619135815,0.0079008953515627,-0.5930214329509801,1.766666504932487,0.028962796416143,0.8879361046526122,-0.2447920378041097,0.6327667257783525,-0.0539212179397653,-0.4576844004115787,0.4336026073815086,11.322845714487812,-1.4247313099195824,0.1476704079544574,-1.3227624659506014
2.08,0.0095404699486796,-0.5604422092692353,1.7579747085986224,0.067424278208607,0.1372321766432969,0.0458755501713534,0.0406716498212923,0.8320664674843432,-0.2286264268778966,0.0085411874568651,-0.5753793501740099,1.761684389589787,0.0228591787181888,0.8996000362608122,-0.236164579142315,0.7271380281458356,-0.0444425806667411,-0.6365915622399021,0.348576751784245,11.139360515186128,-1.424184740190615,0.1375048435405661,-1.3246188753837018
2.1,0.0103459352283376,-0.5439589513302812,1.7534638873848802,0.0734733667591568,0.1371553176164147,0.0460137918046593,0.0398636713536635,0.8173743236684506,-0.2227614933173006,0.0091814795621675,-0.5577372673970397,1.7567022742470868,0.0167555610202346,0.9112639678690124,-0.2275371204805203,0.7920059418672748,-0.0403989233814398,-0.7346071907946283,0.2932466780298015,11.139360515186128,-1.4237612935619532,0.1300559971976466,-1.3241839518371576
2.12,0.0110962133749628,-0.5285818077665306,1.749282941468494,0.0774083153678219,0.1368181948854761,0.0459742441748776,0.0390935040551203,0.8024651239797569,-0.217588744164039,0.0095165907825722,-0.5395119880396594,1.7521515318374763,0.0106519433222805,0.9229278994772124,-0.2189096618187257,0.789991656328818,-0.0385083649271623,-0.7454599844346876,0.2586374576630787,11.07037126218802,-1.423401119595252,0.1244650574604966,-1.322494013763278
2.14,0.0118695489823049,-0.5127030973627658,1.7449906363764098,0.0798716198116368,0.1361824493377096,0.0457696909547158,0.0382273842159439,0.7865120924312217,-0.2118698901222075,0.0098517020029769,-0.5212867086822792,1.747600789427866,0.0045483256243263,0.9345918310854124,-0.210282203156931,0.8484613584544486,-0.0433059919588196,-0.7976515774267612,0.2859427020915739,11.07037126218802,-1.4229559759591155,0.1208803190046969,-1.3206009526156297
2.16,0.0126234747290038,-0.4971457464795727,1.7408168555419858,0.0808061603510188,0.1353005143531673,0.0454175869762766,0.0371581435041741,0.7701724028630609,-0.2057600853198496,0.0100342227809328,-0.502769831034694,1.7432657334848003,-0.0015552920736278,0.9462557626936126,-0.2016547444951364,0.8738684763831522,-0.0534620355884911,-0.8169844784080393,0.3054902401178977,11.113254806987245,-1.4228816693723914,0.1191544016778456,-1.3173632756829043
2.18,0.0133536565172976,-0.4819215511151023,1.7367701273403382,0.0800027954264313,0.1342497924794918,0.0449142044916043,0.035865509001759,0.7532455189145932,-0.1991752081808943,0.0100641531164397,-0.4839613550969037,1.7391463640082798,-0.007658909771582,0.9579196943018126,-0.1930272858333417,0.9104269755132222,-0.0646317251207544,-0.8463441974233821,0.329243856947764,11.113254806987245,-1.4226655838510291,0.1194341392444518,-1.3129559697212132
2.2,0.0140213286371571,-0.4677746408925888,1.733053728279531,0.0773234361195895,0.1331543459685853,0.0442856076067495,0.0344277794174949,0.7371445965403888,-0.1923161152566369,0.0151469319673855,-0.4442592751693726,1.7268113669312934,0.0159833552820954,0.7480380087151954,-0.2091462633830804,0.8780004604230335,-0.0718864792132029,-0.8050461187102231,0.3429546462128688,11.141311514016706,-1.4217619542982556,0.1220006110642701,-1.3085409092305489
2.22,0.0146563125672502,-0.4530370533385313,1.7291974079295351,0.0776955946296461,0.1323961501102711,0.0438700848691005,0.0291394924835503,0.7362759432065126,-0.1942786234673699,0.0151469319673855,-0.4442592751693726,1.7268113669312934,0.0159833552820954,0.7480380087151954,-0.2091462633830804,0.2853593164213224,-0.2644143466972297,-0.04343266669381,-0.0981254105366494,11.172130956638284,-1.4278478159093866,0.1210550552571684,-1.3162169044429632
2.24,0.0151875421964488,-0.4383854330482256,1.7252784358995192,0.08345122162278,0.1323704779525328,0.0438669883281662,0.0243741572760883,0.7277803578106102,-0.1975097328669839,0.0151469319673855,-0.4442592751693726,1.7268113669312934,0.0159833552820954,0.7480380087151954,-0.2091462633830804,0.5131360901622979,-0.2382667603731023,-0.4247792697951169,-0.1615554699806967,10.512783860814125,-1.4266780160633872,0.11376272255292,-1.30850650969334
2.26,0.0156310650201931,-0.4239812284342019,1.721290057424306,0.0901728625121171,0.1327970112271521,0.0439449167412736,0.0202813184708757,0.7130059930996269,-0.2011620589081665,0.0153067655202065,-0.4367788950822207,1.7247199042974626,0.0120069245381626,0.7469965066753159,-0.2111404744235177,0.7879921757379722,-0.2046419402606298,-0.7387182355491684,-0.1826163020591298,10.515524946003096,-1.424269556831048,0.105723548818869,-1.3017143524841424
2.28,0.0159826706884205,-0.4106046356946705,1.7174313120991265,0.0957699078084589,0.1334294150911839,0.0439635605158499,0.0169659239186792,0.6960422867264083,-0.2048078781468381,0.0156264326258484,-0.4218181349079168,1.720536979029801,0.0040540630502972,0.7449135025955568,-0.2151288965043921,0.8832485110015438,-0.1657697276098246,-0.8481853186609267,-0.182290961933583,10.506008046811983,-1.4208404039437807,0.0982626151453791,-1.293990320995107
2.3000000000000003,0.0162907381996741,-0.3968872336875864,1.713295601636439,0.100333281659087,0.1341567032798772,0.0438761066040056,0.0140450287440125,0.6768053719686908,-0.2085308613949435,0.0159460997314903,-0.4068573747336129,1.7163540537621391,-0.0038987984375682,0.7428304985157976,-0.2191173185852665,0.9905189577725833,-0.1460447587333346,-0.9618457378858748,-0.1861491624052705,10.503137481860904,-1.416315186878844,0.0923909094839894,-1.2858298182120542
2.32,0.0165462826061978,-0.3835663026007455,1.7090889720047848,0.1033913040350077,0.1347969299769973,0.0436552151119893,0.0116500514529203,0.6566540916160187,-0.2118914724538618,0.0158681237627389,-0.3920007647632969,1.711971707390434,-0.0118516599254336,0.7407474944360385,-0.223105740666141,1.0284742616689055,-0.1197488645546114,-1.0075640176336054,-0.1680305529459136,10.528377652134624,-1.4120883811520064,0.0885039275390484,-1.2775720392702856
2.34,0.0167578529984699,-0.3706532600602039,1.7048165042822885,0.1050116497217133,0.1352494056631218,0.043296229516079,0.009608251117462,0.6359938994310433,-0.2151345330779789,0.0157901477939876,-0.3771441547929809,1.7075893610187287,-0.0198045214132991,0.7386644903562793,-0.2270941627470154,1.0506306819497686,-0.1020900167729161,-1.0330096092487695,-0.1621530312058527,10.528377652134624,-1.4082147390763844,0.0861022878360735,-1.2682089204927545
2.36,0.0169229429685069,-0.3587744898608801,1.700700122607853,0.1050882961238488,0.1354762393029715,0.04281667056974,0.0078535637668107,0.6156906013142729,-0.2179604821735396,0.0155133502880396,-0.362339619924659,1.7031073040950016,-0.0277573829011645,0.7365814862765203,-0.2310825848278899,1.0286992155237735,-0.0877343675325647,-1.0151649058385226,-0.1412974547780374,10.538057443600335,-1.40444403823083,0.0855431151237236,-1.257581723316004
2.38,0.0170620277577191,-0.3466895191388633,1.6963130246841172,0.1033430853041339,0.1355145951676545,0.0421508480229297,0.0061346481931855,0.5940711265801761,-0.2205447828503912,0.0150377312448949,-0.347587160158331,1.6985255366192529,-0.0357102443890299,0.7344984821967612,-0.2350710069087643,1.09205651011735,-0.0859457786812557,-1.0809737367048378,-0.1292150338425779,10.538057443600335,-1.400890088124206,0.0870701412310466,-1.2468432795435933
2.4,0.0171678081926334,-0.3350311771276373,1.6918812550851583,0.0996167386315302,0.1353579699118898,0.0413190417904476,0.00448846958246,0.5735730522740846,-0.2224089444813375,0.0173687601673784,-0.3169859628098545,1.6852857855415977,-0.0091987779917666,0.5839526309072349,-0.2028605336430137,1.032419552389861,-0.0823089305362774,-1.024903715304576,-0.093208081547319,10.57209604858599,-1.3972148149920265,0.0904241345302197,-1.2376526955764842
2.42,0.0172441328682981,-0.3242925773008775,1.6877276722916676,0.095953696254507,0.1352078358721282,0.0405173063366307,0.0036621804972916,0.5575960460456345,-0.2147439165998279,0.0173687601673784,-0.3169859628098545,1.6852857855415977,-0.0091987779917666,0.5839526309072349,-0.2028605336430137,0.8869894786587409,-0.0413144542584176,-0.7988503114225054,0.3832513940754817,10.57209604858599,-1.3869590174434143,0.093342325086267,-1.2304053918465705
2.44,0.0173129725369108,-0.3133182980188156,1.6835230296534671,0.0925758528153541,0.1350976482362831,0.0397090167561635,0.0032629237285146,0.5407432274943418,-0.2061405865695488,0.0173687601673784,-0.3169859628098545,1.6852857855415977,-0.0091987779917666,0.5839526309072349,-0.2028605336430137,0.946300938787594,-0.0199628384388507,-0.8426409275646363,0.4301665015139552,11.158297235667304,-1.38444530644945,0.0961020908927371,-1.2282538501348708
2.46,0.0173764705004173,-0.3026782067042948,1.679489065383433,0.089324261642543,0.1348356613836704,0.0388938558036811,0.0030814503255366,0.5242353084989221,-0.1976817768541286,0.0172767723874607,-0.3111464365007821,1.6832571802051677,-0.0122654632287571,0.5819289317726467,-0.1993236838015382,0.927490948684964,-0.0090736701489,-0.8253959497709851,0.4229404857710089,11.157289853356817,-1.3820267975277976,0.0986609465767513,-1.226584588845654
2.48,0.0174369430567008,-0.2923617951288393,1.6756228327451723,0.0860621404282825,0.1343121049166546,0.038054836711333,0.002931918865812,0.5083670011220334,-0.1893574768352642,0.0170927968276254,-0.2994673838826375,1.6791999695323072,-0.018398833702738,0.5778815335034702,-0.1922499841185873,0.8959903870423711,-0.0074765729862313,-0.7934153688444356,0.4162150009432236,11.143908182173618,-1.380217922761071,0.1010993469366136,-1.2249040456668745
2.5,0.0174907680577175,-0.2828481937268804,1.6721029532043092,0.082937245671532,0.1335267115008346,0.0372335444639892,0.0026785411323606,0.4939867880755346,-0.181556499011812,0.01690882126779,-0.2877883312644927,1.675142758859447,-0.0245322041767189,0.5738341352342937,-0.1851762844356363,0.818092266404736,-0.0126688866725676,-0.719010652324939,0.3900488911726077,11.131073147207644,-1.3788992062773964,0.1036943086450392,-1.222977418005394
2.52,0.0175395564341367,-0.273120418531965,1.668557795919276,0.0796742397146236,0.1324080562285825,0.0363514212303026,0.0021573483320226,0.4796570640204001,-0.1733611237625662,0.0164181771842556,-0.2763116485598069,1.6714392331707342,-0.0306655746506998,0.5697867369651173,-0.1781025847526853,0.8257978095565721,-0.0260596400169031,-0.716486202756722,0.4097687624622884,11.119766155605248,-1.378058838048242,0.1062555825627905,-1.2208768981332017
2.54,0.0175749364121452,-0.2636714155618108,1.6651789863548478,0.0764807833446279,0.1310123245560451,0.03545899115244,0.0013547722564589,0.4660579529569214,-0.1649086204575933,0.0159275331007213,-0.264834965855121,1.6677357074820216,-0.0367989451246807,0.5657393386959407,-0.1710288850697343,0.8015995917452716,-0.0401288037781836,-0.679955553173936,0.4226251652486454,11.112940747932043,-1.377300698146527,0.108702878594739,-1.218675094337872
2.56,0.0175896143379142,-0.2544873660668571,1.6619715760253062,0.073369041232743,0.129395974897445,0.034564130444642,8.984768720562751e-05,0.4531297884110042,-0.1562446159906688,0.0152835547553374,-0.2534594681071646,1.6642090242853826,-0.0429323155986616,0.5616919404267643,-0.1639551853867834,0.780708726246704,-0.0632462284626663,-0.646408227295861,0.4332002233462279,11.1320320253335,-1.3770058513964274,0.1109455821088595,-1.2166986431883944
2.58,0.0175747045398653,-0.2459953500237659,1.659086242861033,0.0705085976802453,0.1277667376883862,0.0337231577071634,-0.0016479950019898,0.4414893539216549,-0.1479000356023148,0.0144862421481039,-0.2421851553159375,1.6608591835808173,-0.0490656860726425,0.5576445421575877,-0.1568814857038324,0.7213734022178173,-0.0868921344597763,-0.582021724467463,0.4172290194176975,11.134897744078444,-1.3768454221169453,0.1131910924171277,-1.214812898402886
2.6,0.01751714393262,-0.237288213797141,1.656221363389725,0.0676321431483566,0.1260938868599908,0.0328607963922725,-0.0040764435368648,0.4299058705218313,-0.1390191627385856,0.0174923047897658,-0.2239208823276831,1.651691241080917,-0.0146207838872256,0.4250112438168557,-0.1345373978813127,0.7398384161123426,-0.1214224267437455,-0.5791741699911812,0.4440436431864619,11.134897744078444,-1.3765502808170258,0.1152800739735685,-1.213235116224341
2.62,0.0173829831096502,-0.2287566310306071,1.653514496343231,0.0664837495570813,0.1251502620580662,0.0321767153272374,-0.0091555900516591,0.4233549727559797,-0.1322701660542432,0.0174923047897658,-0.2239208823276831,1.651691241080917,-0.0146207838872256,0.4250112438168557,-0.1345373978813127,0.5344645617406513,-0.2539573257397153,-0.3275448882925802,0.337449834217117,11.137373260460665,-1.3785364174990336,0.1157026208775283,-1.2157989751232017
2.64,0.0171647889610648,-0.2207883791967552,1.6510612106923113,0.0676332595715649,0.1252995864770039,0.0317541720677797,-0.0134350273179757,0.4155443650652854,-0.1263088346315715,0.0174923047897658,-0.2239208823276831,1.651691241080917,-0.0146207838872256,0.4250112438168557,-0.1345373978813127,0.5358559697932049,-0.2139718633158337,-0.3905303845347152,0.2980665711335872,10.973499882077704,-1.3748233705561592,0.1132933125062173,-1.2159659825724547
