t,x,y,z,roll,pitch,yaw,v_x,v_y,v_z,ref_x,ref_y,ref_z,ref_v_x,ref_v_y,ref_v_z,a_com,a_x,a_y,a_z,thrust,wind_x,wind_y,wind_z
0.0,-2.041168135772387,-1.1141417971228582,1.733502529959445,0.0110320410568012,0.136376270469359,0.0257343563212939,0.0056163730732188,0.0033282094257287,0.004433823139969,-2.0409939066614617,-1.114151383048918,1.7336384285015,0.1057579251273104,0.1006453941245265,-0.066371697732627,0.3945865308003195,0.2808186536609445,0.1664104712864385,0.22169115699845,10.54575837365246,-1.287820553160558,0.1655794343315142,-1.1687598436038316
0.02,-2.04114058296678,-1.1143094898779065,1.733466300022116,0.0039093753070768,0.1384383690694029,0.0252696426234793,-0.0026047633424881,-0.0171608907747949,-0.0088421453237666,-2.0409939066614617,-1.114151383048918,1.7336384285015,0.1057579251273104,0.1006453941245265,-0.066371697732627,1.288062158479618,-0.4110568207853544,-1.0244550100261869,-0.6637984231867802,9.699115363573585,-1.2952561081926155,0.1735939520906858,-1.1580109918164811
0.04,-2.041266149011611,-1.114682256159365,1.733074903476977,-0.0116190307531479,0.1441982778154099,0.0241996268576924,-0.0090490610725305,-0.0179016410144085,-0.0297925387610745,-2.0409939066614617,-1.114151383048918,1.7336384285015,0.1057579251273104,0.1006453941245265,-0.066371697732627,1.0965818133282548,-0.322214886502118,-0.0370375119806771,-1.0475196718653983,9.699115363573585,-1.2858559776003693,0.1894226909068598,-1.1526288871822867
0.06,-2.041481922766403,-1.1149679865925377,1.7322621635523692,-0.028119260714521,0.1517439701157973,0.0229558594578173,-0.0118542185355088,-0.0102106142089942,-0.0503724304377551,-2.0399363274101887,-1.1131449291076727,1.7329747115241738,0.1257579254253336,0.1206453944225497,-0.0805471991984244,1.1074212648509243,-0.140257873148915,0.3845513402707128,-1.0289945838340269,9.32378005852297,-1.2746665924292755,0.2058430260545907,-1.145287979108028
0.08,-2.0417199644991397,-1.1150536055345417,1.7310570419686624,-0.0441014357346066,0.1599722058443995,0.0216232638870967,-0.01154401331581,0.0016320902431055,-0.0691488978136471,-2.037821168907642,-1.1111320212251825,1.7316472775695213,0.1657579260213801,0.1606453950185962,-0.1088982021300192,1.1100693707332576,0.015510260984938,0.5921352226049893,-0.9388233687946044,9.37564331134945,-1.265551449161307,0.220961866003207,-1.1409394956115269
0.1,-2.041915506275707,-1.1148793686856062,1.729580228920768,-0.0584631167440792,0.1678757025202179,0.0203129415307208,-0.0088628191463642,0.0163190205250032,-0.0854054314749279,-2.035706010405096,-1.1091191133426916,1.7303198436148688,0.2057579266174266,0.2006453956146426,-0.1372492050616141,1.1035959518319536,0.1340597084722947,0.7343465140948878,-0.8128266830640378,9.582249252662224,-1.2583305441752202,0.2361735186283065,-1.1390692726489269
0.12,-2.042045009366044,-1.1143474274288174,1.7277022062477745,-0.0720818097433587,0.1759897792609694,0.018958774906151,-0.0040171619369859,0.0360710807161077,-0.1015116372098576,-2.0315908518727475,-1.1051062054303988,1.7275748595136364,0.245757927213473,0.2406453962106891,-0.1656002079932089,1.297145075502055,0.2422828604689131,0.9876030095552212,-0.8053102867464829,9.582249252662224,-1.2538612471386028,0.2501370632152739,-1.139928589434956
0.14,-2.042058866842108,-1.1133860146962646,1.725507957047971,-0.0836245857905708,0.1837500316840445,0.0177013425228937,0.0025726375131913,0.0589077694279673,-0.1170943666733354,-2.0274756933403992,-1.1010932975181058,1.7248298754124043,0.2857579278095195,0.2806453968067356,-0.1939512109248038,1.4210570587135762,0.3294899725088632,1.141834435592981,-0.77913647317389,9.665337572350836,-1.251740658644211,0.2622612057709385,-1.1426764691042035
0.16,-2.041924545806945,-1.111934632623815,1.723006674704559,-0.0926816504582387,0.19109779206758,0.0166018524975006,0.0106990645782578,0.0845100746197208,-0.1322449961416541,-2.0223605347931493,-1.096080389590912,1.721376116237882,0.3257579284055659,0.320645397402782,-0.2223022138563986,1.5419617547638964,0.4063213532533282,1.2801152595876746,-0.7575314734159365,9.718885326148666,-1.2514429756690917,0.2716528154011876,-1.1467903617544772
0.18,-2.041632887908859,-1.1100668966949852,1.720354200919057,-0.0989722676856793,0.1976811538204377,0.0157302937789728,0.0197314408005359,0.1102641006182867,-0.146184099933084,-2.0162453762309984,-1.0900674816488167,1.71721358199007,0.3657579290016123,0.3606453979988284,-0.2506532167879934,1.532279584364288,0.4516188111139042,1.2877012999282942,-0.6969551895714965,9.769354402422325,-1.252558876585008,0.279298603448861,-1.1525132623527914
0.2,-2.041127457624977,-1.1075692446901448,1.717279378223615,-0.1034870206464508,0.204196610902166,0.0149927930061097,0.0304790260904911,0.1377973462475153,-0.1605333432902262,-2.0406463158688326,-1.1045536916640708,1.7130449959224032,0.1197314422906521,0.2102641021084028,-0.1840978470649085,1.6427804093721632,0.5373792644977601,1.376662281461432,-0.7174621678571094,9.819482889010033,-1.2547174987957164,0.2850229310609756,-1.16022377704403
0.22,-2.040370407343439,-1.104376428931493,1.7140298317129787,-0.1020231499581986,0.2102702014450204,0.0147338228504087,0.0449915807715241,0.1786026557044771,-0.1629160806870369,-2.0406463158688326,-1.1045536916640708,1.7130449959224032,0.1197314422906521,0.2102641021084028,-0.1840978470649085,2.168735207874943,0.7256277340516482,2.0402654728480907,-0.1191368698405331,9.85644791231516,-1.2510165837666662,0.2853653313107934,-1.1760888801490694
0.24,-2.0393655106782607,-1.1006753051328806,1.7109295826848294,-0.0946833515561219,0.2156190898731795,0.0149944937732058,0.0601664920431625,0.2077936701742,-0.163300300068272,-2.0406463158688326,-1.1045536916640708,1.7130449959224032,0.1197314422906521,0.2102641021084028,-0.1840978470649085,1.6450994517099764,0.7587455635819206,1.4595507234861442,-0.0192109690617572,10.73674674259837,-1.256535237010737,0.2797593262658289,-1.196512563165413
0.26,-2.037987666918605,-1.0962620165231067,1.7076531715108827,-0.0856747521115888,0.2208435495583656,0.0154556183386021,0.0769065269547489,0.231709242391157,-0.1643944102396149,-2.039449001445926,-1.1024510506429868,1.7112040174517542,0.1397314425886753,0.230264102406426,-0.1916805964912734,1.460633801105408,0.8370017455793198,1.19577861084785,-0.0547055085671446,10.704757799919207,-1.261562790204924,0.2724090564906956,-1.2170840896000936
0.28,-2.0362683475499743,-1.0914127293324856,1.7043437619979367,-0.0771360613370291,0.2256978495459055,0.0159702802973409,0.0942626207000911,0.2519717941375201,-0.1665771564638888,-2.037054372600113,-1.098245768600819,1.707522060510456,0.1797314431847217,0.2702641030024725,-0.2068460953440032,1.338440673368389,0.867804687267111,1.0131275873181536,-0.1091373112136959,10.585595625325368,-1.2664082793187932,0.2651654592169319,-1.2357256756247723
0.3,-2.034196009490008,-1.0861851869539467,1.700979334739936,-0.069716151649944,0.230221309799149,0.0164782647835403,0.1121785353511438,0.2699202483189841,-0.1698105257770073,-2.0346597437543,-1.0940404865586506,1.7038401035691575,0.2197314437807682,0.3102641035985189,-0.222011594196733,1.278262182029699,0.8957957325526338,0.8974227090731979,-0.161668465655923,10.585595625325368,-1.2703677667440203,0.259079829474664,-1.25143791822391
0.32,-2.031889969369359,-1.080901544445839,1.6977153880093494,-0.0638139054379623,0.2342396487160575,0.016935193731957,0.1297256819850484,0.2855348372810794,-0.173648545949617,-2.0302651148786848,-1.08783520448668,1.699399871685223,0.2597314443768146,0.3502641041945654,-0.2371770930494628,1.1900085527973083,0.8773573316952298,0.7807294481047666,-0.1919010086304851,10.541322192955704,-1.2739988740407042,0.2537255944792067,-1.2660099153302469
0.34,-2.0290955281236758,-1.075029860061109,1.6941988080091923,-0.0587742431556147,0.2381961539418421,0.0173816037398994,0.1488611652460983,0.3009408461773931,-0.1778476397098015,-2.025870486003069,-1.0816299224147097,1.6949596398012885,0.2997314449728611,0.3902641047906119,-0.2523425919021926,1.2461382529178258,0.9567741630524942,0.770300444815683,-0.2099546880092256,10.510181691676737,-1.2774131172315195,0.2495841444287821,-1.27926984084874
0.36,-2.025911330479706,-1.0688496180263054,1.6905985687298817,-0.0545853938660908,0.2418885336479636,0.0178094558078512,0.1686629519174734,0.3163282215218803,-0.1820058548142912,-2.0204758571125527,-1.074424640327838,1.6901402704460355,0.3397314455689075,0.4302641053866583,-0.2675080907549224,1.2709964872354969,0.9900893335687568,0.7693687672243599,-0.2079107552244857,10.518988019854987,-1.2805147936543315,0.2463979302264541,-1.292638217468429
0.38,-2.022324356838146,-1.0623649103908872,1.6869159738654915,-0.0508335216505821,0.2453326557051413,0.0182421608880785,0.1891025180568646,0.3313280583545727,-0.186081091045391,-2.014081228207135,-1.0662193582260655,1.6849417636194643,0.3797314461649539,0.4702641059827047,-0.2826735896076522,1.283918337856044,1.0219783069695592,0.7499918416346202,-0.2037618115549894,10.56287029667783,-1.2831765703188882,0.2437899859788415,-1.3051956385818857
0.4,-2.018529807409751,-1.0559316720514544,1.6833419520513355,-0.0475299599602812,0.2483063576036225,0.0186678210105509,0.2093246078769332,0.3450529846251272,-0.1899553889612399,-2.0128692309353027,-1.0457985074731586,1.6776119193132222,0.2891025195469807,0.4313280598446888,-0.2277895567109699,1.2372516944460283,1.011104491003427,0.6862463135277247,-0.1937148957924434,10.56287029667783,-1.2847137543286236,0.2412691905600004,-1.3185464408522156
0.42,-2.014063103013516,-1.0488788386107706,1.679550470621214,-0.0441975386092052,0.249881935143679,0.0191935880364108,0.2362936708213074,0.3594232457538788,-0.1887138168724793,-2.0128692309353027,-1.0457985074731586,1.6776119193132222,0.2891025195469807,0.4313280598446888,-0.2277895567109699,1.529196081489977,1.3484531472187131,0.7185130564375808,0.0620786044380317,10.580620861104762,-1.2833268353885472,0.2384671755845255,-1.3287043573595485
0.44,-2.009061681477355,-1.0415595915277476,1.6757854727287598,-0.0414052872228445,0.2489209130249052,0.019800982450138,0.2622756225254397,0.3719297181583385,-0.1879436096291059,-2.0128692309353027,-1.0457985074731586,1.6776119193132222,0.2891025195469807,0.4313280598446888,-0.2277895567109699,1.442278480007518,1.2990975852066142,0.6253236202229839,0.0385103621686658,10.912486259598154,-1.292595010905417,0.2375406777524349,-1.344267158980874
0.46,-2.0038423409492987,-1.0343792320654024,1.6722102317242376,-0.0395128539092158,0.2461117569654689,0.0204040868848205,0.2856529739314015,0.3834249371196429,-0.1884299106246049,-2.009978205739833,-1.0414852268747117,1.6753340237461125,0.309102519845004,0.451328060142712,-0.2361312498440856,1.302763511141202,1.1688675702980904,0.5747609480652227,-0.0243150497749491,10.912486259598154,-1.302708138934909,0.2374193913584408,-1.3556201616737202
0.48,-1.9978884693903272,-1.026589768501395,1.6684279526124748,-0.0382889318271837,0.2415202363166236,0.0210490863746224,0.3082366296140361,0.3949670517616431,-0.1897938428513153,-2.004196155348893,-1.032858665677818,1.670778232611893,0.3491025204410504,0.4913280607387584,-0.2528146361103172,1.269943134081134,1.129182784131727,0.5771057321000084,-0.0681966113355206,10.784315388104917,-1.3158996684145683,0.2381289845765583,-1.363556292751548
0.5,-1.991513261875733,-1.0185746157437097,1.6646111123031528,-0.0380328301517571,0.2359630816412645,0.0216656614627075,0.327874081682009,0.4060382538266015,-0.1918335849098871,-1.9984141049579536,-1.0242321044809242,1.6662224414776736,0.3891025210370968,0.5313280613348049,-0.2694980223765487,1.1317702798609153,0.981872603398648,0.5535601032479215,-0.101987102928587,10.729731094341332,-1.3291105053836765,0.2397799063680321,-1.3675669933555117
0.52,-1.98477715952243,-1.0103409205459628,1.660746175229308,-0.0389083946252185,0.2303527753454751,0.0222143138196523,0.3446155478026834,0.4169141360295014,-0.1945465873703323,-1.990632054537212,-1.013605543254228,1.6608324810301427,0.4291025216331433,0.5713280619308514,-0.2861814086427803,1.0073751584085069,0.8370733060337199,0.5437941101449961,-0.1356501230222601,10.729731094341332,-1.340984431671137,0.2425081647509195,-1.3694730717338046
0.54,-1.978092825237708,-1.0023150214695813,1.6570210351408663,-0.0408259842007715,0.2256545825998369,0.0226510138199967,0.3580399127133957,0.4274995739940841,-0.1974314579087918,-1.9828500041164696,-1.002978982027532,1.6554425205826115,0.4691025222291898,0.6113280625268979,-0.3028647949090118,0.8668730417161208,0.6712182455356153,0.5292718982291333,-0.1442435269229769,10.678618302650648,-1.3524114931395752,0.2467291391589368,-1.3707969485549916
0.56,-1.9708012988846235,-0.9936277009525764,1.65303688430886,-0.0434496227472414,0.2219827478988351,0.0230380277283185,0.370266352899279,0.4408227800248669,-0.200853913048729,-1.9740679536808268,-0.9913524207859348,1.6496354754784248,0.5091025228252362,0.6513280631229442,-0.3195481811752433,0.9201995133428316,0.6113220092941657,0.6661603015391426,-0.1711227569968609,10.651372495361102,-1.3602450283830936,0.2516850280105409,-1.3740838677670817
0.58,-1.963281296305565,-0.9846533480620404,1.6489808300462945,-0.0456867265340155,0.2200400345931081,0.0233962100706065,0.3810624114003855,0.4558270245545249,-0.2045905225693907,-1.9642859032302824,-0.9787258595294362,1.6434113457175823,0.5491025234212826,0.6913280637189907,-0.3362315674414748,0.9429269374863896,0.5398029250553243,0.7502122264828992,-0.1868304760330841,10.629273463460777,-1.365339501680007,0.2560508936215923,-1.378474456803876
0.6,-1.955546447999388,-0.9753675216397836,1.644846289250509,-0.0470614259700962,0.2198868046098949,0.0237457023907101,0.3920951387707299,0.4717956961805846,-0.2087026205275968,-1.9442281757355455,-0.961861996834314,1.638751303917825,0.4810624128905016,0.5558270260446411,-0.214845087264451,0.9920041536545492,0.5516363685172165,0.7984335813029847,-0.2056048979103025,10.616505469392903,-1.3664011364434594,0.2589718695030016,-1.383631118853807
0.62,-1.947909523941312,-0.966166583401182,1.64102081149223,-0.0451558419866315,0.2197629935740452,0.024308990834266,0.4110520675036265,0.4948440560846269,-0.1937501370645734,-1.9442281757355455,-0.961861996834314,1.638751303917825,0.4810624128905016,0.5558270260446411,-0.214845087264451,1.6689583599976157,0.9478464366448308,1.1524179952021123,0.7476241731511707,10.601560910502483,-1.3625020138599,0.2574938358482855,-1.3891355033252757
0.64,-1.939488570054431,-0.9560698670771202,1.6373051645977317,-0.0394867579217287,0.218586896745566,0.0252014966147259,0.4298951899354685,0.5127280208838051,-0.1787329828041036,-1.9442281757355455,-0.961861996834314,1.638751303917825,0.4810624128905016,0.5558270260446411,-0.214845087264451,1.5003452785962106,0.9421561215920998,0.8941982399589099,0.7508577130234867,11.817279268951095,-1.3698500536024618,0.2530764460784075,-1.4094943233275536
0.66,-1.9307059679952152,-0.9456763049546846,1.6338619278587725,-0.033216313590978,0.2167783581055342,0.0261441640862053,0.447298463546301,0.525609268836258,-0.1664765831420263,-1.9394175516066408,-0.9563037265738676,1.6366028530451804,0.5010624131885248,0.5758270263426642,-0.216896000203463,1.2440054399626257,0.8701636805416274,0.6440623976226467,0.6128199831038655,11.634813194041271,-1.375200188458384,0.2472310330395192,-1.4264548295595982
0.68,-1.9215920611529032,-0.9350575562924982,1.6306341480158095,-0.0276570701480824,0.2146208582931898,0.0270270400852092,0.4631265256640325,0.5357718426042584,-0.1569207308574576,-1.9297963033488303,-0.9451871860529748,1.6323059512998914,0.5410624137845713,0.6158270269387107,-0.2209978260814871,1.0548930856694805,0.7914031058865734,0.5081286884000169,0.4777926142284339,11.634813194041271,-1.3800231362950155,0.2420540981159392,-1.438538900514843
0.7000000000000001,-1.9126556482811847,-0.9247975196892482,1.6277247325229014,-0.0234082659132904,0.2125595877710285,0.0277748800193362,0.4766831872206711,0.5439481574457992,-0.1498225960487861,-1.9201750550910208,-0.934070645532082,1.6280090495546025,0.5810624143806178,0.6558270275347572,-0.2250996519595112,0.8674945456763975,0.6778330778319325,0.4088157420770399,0.354906740433579,11.47864628100524,-1.384429214233516,0.2376315038855384,-1.4479390655144748
0.72,-1.902986412383856,-0.9138388039878432,1.6247926564197688,-0.0200815937315322,0.2107817483377841,0.0284570898091248,0.4894215475275499,0.5516728483256806,-0.1438355268434377,-1.908553806803408,-0.9209541049813867,1.6235070565154122,0.6210624149766643,0.6958270281308037,-0.2292014778375353,0.8027790327468987,0.6369180153439374,0.386234543994074,0.2993534602674166,11.35329793152414,-1.3883713021152675,0.2345760233257608,-1.455669513276311
0.74,-1.8930723330056969,-0.9027303920797852,1.62197323737728,-0.0178519440110109,0.2097640822815921,0.0290365257244374,0.5014025278458852,0.5589669204929241,-0.1384462845367758,-1.896932558515796,-0.9078375644306916,1.619005063476222,0.6610624155727107,0.7358270287268501,-0.2333033037155594,0.7513176938040398,0.5990490159167666,0.3647036083621713,0.2694621153330953,11.262501973005785,-1.390418009315788,0.2327844398813924,-1.4628187980973766
0.76,-1.8829148767641348,-0.8914712711848091,1.6192567130363362,-0.0163672687826712,0.2093300957875207,0.0295467343511876,0.5137652090334813,0.5666175921929613,-0.1334948239764574,-1.8843113102132825,-0.8937210238650954,1.6144005247900812,0.7010624161687571,0.7758270293228965,-0.2374051295935835,0.7679284232405406,0.6181340593798046,0.3825335850018596,0.247573028015921,11.236179367823752,-1.3912936501629811,0.2319486168989347,-1.4699933344754903
0.78,-1.873032372465494,-0.8806332265150861,1.6167649860204996,-0.0153923351995335,0.20911610714438,0.029993174955267,0.5258672802758287,0.57384590457509,-0.1290534213381388,-1.870690061895868,-0.878604483284598,1.6096934404569898,0.7410624167648036,0.815827029918943,-0.2415069554716076,0.7389768021463047,0.6051035621173706,0.3614156191064366,0.2220701319159315,11.21546079473046,-1.3921835284647937,0.2316756728542292,-1.4775337848626022
0.8,-1.862379437533404,-0.8690780491547927,1.6142311890066183,-0.0147844017577302,0.2088692059651861,0.0304301366529525,0.5387697312381637,0.5812897645353845,-0.1245752264507045,-1.8467390084517024,-0.8519409312863316,1.6103123149535927,0.6258672817659449,0.6738459060652061,-0.1609445661502458,0.7777186531673542,0.64512254811675,0.3721929980147254,0.2239097443717128,11.21546079473046,-1.3932350408683791,0.2319429058239466,-1.4842652736816948
0.8200000000000001,-1.851450723681587,-0.8573250085724051,1.611809367013084,-0.0130289511898672,0.2080686839562938,0.0309506918685793,0.5534555983323918,0.5931860615201668,-0.1176979548988828,-1.8467390084517024,-0.8519409312863316,1.6103123149535927,0.6258672817659449,0.6738459060652061,-0.1609445661502458,1.0056011115956556,0.7342933547114017,0.594814849239117,0.3438635775910851,11.212297469309306,-1.3928338552349306,0.2305109009455999,-1.49186367621874
0.84,-1.8402420578280911,-0.8453789020605237,1.6095147686193232,-0.0100537101146344,0.2065562180835246,0.0315546296378288,0.5665233644357297,0.600715550659112,-0.1122075883604225,-1.8467390084517024,-0.8519409312863316,1.6103123149535927,0.6258672817659449,0.6738459060652061,-0.1609445661502458,0.8025020908877515,0.6533883051668965,0.3764744569472567,0.2745183269230157,11.400628926577156,-1.3978029191312948,0.2278850696934327,-1.4987753390754517
0.86,-1.829368400967589,-0.8339130562070548,1.6074163185488448,-0.0076673733446439,0.2050985482991593,0.032084808680194,0.5773672404419461,0.6060278389258751,-0.1089414063454376,-1.8404803356340431,-0.8452024722256796,1.6087028692920902,0.645867282063968,0.6938459063632293,-0.1673227951126673,0.6254558306195476,0.5421938003108195,0.2656144133381555,0.163309100749244,11.280170405653736,-1.401528881049771,0.2254598116460678,-1.5040090748843638
0.88,-1.817713934010838,-0.8217453001089613,1.605260026067543,-0.0060414601999227,0.204015087127485,0.0325659043497999,0.5875151294335608,0.6106015408716946,-0.1069306834568502,-1.827962989998724,-0.8317255541043754,1.6054839779690853,0.6858672826600145,0.7338459069592758,-0.1800792530375101,0.5655559366897692,0.5073944495807337,0.2286850972909759,0.1005361444293716,11.06124920131333,-1.4040545002867857,0.2241165431462123,-1.5076728908572912
0.9,-1.8058629459635835,-0.8094940498337868,1.603130317790089,-0.0056463737007612,0.2036104359203898,0.0329484705976976,0.5971151963271731,0.614419220031988,-0.1061970997214214,-1.8154456443634053,-0.8182486359830713,1.6022650866460804,0.725867283256061,0.7738459075553222,-0.1928357109623529,0.5178660628716087,0.4800033446806184,0.1908839580146704,0.0366791867714363,11.06124920131333,-1.405273565545878,0.2243293257301237,-1.5106453474413375
0.92,-1.7938225595319863,-0.7971723567144041,1.6010048200479738,-0.0068469835806099,0.2039084499764011,0.0332103238052911,0.6065390182017898,0.6178078644115158,-0.1063944176603135,-1.800928298698284,-0.8027717178319649,1.5984083724268332,0.7658672838521074,0.8138459081513687,-0.2055921688871958,0.5008249789707411,0.4711910937308328,0.1694322189763897,-0.0098658969446011,10.984023894516213,-1.4054326063421578,0.2266168151542245,-1.5128812189391372
0.94,-1.782207925967847,-0.7854004667101504,1.5989784106213298,-0.009595109545754,0.2047740260195943,0.0333396499024699,0.6156640925850463,0.6216112856236975,-0.1069119489474133,-1.7864109530331629,-0.7872947996808584,1.5945516582075865,0.8058672844481539,0.8538459087474152,-0.2183486268120386,0.4949768531213473,0.4562537191628246,0.1901710606090845,-0.0258765643549936,10.932740361752622,-1.4040113749130974,0.2312484737445567,-1.5151483865062978
0.96,-1.7697864622300137,-0.7728960983524177,1.596833186423606,-0.0132008787815695,0.2060400464821961,0.0334200176317703,0.6260632501856565,0.6287642923232114,-0.1075923976059679,-1.7708936073531405,-0.7708178815148509,1.590376032540218,0.8458672850442003,0.8938459093434615,-0.2311050847368815,0.6320027571588349,0.5199578800305082,0.3576503349756954,-0.0340224329277279,10.913006410441994,-1.4017463125369074,0.2369507853495338,-1.5181284090865934
0.98,-1.7571477691913648,-0.7602251982768301,1.5946743763501414,-0.0164345301947507,0.2072733505816832,0.0335247498841475,0.6372922843618476,0.6378488343405158,-0.1082553089202877,-1.7543762616582168,-0.7533409633339421,1.585881495424729,0.8858672856402467,0.933845909939508,-0.2438615426617243,0.7229446099198925,0.5614517088095572,0.4542271008652176,-0.0331455657159904,10.910768873322011,-1.4000418020831753,0.241943997663431,-1.520988874435738
1.0,-1.7442780137288796,-0.7473611733884774,1.592502007695748,-0.0189265457162337,0.2081882461767535,0.0336854986239019,0.6490932372717438,0.6479082944819475,-0.1089433268789211,-1.7252831549732726,-0.7283327565598043,1.589261610904127,0.7372922858519637,0.7261748265671164,-0.1405531846524711,0.7760937389098777,0.5900476454948123,0.5029730070715888,-0.0344008979316703,10.918790538208668,-1.399025306827702,0.2462487324103994,-1.5238178919236265
1.02,-1.7317756541682423,-0.734827638616209,1.590537720384699,-0.0167497883513908,0.2075842321020748,0.0341817716640715,0.6662239910964844,0.669033245992223,-0.0977196642346029,-1.7252831549732726,-0.7283327565598043,1.589261610904127,0.7372922858519637,0.7261748265671164,-0.1405531846524711,1.4711363856461612,0.8565376912370304,1.0562475755137746,0.5611831322159117,11.804922280348364,-1.393946699294311,0.2436544237601531,-1.5272199157099966
1.04,-1.7182748788764683,-0.7213063816467095,1.5886949292633117,-0.0095287313775485,0.2045444157873682,0.0350638082956826,0.6827352726844843,0.6810448376407053,-0.0872650074757665,-1.7252831549732726,-0.7283327565598043,1.589261610904127,0.7372922858519637,0.7261748265671164,-0.1405531846524711,1.1469531393579202,0.825564079399993,0.6005795824241156,0.5227328379418167,11.804922280348364,-1.4019356626482191,0.2347551681825949,-1.532535130144409
1.06,-1.7044711035997382,-0.7076226728659109,1.587021133865713,-0.0017583698382191,0.1997455435875042,0.03594760335003,0.6965747584700613,0.6866935914844613,-0.0805986126284072,-1.717910232114753,-0.7210710082941332,1.5878560790576024,0.7572922861499869,0.7438400250124365,-0.1470127597989078,0.8183529297580535,0.6919742892788516,0.282437692187798,0.3333197423679677,11.349610558027052,-1.4107564868930311,0.225255118775639,-1.5338451524935248
1.08,-1.6911359597488436,-0.6945547073377946,1.585522307881396,0.0045977338234948,0.1943985845754014,0.036658622232719,0.7062430876449781,0.6888663863393425,-0.0774850303591007,-1.7031643863977135,-0.7065475117627908,1.585045015364553,0.7972922867460334,0.7791704219030768,-0.1599319100917812,0.5193554203618291,0.4834164587458389,0.1086397427440599,0.1556791134653241,11.349610558027052,-1.4212276257994514,0.2165534123350038,-1.5314985837966693
1.1,-1.676936780343346,-0.6807727439510098,1.5839811945813675,0.0097400653178877,0.1890343325642603,0.0372453743740194,0.7129410384959828,0.6894590370473036,-0.0769077304387294,-1.6884185406806744,-0.6920240152314485,1.5822339516715036,0.8372922873420798,0.814500818793717,-0.1728510603846546,0.3374427939006166,0.3348975425502332,0.0296325353980553,0.0288649960185655,11.125597661243772,-1.430984868174991,0.2099511649578785,-1.5269620959791868
1.12,-1.662638827921448,-0.6669893563606332,1.582425986744188,0.0132647321063233,0.1849993223928001,0.0376912802427023,0.7163264463214656,0.6891308381067148,-0.0787324337815883,-1.6716726949338327,-0.6757339988555742,1.5787769304638106,0.8772922879381263,0.8498312156843573,-0.185770210677528,0.1929912108030067,0.16927039127414,-0.0164099470294387,-0.0912351671429452,10.947704215893282,-1.438812759017558,0.2055574419064156,-1.521880586640947
1.14,-1.6483036961987685,-0.6532193798742314,1.5808191289379012,0.0152541359032828,0.1834304448150075,0.0380379741906863,0.7171547566727536,0.6882606090696503,-0.0818614682814541,-1.6549268491869913,-0.6594439824796998,1.5753199092561174,0.9172922885341728,0.8851616125749976,-0.1986893609704014,0.1675876898548337,0.0414155175644026,-0.0435114518532286,-0.1564517249932923,10.80607534928913,-1.4421016183387088,0.2032981609048529,-1.51905539851906
1.16,-1.634663937791518,-0.6401495630614479,1.5792282543372405,0.0160131400240866,0.1843265963355099,0.0383114884108506,0.7188463328840105,0.6876902962559115,-0.0854591904789525,-1.6371810034252483,-0.6422707061815595,1.5715399092911029,0.9572922891302192,0.9204920094656378,-0.2116085112632748,0.2008126726228765,0.0845788105628408,-0.028515640686938,-0.1798861098749181,10.736780363956314,-1.440239988042356,0.2024706286196962,-1.5206762448409057
1.18,-1.6202524211126024,-0.6264024865550533,1.5774774882345377,0.0157374406116528,0.186877412774803,0.0385394729239612,0.7224300958829685,0.6871377168337188,-0.0894417633439013,-1.6184351576486045,-0.6242141699611531,1.567436930568766,0.9972922897262656,0.955822406356278,-0.2245276615561481,0.2693027472713451,0.1791881499479009,-0.0276289711096333,-0.1991286432474384,10.696279800010416,-1.4360922589362772,0.2031677204728033,-1.5229789065604913
1.2,-1.6057484376676838,-0.6126634031598778,1.5756479871371307,0.0143622006173563,0.1902604878369593,0.0386919709429902,0.7279544313912443,0.6868988428480172,-0.0933060858211037,-1.584130916318454,-0.5920456007133673,1.5730054000673424,0.8224300973730846,0.7331301955620132,-0.129214240344853,0.3372993173609076,0.2762167754137901,-0.0119436992850829,-0.193216123860121,10.700656496862392,-1.4308541974640825,0.2054109960803727,-1.5261712699449703
1.22,-1.591063439097048,-0.598717364898359,1.5738695662125872,0.0186002653231723,0.1927646338449994,0.0392135467228176,0.7401406593815307,0.7040793574804924,-0.0843455364632905,-1.584130916318454,-0.5920456007133673,1.5730054000673424,0.8224300973730846,0.7331301955620132,-0.129214240344853,1.1445148322124794,0.6093113995143229,0.8590257316237637,0.4480274678906576,10.700656496862392,-1.4209310183542907,0.1998006525087689,-1.531836934686865
1.24,-1.5768926860496584,-0.5852898827165278,1.572333622308273,0.027939248249642,0.1936863638884736,0.0400430892473163,0.7508394097998615,0.7076489895499454,-0.0778134412932995,-1.584130916318454,-0.5920456007133673,1.5730054000673424,0.8224300973730846,0.7331301955620132,-0.129214240344853,0.6516782199345396,0.5349375209165397,0.1784816034726466,0.3266047584995504,11.541933084622542,-1.4224661696102758,0.1866137149772621,-1.5377992705521897
1.26,-1.5617692475604663,-0.5711693675031371,1.5708152288074682,0.03821055477805,0.1938492655382662,0.0409000062220359,0.7608527076625324,0.7041066331568812,-0.0745341348102078,-1.5759066153447232,-0.5847142987577472,1.571713257663894,0.8424300976711078,0.7423286913076721,-0.1371687357450434,0.5558063374775887,0.5006648931335456,-0.1771178196532108,0.1639653241545885,11.342224914882536,-1.4235921834379386,0.1723966469618983,-1.5415283284132864
1.28,-1.5464584656348257,-0.5571652148979612,1.569325318709708,0.047053273698421,0.1936542809156868,0.0416104978784707,0.7696621743294338,0.6966818326480124,-0.0747496776297882,-1.5594580133972615,-0.570051694846507,1.5691289728569968,0.8824300982671542,0.7607256827989898,-0.1530777265454241,0.5761528101528647,0.4404733333450705,-0.3712400254434367,-0.0107771409790242,10.90861683818548,-1.4250090102841697,0.1600900432056199,-1.5431233162842064
1.3,-1.530983106898088,-0.5433350307966109,1.5677991114538068,0.0538175113155401,0.193456739156815,0.0421422476842268,0.7774406668357845,0.6871959937176685,-0.077827607818069,-1.5430094114498,-0.5553890909352667,1.5665446880500995,0.9224300988632008,0.7791226742903076,-0.1689867173458048,0.6323759564683648,0.3889246253175327,-0.4742919465171968,-0.1538965094140358,10.90861683818548,-1.426390394434642,0.1511066659522675,-1.5430992972541844
1.32,-1.5161443425754737,-0.5303817045238297,1.5662740245923772,0.0583679639539966,0.1934893509839495,0.0425004633706329,0.7841783164461874,0.6772415390320381,-0.0825301305225993,-1.5245608094725358,-0.5398066374494606,1.5631649537031835,0.9624300994592472,0.7975196657816254,-0.1848957081461855,0.6453696811662569,0.3368824805201453,-0.4977227342815193,-0.2351261352265161,10.7561487402063,-1.4273795870896226,0.1444007207276259,-1.542194302024653
1.34,-1.5003896882591066,-0.5169525320116589,1.5645643559783269,0.0614493073337185,0.1939079391209124,0.0427555418277883,0.790969080922967,0.6665128816311683,-0.0882027792206947,-1.5061122074952715,-0.5242241839636543,1.5597852193562671,1.0024301000552935,0.815916657272943,-0.2008046989465662,0.6953371755061252,0.339538223838981,-0.5364328700434906,-0.2836324349047715,10.651218734112264,-1.4278398800449292,0.1401999619747426,-1.5409278077562905
1.36,-1.4844938793570197,-0.5037368591703738,1.562736784078092,0.0630992467198583,0.1946178742181748,0.0429058790452569,0.7983072248775936,0.6557724887632296,-0.0942733178240883,-1.4866636055031066,-0.5081818056905653,1.5560077602393418,1.04243010065134,0.8343136487642608,-0.2167136897469469,0.71773225263984,0.3669071977313309,-0.5370196433969354,-0.3035269301696792,10.611508403542755,-1.427831748971225,0.13807605534651,-1.5398218932457626
1.38,-1.46844537678549,-0.4907401163616169,1.5607851869603098,0.0633417198555925,0.1953136923139392,0.0429362556184025,0.8061658829073441,0.6446575813859514,-0.1005666095512148,-1.4662150034960404,-0.4916795026301933,1.5518325763524066,1.0824301012473865,0.8527106402555785,-0.2326226805473276,0.7498419713458858,0.3929329014875249,-0.555745368863908,-0.3146645863563266,10.592747050466642,-1.4281525158109094,0.1377778427973233,-1.538261140679745
1.4,-1.4530500747998836,-0.4786008852303562,1.55881346079794,0.0621240803119534,0.1957789287450654,0.0428341670123845,0.8139660055137887,0.6339147145491527,-0.1066519233078066,-1.428137082640123,-0.4585072372923193,1.555756856482749,0.8813338890294564,0.655836084198933,-0.1314937907951113,0.7302091208429996,0.3900061303222291,-0.5371433418399352,-0.3042656878295899,10.584601970197582,-1.4289257467509342,0.1396573460182261,-1.5361995176494825
1.42,-1.4365677787642226,-0.4659050000038523,1.5567685345719884,0.0636972904945615,0.1931893595577447,0.0427156487746962,0.8341272847830699,0.6350996986686155,-0.0967595246342175,-1.428137082640123,-0.4585072372923193,1.555756856482749,0.8813338890294564,0.655836084198933,-0.1314937907951113,1.1244342140100425,1.0080639634640565,0.0592492059731386,0.4946199336794583,11.722816480481924,-1.4244033246602197,0.1364272045935505,-1.5350498267576016
1.44,-1.419703836528022,-0.4532623915546756,1.5549261957104006,0.0696614598485737,0.1850218899623467,0.0424901289866206,0.8503444968183183,0.6281970776630851,-0.0880101255863447,-1.428137082640123,-0.4585072372923193,1.555756856482749,0.8813338890294564,0.655836084198933,-0.1314937907951113,0.9838649890115918,0.8108606017624198,-0.3451310502765203,0.4374699523936383,11.722816480481924,-1.4409257206600783,0.1285663263780698,-1.5272639274537336
1.46,-1.4034512575523008,-0.4414427794042218,1.5532960982033102,0.0756499634642547,0.174539859698348,0.0420174253028869,0.8591552625336393,0.6163807978051634,-0.0839677781393597,-1.4193237437498285,-0.45194887645033,1.554441918574798,0.8963674902538789,0.6580717847615294,-0.1376792270438906,0.7641901514890576,0.4405382857660511,-0.5908139928960832,0.2021173723492489,11.492624388871263,-1.4609574096990576,0.1194937147802734,-1.5150654271230757
1.48,-1.3862301348382446,-0.4292724372326979,1.551623260469185,0.0808970739466559,0.1627683492882047,0.0412889768116796,0.8620407565961236,0.6014599481131334,-0.0836877324499475,-1.4016970659692392,-0.4388321547663513,1.5518120427588955,0.9264346927027238,0.662543185886722,-0.1500500995414492,0.7599938438976698,0.1442747031242142,-0.7460424846015001,0.0140022844706128,11.188947209662729,-1.4811935027820846,0.1119085259119471,-1.4990100036106548
1.5,-1.3690136065389262,-0.4174169742349864,1.549913337501258,0.0845842409045575,0.1519453221247458,0.0404451263945745,0.859350749908895,0.5852633056815634,-0.087241516596289,-1.38407038818865,-0.4257154330823727,1.5491821669429937,0.9565018951515688,0.6670145870119146,-0.1624209720390078,0.8399356281767333,-0.1345003343614259,-0.809832121578502,-0.1776892073170749,10.930898946357049,-1.4984644177673847,0.1067693344783707,-1.4829382481134388
1.52,-1.3527471625599834,-0.4064585910864864,1.5481978077909615,0.0866758691794474,0.1435647284129514,0.0396541675457323,0.8531165417677691,0.5694602170507015,-0.0931269600125608,-1.3649403502856186,-0.4123751413421344,1.5459337475022137,0.9865690976004136,0.6714859881371072,-0.1747918445365664,0.8989457792713291,-0.3117104070562981,-0.7901544315430942,-0.294272170813592,10.708838197783734,-1.5132228566873869,0.1033930959275706,-1.4683930902431042
1.54,-1.335779869616319,-0.3952494106529852,1.546259700125857,0.0874855434127783,0.1374571558885723,0.0389282564139071,0.8438048203290819,0.5524414655702594,-0.1003987405681063,-1.3458103123825873,-0.3990348496018961,1.5426853280614332,1.0166363000492586,0.6759573892622999,-0.187162717034125,1.0358871204826872,-0.4655860719343596,-0.8509375740221037,-0.3635890277772738,10.5469566568172,-1.5247149795609856,0.1021794737403632,-1.455864847195227
1.56,-1.3190217532207082,-0.3843868329576168,1.5441706801927726,0.0865968502529702,0.13494602389416,0.0383822046038454,0.832567372855619,0.5348578616674374,-0.1081391431318155,-1.3259285944183348,-0.385582772833528,1.539127636808214,1.0467035024981035,0.6804287903874926,-0.1995335895316836,1.112853521109641,-0.5618723736731446,-0.8791801951410994,-0.3870201281854613,10.489186851887098,-1.5295580308977486,0.1031477739899672,-1.4485773244843552
1.58,-1.3024813908374426,-0.3738771304468237,1.5419276228928491,0.0836819905786914,0.1359972555997581,0.0379930736856927,0.8224565981999388,0.517495092765618,-0.1157483916510177,-1.3052951963928612,-0.37201891103703,1.535260673742556,1.0767707049469484,0.6849001915126852,-0.2119044620292422,1.0742371375805642,-0.5055387327840111,-0.8681384450909713,-0.3804624259601083,10.461959343570925,-1.5273508904895476,0.106389994116551,-1.446993640260886
1.6,-1.2869333596753594,-0.3641890076960924,1.5396640626697429,0.0796393614150223,0.1392524359052916,0.0377094693923243,0.8149564940205184,0.5035558533062416,-0.1221155537125331,-1.2613585609274458,-0.3480023758085427,1.5361402033102984,0.8879881127849569,0.5160364553492552,-0.1232323792543542,0.8530748972475913,-0.3750052089710187,-0.6969619729688181,-0.3183581030757713,10.458886534115663,-1.5208121924675084,0.1116418003202406,-1.446848255331906
1.62,-1.270630267745609,-0.354203393679013,1.537323965278439,0.0769971735486244,0.1426220328578592,0.0375017521699451,0.8159318275743526,0.4949280948745534,-0.1107645447008251,-1.2613585609274458,-0.3480023758085427,1.5361402033102984,0.8879881127849569,0.5160364553492552,-0.1232323792543542,0.7145538759965521,0.0487666776917083,-0.4313879215844113,0.5675504505854002,11.66725527698418,-1.510139235937509,0.1144393515001848,-1.4455754713257851
1.64,-1.25429969606638,-0.344419224326245,1.5352325362896255,0.0765809670149256,0.1443264494214519,0.0373081144555637,0.8169385244308331,0.4837945878478002,-0.0991277221335716,-1.2613585609274458,-0.3480023758085427,1.5361402033102984,0.8879881127849569,0.5160364553492552,-0.1232323792543542,0.8068210097929879,0.0503348428240291,-0.5566753513376599,0.5818411283626742,11.66725527698418,-1.5082816946011923,0.1143878770190603,-1.4523540202773786
1.66,-1.23795819010854,-0.3348737039735084,1.5333473720260395,0.0770553197972617,0.1449717695306206,0.0370849287192932,0.8170847120113891,0.4713338619368732,-0.0899619418057538,-1.2524786797995962,-0.3428420112550502,1.5349078795177549,0.9010944157019606,0.5157447278659827,-0.1247291767750216,0.7734704099927907,0.0073093790277978,-0.6230362955463475,0.4582890163908885,11.573825063337608,-1.507700206285709,0.1132215068248002,-1.4562753180258143
1.68,-1.2224398654421578,-0.3260464153293908,1.5317058515369768,0.0776764697949358,0.1450292929980292,0.0368318897181531,0.816379321190339,0.4585682724694579,-0.0832749685075912,-1.234718917543897,-0.3325212821480651,1.532443231932668,0.9273070215359678,0.5151612728994376,-0.1277227718163562,0.7214108790269008,-0.0352695410525072,-0.6382794733707647,0.3343486649081323,11.433481849717282,-1.50796239433104,0.1117654122697359,-1.458048467981019
1.7,-1.2061276225800146,-0.3170237936793261,1.53009863222582,0.0780342121500586,0.1448818272734861,0.0365182667535679,0.8148518516346265,0.4444407082021225,-0.0778606807194167,-1.216959155288198,-0.32220055304108,1.5299785843475808,0.9535196273699752,0.5145778179328925,-0.1307163668576908,0.7603218851652499,-0.0763734777856239,-0.7063782133667706,0.2707143894087223,11.30921512502664,-1.5084846178952285,0.110723317238551,-1.4584551398395609
1.72,-1.189852558265174,-0.3082907101234027,1.528584539343262,0.0776537509020301,0.1448109866062214,0.0361497477975132,0.8127299188015865,0.4296924675461429,-0.0738620383991806,-1.1978887627407984,-0.3119089966824221,1.527364257010427,0.9797322332039824,0.5139943629663474,-0.1337099618990254,0.7713662259261276,-0.1060966416519981,-0.7374120327989814,0.1999321160118083,11.210273073746976,-1.5088153429754,0.1106824024327729,-1.458060105066607
1.74,-1.1736234590940493,-0.2998572396888718,1.527145191965015,0.0761242620753253,0.1450108784764907,0.0357149720470675,0.8103344194827308,0.4146190035439897,-0.0702489934930269,-1.178818370193399,-0.3016174403237642,1.5247499296732732,1.0059448390379897,0.5134109079998023,-0.1367035569403601,0.7842222699986456,-0.1197749659427871,-0.7536732001076629,0.1806522453076837,11.128761146250326,-1.5086336902585469,0.1120727241773016,-1.4573165159163808
1.76,-1.158247544291718,-0.2921204568400434,1.525844253926363,0.0734830228079946,0.145427486217848,0.0352319913424233,0.8083191209768618,0.40096000899802,-0.0668405923639269,-1.1590926625001492,-0.29134047033927,1.522060762460086,1.0321574448719968,0.5128274530332572,-0.1396971519816947,0.7110674340936978,-0.1007649252934506,-0.6829497272984847,0.1704200564550013,11.113375419547992,-1.507169168934365,0.1151029220898657,-1.4570633779602202
1.78,-1.1421014669738567,-0.2842345077464367,1.5245461956667006,0.070080207084877,0.1459675541268601,0.0346850837029271,0.8064118343669441,0.3885526118678927,-0.0631322585991508,-1.1387116396610495,-0.2810780867289394,1.5192967553708654,1.058370050706004,0.5122439980667121,-0.1426907470230294,0.6544711320372338,-0.095364330495884,-0.6203698565063615,0.1854166882388062,11.107437488147298,-1.505616230606398,0.1190134102953557,-1.4569414964564396
1.8,-1.1259913357082632,-0.2765816896827049,1.5233221811929485,0.066567673577857,0.1465096161715846,0.0341294788456423,0.8047060055487079,0.3774709133610807,-0.0594528187903677,-1.1017808752555096,-0.2648068771530421,1.521389582736743,0.8596391062516239,0.3954878372019112,-0.0818548579714185,0.5900257855794604,-0.085291440911811,-0.5540849253406033,0.1839719904391547,11.105749580718111,-1.5042917697329503,0.1228794004048811,-1.4569064859960927
1.82,-1.109858235670468,-0.2691354455185039,1.522213401861966,0.0633213891868087,0.1454185509127619,0.0334871772727703,0.8084772321432272,0.3676649237303526,-0.051602098134879,-1.1017808752555096,-0.2648068771530421,1.521389582736743,0.8596391062516239,0.3954878372019112,-0.0818548579714185,0.65576939063148,0.1885613297259669,-0.4902994815364048,0.3925360327744327,11.370093635187004,-1.5013495903268594,0.12629676368588,-1.4540726008068687
1.84,-1.094473277829831,-0.2622407729674437,1.5212943096055296,0.0604686065115508,0.1416757563298717,0.0327313319691711,0.8106001522702915,0.358650086770774,-0.0455233102348459,-1.1017808752555096,-0.2648068771530421,1.521389582736743,0.8596391062516239,0.3954878372019112,-0.0818548579714185,0.553908245125642,0.1061460063532138,-0.4507418479789304,0.3039393950016525,11.370093635187004,-1.507755012728944,0.1296532006507678,-1.4509591803916324
1.86,-1.0782675052034794,-0.2551623968260231,1.5204334496225889,0.0575880375451084,0.1358267026642392,0.031847311976148,0.8094850383567443,0.349739371111857,-0.0409409168033996,-1.0931844841929934,-0.260851998781023,1.5205710341570289,0.8702845606285599,0.3968748822687149,-0.085599377845872,0.5040899278770017,-0.0557556956773563,-0.4455357829458467,0.2291196715723163,11.253591868296098,-1.5176596804318137,0.1328987989366067,-1.4440259706136682
1.88,-1.062125594248209,-0.2482558646480172,1.5196413388597216,0.0548126418372479,0.1294744976121548,0.0309649285346589,0.8046199237274437,0.3414415687608392,-0.0384628158926255,-1.0759917020679608,-0.2529422420369848,1.5189339369976005,0.8915754693824317,0.3996489724023223,-0.0930884175947791,0.4966483875358193,-0.2432557314650307,-0.4148901175508923,0.1239050455387066,11.122823553514536,-1.5268021152883406,0.135803523794439,-1.435112231814035
1.9,-1.046912040825329,-0.2418424109034639,1.5189179263721229,0.0522795894429326,0.1240552195788736,0.030189340589315,0.7969866226846154,0.3341387887520582,-0.0377877496323477,-1.0587989199429284,-0.2450324852929465,1.517296839838172,0.9128663781363036,0.4024230625359297,-0.1005774573436862,0.5292768536476461,-0.3816650521414166,-0.3651390004390492,0.0337533130138883,10.990766569796506,-1.5352625218721012,0.1387281430606032,-1.4252073379907273
1.92,-1.0310828260972216,-0.2352350828726876,1.518157095252778,0.0497433597315498,0.1200057553922386,0.0294880207093249,0.7861827327175335,0.3270407612850051,-0.038378231789303,-1.0405415923802024,-0.236984024042228,1.5152852906912984,0.9341572868901756,0.4051971526695371,-0.1080664970925933,0.6470214477154846,-0.5401944983540963,-0.3549013733526562,-0.0295241078477642,10.879522918799012,-1.5412702649303869,0.1415124719778254,-1.416333275480545
1.94,-1.015494698546955,-0.2287639085255126,1.517375140506576,0.0473589680184984,0.1186997750896685,0.028947721193852,0.7733355735296253,0.32049083096031,-0.0398171123389573,-1.022284264817476,-0.2289355627915093,1.5132737415444246,0.9554481956440476,0.4079712428031444,-0.1155555368415004,0.7246058647533589,-0.6423579593954065,-0.3274965162347515,-0.0719440274827138,10.79976721802359,-1.5420477409094715,0.1440214265896426,-1.4106302596862623
1.96,-1.0001557126528473,-0.2224172963837863,1.5165593682814005,0.045149663901271,0.1201744326261067,0.0285585318158826,0.7615585753457839,0.3145373175770057,-0.0416827236927557,-1.0034946645359033,-0.2208177492874506,1.5110749664038283,0.9767391043979194,0.4107453329367518,-0.1230445765904075,0.6663754826500053,-0.588849909192074,-0.2976756691652177,-0.0932805676899191,10.712944546643485,-1.5382556398426606,0.1461441786228099,-1.4089905807677738
1.98,-0.9857836663438824,-0.2164931488710925,1.5157498604553403,0.0432273834617194,0.1233127416368617,0.0282815099619062,0.7521131721999958,0.3093751332511876,-0.0434353749653469,-0.9841727915354836,-0.2126305835300516,1.5086889652695092,0.9980300131517914,0.4135194230703592,-0.1305336163393146,0.5452879378903847,-0.4722701572894006,-0.2581092162909026,-0.0876325636295596,10.712944546643485,-1.5318130877442382,0.1481768455730872,-1.4094822439590815
2.0,-0.9708285366060666,-0.21035842746845,1.5148631403043018,0.0413924039650938,0.1276507046951507,0.0280472466723149,0.7441024184777246,0.3043929247261465,-0.0451410931629028,-0.9481780077338826,-0.2010243922085331,1.513578091707073,0.7780558461066798,0.31464651262143,-0.0471348347993712,0.4793330041718072,-0.4005376861135612,-0.2491104262520554,-0.0852859098777948,10.707119383256211,-1.5240682478157264,0.1499919124695311,-1.4115250417373908
2.02,-0.9559118331050042,-0.2042952794897805,1.5140709845968552,0.0405901300814938,0.1296565057595092,0.0277901546761484,0.748132465156251,0.3019391578545949,-0.0333464086212663,-0.9481780077338826,-0.2010243922085331,1.513578091707073,0.7780558461066798,0.31464651262143,-0.0471348347993712,0.6351709052053303,0.2015023339263177,-0.1226883435775816,0.5897342270818225,10.711863320649172,-1.5123251543112033,0.1498800708393645,-1.409214980100187
2.04,-0.9409098723897296,-0.1982889565151002,1.5135242702631384,0.0412826646916293,0.1262564236354623,0.027419974231006,0.7511676428713118,0.2986818872905847,-0.0219673735986733,-0.9481780077338826,-0.2010243922085331,1.513578091707073,0.7780558461066798,0.31464651262143,-0.0471348347993712,0.6109512119117345,0.1517588857530394,-0.1628635282005075,0.5689517511296504,11.636919231265892,-1.518584982682463,0.1486825057822165,-1.411803244665693
2.06,-0.9266487129583828,-0.1926533084715436,1.5131894636044767,0.0428593169041457,0.1196752208460691,0.0269888155881223,0.7494196087812033,0.2946593504278472,-0.0138121552231313,-0.9403974492728158,-0.1978779270823188,1.5131067433590792,0.7832443808880165,0.3157007884954785,-0.047874726766176,0.4629903150851043,-0.0874017045054242,-0.2011268431368756,0.4077609187771006,11.505546194115595,-1.5299421482546742,0.1461247734839576,-1.4074615911759043
2.08,-0.9117238776866232,-0.186815629082403,1.5129786208048543,0.0450803778328916,0.1112413855137896,0.026493378788108,0.7427947329339336,0.289212195863831,-0.0078022651613623,-0.9248363323506822,-0.1915849968298902,1.5121640466630917,0.7936214504506901,0.3178093402435754,-0.0493545106997858,0.5236393114314677,-0.3312437923634836,-0.2723577282008088,0.3004945030884479,11.31656504077,-1.542743128256278,0.1427796950883896,-1.3979134277244585
2.1,-0.8969777650929542,-0.181105839629309,1.512859935246749,0.0472111641515447,0.1028803507528344,0.0259740468883687,0.7319380685292634,0.2820812191581379,-0.0044577566924991,-0.9092752154285486,-0.1852920665774616,1.5112213499671043,0.8039985200133637,0.3199178919916723,-0.0508342946333955,0.6706409763634171,-0.5428332202335129,-0.3565488352846591,0.1672254234431622,11.14468482257962,-1.5540498409186423,0.1396855826657391,-1.3867690709676903
2.12,-0.8824875993311141,-0.1755508315156045,1.5127826249810643,0.0486898822137863,0.0958453349443426,0.0254567280911545,0.717611362319355,0.273943919799049,-0.003404885186103,-0.8931952450282813,-0.1788937087376282,1.5102046640744364,0.8143755895760373,0.3220264437397693,-0.0523140785670052,0.8254978650690704,-0.7163353104954195,-0.4068649679544456,0.0526435753198049,10.984981456442256,-1.5635021947850667,0.137234878862489,-1.3745751745596435
2.14,-0.8690148059687882,-0.1704314792714407,1.5127192477898717,0.0492238600356173,0.0912868331897656,0.0250032752152366,0.7012656168417936,0.2654867139695708,-0.0032987480044424,-0.877115274628014,-0.1724953508977947,1.5091879781817683,0.8247526591387109,0.3241349954878662,-0.0537938625006149,0.9202159947000332,-0.8172872738780701,-0.422860291473906,0.0053068590830302,10.861085307269605,-1.5696235075381717,0.1360171267146075,-1.363185854095846
2.16,-0.8551883810686938,-0.1652193275129689,1.5126510186880535,0.0486321763590659,0.0896316996409567,0.0246037974219978,0.6824304455611426,0.2562863212789711,-0.0035301190719674,-0.8607758774886799,-0.1660442792642588,1.5081342976907604,0.8351297287013844,0.3262435472359632,-0.0552736464342247,1.048170352809582,-0.9417585640325464,-0.4600196345299845,-0.0115685533762496,10.81780793798589,-1.5694300396168137,0.1361730503825045,-1.3556020372047286
2.18,-0.8417302604917618,-0.1601915763298623,1.5125780990604332,0.0466678804854348,0.0911168961050944,0.024267830643878,0.6647198197028326,0.2471490501017475,-0.0037223269962281,-0.844177053610279,-0.1595404938370206,1.507043622601412,0.845506798264058,0.3283520989840601,-0.0567534303678344,0.9964849932955728,-0.8855312929155035,-0.4568635588611799,-0.0096103962130352,10.792586609966747,-1.5638904645408718,0.1378222057955992,-1.351878837743228
2.2,-0.8292537343564487,-0.1555727245106644,1.5125096924514818,0.0436893406462701,0.0945686895941475,0.0239687896779488,0.6497562481702814,0.239904527531701,-0.0034437227581386,-0.8084942695066202,-0.1478341238247749,1.5123919827106218,0.6854639702073024,0.2384880435244346,-0.016845314929685,0.8313681503990407,-0.7481785766275562,-0.3622261285023243,0.0139302119044749,10.792407107826875,-1.5548165132464946,0.1409855969727181,-1.3519238288399675
2.22,-0.8163825135993559,-0.1507762964280909,1.5124827075399985,0.0421944601812803,0.0988253805729704,0.0237951703599021,0.6383322657356968,0.2394598149123053,0.0008714726836541,-0.8084942695066202,-0.1478341238247749,1.5123919827106218,0.6854639702073024,0.2384880435244346,-0.016845314929685,0.6109952039100182,-0.5711991217292323,-0.0222356309697857,0.215759772089641,10.792407107826875,-1.5433239844668634,0.1420167322662424,-1.355796462788213
2.24,-0.8037269847422794,-0.1460073425759164,1.5125407560396282,0.0434702095759908,0.1026486322968707,0.0238019443452316,0.6278476752177449,0.2372299154622408,0.0046426227106367,-0.8084942695066202,-0.1478341238247749,1.5123919827106218,0.6854639702073024,0.2384880435244346,-0.016845314929685,0.5681563658284037,-0.524229525897596,-0.111494972503226,0.1885575013491257,10.972520983925278,-1.5368896628047777,0.1399510226463877,-1.36131679822633
2.26,-0.7912743614590453,-0.1413016864200112,1.5126611138100687,0.0465171380640101,0.1060748031192943,0.0239252723230021,0.6180017255922338,0.2330541773192619,0.0071917108744617,-0.8016396298045472,-0.1454492433895305,1.5122235295613249,0.6896128003081964,0.236755842208972,-0.0194699125163764,0.5497212101005924,-0.4922974812755554,-0.2087869071489445,0.1274544081912501,10.972520983925278,-1.5314446092291296,0.1359557199923406,-1.3648849757180466
2.28,-0.7796214330346394,-0.1369394708737581,1.5128121429250434,0.0498234141255498,0.1089821622909628,0.024065184480605,0.6091565773356481,0.2263197884350097,0.0085810135496768,-0.787930350400401,-0.1406794825190419,1.5118866232627313,0.6979104605099844,0.2332914395780468,-0.0247191076897591,0.5601758724915767,-0.4422574128292833,-0.3367194442126089,0.0694651337607566,10.9078366264348,-1.525712783289512,0.1311627284131213,-1.3664643800173524
2.3000000000000003,-0.7675322396993829,-0.1325028945985142,1.5129912944011368,0.0528541691799503,0.1117207390634585,0.0241737422179945,0.6002719645521813,0.217766808092424,0.0092338841279196,-0.774221070996255,-0.1359097216485532,1.5115497169641376,0.7062081207117723,0.2298270369471216,-0.0299683028631419,0.6174869574426942,-0.4442306391733375,-0.4276490171292876,0.032643528912142,10.851754246044038,-1.5201390413558395,0.1269308515412927,-1.36682979091458
2.32,-0.7556167584338033,-0.1282467689928779,1.51317638199681,0.0551386213200712,0.1141818749924809,0.0242219980271845,0.5917601383332199,0.2084089330056217,0.0092285555657164,-0.7600969085820196,-0.1313131809096107,1.510950350906875,0.7145057809135602,0.2263626343161965,-0.0352174980365246,0.6324971148463212,-0.4255913109480702,-0.4678937543401124,-0.0002664281101601,10.76987617102168,-1.5148733481662966,0.1236471470880078,-1.3661357827808394
2.34,-0.7438678256076506,-0.124184342933519,1.513356918609572,0.0565551867823277,0.1164184682073531,0.0242017640610499,0.5835994987529425,0.1984702705849625,0.0088428182175334,-0.7459727461677841,-0.1267166401706683,1.510350984849612,0.7228034411153482,0.2228982316852713,-0.0404666932099074,0.643276461509354,-0.4080319790138731,-0.4969331210329608,-0.0192868674091527,10.76987617102168,-1.5102243756218126,0.1215615107944464,-1.364501237148389
2.36,-0.7328532098710685,-0.1205147401434374,1.5135188224234697,0.0569386749136139,0.1183427843201909,0.0241069806288023,0.5762659826578383,0.1884487272012027,0.0082341250054935,-0.731641142248504,-0.122206709497499,1.5096203889130144,0.7311011013171361,0.2194338290543461,-0.0457158883832902,0.6216556473163317,-0.3666758047552065,-0.5010771691879912,-0.0304346606019916,10.749904308513578,-1.5055989890260777,0.1206284994637371,-1.3620035778002455
2.38,-0.7214057352884451,-0.1168595341859164,1.513674718058958,0.0561214614576585,0.1201421472891937,0.023911584521794,0.5688941570847643,0.1777147432098784,0.0073915782863169,-0.7171020968241791,-0.1177833888901028,1.5087585630970826,0.7393987615189241,0.2159694264234209,-0.0509650835566729,0.6524417782067427,-0.3685912786537015,-0.5366991995662165,-0.0421273359588302,10.734117490252174,-1.5013161490429232,0.1212608109227962,-1.3589105166456363
2.4,-0.7101025567694723,-0.1134184173575072,1.5138117166292784,0.0538871746078952,0.1217144461212833,0.0236072918184003,0.5618179284837576,0.1671370938473323,0.0063729955116929,-0.6929610274342068,-0.1079737970254225,1.514044296973274,0.5978483538060797,0.1789998150438689,0.0092921342015162,0.6383517606293535,-0.3538114300503381,-0.5288824681273036,-0.0509291387312001,10.703639253225449,-1.497492299021073,0.1234866495600357,-1.355386908295396
2.42,-0.6994678052692777,-0.11036023505801,1.514021590591495,0.0499093755667616,0.1226508705435118,0.0231634052289202,0.5578748051332845,0.1562276881317066,0.0158097615674856,-0.6929610274342068,-0.1079737970254225,1.514044296973274,0.5978483538060797,0.1789998150438689,0.0092921342015162,0.7476896221309568,-0.1971561675236544,-0.5454702857812868,0.4718383027896306,10.703639253225449,-1.4895359523223188,0.1278217886409307,-1.3510076843721632
2.44,-0.6883597891831323,-0.1073187948294715,1.5144372436558582,0.0447905632752077,0.1229263011802062,0.0226050757236426,0.5530671419803085,0.1487142153545766,0.0251660148133056,-0.6929610274342068,-0.1079737970254225,1.514044296973274,0.5978483538060797,0.1789998150438689,0.0092921342015162,0.6463462171411581,-0.2403831576487991,-0.3756736388564968,0.467812662291003,11.391583825339694,-1.487877081372786,0.133651105647931,-1.353965304387648
2.46,-0.6773561563456209,-0.104401314825932,1.5150241213227962,0.0398190946227495,0.1228690459445838,0.022055742492739,0.5475053017261301,0.1434773309025047,0.032986982391111,-0.6869825438961461,-0.1061837988749838,1.514137218315289,0.6036391931503428,0.179256829410667,0.009672245384556,0.5466410148132754,-0.2780920127089192,-0.2618442226035952,0.3910483788902708,11.301743074716796,-1.4868954244415946,0.1393712468244897,-1.3559411450371814
2.48,-0.6664711153311232,-0.1015713185150719,1.5157515515464786,0.0354114538552783,0.1227892824726198,0.0215597609668537,0.5413004983904893,0.1397328088732265,0.0393664634170511,-0.6750255768200245,-0.1026038025741064,1.5143230609993197,0.615220871838869,0.1797708581442632,0.0104324677506357,0.482749437653887,-0.3102401667820387,-0.1872261014639109,0.3189740512970017,11.205759194074744,-1.4860241032597663,0.1442053429839804,-1.357208171576869
2.5,-0.6562496211627656,-0.0989420273427161,1.5165499544195784,0.0318441036592761,0.1228915314982767,0.0211513593064117,0.5350022923395727,0.1371412126344466,0.044353910578278,-0.6630686097439029,-0.0990238062732291,1.5145089036833497,0.6268025505273951,0.1802848868778594,0.0111926901167154,0.4220734524661861,-0.3149103025458288,-0.1295798119389929,0.2493723580613449,11.1243172595523,-1.4847414730133044,0.1485220602468442,-1.3582576213096114
2.52,-0.645621318391622,-0.0962207328823768,1.5174841850303518,0.0287178840117508,0.1233097721758346,0.0207877333015426,0.5282040368563481,0.135083470300338,0.0487657436921006,-0.650532558733355,-0.0954181085356719,1.514732757485684,0.6383842292159212,0.1807989156114556,0.0119529124827951,0.4180755091876321,-0.3399127741612329,-0.1028871167054329,0.2205916556911324,11.05779783338494,-1.4829288281393496,0.15205834321397,-1.3593222466059611
2.54,-0.6351289184393274,-0.0935341129022528,1.518502024717311,0.0262004212050156,0.1241114206803959,0.0204889658764579,0.5214632584042386,0.1335866925982231,0.0527937892792465,-0.6379965077228071,-0.0918124107981147,1.5149566112880184,0.6499659079044474,0.1813129443450518,0.0127131348488748,0.3996986017053892,-0.3370389226054759,-0.0748388851057421,0.2014022793572923,11.007210676644718,-1.480542879765289,0.1547252938821737,-1.3606144635573791
2.56,-0.6252821243414448,-0.0910056888351473,1.5195409758303169,0.0243017445431332,0.1251707905446923,0.0202568473183484,0.5154439873857308,0.1325539216699329,0.0563615214324818,-0.625170914745046,-0.0881938623422176,1.5151994706495049,0.6615475865929735,0.181826973078648,0.0134733572149544,0.3536486678251387,-0.3009635509253872,-0.0516385464145119,0.1783866076617679,10.989856969404173,-1.4775041685137054,0.1569095203138888,-1.3624474774170714
2.58,-0.615035737980402,-0.0883624553700867,1.5207055105385794,0.0227600025582103,0.1264747677700134,0.0200583568320681,0.5095711135218651,0.1318006090199391,0.0598891343539972,-0.6120557798000719,-0.0845624631679806,1.515461335570143,0.6731292652814997,0.1823410018122442,0.0142335795810341,0.344609127467482,-0.2936436931932851,-0.0376656324996921,0.1763806460757678,10.975279087411764,-1.4742888191797374,0.1585376453351608,-1.3646872501926353
2.6,-0.6049018913266339,-0.0857297038686368,1.5219377016694486,0.0217286752714469,0.1278610643311755,0.0199066721154672,0.5041581000039042,0.1314974246210452,0.063137047148456,-0.5895571823043088,-0.0817724249190897,1.5236999672562792,0.5262425289402516,0.1302551136662999,0.0443921828261036,0.3159967311768043,-0.2706506758980487,-0.0151592199446909,0.1623956397229415,10.949173770050947,-1.4710731118923632,0.15955939739924,-1.3671690767663387
2.62,-0.59483072718025,-0.0830670651425268,1.5232302700322358,0.0223284145190506,0.1279353622290494,0.0198487879276653,0.5030095739034124,0.1343023813893797,0.0659506281433809,-0.5895571823043088,-0.0817724249190897,1.5236999672562792,0.5262425289402516,0.1302551136662999,0.0443921828261036,0.2067796695201118,-0.0574263050245882,0.1402478384167224,0.1406790497462451,10.92732755851921,-1.4667149730843247,0.1584718681077396,-1.3699996215061896
2.64,-0.5852933766665428,-0.0804973941449267,1.5244992344701038,0.0248584920256545,0.1258724591195257,0.0198849371218889,0.5008283161111542,0.1358022472836462,0.0674921108944629,-0.5895571823043088,-0.0817724249190897,1.5236999672562792,0.5262425289402516,0.1302551136662999,0.0443921828261036,0.153163738601491,-0.1090628896129097,0.0749932947133269,0.0770741375540992,10.92732755851921,-1.4707790263756824,0.1551280475719088,-1.369521779421969
