t,x,y,z,roll,pitch,yaw,v_x,v_y,v_z,ref_x,ref_y,ref_z,ref_v_x,ref_v_y,ref_v_z,a_com,a_x,a_y,a_z,thrust,wind_x,wind_y,wind_z
0.0,-2.1801318050378797,1.2379579044101927,1.99203627338062,0.0153821621590085,0.1363763086225318,0.0261336788185598,0.0053840515018423,0.0066677562754603,0.0073536234361566,-2.179964452706221,1.2380961974547176,1.9922621794565505,0.1007866960405138,-0.0948106167647162,-0.0925150412486301,0.5646298831186337,0.2692025750921181,0.3333878137730184,0.3676811718078335,10.546090587463368,-1.2884877512692328,0.1612743047581588,-1.1725113509341802
0.02,-2.1801432084029244,1.2382974087910352,1.991964850952589,0.0244838579974408,0.1387133718737522,0.0268149134597732,-0.0056939258871609,0.0242019575767361,-0.0148276237405394,-2.179964452706221,1.2380961974547176,1.9922621794565505,0.1007866960405138,-0.0948106167647162,-0.0925150412486301,1.518368799582811,-0.5538988694501659,0.8767100650637902,-1.109062358834804,10.546090587463368,-1.31108696490654,0.1534885018159469,-1.1872684645936138
0.04,-2.180348496614951,1.2387998119057142,1.9913492067260636,0.0394639043491354,0.1446913722585543,0.0280339857011181,-0.0137751275933822,0.0244924716275574,-0.0458141503881349,-2.179964452706221,1.2380961974547176,1.9922621794565505,0.1007866960405138,-0.0948106167647162,-0.0925150412486301,1.6012144243608553,-0.4040600853110664,0.0145257025410652,-1.5493263323797757,9.210374232520737,-1.3009878141975657,0.1370691180654203,-1.1730741551255808
0.06,-2.180671674983513,1.239236133237447,1.9901161749478649,0.0547595656685524,0.1524082790238543,0.0294284075983041,-0.0177723170900317,0.0187860624683229,-0.0759033569135789,-2.178956585745816,1.2371480912870705,1.991337029044064,0.119838754498842,-0.1148106170627394,-0.1125150415466534,1.544264370740599,-0.1998594748324755,-0.2853204579617289,-1.5044603262722,8.815646838900193,-1.2870291595158068,0.1214563208096819,-1.1600638105457153
0.08,-2.181019980989866,1.2395119452636842,1.9884071130343768,0.0687656978543705,0.1603527030373022,0.0308438549927706,-0.0184417691475735,0.0102645093084274,-0.1025092090626358,-2.1769408518250057,1.235251878951776,1.989486728219092,0.1579428714154985,-0.1548106176587859,-0.1525150421426998,1.3972619680036271,-0.0334726028770894,-0.4260776579947727,-1.3302926074528458,8.893626257743563,-1.273692232612261,0.1061899936547661,-1.150272555359712
0.1,-2.181372186910168,1.2395988191051404,1.9860775806489932,0.0828371363707185,0.1687923469543097,0.0323903075401014,-0.0164809598319304,-0.0014302378109302,-0.1289908659479364,-2.1749251179041957,1.2333556666164818,1.987636427394119,0.196046988332155,-0.1948106182548324,-0.1925150427387463,1.450767068440716,0.0980404657821556,-0.5847373559678851,-1.3240828442650308,9.002554778905505,-1.2620159856258304,0.0921543552862046,-1.1414897321995574
0.12,-2.181659503267837,1.2394239261542803,1.9832349723208145,0.0962234628080094,0.1770050687039777,0.0339620023147025,-0.0121210790094631,-0.0157597006539861,-0.1538990987081217,-2.171004178137552,1.229459454251385,1.983786126539344,0.2341511052488115,-0.2348106188508788,-0.2325150433347927,1.453239592593221,0.2179940411233641,-0.7164731421527945,-1.245411638009264,9.089186415670156,-1.2518668878537107,0.0792041897662434,-1.1338417183419238
0.14,-2.181838786228312,1.238936584821495,1.9799007572043927,0.1089493974753634,0.184839864748104,0.0355309288552761,-0.0058397904919684,-0.0325220209812463,-0.1783171433268454,-2.167083238370909,1.2255632418862883,1.979935825684569,0.272255222165468,-0.2748106194469253,-0.2725150439308392,1.513828648820331,0.314064425874738,-0.8381160163630125,-1.2209022309361854,9.179128119691995,-1.2443445313691706,0.067156671495489,-1.1293894028450857
0.16,-2.181874094297136,1.2380894973295626,1.976082401023556,0.1210424330667389,0.192236051592169,0.0370745947655502,0.0021640620808107,-0.051599908561837,-0.2023310647676582,-2.1622096956813497,1.2206670295062907,1.9750855248148929,0.3103593390821245,-0.3148106200429717,-0.3125150445268856,1.5848468960044455,0.4001926286389607,-0.953894379029534,-1.2006960720406412,9.244777554535176,-1.2382199475019544,0.056513221918965,-1.1249640812562398
0.18,-2.18174422164072,1.236910308412436,1.9720142315976787,0.1319692740243219,0.198839678901493,0.0385009951357154,0.0112405195864348,-0.071779172065428,-0.2247271060012871,-2.156383550068873,1.2147708171113916,1.969235223930316,0.348463455998781,-0.3548106206390181,-0.3525150451229321,1.5741405745176948,0.4538228752812054,-1.0089631751795467,-1.1198020616814408,9.282885261288357,-1.2329123373221955,0.0460809199945391,-1.12034696141421
0.2,-2.181406705528715,1.2352288251199397,1.9672736302370104,0.1427479585401707,0.2053534194985171,0.0399351896513839,0.0221803330125797,-0.0954548758592068,-0.2481585505718229,-2.1811821956613984,1.2333213498091646,1.9607778762976145,0.111240521076551,-0.1717791735555441,-0.3247271074914032,1.753033843506526,0.5469906713072421,-1.1837851896889413,-1.1715722285267918,9.282885261288357,-1.2286952528036814,0.0365813420740131,-1.1153171518988625
0.22,-2.1808067715089354,1.2328908516026564,1.9621593165380211,0.1479205391135143,0.2114331538451822,0.0409325643624811,0.037511576181629,-0.1351165788849774,-0.2612296103860919,-2.1811821956613984,1.2333213498091646,1.9607778762976145,0.111240521076551,-0.1717791735555441,-0.3247271074914032,2.224269716491875,0.766562158452464,-1.98308515128853,-0.6535529907134504,9.308764579726812,-1.2151826363136986,0.0327022583268646,-1.1026419775083085
0.24,-2.179886114325142,1.2298351990753889,1.9568079724930347,0.1467552771604451,0.2170945548520009,0.0413997718135246,0.0538742986758764,-0.1679383412977982,-0.273311439753808,-2.1811821956613984,1.2333213498091646,1.9607778762976145,0.111240521076551,-0.1717791735555441,-0.3247271074914032,1.930658809951941,0.8181361247123725,-1.641088120641042,-0.6040914683858062,10.07612710414378,-1.2110041419617203,0.0343601881169479,-1.1023819261533274
0.26,-2.178703520917288,1.2263652005290226,1.9514871466356307,0.1426455225396601,0.2221297841127436,0.0415434076472003,0.0698844751690594,-0.1949050237966151,-0.2860603827642834,-2.180069790450633,1.231603558073609,1.9575306052227004,0.1312405213745742,-0.1917791738535673,-0.3447271077894264,1.6926778076609936,0.8005088246591476,-1.348334124940842,-0.6374471505237678,9.993662654255786,-1.2083743884812772,0.0392163444158699,-1.1030056921597158
0.28,-2.1771253595651787,1.2222100510975178,1.9456130302442,0.1375031876533489,0.2270952808235276,0.0415446081956391,0.0871760732695653,-0.2190174131795541,-0.3007488518804865,-2.1778449800291018,1.2281679746024985,1.9510360630728725,0.1712405219706206,-0.2317791744496138,-0.3847271083854728,1.6554137032789873,0.8645799050252971,-1.2056194691469484,-0.7344234558101542,9.887041725957715,-1.206276708875551,0.0448249755870006,-1.103902818680407
0.3,-2.1751966565183127,1.2175986048359158,1.939429523717333,0.1326042735606115,0.2317437336706097,0.041476426222893,0.1049309012856255,-0.2409186080705544,-0.3168689502549326,-2.175620169607571,1.2247323911313874,1.9445415209230443,0.2112405225666671,-0.2717791750456602,-0.4247271089815193,1.623848689945646,0.8877414008030083,-1.095059744550017,-0.8060049187223084,9.784427328929269,-1.2045074308053851,0.0498222079878053,-1.1048201935937907
0.32,-2.1729077246692032,1.2125653350157433,1.9329112043974237,0.128290439966843,0.2360980375258611,0.0413722348555715,0.1231668663217019,-0.2613836865213901,-0.3341717877142805,-2.1713953591562376,1.2192968076304742,1.936046978743414,0.2512405231627135,-0.3117791756417066,-0.4647271095775657,1.6207699103670383,0.9117982518038206,-1.0232539225417836,-0.8651418729673926,9.70260218074418,-1.2034238444135292,0.0545213338052703,-1.105234931685271
0.34,-2.170389711900789,1.2074142006197053,1.92639320967406,0.1248249360217843,0.2399777629210604,0.0412537391454869,0.1410492373380059,-0.2799157374651992,-0.3510833944167597,-2.167170548704904,1.213861224129561,1.9275524365637835,0.2912405237587601,-0.3517791762377532,-0.5047271101736123,1.540469527942718,0.8941185508152018,-0.9266025471904554,-0.8455803351239577,9.6349105309082,-1.2029007065758517,0.0585504734325681,-1.1047848247144552
0.36,-2.167366081668645,1.2016107339450572,1.919180220214745,0.1215869671524976,0.2438067724681059,0.0410969940218307,0.1604442074611206,-0.2993878553123342,-0.369340886860562,-2.161945738238669,1.207425640613747,1.918057894369252,0.3312405243548065,-0.3917791768337996,-0.5447271107696586,1.6497456393825716,0.9697485061557334,-0.9736058923567492,-0.9128746221901184,9.608025842141616,-1.202920059984409,0.0621192705190233,-1.10395499357006
0.38,-2.1639483296670883,1.195420354621798,1.9115995663999756,0.1184492271119425,0.2473899247744473,0.0408900397373046,0.1804316737917666,-0.3185569774089787,-0.387807353844994,-2.155720927757534,1.199990057083031,1.9075633521598192,0.3712405249508529,-0.431779177429846,-0.5847271113657051,1.6643050014659924,0.9993733165322995,-0.9584561048322254,-0.923323349221597,9.576157912228156,-1.2022508595347172,0.0654963191438825,-1.1021326442217314
0.4,-2.160124990601795,1.188852426366047,1.90364759134112,0.1152816655955537,0.2507410456838944,0.0406280640674265,0.2009666899247779,-0.3371473414681574,-0.406464994187731,-2.1549267459775,1.179492505751349,1.8922091987077256,0.2804316752818827,-0.4185569788990948,-0.4716751794127163,1.6698772908471202,1.0267508066505642,-0.9295182029589372,-0.9328820171368518,9.576157912228156,-1.201700490842453,0.0686437069782443,-1.1004272590104769
0.42,-2.1560465077529183,1.1822522643229385,1.895953379920235,0.1122105085427731,0.2535486517426469,0.0403096002472995,0.227674484821897,-0.3566791349227109,-0.4013151793707095,-2.1549267459775,1.179492505751349,1.8922091987077256,0.2804316752818827,-0.4185569788990948,-0.4716751794127163,1.6743042259902583,1.3353897448559569,-0.9765896727276736,0.2574907408510768,9.563822730623542,-1.195619936094357,0.0720775981690017,-1.0885040755955622
0.44,-2.151196597507089,1.1749227608032504,1.88797774493742,0.1093359596265354,0.2559512190305805,0.0399172205892429,0.255826884559126,-0.375298669171077,-0.3968753443858642,-2.1549267459775,1.179492505751349,1.8922091987077256,0.2804316752818827,-0.4185569788990948,-0.4716751794127163,1.7021727301330676,1.407619986861447,-0.9309767124183076,0.2219917492422646,11.130411670290414,-1.199027246548827,0.0745973228153825,-1.0951694134445862
0.46,-2.145785719922847,1.1672273575471683,1.880045963099354,0.1069751764470424,0.2576610409967947,0.0394677030285009,0.283783448276694,-0.3933113558695256,-0.3966840390137795,-2.152122429224681,1.175306935962358,1.8874924469135983,0.3004316755799059,-0.438556979197118,-0.4884487445262607,1.6628762241492088,1.3978281858783996,-0.9006343349224261,0.0095652686042335,10.867759978843424,-1.2010271380105513,0.0764996183807297,-1.0994466317618523
0.48,-2.1398203596600136,1.159179162044209,1.8720788764672387,0.1049532465733718,0.2584020761650895,0.0389233638654579,0.3112320966810261,-0.410643141205567,-0.3999954150097412,-2.146513795719044,1.1669357963843765,1.878058943325344,0.3404316761759524,-0.4785569797931644,-0.5219958747533497,1.631551633527038,1.3724324202166072,-0.866589266802073,-0.1655687997980826,10.625394706323275,-1.204110220290144,0.0780021766256182,-1.1020311539745464
0.5,-2.133651527758168,1.1512180684624715,1.8644241048332415,0.103297383298747,0.2581653523362409,0.0383148415267288,0.3366463799313979,-0.4265265724764867,-0.4055775193543208,-2.140905162213406,1.1585646568063943,1.8686254397370896,0.3804316767719988,-0.5185569803892109,-0.5555430049804386,1.524244953232527,1.2707141625185907,-0.7941715635459812,-0.2791052172289809,10.437418599191004,-1.2083439355211143,0.0793308425196716,-1.1023436597341914
0.52,-2.126646161043628,1.1425198558340663,1.8562314920138028,0.1019262340740509,0.2569569088305706,0.0375919025082025,0.3624518368518042,-0.4424591255815852,-0.4134657870774621,-2.133296528677966,1.1481935171986102,1.857514579637481,0.4204316773680452,-0.5585569809852574,-0.5890901352075275,1.566838076341715,1.2902728460203128,-0.7966276552549278,-0.3944133861570664,10.287480330051949,-1.2134256112541597,0.0802352059100191,-1.1011284985402157
0.54,-2.119131802007091,1.1335083549280498,1.847871146835131,0.1011036708410099,0.2547828323341656,0.0368005611894034,0.3875991956111037,-0.4579154472611246,-0.4221783478326236,-2.125687895142526,1.1378223775908258,1.8464037195378724,0.4604316779640918,-0.5985569815813039,-0.6226372654346165,1.538827676628132,1.2573679379649731,-0.7728160839769682,-0.4356280377580734,10.15806302166402,-1.2192385614441892,0.0805846859391838,-1.0976254037245712
0.56,-2.1111157801889155,1.1241797432315004,1.8393278138578852,0.1005645087022232,0.2514057747611106,0.0358985509974787,0.4126065547454514,-0.4740825738912503,-0.4316669115883627,-2.1170792615921847,1.1264512379681404,1.8344541811825863,0.5004316785601381,-0.6385569821773502,-0.6561843956617054,1.5626714597888862,1.250367956717388,-0.8083563315062853,-0.4744281877869544,10.10921181712365,-1.2254497156206376,0.0805667463750618,-1.0928299577800809
0.58,-2.1030426636487496,1.1150129808801996,1.8310291577578244,0.0998758145353252,0.2467451863515543,0.0348760086275807,0.4356992678159366,-0.4899130227611625,-0.4413285767941973,-2.107470628026942,1.114080098330554,1.821665964571623,0.5404316791561846,-0.6785569827733967,-0.6897315258887943,1.4808986148014145,1.1546356535242608,-0.7915224434956097,-0.4830832602917334,10.065877873778843,-1.2343381135574811,0.0807476290087401,-1.0854415804007171
0.6,-2.0940943786619965,1.1050375710931786,1.8220892943399087,0.0987013639892831,0.2405128373741444,0.0336334806430827,0.4575830891044313,-0.5067042656335535,-0.4521181248807332,-2.081257700257953,1.0905173297421416,1.8089627289181145,0.5190290050023685,-0.5899130242512787,-0.5035597486703894,1.4809302982399812,1.094191064424732,-0.8395621436195516,-0.5394774043267936,10.017375565749717,-1.2450238019524689,0.0813845110698192,-1.0758102456333114
0.62,-2.0846239505198403,1.094662683921016,1.8132170100398328,0.0956752430338346,0.2323810275397398,0.0320842105963989,0.488258358368607,-0.52932046181529,-0.4328815054907777,-2.081257700257953,1.0905173297421416,1.8089627289181145,0.5190290050023685,-0.5899130242512787,-0.5035597486703894,2.1345444477185795,1.5337634632087842,-1.1308098090868246,0.961830969497776,9.951304393604914,-1.247193672995954,0.0834019172504135,-1.0541576242689976
0.64,-2.0745796907546272,1.0838791987497247,1.8047526178373592,0.0911451116262014,0.2221159148485341,0.0302681618377124,0.5139930581774113,-0.5476109204548855,-0.4148641056303715,-2.081257700257953,1.0905173297421416,1.8089627289181145,0.5190290050023685,-0.5899130242512787,-0.5035597486703894,1.8175824253839117,1.2867349904402137,-0.914522931979772,0.9008699930203062,12.003841849582386,-1.2615833130488048,0.0863561572486031,-1.0514756491307362
0.66,-2.0646185347579165,1.073323338882002,1.7969834767207855,0.0867950573566197,0.2115676337356604,0.0285250107393691,0.5329211254086054,-0.5625577135980735,-0.4037445129600309,-2.076067410207929,1.084618199499629,1.8039271314314107,0.5356949524396548,-0.6099130245493019,-0.5160059830456278,1.3278965467310992,0.9464033615597056,-0.7473396571594015,0.5559796335170342,11.587519891908414,-1.275951662658979,0.0895435472374395,-1.044872057849687
0.68,-2.05379891969244,1.061924812369977,1.7889845887063431,0.0826397848238948,0.2005684746184391,0.0267916378214044,0.5476721014510624,-0.5764946056227943,-0.3969235077057386,-2.065686830107882,1.0728199390146032,1.793855936458003,0.5690268473142276,-0.6499130251453483,-0.5408984517961047,1.0704606090288304,0.7375488021228505,-0.6968446012360408,0.3410502627146122,11.157852054760951,-1.2900034279720225,0.0924271782785972,-1.0365101343853844
0.7000000000000001,-2.042735881559849,1.0502616520929968,1.7810673287047958,0.0791064195655146,0.1904982105980785,0.0252350040114302,0.5577571163530328,-0.5892000080916142,-0.3950923896545915,-2.0553062500078343,1.0610216785295776,1.783784741484595,0.6023587421888004,-0.6899130257413948,-0.5657909205465815,0.81622265771188,0.5042507450985223,-0.6352701234409952,0.0915559025573581,10.506333810799331,-1.3021275894522035,0.0947971641324471,-1.0268816661785862
0.72,-2.0315110824308045,1.0383543233563728,1.7731453306177956,0.076201044048634,0.1819284569590027,0.0238858057613579,0.5641877478918912,-0.6009921971461042,-0.3971785705663188,-2.0432590751640585,1.0472234180147495,1.7724689230736634,0.6356906370633731,-0.7299130263374413,-0.5906833892970583,0.6796339004968934,0.3215315769429183,-0.5896094527244988,-0.1043090455863648,10.506333810799331,-1.3115761398182275,0.0965611745535424,-1.0178400140032642
0.74,-2.02075530311332,1.0268301420002055,1.7655617817310372,0.0740172027288709,0.1755728237499468,0.022811308762625,0.5676543531669507,-0.6115985304088902,-0.4009726094150241,-2.031211900320282,1.0334251574999218,1.7611531046627318,0.6690225319379459,-0.7699130269334877,-0.6155758580475352,0.589292771463891,0.1733302637529743,-0.5303166631393019,-0.1897019424352691,10.262450243186322,-1.3189147856692836,0.0979338376170339,-1.008593173351919
0.76,-2.009382157252901,1.0144782408009725,1.7574867077460932,0.0720534086710118,0.1711485846056609,0.0218943042439284,0.56937613511646,-0.622981351888768,-0.4063849204976075,-2.018331428104642,1.0186268969701928,1.7492149745330383,0.7023544268125186,-0.8099130275295341,-0.640468326798012,0.6360547719714823,0.0860890974754668,-0.5691410739938896,-0.2706155541291666,10.146259151923005,-1.3233056003792163,0.0990152961802121,-1.0013654758288515
0.78,-1.9979922870711309,1.0018993429204013,1.7492884335847407,0.0701284154723154,0.169442387384903,0.0211932468759752,0.5697196214700541,-0.6342214065539985,-0.4131623224866611,-2.0046176585171374,1.0028286364255623,1.7366545326845828,0.7356863216870914,-0.8499130281255806,-0.6653607955484888,0.6564868419734378,0.0171743176797023,-0.5620027332615241,-0.3388700994526816,10.057395922476644,-1.3236346582851048,0.1000272479088155,-0.9970067847944064
0.8,-1.987158384465803,0.9897448934293532,1.741363508718499,0.0682396253563597,0.1700781658659734,0.0206929407986466,0.5709282053638517,-0.6445186375999754,-0.4207038641570865,-1.969506305997628,0.9701882725927014,1.7286303174604076,0.6478639482761225,-0.7342214080441146,-0.4611105823469383,0.6410313818553284,0.0604291946898816,-0.5148615522988453,-0.3770770835212711,9.976311737397737,-1.3210333695295169,0.1010367495254301,-0.9955742392803584
0.8200000000000001,-1.9756387894093483,0.9767052070264224,1.733140800248252,0.0654809442816198,0.1715513326103998,0.0201762974354121,0.5813151159326126,-0.6585186673042298,-0.3996984985215174,-1.969506305997628,0.9701882725927014,1.7286303174604076,0.6478639482761225,-0.7342214080441146,-0.4611105823469383,1.3648389358889483,0.5193455284380477,-0.7000014852127201,1.0502682817784548,9.90670959660838,-1.3082419708200197,0.1023876993603979,-0.9870109855026308
0.84,-1.963903745101293,0.9634168459036264,1.7253511674835946,0.0622748447061701,0.1727607626424013,0.0196198927881942,0.5915920510911917,-0.6695370699389954,-0.3807589336768607,-1.969506305997628,0.9701882725927014,1.7286303174604076,0.6478639482761225,-0.7342214080441146,-0.4611105823469383,1.2100906054717624,0.5138467579289541,-0.5509201317382806,0.9469782422328376,11.836777469998196,-1.3082749897952688,0.1044777941847469,-0.9971618623466774
0.86,-1.95197233048246,0.949927943882537,1.7178732978599385,0.0594627989122466,0.1737718149695407,0.0190888163866917,0.6010446524596755,-0.6788911673132405,-0.3679645145894266,-1.963027666514867,0.9628460585122602,1.7240192116369382,0.6634928136373361,-0.7542214083421378,-0.4707002343189937,0.9226970929064664,0.4726300684241902,-0.4677048687122542,0.6397209543717031,11.106246032670242,-1.3083793272036883,0.1062378818717738,-1.004985564199647
0.88,-1.9404691801675245,0.9369507033672396,1.710960823369004,0.0573448733227389,0.1745465007371775,0.0186219394308555,0.6093448047199288,-0.6868005217035175,-0.360305411754637,-1.9500703875493444,0.948161630351378,1.7147969999899997,0.6947505443597636,-0.7942214089381843,-0.4898795382631046,0.689406031755349,0.4150076130126634,-0.3954677195138478,0.38295514173948,11.106246032670242,-1.308531408261774,0.1076603707850328,-1.011011524274105
0.9,-1.92819702983908,0.923136264165798,1.703805398400269,0.0558071430448934,0.1752350288557624,0.0181822637810434,0.6174151589979652,-0.694297665490184,-0.3558034726055946,-1.937113108583822,0.9334772021904956,1.7055747883430608,0.7260082750821909,-0.8342214095342307,-0.5090588422072155,0.5949899983038652,0.4035177139018187,-0.3748571893333274,0.22509695745212,10.829925157039725,-1.3087661579855818,0.108506676446952,-1.0152580162508051
0.92,-1.91576926172892,0.9091794510239912,1.6967069111132134,0.0551659579097009,0.1758749838417894,0.017813099810643,0.6249520910207913,-0.7010745726538041,-0.3543960801300624,-1.9225929430821784,0.916792773999811,1.6953936114989163,0.7572660058046182,-0.8742214101302772,-0.5282381461513264,0.5116457969171943,0.3768466011413063,-0.3388453581810058,0.0703696237766116,10.616625326296344,-1.3089742047019062,0.1085792816812631,-1.0182919782766742
0.94,-1.9031933044996023,0.8950933416700675,1.6896204816996874,0.0556838200124828,0.1765196750312443,0.0175347843908763,0.6322952910568038,-0.7073609864028702,-0.354315119866856,-1.9080727775805344,0.9001083458091264,1.685212434654772,0.7885237365270457,-0.9142214107263236,-0.5474174500954373,0.483342888531421,0.367160001800626,-0.3143206874533011,0.0040480131603209,10.382588399226734,-1.3088152130469213,0.1076809434064498,-1.0200654879105764
0.96,-1.8911066756306567,0.8815856706159587,1.6828817363260995,0.0570878971789191,0.1770456324406838,0.0173368144889915,0.6396014689008624,-0.7142148178949469,-0.3550291285366141,-1.8927711688108295,0.8824239176035406,1.674551775212025,0.819781467249473,-0.95422141132237,-0.5665967540395481,0.5021579661602659,0.3653088922029313,-0.3426915746038372,-0.0357004334879063,10.382588399226734,-1.3085316171090822,0.1058463759863176,-1.0216208945998482
0.98,-1.8782325411417733,0.8672176574566934,1.675766263408578,0.0591509582454046,0.1773574739219703,0.017161852740774,0.6474065287141153,-0.722276542334955,-0.3565110599989641,-1.876688116773065,0.8637394893830537,1.6634116331706752,0.8510391979719003,-0.9942214119184166,-0.5857760579836591,0.5659206669096408,0.3902529906626428,-0.4030862220004039,-0.0740965731174991,10.34127983702183,-1.3086030889609386,0.1034737830579499,-1.0225957655543525
1.0,-1.865201764977326,0.8526726694491764,1.668612954205879,0.0613036433676066,0.1773413988534675,0.0169786761443731,0.6552433603139388,-0.7318416207014481,-0.3587706043498072,-1.8458622147060677,0.8311038303399457,1.65794071040863,0.7190749673275301,-0.8222765438250711,-0.3862480463827598,0.6285145072998994,0.3918415799911756,-0.4782539183246559,-0.1129772175421567,10.301876655014894,-1.3087686869933712,0.1011273474379275,-1.0229503437100151
1.02,-1.852582507649376,0.8385938248195196,1.6620224250526785,0.0610120563783248,0.1755066964929095,0.0165343595201396,0.6724958545616812,-0.7487492679708013,-0.3347929109497191,-1.8458622147060677,0.8311038303399457,1.65794071040863,0.7190749673275301,-0.8222765438250711,-0.3862480463827598,1.7017982215452852,0.8626247123871167,-0.8453823634676616,1.198884670004405,12.100380122296883,-1.2987546553422538,0.1000906834521484,-1.016580082530237
1.04,-1.83895637521539,0.8234614061118677,1.6555653434268889,0.0574836064616464,0.1701172619354848,0.0156526798566542,0.6886270974794552,-0.763052560781752,-0.3124046310452664,-1.8458622147060677,0.8311038303399457,1.65794071040863,0.7190749673275301,-0.8222765438250711,-0.3862480463827598,1.5540561929899346,0.8065621458887007,-0.7151646405475331,1.1194139952226343,12.100380122296883,-1.3065188448088334,0.1027293560973381,-1.01838637196585
1.06,-1.825061308192624,0.8080936500054083,1.6494994595953725,0.0527336881714065,0.1623183918569007,0.0145963996678153,0.6995734620825057,-0.7727753090559792,-0.2954993716014064,-1.838671465032792,0.822881064901695,1.6540782299448022,0.733408655050213,-0.8422765441230943,-0.3921954436595189,1.1181933295400297,0.547318230152527,-0.4861374137113627,0.8452629721930033,11.748741648711077,-1.3168682122426252,0.106560661307281,-1.015774372631394
1.08,-1.8110039851836777,0.7925649573843577,1.6437106063273093,0.0483119727278059,0.1536278038615119,0.0135777948691486,0.7053241004252322,-0.7797097742272816,-0.2841737100783291,-1.8242899656862412,0.8064355340251936,1.6463532690171472,0.7620760304955789,-0.8822765447191407,-0.4040902382130373,0.7235800879932949,0.2875319171363244,-0.3467232585651181,0.5662830761538618,11.356941582996114,-1.3271919629107842,0.1099950348288644,-1.0094289517438932
1.1,-1.7975867521612587,0.7777004813859975,1.63837759007098,0.044909216423519,0.1456630371016344,0.0127330601241513,0.7066123650441882,-0.7848225457101194,-0.2777430562566894,-1.809908466339691,0.7899900031486922,1.638628308089492,0.7907434059409448,-0.9222765453151872,-0.4159850327665556,0.4157925159798571,0.0644132309478018,-0.255638574141892,0.3215326910819882,10.72417351585318,-1.336972283610158,0.1128698426532355,-1.0012101195405114
1.12,-1.7834730457889396,0.7619577838929539,1.632860811196126,0.0423061843440589,0.1384425958845673,0.0120082770694456,0.7045417098361398,-0.7893487740658051,-0.2744274533082404,-1.794093598220872,0.7715444722423884,1.6303086074341608,0.8194107813863107,-0.9622765459112336,-0.4278798273200738,0.2990300111618976,-0.1035327604024194,-0.2263114177842806,0.1657801474224479,10.72417351585318,-1.344839291003519,0.1148422331258345,-0.99290846848181
1.14,-1.7694325749905313,0.7461302940271594,1.6273881858771455,0.0407302141589641,0.133169424502333,0.0114688927161044,0.6994511474736411,-0.7933008039791495,-0.2730648416237502,-1.778278730102053,0.7530989413360846,1.6219889067788298,0.8480781568316766,-1.0022765465072805,-0.4397746218735922,0.3293519250177797,-0.2545281181249359,-0.1976014956672211,0.06813058422451,10.50656799617991,-1.3503097422816537,0.1159185610414832,-0.9854877084758328
1.16,-1.7555197739126696,0.730220379451244,1.6219280539688998,0.0400149074517416,0.1307060144842041,0.0111240802139625,0.6921619859975311,-0.7975400755396382,-0.273009069235083,-1.7617471775971,0.7336534104148797,1.6133718362596607,0.8767455322770425,-1.0422765471033266,-0.4516694164271104,0.4216230809257035,-0.3644580738055014,-0.2119635780244377,0.0027886194333609,10.403527087584736,-1.3518883045417236,0.1161980717000469,-0.981603999723119
1.18,-1.7424365828313886,0.7150260310296599,1.6167341388726029,0.0399085470000631,0.1310954224960882,0.0109590531766724,0.6857197584464384,-0.8016676491170072,-0.2737324196398165,-1.7444989407060127,0.7132078794787737,1.6044573958766537,0.9054129077224085,-1.082276547699373,-0.4635642109806287,0.3842603130193124,-0.3221113775546347,-0.2063786788684463,-0.036167520236674,10.33475150880986,-1.3490502647388445,0.1158812829784651,-0.9819469974846324
1.2,-1.7287787438197086,0.6989464652576947,1.611246897992627,0.0403176126349466,0.1335496183384567,0.0109157516982285,0.6806576878270195,-0.806092598080983,-0.2749836899543196,-1.7081505949090667,0.6749426485738095,1.603047517890612,0.7655830012514425,-0.892345543768897,-0.2747595663433801,0.3419444753528394,-0.2531035309709439,-0.2212474481987913,-0.0625635157251586,10.281495535376052,-1.3445098722214592,0.1151492768576618,-0.9848882495286492
1.22,-1.7151498596627814,0.6826848075479398,1.6059764929763884,0.0385663865574295,0.1367729677755374,0.010764637400225,0.6828220676209477,-0.8191727679859679,-0.2506905317246788,-1.7081505949090667,0.6749426485738095,1.603047517890612,0.7655830012514425,-0.892345543768897,-0.2747595663433801,1.3837746577803094,0.1082189896964069,-0.6540084952492475,1.2146579114820422,10.252363760349908,-1.330900648052186,0.1156942984701692,-0.983403968489994
1.24,-1.701461903665417,0.6662162537845138,1.6012164874447987,0.0339479306482316,0.1398095563691266,0.0104131208771032,0.6858909682388713,-0.8264870431359205,-0.2268427712379984,-1.7081505949090667,0.6749426485738095,1.603047517890612,0.7655830012514425,-0.892345543768897,-0.2747595663433801,1.2566149491809104,0.1534450308961821,-0.3657137574976266,1.1923880243340166,12.00263191121121,-1.3262598776751742,0.119397525980804,-0.994823823390574
1.26,-1.688400980332628,0.6504804671213763,1.5970913482518656,0.0294316437546076,0.1425025816738505,0.0100689074682866,0.6888505575846834,-0.8296185626245414,-0.2085809504948922,-1.7004947648965525,0.6660191931361205,1.6002999222271783,0.7815556498124433,-0.910481122699275,-0.2749649956840928,0.938162672803608,0.1479794672906043,-0.1565759744310446,0.913091037155314,11.478697437635674,-1.3234042026940371,0.1235077765074988,-1.0053493671316345
1.28,-1.6745911537212297,0.6338752017893283,1.5930887803166576,0.0255234902519887,0.1451411406553131,0.0097671765629117,0.6920199528802695,-0.830896361054981,-0.1928064039421552,-1.6851831048715236,0.6481722822607425,1.5948047309003106,0.813500946934445,-0.9467522805600308,-0.2753758543655183,0.8070225435404241,0.1584697647793065,-0.0638899215219812,0.7887273276368469,11.478697437635674,-1.3211712619229647,0.1269666521076589,-1.0143880040864486
1.3,-1.660716653176059,0.6172560740501012,1.5893686990942928,0.0227766764095044,0.1475965299446181,0.0095515958335919,0.6953132952456256,-0.8311680558790379,-0.1801275095740749,-1.6698714448464946,0.6303253713853646,1.5893095395734431,0.8454462440564466,-0.9830234384207868,-0.2757867130469437,0.655122668684665,0.1646671182678027,-0.0135847412028433,0.6339447184040156,11.268675658952816,-1.319296555463081,0.1294450320254981,-1.022320938790991
1.32,-1.6467747860476896,0.6006399394140554,1.5858747764922194,0.021290311024738,0.1498683035323136,0.0094313787630629,0.6987614867267616,-0.8307123538001655,-0.169907474939867,-1.6529625199653657,0.6106649026169488,1.5837938053125042,0.8773915411784483,-1.0192945962815427,-0.2761975717283692,0.5397842087345573,0.1724095740568032,0.0227851039436177,0.5110017317103949,11.094270387729011,-1.3177468686951035,0.1307669666996851,-1.0290887619570346
1.34,-1.6334623391072514,0.5848689353169358,1.582738377111608,0.0212000339125337,0.1518547149173397,0.0094175371620429,0.7024142669931916,-0.8296378934623666,-0.1607636733035403,-1.6360535950842368,0.5910044338485331,1.5782780710515654,0.90933683830045,-1.0555657541422987,-0.2766084304097946,0.4952433166051161,0.1826390133215005,0.0537230168899449,0.4571900818163346,10.945139936775377,-1.315939044994115,0.1308821589993227,-1.0352666714788734
1.36,-1.619366646134609,0.5682840483382543,1.5796220358620086,0.0225104361980266,0.1536550460233256,0.0095076370578521,0.7069866596841005,-0.8290204462516235,-0.15136891499639,-1.6183460377750578,0.5704371861335985,1.572752065323591,0.9412821354224516,-1.0918369120030544,-0.2770192890912201,0.5233294842346012,0.2286196345454405,0.0308723605371541,0.4697379153575182,10.940812695524984,-1.314298684905994,0.1296489247554403,-1.041141412937278
1.38,-1.605172516364601,0.5517030606250387,1.576691011534812,0.0250342923720121,0.1549545206438401,0.0096832237343704,0.7121581447205824,-0.8293151621629639,-0.1422152251875173,-1.5998398480378286,0.5489631594721449,1.5672157881285809,0.9732274325444532,-1.1281080698638104,-0.2774301477726456,0.5258829529182611,0.2585742518240952,-0.0147357955670168,0.4576844904436314,10.934364990381257,-1.313511697441333,0.1274308906035361,-1.0462430316228402
1.4,-1.5915890378861697,0.5359247607721003,1.5740739539021644,0.0279119301465271,0.1556288853332018,0.0098784600576804,0.7173661014871674,-0.8316390365310546,-0.1337291059764461,-1.5695646091285718,0.5102373025168905,1.569580250275436,0.8005189833126348,-0.8777704712857647,-0.1617700637256872,0.5112177252057101,0.2603978383292515,-0.1161937184045391,0.4243059605535615,10.92990478309548,-1.313164536676879,0.1245774301853765,-1.0506177553340303
1.42,-1.5771656735327977,0.5190602535027847,1.571545091760148,0.0245491361344007,0.1554984670893519,0.009625671813763,0.7246809066548662,-0.8521803527967624,-0.1192013334601828,-1.5695646091285718,0.5102373025168905,1.569580250275436,0.8005189833126348,-0.8777704712857647,-0.1617700637256872,1.310065096525281,0.3657402583849389,-1.0270658132853885,0.7263886258131631,10.92990478309548,-1.31133458998098,0.1276163534486499,-1.049460229277665
1.44,-1.562610128742971,0.5019312441461738,1.5692999885345305,0.0141141075525945,0.1546303327235209,0.0088923315084302,0.7303660904486137,-0.8585169374116327,-0.1061734718864917,-1.5695646091285718,0.5102373025168905,1.569580250275436,0.8005189833126348,-0.8777704712857647,-0.1617700637256872,0.7781368718505717,0.2842591896873747,-0.316829230743515,0.6513930786845548,11.363372085631454,-1.311298323304689,0.1375392091079556,-1.0524044542099376
1.46,-1.5479605496681137,0.4847780560760845,1.5672702364429258,0.0028044800960203,0.1536975343626654,0.0081415351890177,0.7343073338781984,-0.8563744338900763,-0.0974526181785216,-1.5615594192954454,0.5014595978040328,1.5679625496381793,0.8181911510310453,-0.8874615331103248,-0.1656810314333212,0.4903493920332296,0.1970621714792342,0.1071251760778213,0.4360426853985084,11.161382283445164,-1.3135416527769064,0.148048389755865,-1.0554422776326882
1.48,-1.5339837701817636,0.4685713312472756,1.5654677416061922,-0.0066641651872907,0.1530947308974099,0.0075583258140735,0.7367767900355592,-0.8500152724124326,-0.0927253326940704,-1.5455490396291929,0.4839041883783175,1.5647271483636656,0.8535354864678663,-0.9068436567594452,-0.1735029668485891,0.4149830612909921,0.1234728078680413,0.3179580738821852,0.2363642742225565,10.899459410170492,-1.316192308621616,0.1580080469628769,-1.0579662597744095
1.5,-1.5192297678922388,0.4516669914438092,1.5636402817404396,-0.0146435462938945,0.1530078909458934,0.0071141988430148,0.7385242002213985,-0.8410317746912881,-0.0903896004853981,-1.52953865996294,0.4663487789526022,1.5614917470891518,0.8888798219046873,-0.9262257804085656,-0.181324902263857,0.4722613646435961,0.0873705092919674,0.4491748860572242,0.1167866104336175,10.68671182129583,-1.3184409155801329,0.1660818230038337,-1.060115964234316
1.52,-1.5044457614693003,0.4349580540690881,1.561837027735269,-0.0205016046308702,0.1536134220389974,0.0068352701903013,0.7398580107033524,-0.8306530948613593,-0.0901327040334072,-1.5117610635248462,0.4478242633444309,1.5578652490438747,0.9242241573415082,-0.9456079040576858,-0.189146837679125,0.5233594395847523,0.0666905240976956,0.5189339914964397,0.0128448225995433,10.43089583800247,-1.319928966771157,0.1719020822052595,-1.0625311216744
1.54,-1.4903767348765835,0.4192856852089092,1.5601171896676564,-0.0241818803434749,0.1548509240254255,0.0067076740096315,0.7411440425579149,-0.8200627032421032,-0.0909088884458474,-1.4939834670867524,0.4292997477362595,1.5542387509985975,0.9595684927783292,-0.9649900277068062,-0.1969687730943929,0.5348194434158943,0.064301592728122,0.5295195809628062,-0.0388092206220103,10.43089583800247,-1.3206285846171872,0.1761492625566828,-1.0655589538038164
1.56,-1.4755323931112874,0.4030007333046594,1.558286642190876,-0.0265626479529494,0.1566390315551372,0.0066829561732099,0.743310976325212,-0.8092323655876248,-0.0921213233828796,-1.4753222622627382,0.4102906790368603,1.550416704567939,0.9949128282151504,-0.9843721513559264,-0.2047907085096609,0.5555668594741797,0.1083466883648576,0.5415168827239192,-0.0606217468516086,10.384374604914228,-1.320540953996791,0.1789151081724458,-1.0691326997078658
1.58,-1.4606354670340085,0.386933633036273,1.5564294692091918,-0.027729920531018,0.1585815702867603,0.0067554274699112,0.7463331716976163,-0.7981374393626671,-0.0935452720266077,-1.4557774490528033,0.390797057246233,1.546399109751898,1.030257163651971,-1.0037542750050468,-0.2126126439249288,0.5793502449861615,0.1511097686202112,0.5547463112478834,-0.0711974321864074,10.367752197664233,-1.3202604954438149,0.1805527243656973,-1.0732365377536386
1.6,-1.4456698387879594,0.3710947552173137,1.5545425285537156,-0.0275138465793298,0.1603932801127102,0.0069445902643144,0.7500935738479894,-0.7865184967946377,-0.0950793150982888,-1.4233188084491275,0.3470267610681396,1.5517522056078614,0.8315260532221791,-0.813351149618588,-0.0934299191546635,0.6154139640873234,0.1880201075186549,0.5809471284014711,-0.0767021535840517,10.365025415424498,-1.3203138999968271,0.1809113923997851,-1.0773071897716668
1.62,-1.4312982889794246,0.3561505824485476,1.5528801443405726,-0.029667793274627,0.1601815026095975,0.0070299315658247,0.7622362666299749,-0.7853920280252356,-0.0798822803613105,-1.4233188084491275,0.3470267610681396,1.5517522056078614,0.8315260532221791,-0.813351149618588,-0.0934299191546635,0.9742481520165276,0.6071346390992771,0.0563234384701072,0.7598517368489155,10.365025415424498,-1.3161166795813772,0.1829916129750467,-1.0755276352762655
1.64,-1.415932745827938,0.3405281213206816,1.551438085998883,-0.0349060136093229,0.1563941935670129,0.0070533766850736,0.7733101827374615,-0.776472162611049,-0.0652738359663457,-1.4233188084491275,0.3470267610681396,1.5517522056078614,0.8315260532221791,-0.813351149618588,-0.0934299191546635,1.0193162715806483,0.5536958053743324,0.4459932707093272,0.7304222197482363,11.47324336481961,-1.3233908846266544,0.1893514741862733,-1.0797421403065777
1.66,-1.4003892855369189,0.3251342293736454,1.55025282131803,-0.0401016440059451,0.1501173215421191,0.0072228250494591,0.7800179206052863,-0.7634309464822542,-0.0541045302540737,-1.415003547916906,0.3388932495719537,1.5508179064163148,0.8485646295270917,-0.8163938916697722,-0.0934068485802747,0.921710984413744,0.3353868933912374,0.6520608064397415,0.5584652856136015,11.317857404918868,-1.334304520432246,0.1955058932227907,-1.0796188152208936
1.68,-1.3855451979344224,0.3107737157067194,1.5492997625365152,-0.0439324970372646,0.1433851398931338,0.0075467351734497,0.7819957112124953,-0.7491943740536818,-0.0467333186579434,-1.3983730268524623,0.322626226579582,1.5489493080332215,0.8826417821369168,-0.8224793757721406,-0.093360707431497,0.8076608362965181,0.098889530360452,0.7118286214286174,0.3685605798065147,10.902923842073506,-1.3469574043453207,0.2009104040666782,-1.0776029177370212
1.7,-1.3699189159717242,0.2959556124493749,1.5484239453971085,-0.0466179847657868,0.1367513237441272,0.0080088209729793,0.780347591574371,-0.7336374974694955,-0.0413229728477499,-1.3817425057880188,0.3063592035872102,1.5470807096501282,0.916718934746742,-0.8285648598745089,-0.0933145662827193,0.827654138488801,-0.0824059819062195,0.7778438292093182,0.2705172905096756,10.902923842073506,-1.3583110010884112,0.2048319213113334,-1.0745211963633423
1.72,-1.3543620485698595,0.2814534406406671,1.5476347149880496,-0.04790466590231,0.1316283329223882,0.0085311696953809,0.7752239367971624,-0.7175586641317102,-0.0379391969400035,-1.363408127093084,0.2897879063897201,1.5452144183244738,0.9507960873565672,-0.8346503439768772,-0.0932684251339417,0.8605676312384336,-0.2561827388604276,0.8039416668892629,0.1691887953873188,10.651685402318437,-1.3680405867959622,0.2073797928566658,-1.0730600089038516
1.74,-1.3389424134829686,0.2672804798507629,1.546903856968644,-0.047496480919958,0.1292678246793465,0.0090585201048269,0.76706999702715,-0.7008416048045206,-0.0353009131799808,-1.3450737483981492,0.2732166091922299,1.5433481269988194,0.9848732399663922,-0.8407358280792456,-0.093222283985164,0.9392914184641612,-0.4076969885006221,0.8358529663594794,0.1319141880011347,10.651685402318437,-1.373512531645139,0.2081137706110472,-1.0739905813217452
1.76,-1.324443760688305,0.2541257159823723,1.5462584949392602,-0.0453331395945763,0.1299472930955919,0.0095555373423726,0.7598782863712656,-0.6849572529370955,-0.0327681368459909,-1.3258874408879688,0.2564931748921805,1.5414829892018844,1.0189503925762171,-0.8468213121816139,-0.0931761428363863,0.8809771455096759,-0.3595855327942154,0.7942175933712547,0.1266388166994977,10.628377550880032,-1.3735048339486016,0.2068551723695924,-1.0786917850001183
1.78,-1.3093078964176978,0.2405860710900213,1.5456370126897885,-0.0414928070618262,0.132827686018869,0.0101036462451508,0.7543674970073909,-0.6703520635270557,-0.029480012758546,-1.3058492045625427,0.2396176034895719,1.5396190049336689,1.0530275451860425,-0.8529067962839824,-0.0931300016876086,0.7976404533537808,-0.2755394681937362,0.7302594705019927,0.1644062043722416,10.625526227481714,-1.3718742344715886,0.2040302171361376,-1.0865903703632411
1.8,-1.2942576604286942,0.2273108449469302,1.5450903805353735,-0.0371964138491123,0.137005626671278,0.0106502560274045,0.751165630915353,-0.6580598582738582,-0.0253280027908469,-1.2715895215673283,0.2070684679136685,1.544163012051861,0.8440668920083255,-0.6497704865538558,-0.0555005340565969,0.6681868062711799,-0.1600933046018937,0.614610262659876,0.2076004983849577,10.70949590818509,-1.368069142348348,0.2006704999157079,-1.0963744194827385
1.82,-1.2792341382856682,0.2141185460396704,1.5446217458022549,-0.0377134765177451,0.1412220714402639,0.0108783936480069,0.7514378474872583,-0.6602907936573013,-0.0218674719937421,-1.2715895215673283,0.2070684679136685,1.544163012051861,0.8440668920083255,-0.6497704865538558,-0.0555005340565969,0.2063155831779859,0.0136108285952618,-0.111546769172155,0.1730265398552395,10.70949590818509,-1.3647439652324016,0.2017822011293462,-1.1041484381745967
1.84,-1.2649545431876523,0.2016222558100983,1.5442271952642743,-0.0440137806944499,0.1447033972964079,0.0107108485295064,0.751691589038051,-0.6538965153091771,-0.0199264543760426,-1.2715895215673283,0.2070684679136685,1.544163012051861,0.8440668920083255,-0.6497704865538558,-0.0555005340565969,0.3343603212109188,0.0126870775396359,0.3197139174062058,0.0970508808849766,10.65732481001669,-1.3602962801681386,0.2091359712271603,-1.1106749241106022
1.86,-1.2499170682956378,0.1886827435889678,1.543832472013245,-0.051944719845567,0.1481622375136123,0.0104480026969274,0.7521119668931296,-0.6401830014765074,-0.019744188786334,-1.263148852647245,0.20057076304813,1.543608006711295,0.8620067710085124,-0.6456541711592159,-0.0607046383162071,0.6860583064234703,0.0210188927539323,0.6856756916334861,0.0091132794854283,10.58127701909325,-1.3591856362048818,0.218340466168361,-1.1182525565515389
1.88,-1.2348681696649004,0.1760613386740052,1.5434241039964405,-0.0590972593593671,0.1515121772425648,0.0102421255281663,0.7528301435733068,-0.6227629886014244,-0.0211692968052969,-1.2462675148070783,0.1875753533170528,1.542497996030163,0.8978865290088863,-0.6374215403699359,-0.0711128468354275,0.8746478708281976,0.0359088340088575,0.8710006437541495,-0.0712554009481452,10.495932532754525,-1.35939279049202,0.2269670436410718,-1.1258957044493256
1.9,-1.2198010649488231,0.163812534848858,1.5429745288757777,-0.0646734693913116,0.1548116410142273,0.0101503982158,0.7539398890290493,-0.6033788666140988,-0.0237141514891041,-1.229386176966912,0.1745799435859757,1.541387985349031,0.93376628700926,-0.629188909580656,-0.0815210553546478,0.9790965294057556,0.0554872727871247,0.969206099366282,-0.1272427341903623,10.38922747680408,-1.3598807960570154,0.2337523991089067,-1.1330149853337843
1.92,-1.2054618712500178,0.1525448000414266,1.5424950268794306,-0.068444691823404,0.1579185126637693,0.0101763860238057,0.75547581083278,-0.5840464442986438,-0.0266279782314136,-1.2107108512267268,0.1619961653943626,1.539757564241938,0.969646045009634,-0.620956278791376,-0.0919292638738682,0.9805508587708158,0.0767960901865372,0.9666211157727478,-0.1456913371154708,10.38922747680408,-1.3603640028051798,0.2393098976524943,-1.1404590336702736
1.94,-1.1903309499876014,0.1410821176180481,1.541928020472662,-0.0710110414309748,0.1611731113232736,0.0103111122402039,0.7576214953653317,-0.5634877132899533,-0.0299262708528126,-1.1920355254865416,0.1494123872027495,1.538127143134845,1.0055258030100078,-0.6127236480020961,-0.1023374723930885,1.0465946171002662,0.1072842266275853,1.0279365504345273,-0.1649146310699524,10.375998404691018,-1.3610295410310018,0.2434502244274248,-1.1482412139377551
1.96,-1.175145688113031,0.1300368917533054,1.541294160756317,-0.0722026985419377,0.1642608232508471,0.0105650052350651,0.7608584997303853,-0.5422379998021456,-0.0332957338919862,-1.172463205796347,0.1370344247808684,1.5362365168147718,1.0414055610103818,-0.6044910172128162,-0.1127456809123089,1.0878669515911046,0.1618502182526793,1.0624856743903843,-0.1684731519586807,10.375166743574482,-1.3613206656315455,0.2462284292503749,-1.156593256681366
1.98,-1.159885469739331,0.1194262911424693,1.5405933581942222,-0.0716541967840665,0.1668954991479815,0.0109869844872833,0.7649939868065826,-0.520188142941551,-0.0366145677623288,-1.1519938921561432,0.1248622781287193,1.5340856852817175,1.0772853190107556,-0.5962583864235362,-0.1231538894315292,1.1339236076440915,0.2067743538098632,1.1024928430297287,-0.1659416935171263,10.3872287034892,-1.362354247422526,0.2473069743555231,-1.1650694378173203
2.0,-1.145305658484013,0.1097572121955631,1.5398675233367285,-0.0692117414195276,0.1688435699611502,0.0115756785926658,0.7694846900239039,-0.4990282139099339,-0.0396131080461524,-1.121635770399002,0.0934168839953917,1.5387626298061057,0.8432460862609855,-0.4808214767139719,-0.0465704517197744,1.0919023031421389,0.2245351608660628,1.057996451580853,-0.1499270141911809,10.405526503959663,-1.3645832756309757,0.2464016553839566,-1.1740672125089862
2.02,-1.1297654870453628,0.0999599955109621,1.5391591384863093,-0.0662683989033627,0.1678728209790015,0.012438488831443,0.7845086682537987,-0.481545226972152,-0.0304908892833721,-1.121635770399002,0.0934168839953917,1.5387626298061057,0.8432460862609855,-0.4808214767139719,-0.0465704517197744,1.2395459141103138,0.7511989114947437,0.8741493468890971,0.4561109381390132,10.425847301324213,-1.3599843537663372,0.2441526924814849,-1.1766673694803342
2.04,-1.1139401218439846,0.090515665677609,1.5386485657940387,-0.0641205897186618,0.1616481342770748,0.0135933891650491,0.7964113389144243,-0.4637237709829765,-0.0210948359135003,-1.121635770399002,0.0934168839953917,1.5387626298061057,0.8432460862609855,-0.4808214767139719,-0.0465704517197744,1.170003933069151,0.5951335330312779,0.8910727994587725,0.4698026684935892,11.166268523278632,-1.3755135131693113,0.2447933011158131,-1.1828318006089311
2.06,-1.0979443808123506,0.0814287421845928,1.5383025065273173,-0.0622410067132212,0.1525951452861113,0.0149015514031026,0.802078686055832,-0.4459180220945877,-0.013933819790901,-1.113203309536392,0.088608669228252,1.5382969252889078,0.8588965061518661,-0.4729481434684561,-0.0485616285112635,1.000554432559407,0.2833673570703854,0.8902874444194436,0.3580508061299639,11.166268523278632,-1.3921123932987376,0.2454585000698265,-1.1834191315402922
2.08,-1.0827000970060607,0.0731226723203134,1.538084414430481,-0.0605026088352524,0.1433367330513628,0.0161694297867328,0.802074461139035,-0.4293751852821097,-0.0093608330915209,-1.0963383878111723,0.0789922396939726,1.5373655162545123,0.8901973459336273,-0.4572014769774244,-0.0525439820942417,0.8581632639056886,-0.0002112458398484,0.827141840623899,0.228649334969005,11.009832412406467,-1.409277812615938,0.24604522622182,-1.181951026959496
2.1,-1.0667021200499769,0.0647126477378296,1.537928405723871,-0.0587016849626267,0.134426434508236,0.0174373660722481,0.7975276980896909,-0.4125676965364534,-0.0065695039615234,-1.0794734660859526,0.0693758101596931,1.5364341072201169,0.9214981857153884,-0.4414548104863928,-0.05652633567722,0.8816975820458748,-0.2273381524672046,0.8403744372828148,0.1395664564998782,10.856932680448152,-1.4242133520744902,0.246375701491853,-1.179549588676
2.12,-1.0508366608614947,0.0566330889581113,1.537808117885323,-0.0569406386042618,0.1275136692145225,0.0185728724244006,0.7890918825103671,-0.3962987302318158,-0.0056726108226533,-1.061043502371645,0.0605467139499653,1.5353035805065725,0.9527990254971496,-0.4257081439953611,-0.0605086892601982,0.9173966786678868,-0.4217907789661912,0.8134483152318794,0.0448446569435024,10.729862998302451,-1.436415912920937,0.2464429307481894,-1.1770517038329649
2.14,-1.0351785107652816,0.0488736143643702,1.537694859865161,-0.0552200329912021,0.1238286837264192,0.0195137257219542,0.7771673387411256,-0.3805281785327425,-0.0056908835237064,-1.042613538657337,0.0517176177402374,1.534173053793028,0.9840998652789108,-0.4099614775043295,-0.0644910428431765,0.9885663595445954,-0.5962271884620729,0.7885275849536633,-0.0009136350526526,10.59551803069462,-1.444089271431676,0.2461935783598108,-1.1759530025701344
2.16,-1.0197659724130714,0.0414276792063531,1.5375782451274145,-0.0534722327192343,0.124001168534342,0.0202411935766751,0.7652131946405922,-0.3649567439614603,-0.005978762917109,-1.0234010539484852,0.0432821881927853,1.5329429682399094,1.015400705060672,-0.3942148110132978,-0.0684733964261547,0.9816491358031,-0.5977072050266707,0.7785717285641147,-0.0143939696701299,10.59551803069462,-1.4438502384708125,0.2455100624466483,-1.1783725767966844
2.18,-1.0053245636727126,0.0346398414694638,1.5374640955964631,-0.0517325864780101,0.1268928400451713,0.0207947726082649,0.7558802707704748,-0.3504277696650619,-0.0060336756865338,-1.0034060482450893,0.0352404253076091,1.531613323847216,1.0467015448424333,-0.3784681445222662,-0.072455750009133,0.8634199115770061,-0.4666461935058708,0.7264487148199189,-0.0027456384712408,10.569634202803172,-1.4403220229535985,0.2446673896425492,-1.1849196713719723
2.2,-0.9902876567380156,0.0277885969961082,1.53734726454062,-0.0498459388628537,0.1317681879364588,0.0212936969524456,0.7486101163354157,-0.3355340317462354,-0.0056399616533544,-0.9675305501341888,0.0171184529862107,1.5371624118121363,0.8156906894060816,-0.3122602222304935,-0.0191960231746391,0.8289052802404826,-0.3635077217529536,0.7446868959413239,0.0196857016589688,10.609646371711278,-1.4347050272087474,0.2437703075879425,-1.1945081189704427
2.22,-0.9752966253485064,0.0212438853863026,1.5372882812914517,-0.0476524165209852,0.1355684572087631,0.021874533396195,0.7508685267622746,-0.3198918019465961,-3.359213309373372e-05,-0.9675305501341888,0.0171184529862107,1.5371624118121363,0.8156906894060816,-0.3122602222304935,-0.0191960231746391,0.8384675753399403,0.1129205213429407,0.7821114899819626,0.2803184760130366,10.963025231545544,-1.4247197337088668,0.2421901327720096,-1.20260666051947
2.24,-0.9610127696703537,0.0153025110960738,1.5373412428016942,-0.0454156123235675,0.1362417530903639,0.0225797679997486,0.752360424158492,-0.3063333127280061,0.0052903196020043,-0.9675305501341888,0.0171184529862107,1.5371624118121363,0.8156906894060816,-0.3122602222304935,-0.0191960231746391,0.7321243471818464,0.0745948698108733,0.6779244609295021,0.2661955867549039,10.933221065795806,-1.4272605462850263,0.2415180961416812,-1.2128509830873615
2.26,-0.945964167350586,0.0093184495170413,1.5374947565510906,-0.0432192253854194,0.1348467692138111,0.023402409913219,0.7522449849300002,-0.2928130698894982,0.0097247113241856,-0.959373643240128,0.0139958507639057,1.53697045158039,0.827652773133203,-0.3046267127435798,-0.0218284926722602,0.7114670100810164,-0.0057719614245888,0.6760121419253945,0.2217195861090636,10.933221065795806,-1.431925641357372,0.2409116168227125,-1.2193191942960806
2.28,-0.930939458001918,0.0035988085025437,1.5377228097150517,-0.0412407172268174,0.1321234337087936,0.0242587308401049,0.7500465475977941,-0.2798467508774506,0.0128025979926189,-0.9430598294520064,0.0077506463192959,1.5365865311168974,0.8515769405874456,-0.2893596937697524,-0.0270934316675023,0.675336845154964,-0.1099218666103074,0.6483159506023795,0.1538943334216651,10.86270316315131,-1.4385857426115445,0.2405363446148733,-1.2235950707636696
2.3000000000000003,-0.9159854149563672,-0.0018667407197518,1.5379973002260003,-0.0394803985871797,0.1290040735832668,0.0251059053527197,0.745343312891841,-0.2673596241582467,0.0144990507603561,-0.9267460156638848,0.001505441874686,1.5362026106534046,0.8755011080416883,-0.2740926747959251,-0.0323583706627444,0.6725449843577395,-0.2351617352976565,0.6243563359601939,0.084822638386863,10.78430929318074,-1.4456032758772923,0.2403284369920695,-1.2260330497871468
2.32,-0.9018907755077707,-0.0068324332498944,1.5382788205431923,-0.0380172755754684,0.1266057087394118,0.0258647634308225,0.7384703531684421,-0.2559822612378022,0.0150519493421441,-0.9092359935030512,-0.0039764116212324,1.5355554432401497,0.8994252754959311,-0.2588256558220977,-0.0376233096579865,0.6651835446414609,-0.3436479861699426,0.568868146022225,0.0276449290893972,10.651621644051374,-1.4521708242952425,0.2402078335673552,-1.227756917693733
2.34,-0.8872159666015381,-0.0118316884591555,1.5385803338705106,-0.0367912089853667,0.1256302567423211,0.0265754616307354,0.7294731360234182,-0.244552246597618,0.0150387019855165,-0.8917259713422173,-0.0094582651171509,1.5349082758268948,0.9233494429501736,-0.2435586368482703,-0.0428882486532286,0.7273158298187861,-0.4498608572511942,0.5715007320092127,-0.0006623678313793,10.651621644051374,-1.455262646732726,0.2401570619613682,-1.2296350173554262
2.36,-0.8727183503885434,-0.0166026554404701,1.5388769770417547,-0.0358787560571195,0.1264126737583743,0.027194593282887,0.7209257841421252,-0.233139345757192,0.014604264068147,-0.8736178449950275,-0.0145584431387237,1.5341294849387588,0.9472736104044164,-0.228291617874443,-0.0481531876484708,0.7132675971893159,-0.4273675940646537,0.5706450420212977,-0.0217218958684752,10.618269418521775,-1.4550631835949397,0.2402712642854844,-1.232939682761477
2.38,-0.8583814053978706,-0.0211447772342985,1.539162880954924,-0.0351507287089426,0.1285034630682494,0.0277502786244514,0.713399372882666,-0.2216865217482307,0.0139959243650677,-0.8549116144614816,-0.0192769456859509,1.5332190705757418,0.9711977778586592,-0.2130245989006156,-0.0534181266437129,0.68590108875314,-0.3763205629729593,0.5726412004480652,-0.0304169851539661,10.59588752765103,-1.4528734199945073,0.2405449010997962,-1.2381981449156267
2.4,-0.8448884698359063,-0.0252468523479432,1.5394230132081992,-0.0345321649851589,0.1312659572847639,0.0282428379489452,0.7074316351235972,-0.210730214449002,0.0134034796986212,-0.8227114367537373,-0.03222910332171,1.5398626771731774,0.7482318690786975,-0.177011462131665,0.0126847830659838,0.6245109171963076,-0.298386887953439,0.5478153649614376,-0.0296222333223227,10.58988321326433,-1.449659168247262,0.2409072123153175,-1.244780793502131
2.42,-0.830694142636816,-0.0293393503811454,1.539774897581628,-0.0340451224011283,0.1318597921232603,0.0288255736477236,0.7124856133013511,-0.1990656109430913,0.02227275693466,-0.8227114367537373,-0.03222910332171,1.5398626771731774,0.7482318690786975,-0.177011462131665,0.0126847830659838,0.7750318526696697,0.2526989088876941,0.5832301752955334,0.4434638618019407,11.249541306532592,-1.43836308829895,0.240509232706256,-1.2472640069068055
2.44,-0.8164025657810647,-0.0332015296842635,1.540313217105789,-0.0339210081906703,0.12727270088422,0.0295541772537321,0.7156290910202299,-0.1877317645145818,0.031029605046737,-0.8227114367537373,-0.03222910332171,1.5398626771731774,0.7482318690786975,-0.177011462131665,0.0126847830659838,0.7331778704586482,0.1571738859439397,0.5666923214254771,0.4378424056038468,11.249541306532592,-1.450391564596075,0.2426392610448085,-1.252872464333138
2.46,-0.8021082702040899,-0.0368377800892506,1.5410044301996204,-0.0341934120417001,0.1196156785776241,0.0303557301874424,0.7131667543195247,-0.1764508599697534,0.0376794072236377,-0.8152291180629503,-0.0339992179430267,1.5399895250038371,0.7551983683179039,-0.1680764502083519,0.0124225548061671,0.6662240208238558,-0.1231168350352585,0.5640452272414165,0.332490108845038,11.161275249944085,-1.4642858506444996,0.2449272743579385,-1.2527869645822147
2.48,-0.7886265789257763,-0.0400827915408204,1.5417639171117083,-0.0347370029037414,0.1114533802891637,0.0311276878471584,0.7058632796024292,-0.165688971558109,0.0419475733365276,-0.8002644806813763,-0.03753944718566,1.5402432206651568,0.7691313667963164,-0.1502064263617256,0.0118980982865335,0.6844271822026823,-0.3651737358547735,0.5380944205822219,0.2134083056444961,11.025945559149475,-1.4791512754985463,0.2474636165320056,-1.2490141427394934
2.5,-0.7746299673830871,-0.0432769196143055,1.54263302008402,-0.0355351175494987,0.1034535573463193,0.0319065799060536,0.6939986753864384,-0.1542759529401733,0.044660920831932,-0.7852998432998024,-0.0410796764282933,1.5404969163264766,0.7830643652747291,-0.1323364025150993,0.0113736417669,0.8342482870918424,-0.5932302107995391,0.5706509308967822,0.1356673747702201,10.789966346599613,-1.4920220816802607,0.2499884008370851,-1.2434488370914267
2.52,-0.7609125666224427,-0.0462395762752311,1.5435372989358551,-0.0364371248448416,0.0973034240683281,0.0326156853956513,0.6783046589777947,-0.1425667468265013,0.0456395201344401,-0.7696385559943079,-0.0437264044785953,1.5407243891618143,0.7969973637531418,-0.114466378668473,0.0108491852472665,0.9802618469599134,-0.7847008204321881,0.5854603056836035,0.0489299651254025,10.707389824619897,-1.5021037257064225,0.2523740536151276,-1.238903720701473
2.54,-0.7482021532334249,-0.0488337996172495,1.5444070697252412,-0.037235500810242,0.0943048355185887,0.033190623146322,0.66045199023145,-0.1311144454711029,0.0458677040018091,-0.7539772686888132,-0.0463731325288973,1.5409518619971525,0.8109303622315543,-0.0965963548218467,0.0103247287276329,1.0605718452548378,-0.8926334373172362,0.5726150677699188,0.0114091933684477,10.707389824619897,-1.508014740477805,0.2545857686638535,-1.2365753753856312
2.56,-0.7351929704569583,-0.0513227010297705,1.5453253118960255,-0.0377684040274099,0.0947516918172451,0.0336801355406168,0.6418229819260612,-0.1183990516609471,0.045943404060882,-0.7379676564213584,-0.0485731099830336,1.5411662234194998,0.824863360709967,-0.0787263309752205,0.0098002722079994,1.127748775978646,-0.9314504152694358,0.6357696905077898,0.0037850029536459,10.68505576548705,-1.5053320027343986,0.2559739320141282,-1.238404882384977
2.58,-0.7225361125922439,-0.0535502202535629,1.5462470713540908,-0.0376626114310711,0.0980664335310405,0.0341001888636241,0.6251333702926651,-0.105049061634988,0.0462428985745938,-0.7216097191919432,-0.0503263368410043,1.541367473428856,0.8387963591883796,-0.0608563071285942,0.0092758156883659,1.0687084110393958,-0.8344805816698053,0.6674995012979523,0.0149747256855903,10.668173082899555,-1.4990877294937577,0.2565700664556362,-1.2439549168993187
2.6,-0.7101877577148475,-0.0555061240214096,1.5471802169202382,-0.0366327144523608,0.103298928441239,0.034507931820998,0.6108965285346913,-0.0913473711499588,0.0470482187325203,-0.6912794440776107,-0.0588026733353123,1.5485592162828206,0.6591300678079144,-0.0717256470112507,0.0280148594291241,0.988777687280982,-0.7118420878986897,0.6850845242514635,0.0402660078963286,10.677966464289966,-1.4911913373238774,0.2561781663119313,-1.2522128890062494
2.62,-0.6986767636546214,-0.0570622723581921,1.5480753080920686,-0.0331235218277146,0.108600193734314,0.0350607554209341,0.6016722051300912,-0.0741683374566664,0.0471333924795143,-0.6912794440776107,-0.0588026733353123,1.5485592162828206,0.6591300678079144,-0.0717256470112507,0.0280148594291241,0.9749546085268606,-0.4612161702300055,0.8589516846646196,0.0042586873496966,10.705083175352229,-1.4813369452953178,0.2528785021312487,-1.264872252567787
2.64,-0.6867344146943098,-0.058412295705921,1.5490187447386343,-0.0272880807037535,0.1134712310852323,0.0358269966648389,0.5931294754197722,-0.0621074064172105,0.0472000221411061,-0.6912794440776107,-0.0588026733353123,1.5485592162828206,0.6591300678079144,-0.0717256470112507,0.0280148594291241,0.7390005547255697,-0.4271364855159498,0.6030465519727916,0.003331483079591,10.664127992044996,-1.4773327097439992,0.2472193718465299,-1.2748771215709334
