t,x,y,z,roll,pitch,yaw,v_x,v_y,v_z,ref_x,ref_y,ref_z,ref_v_x,ref_v_y,ref_v_z,a_com,a_x,a_y,a_z,thrust,wind_x,wind_y,wind_z
0.0,-1.5939785366923422,1.9925179340822063,2.161384647741801,0.0109431012487547,0.1363685773263958,0.0257744469328067,0.0053236833994851,-0.0024016197716013,0.0083702452733288,-1.5938152678700206,1.9923535096913096,2.161638908024331,0.0023799423138727,-0.1046809767681314,-0.091551066827831,0.5103194793484385,0.2661841699742563,-0.1200809885800678,0.418512263666444,10.54600065248178,-1.2862170785831488,0.1655866312860918,-1.169126745494793
0.02,-1.5939515259691606,1.9927373939741264,2.1613368235563124,0.0185716061210747,0.13754309666158,0.0263296396586604,-0.0025005114083627,0.0202342593498455,-0.0142135791938133,-1.5938152678700206,1.9923535096913096,2.161638908024331,0.0023799423138727,-0.1046809767681314,-0.091551066827831,1.645926923920533,-0.3912097403923922,1.131793956072347,-1.1291912233571124,10.54600065248178,-1.3090325342030464,0.1602689199614923,-1.1855552049548552
0.04,-1.5940747941206406,1.993162134949114,2.160797011742039,0.0327364574571584,0.1408288467586483,0.0273909249551065,-0.0096703904244566,0.0226452621260133,-0.0413346296938758,-1.5938152678700206,1.9923535096913096,2.161638908024331,0.0023799423138727,-0.1046809767681314,-0.091551066827831,1.4078098945872013,-0.3584939508046981,0.1205501388083903,-1.356052525003122,8.96653146322069,-1.3044720400603549,0.1440977642540993,-1.1694654208269664
0.06,-1.5943258002195932,1.993576478063276,2.159672580892077,0.0482635698471577,0.1459256514712139,0.0286469250282762,-0.0147402245673501,0.0182863676214652,-0.0696457381611219,-1.593791468446882,1.9913066999236284,2.1607233973560525,0.0017734569507767,-0.1246809770661546,-0.1115510671258542,1.4544947938909965,-0.2534917071446746,-0.2179447252274055,-1.4155554233623076,8.96653146322069,-1.2943523745030687,0.1274450345947505,-1.1544367411395065
0.08,-1.5946505978713588,1.9938641300394688,2.157991234569528,0.0632641927829943,0.1519197825327068,0.0299709632838353,-0.0172266113936456,0.0103763519701266,-0.097036837387445,-1.5937438696006043,1.9892130803882655,2.158892376019496,0.0005604862245847,-0.1646809776622011,-0.1515510677219007,1.430928705317525,-0.1243193413147722,-0.3955007825669308,-1.369554961316155,8.978956487743744,-1.283971758262452,0.1118584975354113,-1.1434108800946996
0.1,-1.59499888138367,1.9939632872361492,2.1557714992914057,0.0775637584816223,0.1581544709165311,0.0313269279953045,-0.0172718154690892,-0.0003677902851114,-0.1235365426123766,-1.593696270754327,1.987119460852903,2.157061354682939,-0.0006524845016072,-0.2046809782582476,-0.1915510683179472,1.429749115419816,-0.0022602037721799,-0.5372071127619058,-1.3249852612465811,9.025391392709023,-1.2741952769755265,0.0974796870408976,-1.1326487051492071
0.12,-1.5953246913598376,1.993819869348852,2.1530297121685544,0.0911577458812635,0.1641239953913466,0.0326725296514104,-0.0151553107791069,-0.0137249894881423,-0.1492932570580493,-1.593709320444359,1.983025841287738,2.1532303333165803,-0.0018654552277992,-0.244680978854294,-0.2315510689139936,1.4545641114162775,0.1058252344991145,-0.6678599601515468,-1.2878357222836332,9.113647865190616,-1.265625194438339,0.0842707374679659,-1.1215853181408626
0.14,-1.5955900907867182,1.9933839406139835,2.1497700945401554,0.1040671218040774,0.1694710721323513,0.0339603717492099,-0.0114288190196013,-0.029470288616831,-0.1753979466201217,-1.5937223701343912,1.978932221722573,2.149399311950221,-0.0030784259539912,-0.2846809794503405,-0.2715510695100401,1.5356236539413854,0.1863245879752784,-0.7872649564344303,-1.30523447810362,9.113647865190616,-1.2604125075322672,0.0726359364674939,-1.114015099293335
0.16,-1.5957598365328227,1.9926565337267363,2.146187840113831,0.1157186125767926,0.1737670028062619,0.0350883062717494,-0.0066168608185427,-0.0465359070298765,-0.2003819241986219,-1.593765744092578,1.973838602142507,2.1445682905689614,-0.0042913966801832,-0.3246809800463869,-0.3115510701060865,1.531820329862004,0.2405979100529327,-0.8532809206522762,-1.2491988789250106,9.096396780133546,-1.2562355230733926,0.0612859473622182,-1.1051926887258852
0.18,-1.59583068300871,1.9915186737614168,2.1419016068247902,0.1273619673130782,0.1773586824897523,0.0361382140898032,-0.0007066146245171,-0.0665980793172398,-0.2269411928639255,-1.59383944231892,1.96774498254754,2.1387372691728,-0.0055043674063752,-0.3646809806424333,-0.351551070702133,1.6902784674408076,0.2955123097012779,-1.0031086143681662,-1.327963433265178,9.086871428460654,-1.254033864382634,0.0508118132873982,-1.095807632174534
0.2,-1.5957753869434468,1.9899575359232389,2.137084914318644,0.1383924676878787,0.1799717230575669,0.0370186580830947,0.0058922764670982,-0.0887457774577074,-0.2534007371176058,-1.5958660137399356,1.9881887697955551,2.130554547181594,0.0036944689454565,-0.1665980808073559,-0.3269411943540417,1.7565401921623809,0.3299445545807711,-1.1073849070233808,-1.3229772126840165,9.086871428460654,-1.2530642668208725,0.0416110971874423,-1.0857671021471342
0.22,-1.595544914716418,1.9878716104379772,2.1321566621099466,0.1433524660860074,0.1810886961618444,0.0372589918225053,0.0178045014486801,-0.126695480709521,-0.2636371997657064,-1.5958660137399356,1.9881887697955551,2.130554547181594,0.0036944689454565,-0.1665980808073559,-0.3269411943540417,2.0535738655198696,0.5956112490790939,-1.8974851625906763,-0.5118231324050287,9.098947930130636,-1.239655862502286,0.0368940705572889,-1.0671254938998695
0.24,-1.5950636368097022,1.9849950154279128,2.1267663888097306,0.142637752225524,0.1804608921229794,0.0368092949617478,0.0295559515743453,-0.1585050114232722,-0.2749360034281748,-1.5958660137399356,1.9881887697955551,2.130554547181594,0.0036944689454565,-0.1665980808073559,-0.3269411943540417,1.787180592783005,0.5875725062832574,-1.59047653568756,-0.5649401831234191,10.128610303684582,-1.242397569704348,0.0380111603240188,-1.0596004777242225
0.26,-1.5943582041138695,1.981520013780626,2.1211241738685938,0.138737525434947,0.1781072776642729,0.0358744053881768,0.0402602785865316,-0.1866494241097449,-0.2887067304378126,-1.595829069050481,1.9865227889874817,2.1272851352380533,0.0045746856594513,-0.1865980811053791,-0.3469411946520649,1.6555388130638018,0.5352163506093178,-1.4072206343236386,-0.6885363504818914,9.954280515155917,-1.2465545537115374,0.0416695003668908,-1.0518497237758286
0.28,-1.5934536888560669,1.9775312868051864,2.1151822367299604,0.1336608632862712,0.1740688174641133,0.0346269297492877,0.0494886266656579,-0.2105780696734989,-0.3047024877299624,-1.595755179671572,1.9831908273713343,2.1207463113509726,0.0063351190874407,-0.2265980817014256,-0.3869411952481113,1.5112964121364822,0.4614174039563136,-1.1964322781877006,-0.7997878646074902,9.77507805553796,-1.252958575750662,0.0466736776919927,-1.040545802270392
0.3,-1.5924462686018284,1.973324861889576,2.1092231054381383,0.1289063520015264,0.1690063120883994,0.0332989120380265,0.0558379120887542,-0.2310035705908253,-0.3217174043278765,-1.5956812902926627,1.9798588657551877,2.114207487463892,0.0080955525154302,-0.266598082297472,-0.4269411958441578,1.36658506864887,0.3174642711548176,-1.0212750458663182,-0.8507458298957021,9.476132684247204,-1.2611368232144844,0.0516183319114929,-1.0268026140066149
0.32,-1.5912857996541152,1.9684954844064415,2.1025832692565887,0.1244653295916762,0.163202293387377,0.0319018661624199,0.0596662235228852,-0.2508945149707369,-0.3414384484896859,-1.595519379242354,1.974526904109238,2.1056686635470085,0.0098559859434197,-0.3065980828935185,-0.4669411964402042,1.4135285808867413,0.1914155717065459,-0.9945472189955796,-0.9860522080904738,9.342392621315412,-1.2681645771455208,0.0557715523675147,-1.0126536600140317
0.34,-1.590075212379717,1.9632789612594808,2.0955366327122973,0.1207686925384557,0.1576265078331766,0.0306063919336303,0.0611254544740023,-0.269881872050431,-0.3622069623817884,-1.5953574681920455,1.9691949424632889,2.097129839630125,0.0116164193714092,-0.346598083489565,-0.5069411970362507,1.4088827604940717,0.0729615475558546,-0.9493678539847034,-1.0384256946051218,9.271891478391808,-1.2734170788186994,0.0589888801343081,-0.9987087645170862
0.36,-1.588916650557536,1.957968799899124,2.088450429232081,0.1176291209421784,0.1530127639222608,0.0294993055377205,0.060677262978415,-0.2880495294400713,-0.3826283672517532,-1.595151546306037,1.962862980802438,2.087591015698341,0.0133768527993987,-0.3865980840856114,-0.5469411976322971,1.366837981901192,-0.0224095747793619,-0.9083828694820134,-1.02107024349824,9.271891478391808,-1.2772732797138435,0.0619772777136613,-0.9838548990592204
0.38,-1.5877252867049187,1.9520113114154447,2.0805641481906645,0.114465598911239,0.1493985681994421,0.0285021228949883,0.0583690071037918,-0.3066494974709532,-0.4049386384761261,-1.5949016135843288,1.955531019126686,2.077052191751656,0.0151372862273882,-0.4265980846816578,-0.5869411982283436,1.456910307841262,-0.1154127937311604,-0.9299984015440992,-1.1155135612186478,9.218700286941385,-1.2785812526638236,0.0646414941293491,-0.971246284280358
0.4,-1.5865985419601998,1.9456868588259544,2.0722230130904777,0.1113575938880231,0.1476793469710297,0.0277337528625145,0.0544285493369269,-0.3247354434306311,-0.4280178391851258,-1.5848068363497292,1.9366788365418972,2.060317216266858,0.0827577990970522,-0.4066494989610694,-0.5049386399662423,1.479255010161471,-0.1970228883432432,-0.9042972979838916,-1.1539600354499857,9.1557007907345,-1.2772481370119224,0.0671917216756449,-0.9608098159922812
0.42,-1.5855549708553194,1.938987714872116,2.0636511355592613,0.1084874422041305,0.1493497702403765,0.0273597716261979,0.0507734161751363,-0.3443779165368567,-0.4268514987544721,-1.5848068363497292,1.9366788365418972,2.060317216266858,0.0827577990970522,-0.4066494989610694,-0.5049386399662423,1.0006836390180924,-0.1827566580895337,-0.9821236553112817,0.0583170215326861,9.104555991626512,-1.2660802975444456,0.0694039653445155,-0.9478444625270832
0.44,-1.5845993471876998,1.9322753148702203,2.05552415992928,0.106390527034646,0.1541377719628708,0.0273885694085441,0.0503902123320062,-0.3613952676409141,-0.4288603406177874,-1.5848068363497292,1.9366788365418972,2.060317216266858,0.0827577990970522,-0.4066494989610694,-0.5049386399662423,0.8569896869507254,-0.0191601921565035,-0.8508675552028694,-0.1004420931657645,10.577441440706934,-1.258837401419088,0.0705215272323876,-0.956086146591318
0.46,-1.5835735846012824,1.9248644939635464,2.046875079652523,0.1048127520888077,0.1608646033994074,0.0276297836280531,0.0525090102056542,-0.3788019957924317,-0.4361902117677559,-1.5839792583587586,1.932612341552287,2.055267829867196,0.0876355574957043,-0.4266494992590926,-0.5249386402642655,0.9502769339057852,0.1059398936823999,-0.8703364075758807,-0.3664935574984262,10.203528190804718,-1.251024198080759,0.0713137426195483,-0.965183335243336
0.48,-1.5824835872089806,1.9171116832032244,2.0380336048983607,0.1037016588601973,0.1683487265105157,0.0279702911540619,0.0566302987630676,-0.3955880344698595,-0.4477674883795718,-1.5823241023768178,1.9244793515730652,2.045169057067871,0.0973910742930084,-0.466649499855139,-0.564938640860312,1.0401796090099868,0.2060644278706707,-0.8393019338713892,-0.578863830590795,9.909953785285325,-1.2434860704222774,0.0718664708595966,-0.9732011184997942
0.5,-1.5812937396490572,1.9090309533322445,2.028922599033959,0.103076878090043,0.1760372299587537,0.0283552531674458,0.0623834453937661,-0.4116733596941836,-0.4627629417824714,-1.5806689463948769,1.916346361593844,2.035070284268546,0.1071465910903126,-0.5066495004511855,-0.6049386414563585,1.1365518097354022,0.2876573315349226,-0.8042662612162049,-0.7497726701449797,9.694969527942703,-1.235773365461755,0.072176756683758,-0.9804910481435124
0.52,-1.580042777945993,1.9010616483128957,2.0199654631475616,0.1030202312599285,0.1832518297076272,0.0287422200091058,0.0691857328436816,-0.4264399914739188,-0.4793605430518134,-1.5785260145730704,1.90621337158482,2.022971511439419,0.1169021078876167,-0.546649501047232,-0.6449386420524049,1.1616850870240476,0.340114372495778,-0.7383315889867598,-0.8298800634671005,9.533393948670891,-1.228773824290179,0.0721008875577169,-0.986607543894042
0.54,-1.5785712250503483,1.892374090849768,2.010184476839008,0.1036737465275301,0.1905904677416186,0.0291694859668054,0.0777854631978699,-0.4415941821507317,-0.4979265023677441,-1.5763830827512642,1.8960803815757965,2.010872738610292,0.1266576246849209,-0.5866495016432784,-0.6849386426484514,1.2730865078174614,0.4299865177094131,-0.7577095338406448,-0.9282979657965346,9.411936650168172,-1.22240391058368,0.0714687400080767,-0.9913702384721268
0.56,-1.5769073880773017,1.883372303403513,2.0000236200647343,0.1048007598828388,0.1974155791013263,0.0295762233440597,0.0883012263948639,-0.4578114516319157,-0.5172590492203956,-1.5739962630095252,1.884947391551872,1.9977739657662636,0.136413141482225,-0.6266495022393248,-0.7249386432444977,1.3668654586777718,0.5257881598497015,-0.8108634740592008,-0.96662734263257,9.343256115667828,-1.2164385153154262,0.0704413307657061,-0.9947572188825324
0.58,-1.5750125095771816,1.874036307425569,1.9894688217370264,0.1058176644985714,0.2033005799257434,0.029875316852965,0.1007236737164679,-0.4749248019506596,-0.5372730032387746,-1.5713655553478536,1.8728144015130457,1.983675192907334,0.1461686582795292,-0.6666495028353713,-0.7649386438405442,1.4558007350251188,0.6211223660802012,-0.8556675159371974,-1.000697700918951,9.343256115667828,-1.2114596642656252,0.0695109098043968,-0.9969741958241968
0.6,-1.5729678989340894,1.864841687340848,1.9790641985403423,0.1062157131252829,0.2076720587430363,0.0299857775766964,0.1138183400788442,-0.4919353621033193,-0.5569254838019354,-1.5699763258913582,1.850290067328036,1.962605171575088,0.1325367252680484,-0.5749248034407758,-0.6372730047288907,1.4552056866080958,0.6547333181188136,-0.8505280076329835,-0.9826240281580412,9.324223389692634,-1.208010855881132,0.0690777214354593,-0.997510394348191
0.62,-1.570483912886174,1.8547589478082636,1.967951857032529,0.1048658590134652,0.2108839553592532,0.02982102773332,0.134136188841764,-0.5152555283361614,-0.5519388424962863,-1.5699763258913582,1.850290067328036,1.962605171575088,0.1325367252680484,-0.5749248034407758,-0.6372730047288907,1.5664543745282475,1.015892438145989,-1.1660083116421027,0.2493320652824537,9.303023633862722,-1.1998276127998129,0.0700923418209846,-0.9904526131238364
0.64,-1.567588363593783,1.8442331256051252,1.956948519500565,0.1014849042415475,0.212710060266878,0.0293574735749899,0.1542283894059626,-0.5356352243780573,-0.5489852993718427,-1.5699763258913582,1.850290067328036,1.962605171575088,0.1325367252680484,-0.5749248034407758,-0.6372730047288907,1.4385339336108829,1.0046100282099304,-1.0189848020947967,0.1476771562221812,10.944361446679068,-1.202872188682265,0.0727932695073643,-0.992598258277678
0.66,-1.564300496772444,1.8333342601315687,1.9459421337871547,0.097497154367212,0.2131091798164492,0.028701219857046,0.1734049438616019,-0.5530548586032585,-0.5517315646133248,-1.5686509586386777,1.8445408192936283,1.9562324415277987,0.1388993355783644,-0.594924803738799,-0.6572730050269139,1.3026183920343597,0.958827722781963,-0.8709817112600604,-0.1373132620741068,10.274636704563818,-1.2059591774912783,0.0760563050590465,-0.9929015563431138
0.68,-1.5608309415016814,1.8226776813373284,1.935391731923904,0.0937537380314534,0.2120517672057519,0.0279430958980263,0.1907498496017248,-0.5677812006831329,-0.5586582209886176,-1.5660002241333169,1.8330423232248128,1.943486981433221,0.1516245561989966,-0.6349248043348454,-0.6972730056229604,1.1892113718012978,0.867245287006145,-0.7363171039937166,-0.3463328187646386,10.274636704563818,-1.2095412735883682,0.0792059159259195,-0.990810853637004
0.7000000000000001,-1.5568340197105983,1.8111736884290597,1.924107342948891,0.09016382337326,0.2092868640084645,0.0270246141660112,0.2078883079241674,-0.5818383255777281,-0.5695525750834859,-1.5633494896279558,1.8215438271559967,1.9307415213386432,0.1643497768196288,-0.6749248049308919,-0.7372730062190068,1.2349255697376291,0.8569229161221298,-0.7028562447297604,-0.5447177047434137,10.009622338678128,-1.2149829500645868,0.0820760631186117,-0.9854445966354896
0.72,-1.552508554181375,1.7993996382582584,1.9125687786866048,0.0870552383280495,0.2047111506131353,0.0259926082523053,0.2235610308631212,-0.5949307935070118,-0.5836880082784974,-1.5600624940915633,1.8080453310573796,1.915996061214263,0.177074997440261,-0.7149248055269384,-0.7772730068150533,1.2418307376723756,0.7836361469476901,-0.6546233964641879,-0.7067716597505769,9.787944914345644,-1.222176171452802,0.0844433760881116,-0.977201307394632
0.74,-1.547896010131422,1.7873709026479705,1.9007336059527489,0.0844400100968408,0.1986861767908951,0.0248890190113755,0.2365904458267186,-0.6073777791428039,-0.5990562612354531,-1.5567754985551707,1.7945468349587617,1.9012506010898829,0.1898002180608932,-0.7549248061229848,-0.8172730074110998,1.184141360501574,0.6514707481798734,-0.6223492817896026,-0.7684126478477826,9.60665876378971,-1.2310622896924572,0.0865262272620416,-0.965460079298166
0.76,-1.5432976548323794,1.775709217251843,1.8891956027724768,0.0821446314172613,0.1922942091123643,0.023817783037815,0.2465792417848816,-0.6194458466037822,-0.6146410713867343,-1.5531703725032624,1.7800483388452426,1.8855051409506016,0.2025254386815253,-0.7949248067190312,-0.8572730080071461,1.104876242377415,0.499439797908148,-0.6034033730489163,-0.7792405075640607,9.516773267410828,-1.2396648023443415,0.088322472957601,-0.9524351450737932
0.78,-1.5382778027813202,1.7631900300280243,1.8767190148611836,0.0797136217627366,0.1853882684478682,0.0226981926470077,0.2546631157080741,-0.6317375375720318,-0.6322163945643947,-1.549247115935838,1.7645498427168225,1.8687596807964195,0.2152506593021575,-0.8349248073150777,-0.8972730086031926,1.1460002937000358,0.4041936961596257,-0.6145845484124779,-0.8787661588830209,9.438244191994272,-1.2477474332954712,0.0900650267590028,-0.9389728123672728
0.8,-1.5331205241835444,1.7504288931349798,1.86387660522371,0.0771928750962322,0.1787183895074272,0.0216171715857454,0.2605228060376347,-0.643615832736863,-0.651086085405123,-1.5255446469959164,1.731603153149423,1.845108195132964,0.2895915791074844,-0.7317375390621479,-0.6757795779614494,1.152708873920323,0.2929845164780287,-0.5939147582415594,-0.9434845420364156,9.346164009321,-1.254740901586929,0.0917541057623992,-0.926123252250969
0.8200000000000001,-1.5280653748626214,1.738042874551962,1.8517069214699229,0.0740842076834603,0.1730752247444988,0.0206200903267653,0.2715107893906336,-0.6592954897405993,-0.6267205869068436,-1.5255446469959164,1.731603153149423,1.845108195132964,0.2895915791074844,-0.7317375390621479,-0.6757795779614494,1.5494070954644672,0.5493991676499471,-0.7839828501868151,1.2182749249139702,9.25984947798588,-1.2509631619049064,0.0937612082544765,-0.9029060243892616
0.84,-1.5225315482990684,1.7247084770783427,1.8394374387057424,0.0702162198665104,0.1684455140650796,0.019658476234491,0.2810537461688387,-0.6731127419301768,-0.6020864688834997,-1.5255446469959164,1.731603153149423,1.845108195132964,0.2895915791074844,-0.7317375390621479,-0.6757795779614494,1.490657785114606,0.4771478389102551,-0.6908626094788761,1.231705901167196,12.193364685031156,-1.256768914732335,0.0961831905480167,-0.9038031451007756
0.86,-1.5168340245391203,1.7111213924019173,1.827576937858624,0.0665098566519991,0.1653313388766914,0.0188443459820998,0.2881622037315633,-0.6848740290329225,-0.5851567646941451,-1.5226487312048416,1.7242857777588014,1.8383503993533488,0.2965772717873664,-0.7517375393601711,-0.6844922146408603,1.090267085595679,0.3554228781362273,-0.5880643551372855,0.8464852094677289,11.715230530896406,-1.260342656585798,0.0983809381906408,-0.9063404054435374
0.88,-1.511305940601538,1.6980106192134408,1.8165656516817617,0.0633894338580907,0.1638130325940665,0.0182158185066239,0.2934783427082775,-0.6946631679631442,-0.5747664139940838,-1.516856899622692,1.7096510269775584,1.8248348077941203,0.3105486571471305,-0.7917375399562175,-0.7019174879996822,0.7616560284754316,0.265806948835709,-0.4894569465110854,0.5195175350030667,11.244740266060036,-1.2618933130254149,0.1004278230008595,-0.9088710056184658
0.9,-1.505379644626987,1.684020657851911,1.8051417583825389,0.0606593567238665,0.1634027456543855,0.0176841965387508,0.2989357775202791,-0.7038659122577443,-0.568377551715063,-1.5110650680405422,1.6950162761963157,1.8113192162348912,0.3245200425068946,-0.831737540552264,-0.7193427613585041,0.6230803690121712,0.2728717406000835,-0.4601372147300053,0.3194431139510401,10.877514871338462,-1.26218384303427,0.1020989886515598,-0.9114046518051464
0.92,-1.4993443639979065,1.6698553631743716,1.793799803513139,0.0585474562974873,0.1637112396065091,0.0172516491301368,0.3043919988887594,-0.7123274794092109,-0.566127332883077,-1.5045746671904043,1.6783815253852703,1.7969323610077212,0.3384914278666587,-0.8717375411483105,-0.7367680347173259,0.5158293203000001,0.2728110684240142,-0.423078357573331,0.1125109415992975,10.598882905839671,-1.2620929991651515,0.1033000411709314,-0.9135137093122224
0.94,-1.493195414355841,1.6555264789273816,1.782488967781945,0.0570426755936995,0.1643620690823327,0.0168917570106645,0.3102707679341787,-0.7202370307844149,-0.5650690903698421,-1.4980842663402665,1.661746774574225,1.782545505780551,0.3524628132264228,-0.911737541744357,-0.7541933080761478,0.4955824998503995,0.2939384522709615,-0.3954775687601997,0.052912125661747,10.318165811707331,-1.2613496339511974,0.1041243397779969,-0.9146967104444452
0.96,-1.4872394172241885,1.641763297035145,1.7717554179864938,0.0559790788172249,0.1649990073395788,0.0165851094350407,0.3163768628442702,-0.7280807011275948,-0.5648265831858724,-1.4912445808561343,1.6441120237482785,1.7677230187194104,0.3664341985861869,-0.9517375423404032,-0.7716185814349696,0.4971578452508893,0.3053047455045782,-0.3921835171589949,0.0121253591984837,10.318165811707331,-1.260754783363157,0.1046512547924423,-0.9155304768194836
0.98,-1.4808417031617458,1.6271154185384389,1.760453743917165,0.0550173764275445,0.1654507309915236,0.0162700743492054,0.3230557161952141,-0.7362522423597231,-0.5653857059089565,-1.4840556107380083,1.625477272907431,1.752464899824299,0.380405583945951,-0.9917375429364498,-0.7890438547937915,0.5284264054985713,0.3339426675471962,-0.4085770616064132,-0.0279561361542057,10.276872959570028,-1.2605864149281103,0.1050767096648167,-0.9159033031425784
1.0,-1.4743090059067574,1.612303860195779,1.7491301194223654,0.0540820895642264,0.1655254558912905,0.0159456188952894,0.3298211729823685,-0.7444212188877549,-0.5669342076207979,-1.464688917351985,1.5903028064204527,1.7321844586217172,0.3568044174100045,-0.8362522438498392,-0.5706743962375546,0.5359604477150444,0.33827283935772,-0.4084488264015917,-0.0774250855920699,10.229595375179995,-1.2608962681429785,0.1054846077948501,-0.915614253329105
1.02,-1.4675585589082305,1.5972678552606958,1.73809601210909,0.0515963155586505,0.1643392542852395,0.0154570864991905,0.3446892727940531,-0.7577610151627883,-0.5363481230278966,-1.464688917351985,1.5903028064204527,1.7321844586217172,0.3568044174100045,-0.8362522438498392,-0.5706743962375546,1.82655353561956,0.7434049905842288,-0.6669898137516672,1.5293042296450676,10.176536951596972,-1.2534766998654436,0.1065866696597898,-0.90825612408203
1.04,-1.460874373395079,1.582779848263612,1.728166153478062,0.0480697575970196,0.1612245846229952,0.0148303577904316,0.3579776678033668,-0.7664582250738117,-0.5104969058765071,-1.464688917351985,1.5903028064204527,1.7321844586217172,0.3568044174100045,-0.8362522438498392,-0.5706743962375546,1.5169940098499488,0.6644197504656835,-0.4348604955511703,1.2925608575694747,12.271402346872492,-1.2577015948222705,0.1091771459558175,-0.9128830935697384
1.06,-1.4535844786131764,1.5673796136954488,1.7181964849687317,0.0445366707742816,0.1557979906228559,0.0141128988961662,0.3699285431102619,-0.7731319696010693,-0.4880182798458974,-1.461120873177885,1.5819402839819543,1.7264777146593415,0.3635541576529625,-0.8562522441478624,-0.5717321343032742,1.3159131001324338,0.5975437653447574,-0.3336872263628831,1.1239313015304842,11.904763195489068,-1.2652201517842032,0.1117919372559613,-0.9129004369072676
1.08,-1.4460946423283134,1.5518619594022858,1.70862466879111,0.0417150782474593,0.1487233125892917,0.0134091552365859,0.3780716867566618,-0.7784826702553318,-0.470235518296658,-1.453984784829685,1.5652152391049576,1.7150642267345906,0.3770536381388787,-0.8962522447439089,-0.5738476104347133,1.0138631493630383,0.4071571823199948,-0.2675350327131232,0.8891380774619706,11.57620446166402,-1.274133333607764,0.1138013605011053,-0.9100692509558164
1.1,-1.4388655744689791,1.5370286107361186,1.699825757938433,0.0397941818878448,0.1413787974271292,0.0127996633500733,0.3822400180394938,-0.7828513884668468,-0.456829616583696,-1.4468486964814848,1.5484901942279607,1.7036507388098394,0.3905531186247948,-0.9362522453399552,-0.5759630865661526,0.7351511498199792,0.2084165641416002,-0.2184359105757483,0.6702950856480983,11.05105568432191,-1.2832304775163548,0.1152506407586401,-0.9051670294510592
1.12,-1.4312050533265082,1.5213317454180502,1.690811179326246,0.03867188649895,0.1337673865719557,0.0122521553977455,0.3833584136302735,-0.7866853523614772,-0.4454478666382709,-1.439037634108989,1.5297651493211617,1.6921314770785163,0.404052599110711,-0.9762522459360018,-0.5780785626975918,0.6031051310986124,0.055919779538982,-0.191698194731521,0.5690874972712562,11.05105568432191,-1.2911018978805109,0.1159114882430234,-0.8994466023789209
1.14,-1.423551470055524,1.5055652773263306,1.682009195694274,0.0387788484420493,0.1268809020714167,0.0118347337904859,0.3818018997682935,-0.7898873410849038,-0.435356824847712,-1.431226571736493,1.5110401044143624,1.6806122153471934,0.4175520795966271,-1.0162522465320485,-0.580194038829031,0.5350340914518724,-0.0778256930989984,-0.1600994361713292,0.5045520895279432,10.872027641937166,-1.2971461696958226,0.115541771071647,-0.8936210739799798
1.16,-1.415953511630801,1.4897278722775251,1.6733982991041008,0.0400776526021346,0.1211930540185895,0.0115515487568745,0.3779661101336988,-0.7937767846979109,-0.4262279242235861,-1.423078022351849,1.4913150594926623,1.6690400667125844,0.4310515600825432,-1.0562522471280946,-0.5823095149604702,0.531925465513714,-0.1917894817297344,-0.1944721806503568,0.4564450312062956,10.799085675584138,-1.3015755502331567,0.1143126338888026,-0.8888902288352363
1.18,-1.4088270632269646,1.4746018476828595,1.665380332837383,0.0421020191125217,0.1173904213091276,0.0114003183142494,0.3723188003369103,-0.798287587571637,-0.4182236580175003,-1.4145919859550575,1.4705900145560609,1.6574150311746894,0.4445510405684594,-1.096252247724141,-0.5844249910919094,0.5392303033129862,-0.2823654898394256,-0.2255401436863036,0.4002133103042898,10.709663311079566,-1.3041407102455305,0.112342003813694,-0.8855162558120107
1.2,-1.4014575816653403,1.4585723386072265,1.6570992556850306,0.0446237954293154,0.1156416808136745,0.0113620617400473,0.3650157429444693,-0.8045616493397596,-0.4103397806803114,-1.390211123210119,1.4346874683042776,1.644469149936508,0.4058082436986695,-0.8982875890617531,-0.4477864051234564,0.622201776386378,-0.3651528696220513,-0.3137030884061309,0.3941938668594436,10.709663311079566,-1.3030088834329312,0.1099551728904587,-0.8853684571048592
1.22,-1.3942302707789214,1.442345132408017,1.64904231095453,0.0451781792611833,0.1164809532320314,0.0113066095594731,0.3584234809239942,-0.8173023380467598,-0.3953753939897921,-1.390211123210119,1.4346874683042776,1.644469149936508,0.4058082436986695,-0.8982875890617531,-0.4477864051234564,1.036479541885262,-0.3296131010237541,-0.637034435350009,0.748219334525968,10.678910857941446,-1.297016430544687,0.1089575347153819,-0.8863531844642276
1.24,-1.3874743415495787,1.4267213303271382,1.6416512905109328,0.0432390178931084,0.1193691521782104,0.0111842891994232,0.3533616844816856,-0.8265344010969764,-0.3834306331221228,-1.390211123210119,1.4346874683042776,1.644469149936508,0.4058082436986695,-0.8982875890617531,-0.4477864051234564,0.7961314017992684,-0.2530898221154293,-0.461603152510831,0.5972380433834662,10.962564956964345,-1.2906435411829935,0.1100596032957711,-0.8956029293803088
1.26,-1.3804479398834113,1.4101121434392947,1.634085411392887,0.0400153884731644,0.1238425531964637,0.0110381562809193,0.3497951994412368,-0.8335457632806397,-0.3739283248813769,-1.3861530407731324,1.42570459241366,1.6399912858852734,0.4125061323710213,-0.9182875893597764,-0.4536989545446476,0.6167918553215415,-0.1783242520224409,-0.3505681091831636,0.4751154120372941,10.962564956964345,-1.2836158627462848,0.1122700030715998,-0.9056355677746156
1.28,-1.373474212589585,1.3933944111661123,1.6266765478080616,0.03692310670833,0.129083642560556,0.0109304918514723,0.3479812056426757,-0.8379880147027218,-0.3674467607846407,-1.378036875899159,1.407738840632425,1.6310355577828044,0.425901909715725,-0.9582875899558227,-0.46552405338703,0.4032209206449604,-0.0906996899280532,-0.2221125711041049,0.3240782048368085,10.608344822816434,-1.2775010508154487,0.1145628339305977,-0.9151810573027278
1.3,-1.366866232369759,1.3774435445453437,1.6197360321354417,0.0346555692166887,0.1342528998970834,0.010880842604079,0.3478290756873586,-0.8410327521858997,-0.3634788019887138,-1.3699207110251856,1.38977308885119,1.6220798296803352,0.4392976870604287,-0.9982875905518692,-0.4773491522294125,0.2501912611930458,-0.0076064977658552,-0.1522368741588953,0.1983979397963436,10.4855366950178,-1.2721746539391847,0.1162930096491619,-0.9237079267041152
1.32,-1.359898116630309,1.3605986809986836,1.6124945060739848,0.033186316661592,0.1395011700754877,0.0108878572480375,0.3491166914960579,-0.8434202253924151,-0.360972024244492,-1.3611347572839771,1.3698073370401525,1.612532846635747,0.4526934644051323,-1.0382875911479157,-0.4891742510717949,0.1846748320803853,0.0643807904349619,-0.1193736603257722,0.1253388872110933,10.4855366950178,-1.267136436864711,0.1174229967858309,-0.9317095162330716
1.34,-1.3528892706621023,1.3437148257713063,1.605290557801982,0.0329652281860149,0.1442503873685934,0.0109718804865835,0.3517691991299307,-0.8450558837703658,-0.3595636681799882,-1.3523488035427689,1.3498415852291152,1.602985863591159,0.466089241749836,-1.078287591743962,-0.5009993499141773,0.1709871477738774,0.1326253816936407,-0.0817829188975327,0.0704178032251895,10.397696526933032,-1.263020278394712,0.1175713128481492,-0.9383038257091676
1.36,-1.3458132957151965,1.3267920521828136,1.598107517172047,0.0339382301743247,0.1482421487721958,0.0111248356169766,0.3557014173158567,-0.847232069601535,-0.3588223285570788,-1.3432279553679425,1.3288758334031767,1.593143253075511,0.4794850190945397,-1.1182875923400084,-0.5128244487565597,0.2277482660197682,0.1966109092963019,-0.1088092915584593,0.0370669811454699,10.325494377086216,-1.2596730117996175,0.1167716508160306,-0.9441334079121124
1.38,-1.3390090980543332,1.3106689058474137,1.591292805049332,0.0357337768036182,0.1511573333960851,0.0113122742854062,0.3602965489235294,-0.8498950406833033,-0.3585577114005835,-1.3337722127594986,1.306910081562337,1.5830050150888035,0.4928807964392434,-1.1582875929360548,-0.5246495475989421,0.2658790689095264,0.2297565803836332,-0.1331485540884192,0.0132308578247641,10.325494377086216,-1.257428647417622,0.1151835424435989,-0.948609735233244
1.4,-1.3317475620069184,1.2936326172719714,1.584120810159,0.0382719099852048,0.1532566207495401,0.011530603700823,0.3655834585897269,-0.8538234571590756,-0.3586787293262968,-1.3209942706081568,1.2681741538132485,1.573364919479303,0.4091929175165069,-0.9498950421734196,-0.3647405668613763,0.3293877470550295,0.2643454833098746,-0.1964208237886122,-0.0060508962856642,10.30837407953186,-1.2564930666978769,0.1130454046012277,-0.951665848469871
1.42,-1.3243327491040209,1.2764274264168125,1.5771725452773384,0.0387685643993407,0.1541741167236949,0.011569499693257,0.3754768303062876,-0.8655121834571294,-0.3361178093147647,-1.3209942706081568,1.2681741538132485,1.573364919479303,0.4091929175165069,-0.9498950421734196,-0.3647405668613763,1.3633600388008342,0.4946685858280342,-0.5844363149026921,1.1280460005766018,11.75473890117246,-1.2488304649348323,0.1121323342869158,-0.9483689301353984
1.44,-1.3171107048639143,1.259895532024978,1.5709804534042766,0.0366778710461885,0.1539736674930289,0.0113950406524711,0.3841129053454085,-0.8739234384038833,-0.316863960039304,-1.3209942706081568,1.2681741538132485,1.573364919479303,0.4091929175165069,-0.9498950421734196,-0.3647405668613763,1.135827576904588,0.4318037519560447,-0.4205627473376938,0.9626924637730376,11.75473890117246,-1.2499315953906762,0.1139512567469414,-0.9552260196875392
1.46,-1.309343915047214,1.242353787808872,1.5648223385237263,0.0332232404850102,0.1529426123820138,0.0111089058680291,0.3920021079154209,-0.8794656699854685,-0.3001126831581083,-1.3169023414329917,1.258675203391514,1.5697175138106891,0.4189721912351024,-0.9698950424714428,-0.3659771379535348,0.966386471921422,0.3944601285006233,-0.2771115790792589,0.8375638440597855,11.519258170263129,-1.2517612743651627,0.1169413651665104,-0.9603305720603562
1.48,-1.3014327600603068,1.2247347856292206,1.558958446037226,0.030034937030197,0.1512854033995589,0.0108398639566134,0.3986321629982986,-0.8823192811147827,-0.2871020675026227,-1.3087184830826617,1.2396773025480456,1.5624227024734616,0.4385307386722935,-1.0098950430674891,-0.3684502801378519,0.7439369035981909,0.3315027541438836,-0.1426805564657129,0.6505307827742807,11.2843522206922,-1.255121231074351,0.1196923132845058,-0.9639732732481048
1.5,-1.2934026087685937,1.2070732679682892,1.5533238513218546,0.0277078555882336,0.1492116872654843,0.0106375073713611,0.4039688080652915,-0.8839592379747089,-0.2770054751289236,-1.3005346247323315,1.2206794017045772,1.555127891136234,0.4580892861094844,-1.0498950436635357,-0.370923422322169,0.5768674384859049,0.2668322533496442,-0.0819978429963064,0.5048296186849516,11.06701144267663,-1.2590120588555025,0.1219066151507283,-0.9660069231063914
1.52,-1.2856878286918736,1.1902723404029725,1.548136275557268,0.0264933366709912,0.1470936211622562,0.0105256442586228,0.4077804487037683,-0.8846878928421495,-0.2695567297031755,-1.2913728390101418,1.1996815008313064,1.5477094226897907,0.4776478335466755,-1.089895044259582,-0.3733965645064862,0.4199504455597577,0.1905820319238388,-0.0364327433720335,0.3724372712874041,10.8945983899348,-1.2627652149615882,0.1232025932428046,-0.9670187675033648
1.54,-1.2775008309506055,1.1725792657029774,1.54282084651974,0.0265761851918944,0.1450195424393396,0.0105178552439076,0.4106283199902489,-0.8847276899799759,-0.2624049536450533,-1.282211053287952,1.1786835999580356,1.5402909542433474,0.4972063809838665,-1.1298950448556286,-0.3758697066908033,0.3849021156803086,0.1423935643240309,-0.0019898568913157,0.3575888029061141,10.762409861510603,-1.2657558924394547,0.1232580858924141,-0.9672758965933732
1.56,-1.269266065394893,1.1548795206950142,1.537642372457675,0.0281082775911538,0.1433837858341763,0.0106279253491104,0.4126701891179993,-0.8853807860373257,-0.2558000065535976,-1.2725603038798323,1.1566856990698635,1.532810657242296,0.5167649284210576,-1.169895045451675,-0.3783428488751204,0.347207035052268,0.1020934563875225,-0.0326548028674933,0.3302473545727824,10.724614010115149,-1.2678742034289727,0.1220318612281593,-0.968169789075096
1.58,-1.2609939980607725,1.1371561793490026,1.5325925471551076,0.0307542369227857,0.1422464798153588,0.0108304412649722,0.4144610426055738,-0.8871636916141895,-0.2495223723350396,-1.2624205907857833,1.1336877981667908,1.5252685316866368,0.5363234758582486,-1.2098950460477214,-0.3808159910594375,0.3383585372499832,0.0895426743787231,-0.089145278843189,0.3138817109278977,10.695545883678278,-1.269162539247988,0.119941652493022,-0.9695758572184104
1.6,-1.2531024064753684,1.1202644683219452,1.5279091397402382,0.0335785631438889,0.1415109344431596,0.0110540325771851,0.4161548879508568,-0.8908621703082588,-0.2437865016631343,-1.240270945930494,1.092797994768293,1.5201164285383555,0.4704783594834157,-0.9871636931043056,-0.2536827565169266,0.3515966050356758,0.0846922672641498,-0.1849239347034625,0.2867935335952684,10.668570233723583,-1.2697566695498723,0.1174054048143561,-0.97108758491538
1.62,-1.2447471776684642,1.1023308456547738,1.5232055861437486,0.0343202469871321,0.1411020964105586,0.0111471311363,0.4193903780400787,-0.901682100146822,-0.2262811511556265,-1.240270945930494,1.092797994768293,1.5201164285383555,0.4704783594834157,-0.9871636931043056,-0.2536827565169266,1.0416052205845383,0.1617745044610957,-0.5409964919281585,0.8752675253753894,10.668570233723583,-1.2660491515239662,0.1165762832702124,-0.968866947380729
1.64,-1.236327869382524,1.08421306114432,1.5188551577636733,0.0321207021599866,0.1411418168938958,0.0110585479434093,0.422395075234491,-0.9093531740879198,-0.2098250497663946,-1.240270945930494,1.092797994768293,1.5201164285383555,0.4704783594834157,-0.9871636931043056,-0.2536827565169266,0.9201587547436848,0.150234859720616,-0.3835536970548947,0.8228050694615935,11.457157524184368,-1.2656941163180389,0.1184144424744426,-0.9745538546420648
1.66,-1.2282771192508202,1.066890068204615,1.5149966089444342,0.0288727423772607,0.1415652936886334,0.0109162540753845,0.4249596964142773,-0.9134896626335158,-0.1971520355223375,-1.2355661623356595,1.08292635783725,1.5175796009731863,0.4816818228589841,-1.007163693402329,-0.254514833353304,0.6787729909802865,0.1282310589893115,-0.2068244272798003,0.6336507122028558,11.292660978245294,-1.264955090796544,0.1214983708016012,-0.98018072242755
1.68,-1.2197513655552032,1.0486023428928226,1.5111708308619212,0.0257645426169305,0.1423418768362098,0.0108080654361292,0.4275178590623486,-0.9151788160516398,-0.1862142108345009,-1.2261565951459914,1.063183083975164,1.5125059458428478,0.504088749610121,-1.0471636939983753,-0.2561789870260588,0.5679644449826835,0.1279081324035674,-0.0844576709061961,0.5468912343918303,11.106288318605948,-1.2647877535906673,0.1242970214401759,-0.9853033004813492
1.7,-1.2111751326191096,1.030295787902769,1.5075382271648152,0.0236339956490181,0.1433967448259269,0.0107843971172416,0.4300434782459313,-0.9157031694099624,-0.1776029589995402,-1.216747027956323,1.0434398101130775,1.5074322907125093,0.5264956763612577,-1.087163694594422,-0.2578431406988135,0.4494645616452412,0.1262809591791369,-0.0262176679161396,0.4305625917480349,10.834042680757191,-1.2645641828282728,0.1264592717078689,-0.9903998152927728
1.72,-1.2029797070899932,1.0129024270550526,1.5042313492565356,0.0226972618152161,0.1445825432771368,0.0108494372660532,0.4325593328601588,-0.9153605710527848,-0.1709309393597105,-1.2062171144290978,1.0216965362211894,1.502275427898533,0.5489026031123945,-1.1271636951904682,-0.2595072943715683,0.3569409760329575,0.1257927307113715,0.0171299178588824,0.3336009819914873,10.834042680757191,-1.2639383976192422,0.1275955484118629,-0.9950534550132912
1.74,-1.194298288858885,0.994607826508808,1.500881550792101,0.0232309072949212,0.1459570196704587,0.0110335851362524,0.4354994211789332,-0.9142832781732482,-0.1644296164716282,-1.1956872009018726,0.9999532623293008,1.4971185650845569,0.5713095298635313,-1.1671636957865148,-0.2611714480443231,0.3608042355821115,0.1470044159387201,0.0538646439768364,0.3250661444041139,10.74750134335318,-1.263013744822591,0.1273319477651869,-0.9994192464117754
1.76,-1.1855509910391977,0.9763275630705036,1.4976583057737822,0.0253808308067109,0.1472979665088968,0.0113357081215126,0.4391006909249947,-0.9139569981165088,-0.1582294302994045,-1.184597114205869,0.9772099884225112,1.4919200984287615,0.5937164566146681,-1.2071636963825612,-0.2628356017170778,0.358879892964057,0.1800634873030754,0.0163140028369757,0.3100093086111824,10.72433122027087,-1.2622427165624184,0.1257303210347178,-1.0037375774927189
1.78,-1.1771687725591808,0.9589507070045364,1.4947102066826794,0.0284164436811945,0.1483419224449817,0.0116903787253333,0.4430453495105107,-0.91550841397441,-0.1524198908969295,-1.1729468543410873,0.9534667145008204,1.4866800279311476,0.6161233833658049,-1.2471636969786075,-0.2644997553898326,0.3595760371233834,0.1972329292758007,-0.0775707928950597,0.2904769701237528,10.714667482832738,-1.2621011986534052,0.1230952712505033,-1.007945753650277
1.8,-1.1682609494903176,0.9406038530659632,1.4917262734407943,0.0316547504120763,0.1490869921518569,0.0120591389831169,0.4475177540741718,-0.9191263915886326,-0.1462788072423191,-1.1550165050836554,0.9131752863058158,1.487089212137833,0.4991216973384221,-1.015508415464526,-0.151690771841025,0.4207287518431461,0.2236202281830551,-0.1808988807111389,0.3070541827305192,10.716918519478895,-1.2617380072682085,0.120344854256673,-1.0112554431785887
1.82,-1.159212167341926,0.9220958766267364,1.488971567386404,0.0321143485995835,0.1484350509721122,0.0121912270596803,0.4569300068246076,-0.9302903001190826,-0.1294566340665575,-1.1550165050836554,0.9131752863058158,1.487089212137833,0.4991216973384221,-1.015508415464526,-0.151690771841025,1.1137873067485244,0.4706126375217917,-0.5581954265225009,0.841108658788077,10.72678049192109,-1.2559666651516506,0.1196074285213328,-1.012207377736603
1.84,-1.1499855999163364,0.9034097078275866,1.4865455548400963,0.0294025614635595,0.1456397583282135,0.0120441701946337,0.4650674243594582,-0.9374831706896634,-0.1139921660442963,-1.1550165050836554,0.9131752863058158,1.487089212137833,0.4991216973384221,-1.015508415464526,-0.151690771841025,0.9448607336443292,0.4068708767425294,-0.3596435285290356,0.7732234011130614,11.295471993272258,-1.2598153359325068,0.1222318516910665,-1.0135558641410982
1.86,-1.1410894814077477,0.8855650650855809,1.4845020114493996,0.0258230754889012,0.141443764416157,0.0118120717067547,0.470793193065304,-0.9404374212437868,-0.1018706326706817,-1.1500252881102713,0.9030202021511704,1.485572304419423,0.5103369669040043,-1.0355084157625492,-0.1515449480298441,0.6863737956409668,0.2862884352922867,-0.147712527706173,0.6060766686807328,11.113039349278552,-1.266188341699097,0.1259987434487688,-1.012430620789774
1.88,-1.1316364077150898,0.8667512779893474,1.4825738157868589,0.0226223877159593,0.1360470445984155,0.0116119602381804,0.4739588705751567,-0.9410465372401136,-0.0915690415668715,-1.1400428541635028,0.8827100338418801,1.4825384889826023,0.5327675060351689,-1.0755084163585955,-0.1512533004074824,0.5397113016777336,0.1582838754926374,-0.0304557998163368,0.5150795551905084,11.113039349278552,-1.2738345226269543,0.1291651411282451,-1.0092184805966422
1.9,-1.1226290772490493,0.8488780462699556,1.4809114712441904,0.0206000778529511,0.1308862410722155,0.0115163949082957,0.4739061024246438,-0.9406312947009552,-0.0839227735009113,-1.1300604202167344,0.8623998655325895,1.4795046735457815,0.5551980451663334,-1.115508416954642,-0.1509616527851206,0.3828858386665596,-0.0026384075256458,0.0207621269579183,0.3823134032980096,10.957541824743204,-1.2809987118720334,0.1314889967479688,-1.0052361266604823
1.92,-1.1131786097316965,0.8300792999027177,1.4793027594552832,0.0197323093045023,0.1263701880895462,0.0115389135800913,0.4709484813566367,-0.9394068514149976,-0.0774178253937328,-1.1189564593134078,0.8400896971934967,1.4764854404900791,0.577628584297498,-1.1555084175506884,-0.1506700051627588,0.3624952883125882,-0.1478810534003533,0.0612221642978749,0.3252474053589242,10.81904801316614,-1.2865008766404282,0.1325951910150433,-1.0015537451502303
1.94,-1.1038159131816985,0.8113123172275593,1.4778146445269145,0.0205592306856887,0.1238305920539924,0.0117248905801285,0.4653545845843045,-0.937537672832133,-0.0717499049186206,-1.107852498410081,0.8177795288544037,1.473466207434377,0.6000591234286625,-1.195508418146735,-0.150378357540397,0.408995208365409,-0.279694838616612,0.0934589291432363,0.2833960237556117,10.72701194318961,-1.2892224880993497,0.1321230642101804,-0.9998392285705026
1.96,-1.0945726737006074,0.7925739400757951,1.4764354529530186,0.023097184280725,0.1238765325126737,0.0120835884041083,0.4596238096609219,-0.9366022182054268,-0.0664702107283356,-1.0961877740284751,0.7944693605004098,1.4704542655692336,0.6224896625598271,-1.2355084187427814,-0.1500867099180352,0.3924029412607196,-0.2865387461691293,0.0467727313353039,0.2639847095142492,10.689420391189742,-1.2864726282902268,0.1300592256531675,-1.0025589167275222
1.98,-1.0858819050703603,0.7747664483594188,1.475223458594828,0.0263616101786392,0.1257017021403311,0.01252690368709,0.4557046399224617,-0.9381102487526036,-0.0613914781133972,-1.0839622861685905,0.7701591921315147,1.4674496148946492,0.6449202016909916,-1.2755084193388275,-0.1497950622956735,0.3294979990232073,-0.1959584869230118,-0.0754015273588315,0.2539366307469183,10.66265432912678,-1.2819349643525249,0.1270503640822084,-1.0076279244772346
2.0,-1.076795014514046,0.7559698117592929,1.474054494147011,0.0296843437553007,0.1287525838033296,0.0130219009664553,0.4533884988770685,-0.9414800945319134,-0.0557688354673409,-1.0630966730742375,0.7278609359217886,1.4721538846891582,0.5211412564624168,-1.0352169737300967,-0.0636379997595541,0.3476150178133085,-0.1158070522696591,-0.1684922889654938,0.2811321323028155,10.670357067341683,-1.2761590022955995,0.1241046897483645,-1.013610261857115
2.02,-1.0681728485390467,0.7379698286191101,1.473103225098937,0.0301736766047141,0.1319215040348164,0.0133204453596641,0.4544759855364229,-0.9523920658487092,-0.0443018828061831,-1.0630966730742375,0.7278609359217886,1.4721538846891582,0.5211412564624168,-1.0352169737300967,-0.0636379997595541,0.7933233082830737,0.0543743329677215,-0.5455985658397833,0.5733476330578926,11.154771017582789,-1.266905088595651,0.1235057675548849,-1.01973008835569
2.04,-1.0590655707802512,0.7188408963843272,1.472341999608194,0.0270076366687748,0.1350372661218681,0.0133714019785098,0.4562534322119268,-0.9594150874814988,-0.0325175879254163,-1.0630966730742375,0.7278609359217886,1.4721538846891582,0.5211412564624168,-1.0352169737300967,-0.0636379997595541,0.6916497585045475,0.0888723337751945,-0.3511510816394891,0.5892147440383396,11.154771017582789,-1.2620304664231572,0.1265959577062322,-1.0258461847246727
2.06,-1.0499181389469123,0.6996252707726243,1.4717956412349185,0.022776494033846,0.1379584717381893,0.0133394153275492,0.4584588970093175,-0.9616690191399816,-0.0228145615182951,-1.0578852605096134,0.7175087661844876,1.4715175046915627,0.5342285797704078,-1.0546383187255954,-0.0640873040887855,0.5101298960826833,0.1102732398695349,-0.1126965829241377,0.4851513203560599,11.073936777606832,-1.2591319594532502,0.1306198878470441,-1.0318920674392316
2.08,-1.0407232005094158,0.6803971784237277,1.4714196109895594,0.0192178469036051,0.1406483871265516,0.0133466342800759,0.4609838623871715,-0.9613053155436964,-0.0152867354799734,-1.047462435380365,0.6968044267098856,1.4702447446963716,0.56040322638639,-1.0934810087165927,-0.0649859127472483,0.3974163287050061,0.1262482688927008,0.0181851798142562,0.3763913019160844,10.942927176859484,-1.2571338873091602,0.1343703612171358,-1.037663757959772
2.1,-1.031938168438456,0.6621493544054501,1.4711864521899547,0.0169442044829883,0.1429854451818339,0.0134263879904805,0.463674765280268,-0.9598813086784564,-0.0096474979245352,-1.0370396102511166,0.6761000872352837,1.4689719847011804,0.586577873002372,-1.13232369870759,-0.065884521405711,0.3204284402912354,0.134545144654824,0.0712003432620012,0.2819618777719064,10.826642833369078,-1.255637252714738,0.1370599045922778,-1.0427984967790955
2.12,-1.02263250766101,0.6429765135123674,1.471046615329213,0.015867774841854,0.1452362092436097,0.0136003828615666,0.4667928378884087,-0.957640172951532,-0.0046845766983338,-1.0253080527910692,0.6534536132611319,1.4676542942730662,0.612752519618354,-1.1711663886985872,-0.0667831300641738,0.3137501124845063,0.1559036304070366,0.1120567863462262,0.2481460613100733,10.741356391045883,-1.2543028759469026,0.1384785952347321,-1.0473588775114442
2.14,-1.0132603357264676,0.6238558819409814,1.471000959834412,0.0164921187183625,0.1472872580397862,0.0138927823771585,0.4703099973105619,-0.9547202235322896,-0.0001505885133779,-1.0135764953310218,0.6308071392869801,1.466336603844952,0.6389271662343361,-1.2100090786895847,-0.0676817387226366,0.3219222106079849,0.1758579711076568,0.1459974709621114,0.2266994092477917,10.690576946562942,-1.253069485310632,0.1382798705766177,-1.0517290225588816
2.16,-1.0038098513492884,0.6047861659690151,1.4710449766653302,0.0188514234548363,0.149022226064637,0.0143040830009736,0.4745595977197962,-0.9525815609037502,0.0043178862481566,-1.001190571705575,0.6071895980630534,1.464996448200376,0.6651018128503181,-1.248851768680582,-0.0685803473810993,0.3263443280162372,0.2124800204617166,0.1069331314269728,0.2234237380767308,10.679245283937234,-1.2520441776666036,0.1365373107291865,-1.0558390410886769
2.18,-0.9947474833302652,0.5866890022824777,1.4711712258673264,0.02208619981826,0.150233424971769,0.0147574338586199,0.4791329128363772,-0.9527614641406892,0.0087380358174711,-0.9881502819147282,0.5826009895893518,1.4636338273393388,0.6912764594663001,-1.2876944586715793,-0.0694789560395621,0.3181402935236326,0.2286657558290522,-0.008995161846953,0.2210074784657263,10.679245283937234,-1.2516585356290124,0.133678527786946,-1.0598848358469757
2.2,-0.9851112939234828,0.5676123138440834,1.4713970690866789,0.0254707183968232,0.1509979570437487,0.0152210630018446,0.4842208774191522,-0.9549215450080932,0.0136235345737889,-0.9707908376884462,0.5390509290754432,1.4716081276582,0.556159376881425,-0.9823791406520962,0.0040152119629353,0.3688544124965813,0.2543982291387497,-0.1080040433701912,0.2442749378158884,10.696844933241664,-1.2514101472926376,0.1307680661290092,-1.0629816921723692
2.22,-0.9753509975897516,0.5481816263516224,1.4717765948432355,0.0188026479596165,0.1510008595605076,0.0149679279629142,0.4913892739118369,-0.9817944287663408,0.0243324851620861,-0.9707908376884462,0.5390509290754432,1.4716081276582,0.556159376881425,-0.9823791406520962,0.0040152119629353,1.4901505062100424,0.3584198246342318,-1.343644187912385,0.5354475294148623,11.153939145056029,-1.2469936496165337,0.1365832867689878,-1.0631701126812052
2.24,-0.9659603024046576,0.5294520687884818,1.4723305725426898,0.0042120816060203,0.1504279107810006,0.0141676709433182,0.4966941453943846,-0.9871116874998452,0.0334576528136286,-0.9707908376884462,0.5390509290754432,1.4716081276582,0.556159376881425,-0.9823791406520962,0.0040152119629353,0.5909390547132032,0.2652435741273884,-0.2658629366752152,0.456258382577124,11.153939145056029,-1.2478180458816763,0.1516563222815496,-1.0621600842091834
2.26,-0.9559832618481772,0.5097610361637062,1.4730669814214097,-0.0120095614939185,0.1497593194549167,0.0133086750978413,0.5006736116482635,-0.9814795765825396,0.039504807740931,-0.965229243919632,0.5292271376689222,1.4716482797778294,0.5715646696904346,-0.9883026759543776,0.0030706471920281,0.4585981567925,0.1989733126939424,0.2816055458652822,0.3023577463651186,10.976197227022569,-1.251724282846731,0.1680044699516163,-1.0619936783963015
2.28,-0.9459414755088764,0.4902549176431682,1.4738839462422813,-0.0262137157791294,0.1494057836149026,0.0126297333488979,0.5033022096231006,-0.9696621451232555,0.0417197545902706,-0.9541060563820036,0.5095795548558802,1.471728584017088,0.6023752553084537,-1.0001497465589402,0.0011815176502138,0.6153600636082716,0.1314298987418527,0.5908715729641967,0.110747342466979,10.74066948369,-1.2559876497403646,0.182516362214332,-1.0617804056052516
2.3000000000000003,-0.9358576031990968,0.4710268221766374,1.4747119706203855,-0.03734530119476,0.1496350523507693,0.0121826258085284,0.5050569077852833,-0.9544360514975094,0.0409819966985675,-0.942982868844375,0.4899319720428383,1.4718088882563467,0.6331858409264728,-1.011996817163503,-0.0007076118916004,0.7672307010396615,0.0877349081091383,0.7613046812873059,-0.0368878945851504,10.533205813522727,-1.2594719818606424,0.1935617698924636,-1.0617869380177891
2.32,-0.9262483926195274,0.453059114706929,1.475469297343239,-0.0451104092750652,0.1504864752206543,0.0119506865174977,0.506462079885024,-0.9383148808837874,0.038786422359585,-0.9303191520258456,0.4696920356995683,1.4717947360185146,0.6639964265444919,-1.0238438877680658,-0.0025967414334148,0.8165280112534739,0.0702586049870335,0.806058530686099,-0.1097787169491257,10.320700650730032,-1.2617724073404766,0.2023466528892208,-1.0627385300963654
2.34,-0.9161023234049828,0.4344809341521775,1.4762173088981192,-0.0507278461030758,0.1520391776573772,0.0118693019096693,0.5081755742507601,-0.920776581526142,0.0361306796451704,-0.917655435207316,0.4494520993562982,1.4717805837806823,0.6948070121625111,-1.0356909583726286,-0.0044858709752291,0.8910400898177372,0.0856747182868045,0.8769149678822696,-0.132787135720731,10.320700650730032,-1.263003955860191,0.208588448485025,-1.0647997932711095
2.36,-0.9059123827901544,0.4162565116838044,1.4769131341397483,-0.0541622136828188,0.1540518115233456,0.0119279992690741,0.5108260531825721,-0.9030677208031876,0.0335980077890614,-0.904221453748336,0.4289159862479141,1.4717192033043052,0.7256175977805301,-1.0475380289771912,-0.0063750005170434,0.90421680669476,0.1325239465906014,0.8854430361477261,-0.1266335928054505,10.313158849936372,-1.2634199773921302,0.2125682556671012,-1.067709102738868
2.38,-0.8956588854857437,0.3983861736613022,1.47756247881536,-0.0558979488436096,0.1561690645625393,0.0121100787101941,0.5144418544171996,-0.8852318056560277,0.0314714233581454,-0.8900172076489057,0.4080836963744159,1.4716105945893825,0.7564281833985492,-1.059385099581754,-0.0082641300588577,0.9161280601624904,0.1807900617313729,0.8917957573579938,-0.1063292215458023,10.328888900710808,-1.263870788863615,0.2152051046197704,-1.071344823447729
2.4,-0.8858429000097529,0.3817430546591144,1.4781444787127604,-0.0560366647305338,0.1580298401183998,0.0124071216928116,0.5186507432698818,-0.8678189851132017,0.0299029666137401,-0.8699367927648837,0.3541245833785008,1.4791360499832673,0.6039474970697112,-0.8597229660189866,0.0346290806964517,0.8991400352419614,0.2104444426341112,0.8706410271413001,-0.0784228372202622,10.359579550982744,-1.264664033524154,0.2163277918538654,-1.0754003256440212
2.42,-0.8753952681997585,0.3644261241420497,1.478785452132272,-0.0595564491793154,0.1592826524698605,0.0125354765010879,0.5258608675135629,-0.8627654375042759,0.0344584928406525,-0.8699367927648837,0.3541245833785008,1.4791360499832673,0.6039474970697112,-0.8597229660189866,0.0346290806964517,0.4956739206602546,0.360506212184053,0.2526773804462867,0.2277763113456213,10.394947512560066,-1.263745054557607,0.2204588218749151,-1.0766438509996512
2.44,-0.864811990824707,0.3473168947867995,1.479518498452849,-0.0671480847597551,0.1597151827465158,0.0124456388242069,0.532036818152845,-0.8477800670201094,0.0385442927363546,-0.8699367927648837,0.3541245833785008,1.4791360499832673,0.6039474970697112,-0.8597229660189866,0.0346290806964517,0.8357593188746032,0.3087975319641056,0.7492685242083241,0.2042899947851038,10.755312844501532,-1.2671240906873424,0.2286817292169176,-1.0788338553428165
2.46,-0.8546534438502256,0.3314018973989394,1.4802758213063263,-0.0743506935597689,0.1598852215115347,0.0123988957562904,0.5369727215683437,-0.8283704277831655,0.0409641615358168,-0.8638973177941865,0.3455273537183109,1.4794823407902318,0.6218486256002135,-0.8546211980915783,0.0352606121641129,1.008653809344486,0.2467951707749383,0.9704819618471971,0.1209934399731105,10.71497805720992,-1.271186371233545,0.2377107534681249,-1.082976685030518
2.48,-0.8438667081234359,0.3150759761431035,1.4811124656087045,-0.0806451535773105,0.1601550638461776,0.0124562244456425,0.5414484500351634,-0.805445677209515,0.0425417039829897,-0.8518183678527924,0.3283328943979312,1.480174922404161,0.6576508826612182,-0.844417662236762,0.0365236750994354,1.1705393781772373,0.2237864233409825,1.1462375286825257,0.0788771223586438,10.648837464214012,-1.2751517833825148,0.2455433882521575,-1.0873563298370763
2.5,-0.8329953831407525,0.2992274100995476,1.4819734448870163,-0.0851800969629473,0.1607643046902187,0.0126301020993026,0.5455352077341303,-0.7810209933328753,0.0434985858149063,-0.8397394179113982,0.3111384350775515,1.48086750401809,0.6934531397222228,-0.8342141263819455,0.037786738034758,1.239135176044263,0.2043378849483468,1.2212341938319826,0.0478440915958319,10.610785031008165,-1.2785481403489354,0.2514175234260531,-1.092022180079549
2.52,-0.8225923889319844,0.2846299480453237,1.482808390527209,-0.0879092962924859,0.1617447027091622,0.0128875360276937,0.5493937106109998,-0.7571983984491205,0.0443628105515913,-0.8258703551169537,0.2944541525499126,1.481623238778785,0.7292553967832274,-0.824010590527129,0.0390498009700805,1.2074259354529886,0.1929251438434753,1.191129744187741,0.0432112368342497,10.593582412650903,-1.2817026094088029,0.2559739898026055,-1.0973513641287178
2.54,-0.8115599921075555,0.2697541265425072,1.48370989510168,-0.0893099761208382,0.1632141158013541,0.0132373565458242,0.5537245593550804,-0.7318316860810561,0.0457724438229244,-0.8120012923225093,0.2777698700222736,1.48237897353948,0.7650576538442321,-0.8138070546723126,0.040312863905403,1.2886169069664049,0.2165424372040258,1.2683356184032213,0.0704816635666513,10.603335576980498,-1.2841288001684323,0.2590035693388555,-1.1032927768310852
2.56,-0.8004315451911989,0.2553948300114519,1.4846454141561911,-0.0889942366321992,0.1649486785708841,0.0136970944116944,0.5589700110707534,-0.7055588538395152,0.0477425037186608,-0.7972371731015397,0.2613406758910052,1.4831662848735585,0.8008599109052367,-0.8036035188174961,0.0415759268407255,1.3431842889998336,0.2622725857836516,1.313641612077043,0.0985029947868219,10.64556962894585,-1.286096322472543,0.2604012906563864,-1.1105792268719132
2.58,-0.7891884998979243,0.2415683159924566,1.4856285206205349,-0.086460183241745,0.1666126256123002,0.0143312030886163,0.5650830836428135,-0.67879749743496,0.050488607363176,-0.781577997454045,0.2451665701561071,1.4839851727810196,0.8366621679662413,-0.7933999829626798,0.0428389897760481,1.3793847705674096,0.3056536286030031,1.3380678202277618,0.1373051822257578,10.748690051647827,-1.2885906213924945,0.2597400149480953,-1.1182792101234889
2.6,-0.7783871180515018,0.2289101484592164,1.4866233004559697,-0.0822765332687926,0.1679129827017387,0.0150924704262733,0.5715830824250147,-0.6555510933193804,0.0541241369616681,-0.7609343457157836,0.2076284411207086,1.4881529509886935,0.6286987335813968,-0.6380222430661779,0.0532690937270935,1.2205146086128622,0.32499993911006,1.1623202057789772,0.1817764799246092,10.748690051647827,-1.2927288978109963,0.2572298697897556,-1.126833853015002
2.62,-0.7667904060593945,0.2159870190087905,1.487729350782663,-0.0787120617393473,0.1659917943554683,0.016106790611751,0.5877869434216878,-0.6374052551402295,0.0561506857848713,-0.7609343457157836,0.2076284411207086,1.4881529509886935,0.6286987335813968,-0.6380222430661779,0.0532690937270935,1.2205976554092912,0.8101930498336574,0.9072919089575472,0.1013274411601594,10.80690409035742,-1.2923439467904636,0.2554169931415436,-1.134749399544954
2.64,-0.7548980885526771,0.2034425649246286,1.4888820180876856,-0.0766018441016404,0.1583219257156746,0.017465841745475,0.5997485401330072,-0.6178394032381421,0.0591397784344643,-0.7609343457157836,0.2076284411207086,1.4881529509886935,0.6286987335813968,-0.6380222430661779,0.0532690937270935,1.156327193538352,0.5980798355659678,0.9782925951043686,0.1494546324796477,10.760104350154506,-1.311397879253793,0.2557997222010599,-1.132534677942483
