t,x,y,z,roll,pitch,yaw,v_x,v_y,v_z,ref_x,ref_y,ref_z,ref_v_x,ref_v_y,ref_v_z,a_com,a_x,a_y,a_z,thrust,wind_x,wind_y,wind_z
0.0,-0.9604770373832788,0.8989950942869773,2.2986947219006337,0.0121450842568796,0.1364045891308465,0.0258243046390318,0.0051224396116091,-0.0054465587478371,0.0056971982420334,-0.9604206401423276,0.8988545586366382,2.298758457528112,0.0249808422233806,-0.1081717675100707,-0.0942604512128341,0.4700065360642682,0.2561219805804581,-0.2723279373918558,0.2848599121016734,10.54618965427835,-1.285414583268644,0.1641259896305886,-1.166160693419224
0.02,-0.9604717349435624,0.8991604177310354,2.298595863241122,0.0191628985551902,0.1381232947147728,0.0263433097831909,-0.0043892367850545,0.0179750695172213,-0.0166482675018034,-0.9604206401423276,0.8988545586366382,2.298758457528112,0.0249808422233806,-0.1081717675100707,-0.0942604512128341,1.6869828820785535,-0.4755838198331857,1.1710814132529257,-1.1172732871918445,10.545303433334992,-1.3089407560434974,0.158862126534255,-1.1831956464215223
0.04,-0.9606568472453938,0.899565495233215,2.297965892624082,0.0339825730929437,0.1431900460539444,0.0274996217467475,-0.0130143260957813,0.0204871633210443,-0.0450882178408209,-0.9604206401423276,0.8988545586366382,2.298758457528112,0.0249808422233806,-0.1081717675100707,-0.0942604512128341,1.4912524569828882,-0.4312544655363407,0.1256046901911488,-1.421997516950874,9.204036352188268,-1.302039365935513,0.143521202733941,-1.1691500311600476
0.06,-0.960954061500674,0.8999180545645924,2.2968432800481224,0.0487094037800386,0.1500237212711007,0.0287797700567731,-0.0174893786249608,0.0162007563073702,-0.0716497913532328,-0.960170831720094,0.8977728409615375,2.297815853015984,0.028949192440127,-0.1281717678080939,-0.1142604515108573,1.3637416981241834,-0.2237526264589756,-0.2143203506837047,-1.3280786756205958,8.969592249417019,-1.288182927858701,0.1267913703518978,-1.1567471501679265
0.08,-0.9613240039068204,0.9001634647387162,2.2951226518057397,0.0637139465045196,0.1581594321447033,0.0302339865458063,-0.0189480302342698,0.0082413935353748,-0.0989979996288155,-0.9596712148756262,0.8956094056113361,2.295930643991727,0.0368858928736196,-0.1681717684041404,-0.1542604521069038,1.4260115849268344,-0.0729325804654505,-0.3979681385997687,-1.367410413779136,9.02840126794854,-1.2755085871330611,0.1111948696302997,-1.1483072629216209
0.1,-0.9616918952374566,0.9002194112990867,2.2928640533529463,0.0780293992600345,0.1665071464719041,0.0317544011767265,-0.0175085790030578,-0.0025500516699753,-0.1254679895433108,-0.9591715980311586,0.8934459702611347,2.29404543496747,0.0448225933071123,-0.2081717690001868,-0.1942604527029502,1.4310727405871078,0.0719725615606041,-0.5395722602675137,-1.323499495724765,9.02840126794854,-1.264393338083383,0.0974952942272814,-1.1404151169483854
0.12,-0.9619862558322484,0.9000478163702649,2.290236315969034,0.0909816510971315,0.1740609593865641,0.0332090811293775,-0.0134277226729225,-0.01522110207846,-0.1498317521884874,-0.9582751461650164,0.889282534881131,2.2901602259134117,0.0527592937406049,-0.2481717695962332,-0.2342604532989967,1.3881659096376642,0.2040428165067655,-0.6335525204242327,-1.2181881322588282,9.080445292005606,-1.254144057221047,0.0841762220238439,-1.1321347417056442
0.14,-0.962191460394446,0.8995830017996819,2.2869649687048867,0.1039498518622353,0.1811701267566496,0.0346897883705405,-0.0071948629104067,-0.0308637472821746,-0.1760672535882292,-0.957378694298874,0.8851190995011272,2.286275016859352,0.0606959941740976,-0.2881717701922798,-0.2742604538950431,1.5587193649630635,0.3116429881257876,-0.7821322601857327,-1.3117750699870936,9.129081176733962,-1.2478441242265808,0.0718613835631672,-1.1267250158810234
0.16,-0.9622522497572684,0.8987813088170454,2.283166470762708,0.1162539020147332,0.1871096338328592,0.0360554610478979,0.0008583577827382,-0.0487806378002228,-0.2024787417165363,-0.9562838249218946,0.8799556641062223,2.281389807790392,0.0686326946075903,-0.3281717707883262,-0.3142604544910896,1.645779476813287,0.4026610346572479,-0.8958445259024087,-1.3205744064153522,9.104805191812376,-1.243115154036108,0.060465223176689,-1.119588170731496
0.18,-0.9621365854155418,0.8975980915653773,2.278840833988811,0.1279117010322592,0.1916497512473149,0.0372421680364883,0.0102442627573741,-0.0688908374909646,-0.2287705006777894,-0.9549905380340776,0.8737922286964163,2.2755045987065308,0.0765693950410829,-0.3681717713843726,-0.354260455087136,1.7202993439159344,0.4692952487317973,-1.0055099845370867,-1.3145879480626552,9.111682549026227,-1.2409357343801413,0.0504422179165091,-1.1118298391558223
0.2,-0.9618449430302268,0.8960815110457437,2.2742465605896323,0.1384075361620443,0.1946518504069527,0.0381669473100236,0.0199031250246346,-0.0899476900542279,-0.2535224165664415,-0.9616243722776732,0.894153549690829,2.267402308954922,0.029111014100386,-0.1688908389810807,-0.3287705021679055,1.6950973425793476,0.4829431133630265,-1.0528426281631684,-1.2375957944326026,9.149814408500788,-1.240780718447446,0.0406868842749994,-1.102335088347891
0.22,-0.9612886021071352,0.8938650612690014,2.2690349364783016,0.1440673228032942,0.1961712452332568,0.0385159253442765,0.0352721466756176,-0.1285560922919668,-0.2652439702611313,-0.9616243722776732,0.894153549690829,2.267402308954922,0.029111014100386,-0.1688908389810807,-0.3287705021679055,2.158825126589065,0.7684510825491465,-1.9304201118869428,-0.5860776847344901,9.149814408500788,-1.2293117412031356,0.0359175139981585,-1.0841413516758736
0.24,-0.9604252871979688,0.8909511481432415,2.263613596519768,0.1436769785076986,0.1958260672626351,0.0381407944163853,0.050139086624496,-0.1604054951767163,-0.2764046419502932,-0.9616243722776732,0.894153549690829,2.267402308954922,0.029111014100386,-0.1688908389810807,-0.3287705021679055,1.8438892049903028,0.7433469974439194,-1.592470144237476,-0.558033584458098,10.144924064165934,-1.2322024145210295,0.0367554381702324,-1.0772817444688616
0.26,-0.9592747178924358,0.8874332341814569,2.257941550898819,0.1399948217481156,0.1937461627972338,0.0372654372132041,0.064031551635049,-0.1890083824985222,-0.2900741809055777,-0.9613332621366693,0.8924646413010182,2.2641146039332427,0.0328843643689883,-0.1888908392791039,-0.3487705024659288,1.7305938593900403,0.6946232505276512,-1.4301443660902968,-0.6834769477642222,9.997879944648048,-1.2366613746654622,0.0403327860040311,-1.069860633472944
0.28,-0.9579371094645804,0.883606278482678,2.252282314960376,0.1352426523583875,0.190193338794139,0.0361238784074365,0.0759357690043099,-0.2121629721909967,-0.3048697436005438,-0.9607510418546614,0.8890868245213966,2.257539193889885,0.0404310649061931,-0.2288908398751503,-0.3887705030619752,1.4972926321048037,0.5952108684630447,-1.1577294846237234,-0.739778134748309,9.82653789085998,-1.243421967671648,0.0453478568504993,-1.0595583348214148
0.3,-0.956306741227714,0.8791329768294301,2.246003442508047,0.1302720417198214,0.1850556249881808,0.0347487801877963,0.0861286065969618,-0.2339021522028153,-0.3222846769086113,-0.9601688215726536,0.885709007741775,2.2509637838465264,0.0479777654433978,-0.2688908404711968,-0.4287705036580216,1.4830423020777843,0.5096418796325962,-1.08695900059093,-0.8707466654033741,9.675165335480417,-1.252094271842503,0.0502542321581671,-1.0475143672914715
0.32,-0.9545053369410138,0.8742421790554479,2.239356339780644,0.1258492020487424,0.1792870923863121,0.0333501574747682,0.0933226634688574,-0.2541601463796864,-0.3415008452815063,-0.9592092662637858,0.880331190932351,2.242388373773366,0.0555244659806026,-0.3088908410672432,-0.4687705042540681,1.4417020403690033,0.3597028435947786,-1.0128997088435536,-0.9608084186447484,9.530324392090732,-1.259925169279724,0.054322589168269,-1.034599655791321
0.34,-0.9526847937612166,0.8692301945878681,2.23267737265645,0.1222674989774227,0.1739022577851726,0.0320952417296474,0.0978726781526203,-0.2725004237500936,-0.3605617832710334,-0.9582497109549176,0.8749533741229271,2.2338129637002058,0.0630711665178073,-0.3488908416632897,-0.5087705048501145,1.342002016286231,0.2275007341881463,-0.9170138685203584,-0.9530468994763536,9.338937166955477,-1.2668817526545038,0.057890213262731,-1.0204582479140984
0.36,-0.950694626604583,0.86357712840799,2.225246983209576,0.1189120885987236,0.1688197213146428,0.0308903359553492,0.1007654297141493,-0.2917714834855114,-0.3814811885921461,-0.9571014881326196,0.868575557298602,2.224237553612144,0.0706178670550121,-0.3888908422593362,-0.5487705054461609,1.4294782911186257,0.144637578076448,-0.9635529867708909,-1.0459702660556374,9.338937166955477,-1.272045194661537,0.0609819516915138,-1.0061855990483315
0.38,-0.94866633582197,0.8575415587844807,2.217390794393273,0.1156845887079034,0.164801040104064,0.0298334779415162,0.1018003691563295,-0.3107066258975478,-0.4030860972513656,-0.9557645977968916,0.8611977404593757,2.213662143509181,0.0781645675922168,-0.4288908428553826,-0.5887705060422074,1.4373437271459253,0.0517469721090103,-0.9467571206018184,-1.0802454329609743,9.272859633696498,-1.274490162158388,0.0638104375140646,-0.9929242272536148
0.4,-0.9466360495058392,0.8511329131854654,2.20909451625767,0.1124614864529058,0.162410783421967,0.028974476582739,0.1011509542360965,-0.3290655699729104,-0.4254157425078723,-0.9435763173641536,0.8420062274896033,2.1972364895307046,0.1351318937370466,-0.4107066273876639,-0.5030860987414818,1.44575726228709,-0.0324707460116466,-0.9179472037681324,-1.1164822628253328,9.219624011462656,-1.2750282680091831,0.0664410448944023,-0.9823048936868716
0.42,-0.944725765492776,0.8446940988094734,2.2010073719293963,0.1096225765706322,0.1631026982410255,0.0285096497395118,0.1005314208522639,-0.3478991869258871,-0.4235866910841321,-0.9435763173641536,0.8420062274896033,2.1972364895307046,0.1351318937370466,-0.4107066273876639,-0.5030860987414818,0.9466181625341604,-0.0309766691916325,-0.9416808476488348,0.0914525711870062,9.167367034360725,-1.2649346690950884,0.0691096837878864,-0.965428280098449
0.44,-0.9426956054605344,0.8375465440507605,2.19253178776592,0.1073506211699948,0.167217034132056,0.0284356612024329,0.1028926581210328,-0.3659789000502162,-0.4245379573785372,-0.9435763173641536,0.8420062274896033,2.1972364895307046,0.1351318937370466,-0.4107066273876639,-0.5030860987414818,0.912902480635712,0.1180618634384476,-0.9039856562164578,-0.0475633147202531,10.652234925768424,-1.258536974850363,0.0702271032845458,-0.9734370931641508
0.46,-0.9405929492125992,0.8300403922684682,2.183977588657669,0.1057223285329329,0.1731016179682652,0.0285848450844321,0.1075296051748439,-0.3837310779514323,-0.4310673592390086,-0.9422249984267832,0.8378991612157266,2.19220562854329,0.14179819865319,-0.430706627685687,-0.523086099039505,0.9737481538773212,0.2318473526905527,-0.8876088950608013,-0.3264700930235675,9.978575142049522,-1.2518480454302408,0.0711191931521278,-0.9812868228243228
0.48,-0.9383790936588602,0.822186372436372,2.1752432161195627,0.104484520064716,0.1797784884117146,0.0288323154554644,0.1138825501359567,-0.4007885226117109,-0.4420450530586763,-0.9395223605520424,0.8296850286679733,2.18214390656846,0.1551308084854768,-0.4707066282817335,-0.5630860996355515,1.0628100601892243,0.3176472480556392,-0.8528722330139321,-0.5488846909833894,9.761156285305333,-1.2456891274307151,0.0718378708122507,-0.988318718819312
0.5,-0.936143998641504,0.8144160232968365,2.166711480536908,0.1036932525433776,0.1863540216555234,0.0291077554959678,0.121260213558371,-0.4163069536315919,-0.4554972589060726,-0.9368197226773014,0.8214708961202201,2.1720821845936307,0.1684634183177636,-0.51070662887778,-0.6030861002315979,1.0911157833313991,0.3688831711207173,-0.7759215509940492,-0.672610292369813,9.761156285305333,-1.2393878761786723,0.0723672894610419,-0.9947545534188558
0.52,-0.93362665520598,0.8059259261884926,2.1574289398890945,0.1034200653681302,0.1932281840711793,0.0294229202650618,0.1302531976877896,-0.431905138763687,-0.4721762841241521,-0.933450454310946,0.8112567635426645,2.1600204625889985,0.1817960281500505,-0.5507066294738264,-0.6430861008276444,1.22715832840797,0.4496492064709284,-0.779909256604755,-0.8339512609039729,9.59946596204827,-1.2328980845003483,0.072455372235883,-0.99976723827123
0.54,-0.9309117473650046,0.7971269458943868,2.147799628508871,0.1038550102049273,0.1997783367193033,0.0297483414319879,0.1409309658139346,-0.447255799572511,-0.4899643041998627,-0.9300811859445908,0.8010426309651089,2.1479587405843668,0.1951286379823373,-0.5907066300698729,-0.6830861014236909,1.2904177401496473,0.533888406307248,-0.7675330404412012,-0.8894010037855338,9.466967918136106,-1.2272415209679777,0.0720204098973128,-1.0031956705211258
0.56,-0.9279611378045038,0.788010177353486,2.137805607634374,0.1046726867621649,0.205534623965945,0.0300144138701835,0.1536171479633565,-0.4635850469625261,-0.5085416516071921,-0.9263786023324284,0.7898284983726521,2.1348970185648337,0.2084612478146242,-0.6307066306659193,-0.7230861020197372,1.3898753312304948,0.634309107471094,-0.8164623695007533,-0.928867370366468,9.427171197320604,-1.2223688369701369,0.0712424435904597,-1.0053985968660384
0.58,-0.92490885632448,0.7790386097640227,2.127960794038042,0.1053028018377673,0.2098931374082424,0.0301360944953713,0.166994350485411,-0.4798684749975867,-0.5268066953226368,-0.9223427034744588,0.7776143657652942,2.1208352965304,0.221793857646911,-0.6707066312619657,-0.7630861026157837,1.3943738718652243,0.6688601261027299,-0.8141714017530305,-0.9132521857722342,9.405818884927612,-1.2192620446347342,0.0706263483422306,-1.0057934586553745
0.6,-0.9214141775609952,0.7692562398627207,2.1172152828183783,0.1054523995955513,0.2131637351114204,0.0300820520723541,0.181724965430412,-0.4974372192695312,-0.5467945365267955,-0.9165591388002092,0.7550451860141434,2.10162045927191,0.2093859487100509,-0.5798684764877029,-0.6268066968127529,1.520826738942947,0.7365307472500499,-0.8784372135972246,-0.9993920602079376,9.384653255778176,-1.217951841955298,0.0704947710719292,-1.004309887533971
0.62,-0.9175669510570718,0.7590642519812568,2.1063233811959647,0.103881244693207,0.2152373896717533,0.0297717740469402,0.2025145030157569,-0.5206864232973861,-0.5399997696080451,-0.9165591388002092,0.7550451860141434,2.10162045927191,0.2093859487100509,-0.5798684764877029,-0.6268066968127529,1.5960100394588976,1.0394768792672426,-1.1624602013927454,0.3397383459375236,9.347642594495484,-1.213145383141234,0.0719047267621384,-0.993256704028458
0.64,-0.9135246387932072,0.748974815385479,2.0961066267186967,0.1005773232732557,0.2162828078250456,0.0292465710811104,0.2218314475089478,-0.5397421351493348,-0.5358856424043649,-0.9165591388002092,0.7550451860141434,2.10162045927191,0.2093859487100509,-0.5798684764877029,-0.6268066968127529,1.3722158552734856,0.9658472246595468,-0.9527855925974328,0.2057063601840103,10.69918466296258,-1.214266732339092,0.0744074596005557,-0.997379923826898
0.66,-0.9088837689239014,0.7379969896502981,2.085383203175411,0.0966850673024367,0.216403933682445,0.0285639265990961,0.2411002276126157,-0.5568925361261766,-0.5368922331615802,-0.9144652793131088,0.7492465012492664,2.0953523923037825,0.2178642683549789,-0.5998684767857261,-0.6468066971107761,1.2907704727240197,0.9634390051833932,-0.857520048842092,-0.0503295378607659,10.69918466296258,-1.216761864622716,0.0774387052946333,-0.9985803034386276
0.68,-0.9038687650040588,0.7266958823848598,2.0745878319149345,0.0929241067943099,0.2154128072034168,0.0277863662403414,0.2593374530812381,-0.5722903195295764,-0.5427653616715059,-0.9102775603389078,0.7376491317195123,2.082816258367527,0.2348209076448349,-0.6398684773817725,-0.6868066977068226,1.229005456685899,0.9118612734311192,-0.7698891701699906,-0.2936564254962859,10.359953064183172,-1.2201097835101664,0.0802613775170574,-0.997223833844678
0.7000000000000001,-0.8984996633742254,0.7151018633363493,2.063628372721064,0.0895055632001159,0.2130991086038482,0.0269187616610227,0.2765498638196035,-0.5863639980489203,-0.5528323094167003,-0.9060898413647068,0.7260517621897582,2.0702801244312723,0.2517775469346909,-0.679868477977819,-0.726806698302869,1.2203267466098076,0.8606205369182718,-0.7036839259671912,-0.5033473872597172,10.078792597440952,-1.224987899502243,0.0829889525403095,-0.99279257672346
0.72,-0.8930916750865133,0.7038367168125624,2.053000065772216,0.0866544117415123,0.2095453868354187,0.0260134317022727,0.2917295712409649,-0.5987927408211056,-0.5653921384881581,-0.901054290426013,0.7124543926302018,2.055743990465215,0.2687341862245468,-0.7198684785738655,-0.7668066988989155,1.1647386730502225,0.7589853710680661,-0.6214371386092654,-0.6279914535728903,9.664152816159003,-1.23135700739883,0.0853556954297229,-0.985475916314336
0.74,-0.8871037113267991,0.6917317772580133,2.041539114696824,0.084149135329151,0.2044306107252974,0.0249925643647213,0.3059598026974882,-0.6111133016179805,-0.5800613198700555,-0.8960187394873192,0.6988570230706455,2.0412078564991574,0.2856908255144028,-0.759868479169912,-0.806806699494962,1.193189620377586,0.7115115728261651,-0.6160280398437468,-0.7334590690948717,9.664152816159003,-1.239506179113306,0.0873233459877555,-0.9750826022458396
0.76,-0.8808563368497652,0.6793759624401963,2.02977107955566,0.08187780534662,0.1983931596731413,0.0239290397573775,0.3178071393014572,-0.6237509952726418,-0.5959338267233711,-0.890559272566379,0.6842596534961879,2.0256717225181986,0.3026474648042587,-0.7998684797659583,-0.8468067000910083,1.1747416304504603,0.5923668301984514,-0.6318846827330638,-0.7936253426657824,9.482764356226651,-1.2474139147493448,0.0889349995754888,-0.963726758186539
0.78,-0.874724664025568,0.667405435971261,2.018286685259287,0.0796522829497932,0.1922996016723864,0.0229045190583815,0.3268625174539419,-0.6355420336267312,-0.6120994370253888,-0.8846758896631923,0.6686622839068292,2.009135588522339,0.3196041040941147,-0.8398684803620048,-0.8868067006870548,1.0981295636089643,0.4527689076242347,-0.5895519177044728,-0.8082805151008843,9.482764356226651,-1.2553917764550435,0.0906205600358459,-0.9510804109440888
0.8,-0.8681076322325629,0.6545692535393971,2.005853188737145,0.0772215285105036,0.1859346511917957,0.0218473796410431,0.3341818908516781,-0.647348976657183,-0.6304286696093742,-0.858381538152871,0.6356283342899245,1.9876817134080171,0.3826017488615842,-0.7296948492667039,-0.6669296379955617,1.149932495603169,0.3659686698868097,-0.5903471515225911,-0.9164616291992668,9.397638873126198,-1.2627376757639588,0.0923309095301465,-0.9383388298076428
0.8200000000000001,-0.8613164551367091,0.6414348979572204,1.993457729941087,0.0735535110022833,0.1809353296961744,0.0208357873157445,0.3446812433721823,-0.6648878048591316,-0.6059998940688854,-0.858381538152871,0.6356283342899245,1.9876817134080171,0.3826017488615842,-0.7296948492667039,-0.6669296379955617,1.5926487155481464,0.5249676260252134,-0.876941410097426,1.2214387770244362,12.116618604392896,-1.2607456560510937,0.0949020394048114,-0.9162744404127416
0.84,-0.854335589923548,0.6279874436142862,1.9815719251961852,0.0688104847950365,0.1789220472399931,0.01999887495499,0.3530275500137304,-0.6786853605525368,-0.5840502885131403,-0.858381538152871,0.6356283342899245,1.9876817134080171,0.3826017488615842,-0.7296948492667039,-0.6669296379955617,1.3618173167868035,0.4173153320774003,-0.689877784670262,1.097480277787255,11.592572812463004,-1.2623764299717044,0.0977644047039579,-0.921895736721492
0.86,-0.8475499951874118,0.6149846425662417,1.9706156226764608,0.0643639156293429,0.1793545463312492,0.0193880781685438,0.3610646249200557,-0.689286453465059,-0.5703484299643851,-0.8545555206642551,0.6283313857972574,1.9810124170280616,0.3937495951431127,-0.7485254123946985,-0.6778956781895963,0.9548804528315452,0.4018537453162663,-0.5300546456261102,0.6850929274377637,11.592572812463004,-1.261559400624878,0.1009011742235657,-0.9288563159219028
0.88,-0.8402344955278387,0.6011001517383433,1.9593058049707657,0.0601693338748925,0.1812332570953592,0.018880089433415,0.3701922231882953,-0.6985985525655767,-0.5616187094034459,-0.8469034856870234,0.6137374888119234,1.9676738242681504,0.4160452877061696,-0.7861865386506875,-0.6998277585776654,0.7845958527744029,0.4563799134119833,-0.4656049550258834,0.4364860280469562,10.763547855121033,-1.260180620765724,0.1038435321105611,-0.935410136263008
0.9,-0.8327291243393612,0.5870431313925097,1.9481179653021403,0.0566291086340211,0.1838005119996291,0.0184642613810755,0.3799785511959041,-0.7066733450084989,-0.5578040346784775,-0.8392514507097918,0.5991435918265893,1.9543352315082392,0.4383409802692266,-0.8238476649066766,-0.7217598389657346,0.6624315665147873,0.4893164003804379,-0.4037396221461098,0.1907337362484218,10.763547855121033,-1.25880898227008,0.1062660192335672,-0.9409834201056732
0.92,-0.8254125149059544,0.5735494831692123,1.9375195179838247,0.0539172596704552,0.1863611574435968,0.0181254474659407,0.3897569385550924,-0.7134315513834718,-0.558007947750753,-0.8304846311044073,0.5826666385284558,1.9399000347289244,0.4606366728322836,-0.8615087911626657,-0.7436919193538037,0.5944152447870574,0.4889193679594145,-0.3379103187486465,-0.0101956536137759,10.489128933163556,-1.258007862179125,0.1083560094854554,-0.9464048259056472
0.94,-0.8175028833669236,0.5592133910724861,1.9263459348478729,0.0517519527444606,0.1888589118922512,0.0178112855646857,0.4007315440193335,-0.719932190125982,-0.5593900951089178,-0.8217178114990227,0.5661896852303222,1.9254648379496095,0.4829323653953405,-0.8991699174186548,-0.7656239997418729,0.6415033134677813,0.5487302732120558,-0.3250319371255084,-0.0691073679082387,10.281326062216069,-1.257310692367528,0.1098961187657916,-0.9501708471607272
0.96,-0.8093636247754886,0.5447429415296257,1.915134268476991,0.0500072524601233,0.1908303623285243,0.0175058904604949,0.4126026539442211,-0.7267671674806484,-0.5617017067193161,-0.8123935995795617,0.5487712037757889,1.9104813391605933,0.5052280579583974,-0.936831043674644,-0.787556080129942,0.6945928925005183,0.5935554962443773,-0.3417488677333213,-0.1155805805199139,10.18678996282506,-1.257000490958074,0.1110366908139781,-0.95291351570008
0.98,-0.8014064595583332,0.5308699428761329,1.9044319056581815,0.0484431048771598,0.1919614910717613,0.0171926310253938,0.424318790430204,-0.733151529294189,-0.564735886046484,-0.8025119953460244,0.5304111941648559,1.894949538361875,0.5275237505214544,-0.9744921699306328,-0.8094881605180112,0.684167695294415,0.5858068242991454,-0.3192180906770314,-0.1517089663583937,10.18678996282506,-1.2575897630711053,0.1121784968001155,-0.9545837896917332
1.0,-0.7927904558041952,0.5161396899521503,1.8930944373292435,0.0468373301410159,0.1922842334822456,0.0168331692009999,0.436578337728773,-0.7394907050327377,-0.5688829264733322,-0.780190520036823,0.4942123664114234,1.8761951113558573,0.4868316277805725,-0.7768616232394538,-0.5734991220401673,0.7205546358742848,0.612977364928452,-0.3169587869274348,-0.2073520213424107,10.141635706077068,-1.2593106216562058,0.1133162060770791,-0.9549038540510638
1.02,-0.7838422089481003,0.5010998907052419,1.881998845807404,0.0397032558625371,0.191093770104055,0.0160348711147366,0.4579415266511293,-0.761149616489779,-0.5385474839582947,-0.780190520036823,0.4942123664114234,1.8761951113558573,0.4868316277805725,-0.7768616232394538,-0.5734991220401673,2.1480999505489637,1.068159446117814,-1.082945572852062,1.5167721257518751,10.085411097384169,-1.251698166741738,0.1185044667757272,-0.9418177365160686
1.04,-0.7744608393616333,0.4857742448931041,1.87154287097153,0.0272859391199771,0.1874875676174704,0.0148310772894759,0.4788568678566041,-0.7693803401333751,-0.5089827972465735,-0.780190520036823,0.4942123664114234,1.8761951113558573,0.4868316277805725,-0.7768616232394538,-0.5734991220401673,1.8569242107588213,1.0457670602737417,-0.4115361821798058,1.4782343355860594,12.10643699864977,-1.2571403270460475,0.1283171639162379,-0.9494594110453298
1.06,-0.7651860814012007,0.4711429112759266,1.8620890911560792,0.0149798551605034,0.1817054265522694,0.0136851425472649,0.4959036706100392,-0.7701389192964194,-0.4875533071694277,-0.7753222037590173,0.4864437501790288,1.870460120135456,0.4993341952506461,-0.7856036420285069,-0.575251769238904,1.3696641663448137,0.8523401376717532,-0.0379289581522168,1.0714745038572864,12.10643699864977,-1.268664431134881,0.139624450147125,-0.9521886278922198
1.08,-0.7551213303926233,0.4557763176812692,1.85252434691475,0.0031360796098522,0.1739463492462365,0.0126610048543365,0.5092249901134152,-0.7664474492091036,-0.470261051284924,-0.7655855712034058,0.4709065177142398,1.8589901376946525,0.5243393301907936,-0.8030876796066128,-0.5787570636363772,1.106917587595985,0.6660659751687975,0.1845735043657925,0.8646127942251863,11.644068155575953,-1.28190019048015,0.1501269504356414,-0.9500400282164758
1.1,-0.7448381654876555,0.4405180549467228,1.843252038517404,-0.0069418458657735,0.1655255666296338,0.011892377847575,0.5180759609889456,-0.7596933280128922,-0.4580207057750756,-0.7558489386477943,0.4553692852494507,1.8475201552538487,0.5493444651309409,-0.8205717171847187,-0.5822623580338506,0.827320821648205,0.442548543776522,0.3377060598105663,0.6120172754924186,11.282363303650529,-1.2938623105212017,0.1587093974899351,-0.9458375381322413
1.12,-0.73442182455813,0.4254198431033434,1.8341763491348195,-0.015013194959312,0.1573234874401455,0.0113793456345972,0.5229383676469141,-0.7508397092123252,-0.4501176152778446,-0.7448620493451755,0.4389578509057563,1.835874908093172,0.5743496000710884,-0.8380557547628246,-0.585767652431324,0.6412651631358007,0.2431203328984277,0.4426809400283504,0.3951545248615518,10.72020588407213,-1.3055325522805408,0.1660374110931858,-0.9395615756860868
1.14,-0.724465844983689,0.4112545921087192,1.8256840294344048,-0.0208787457910904,0.1503396019635006,0.0110909091840197,0.5247505809904969,-0.7410710898296697,-0.444184956821968,-0.7338751600425567,0.4225464165620619,1.824229660932495,0.5993547350112357,-0.8555397923409306,-0.5892729468287973,0.5785898335607358,0.0906106671791362,0.4884309691327748,0.2966329227938297,10.72020588407213,-1.3152520271029997,0.1716092075572294,-0.9324782686178972
1.16,-0.7139703746163961,0.3965470544545835,1.8168566817848983,-0.0254562774668107,0.1442146855674396,0.0109384953472669,0.5245415192370253,-0.730405580405464,-0.4388923429029521,-0.7222631423664342,0.4056978812789149,1.8124967814118813,0.6243598699513832,-0.8730238299190365,-0.5927782412262707,0.5954169971338293,-0.0104530876735786,0.5332754712102872,0.2646306959507932,10.6251240528145,-1.3233699915859234,0.1757602880691134,-0.9263768707369964
1.18,-0.7035020420562434,0.3820577362218428,1.808125021172496,-0.0286853018201103,0.1397499025012413,0.0108852071620022,0.5221660416003424,-0.7192737762906037,-0.4345701341107132,-0.7100259963168081,0.3884122450563153,1.8006762695313303,0.6493650048915305,-0.8905078674971424,-0.5962835356237439,0.608772218686324,-0.1187738818341443,0.5565902057430128,0.2161104396119467,10.510464024533576,-1.329536521528963,0.1786583199615503,-0.9223537686143272
1.2,-0.6936201451668371,0.3685031246318983,1.799901744775908,-0.0306295930188543,0.1375748146130142,0.0108832862407105,0.5181652576550163,-0.7083631165643629,-0.4312437666280549,-0.6773937399762263,0.3460940474073126,1.7863965144669602,0.5666184741433817,-0.7211903323276349,-0.4257237021401169,0.6043870623794807,-0.2000391972663051,0.5455329863120417,0.1663183741329149,10.510464024533576,-1.3333588605641369,0.1806922253639602,-0.920642058058456
1.22,-0.6832365689973349,0.3543528587702432,1.7914851384553034,-0.0352861069425783,0.1363903094315563,0.0106917695453359,0.5205875367695956,-0.7054413118032734,-0.4097564319144733,-0.6773937399762263,0.3460940474073126,1.7863965144669602,0.5666184741433817,-0.7211903323276349,-0.4257237021401169,1.0909971726181729,0.1211139557289631,0.1460902380544748,1.0743667356790776,10.466978742690117,-1.3280538326432665,0.1840680876306537,-0.9157245988306968
1.24,-0.6728063189710322,0.3403530485078538,1.7835054363680305,-0.0425564762196633,0.1349532391890883,0.0103645009664557,0.5221809513527053,-0.6943166910730774,-0.3895620621280165,-0.6773937399762263,0.3460940474073126,1.7863965144669602,0.5666184741433817,-0.7211903323276349,-0.4257237021401169,1.155539622315625,0.0796707291554843,0.5562310365098022,1.0097184893228417,11.64285018105602,-1.3315652392215689,0.190649183470824,-0.9215913587191572
1.26,-0.6623584084310288,0.3266265500727984,1.7758891311780631,-0.0494789481158327,0.1335954089783311,0.0100995915493971,0.5224713068967488,-0.6789493033692284,-0.3732391795788234,-0.6717275552347926,0.3388821440840363,1.7821392774455591,0.5755089606519896,-0.721573643535041,-0.4239544157459976,1.1210234229233522,0.0145177772021776,0.7683693851924467,0.8161441274596531,11.215841942000225,-1.336026410053318,0.1974795302326848,-0.9270599862470174
1.28,-0.6524377255137449,0.3138942872684008,1.7689257351578116,-0.054809788136758,0.1325475843963575,0.0099578264558459,0.5217704379966144,-0.6622600563943916,-0.3606750033118448,-0.6603951857519249,0.3244583374374836,1.7736248034027566,0.5932899336692053,-0.7223402659498536,-0.4204158429577591,1.0450845744125048,-0.0350434450067216,0.8344623487418434,0.6282088133489322,11.215841942000225,-1.3398165216598348,0.2031044735895871,-0.9304763930853098
1.3,-0.6420173773664121,0.3008460614593852,1.7618302125961356,-0.0588425206583307,0.1318375194502747,0.0099279348935241,0.5203050047773272,-0.6437220656136328,-0.34960579010772,-0.6490628162690573,0.3100345307909309,1.7651103293599544,0.6110709066864211,-0.723106888364666,-0.4168772701695206,1.0820490719764737,-0.073271660964358,0.9268995390379398,0.5534606602062397,11.04694598131846,-1.3431426647821374,0.2073612278268098,-0.9335825329271716
1.32,-0.6316313717477944,0.2881747171880854,1.7549387843595683,-0.0613242308163679,0.1315994923013447,0.0100041074801429,0.5183953312181435,-0.624654032779363,-0.3401381043052461,-0.6368413981353288,0.2955723930236376,1.756772783956564,0.6288518797036368,-0.7238735107794784,-0.413338697381282,1.0687303258140004,-0.095483677959185,0.953401641713486,0.4733842901236962,10.933894091173896,-1.3459495932779386,0.2103248473192522,-0.9369925373171244
1.34,-0.621801592928415,0.2764972383049608,1.748562206431775,-0.062180415917247,0.1318293352479336,0.0101726220499254,0.5164759355151299,-0.6058033143561206,-0.3315401471514412,-0.6246199800016004,0.2811102552563442,1.7484352385531736,0.6466328527208526,-0.7246401331942909,-0.4098001245930435,1.0403827807059591,-0.0959697851506791,0.9425359211621244,0.4298978576902451,10.849258371909857,-1.3479545330945757,0.2118866144937148,-0.9408899828704052
1.36,-0.6114903886392696,0.2645958822817093,1.742026401205338,-0.061259665441263,0.1324448032763582,0.0104707388593243,0.5147909722952178,-0.5855214754076256,-0.3224858394198639,-0.6119540375424416,0.2666289519286806,1.7401861574694892,0.6644138257380683,-0.7254067556091033,-0.406261551804805,1.113746583253172,-0.0842481609956091,1.01409194742475,0.4527153865788641,10.841025531446576,-1.349932650418559,0.2120766276182121,-0.9462691891169728
1.38,-0.6012089075415782,0.2531015912485705,1.735672084865685,-0.0581463909060333,0.1332680390196833,0.0109234702399087,0.5134808160135865,-0.5654166524565639,-0.3133723783048145,-0.5988435707578523,0.2521284830406466,1.7320255407055107,0.682194798755284,-0.7261733780239158,-0.4027229790165665,1.1056396212954631,-0.0655078140815612,1.005241147553082,0.4556730557524702,10.850033304431236,-1.3519766958070265,0.210572797856848,-0.9521901618652192
1.4,-0.5909492331195744,0.241981450125463,1.7295032968204893,-0.053474304990062,0.1341448042947343,0.0114935435608675,0.5125756471252133,-0.548099466300144,-0.3039461213909363,-0.5755348667408988,0.2248307586257423,1.7200034659504444,0.5488795228073716,-0.5420515814131918,-0.3163317698726706,0.9868619286645666,-0.045258444418661,0.8658593078209986,0.4713128456939108,10.857206958269671,-1.3537481316155968,0.2076037484193333,-0.9586289901114328
1.42,-0.581180018242464,0.2316068464093435,1.723847152929489,-0.0521149936312211,0.1339383451730003,0.0118848314606394,0.5155949404881244,-0.5430643849307879,-0.2920103441498595,-0.5755348667408988,0.2248307586257423,1.7200034659504444,0.5488795228073716,-0.5420515814131918,-0.3163317698726706,0.6650769789204121,0.1509646681455534,0.2517540684678021,0.5967888620538375,10.870152127944491,-1.35231095758029,0.2069401812434793,-0.96316287346366
1.44,-0.5708460228316721,0.2208446859384408,1.7181258221178777,-0.0550896124742935,0.1318275044139385,0.0121070309491039,0.517459648595573,-0.532815093844606,-0.2808444122280993,-0.5755348667408988,0.2248307586257423,1.7200034659504444,0.5488795228073716,-0.5420515814131918,-0.3163317698726706,0.7635495068701429,0.0932354053724326,0.5124645543090944,0.5582965960880093,11.045259883841029,-1.3567633787945566,0.2105883502701556,-0.9649621491797012
1.46,-0.5604942332898503,0.2103460798430467,1.7126059918361545,-0.0596963434317094,0.1283400100895663,0.0123255086950554,0.517437708957882,-0.5173264302768722,-0.2717840691125358,-0.5700460715128252,0.2194102428116104,1.7168401482517175,0.5559592641661286,-0.5373785672045174,-0.3169236481862418,0.8972025939467161,-0.0010969818845518,0.7744331783866909,0.4530171557781765,10.840132866382191,-1.3635911773969411,0.2158001304858176,-0.964771571319594
1.48,-0.550166822144549,0.2001914516149751,1.707247092158343,-0.0639305767447155,0.1240770914686486,0.0126576412433317,0.5151026932112669,-0.4990160617342585,-0.2646180035722534,-0.5590684810566777,0.2085692111833466,1.7105135128542643,0.5701187468836427,-0.5280325387871685,-0.3181074048133842,0.9900434208039794,-0.1167507873307549,0.915518427130682,0.3583032770141187,10.840132866382191,-1.3719422336785012,0.2205826491259145,-0.9634441083957624
1.5,-0.5404244869240392,0.1908990017679085,1.702273097722609,-0.0669370586363902,0.1200248450046775,0.0130794561611002,0.5104054737861878,-0.4803523395831481,-0.2592881664058858,-0.5480908906005303,0.1977281795550827,1.704186877456811,0.5842782296011567,-0.5186865103698196,-0.3192911614405266,0.9985058325833432,-0.2348609712539529,0.9331861075555198,0.2664918583183795,10.739511891659276,-1.380788083385887,0.2246731733492427,-0.9612423632056228
1.52,-0.5302913470745936,0.1815038139680212,1.6971373338069786,-0.0689802647692146,0.1165985584715022,0.0135740372128482,0.5029937690232246,-0.4603664095731697,-0.2545925635209603,-0.5364053260085072,0.1873544493476863,1.6978010542280004,0.5984377123186707,-0.5093404819524707,-0.3204749180676691,1.091351744752821,-0.3705852381481633,0.9992965004989224,0.2347801442462771,10.661928867066308,-1.38823705991851,0.227680257495967,-0.9595537063607104
1.54,-0.5203306663170654,0.172514396283787,1.69208830739086,-0.0698040576056947,0.1149476490588048,0.0140511855943901,0.4934394430331441,-0.4397100323746477,-0.2505628161506037,-0.524719761416484,0.1769807191402899,1.69141523099919,0.6125971950361848,-0.4999944535351219,-0.3216586746948115,1.1556490902964915,-0.4777162995040218,1.0328188599261017,0.2014873685178303,10.614355546944353,-1.3921901810369786,0.2294967058741705,-0.9601319244820172
1.56,-0.5105629735785381,0.1639488596194421,1.687115349101131,-0.0689167878327014,0.1154154692258389,0.014512655390405,0.4840916446509039,-0.4181783913403643,-0.2469220724603762,-0.5126802097565231,0.1668406396433273,1.6849998138547009,0.6267566777536988,-0.490648425117773,-0.3228424313219539,1.187695157481686,-0.4673899191120129,1.076582051714167,0.182037184511373,10.585866753755909,-1.3922285504756031,0.2297400854253712,-0.9637052737996342
1.58,-0.5014457504064707,0.1562126934393605,1.682458327094388,-0.0661136431750518,0.1173224746853518,0.0149970096437441,0.4762864384195066,-0.3976885059878339,-0.2434503008858418,-0.5002866710286242,0.1569342108567983,1.6785548027945334,0.6409161604712129,-0.4813023967004242,-0.3240261879490964,1.109966039953734,-0.3902603115698649,1.0244942676265216,0.1735885787267216,10.568603249585069,-1.3914751009716293,0.2282449739404072,-0.9697949979907649
1.6,-0.4919939410544187,0.1484619333654893,1.6776313582071722,-0.0616833808175551,0.1203373199672745,0.0155570763374037,0.4694895527331922,-0.3788772370918958,-0.2394032062594595,-0.4776314284854953,0.1363282681399688,1.670285812050096,0.4902442862605906,-0.3766612110689391,-0.2279110244722223,1.0203436521866094,-0.3398442843157184,0.940563444796902,0.202354731319114,10.57038091607592,-1.3897322015926996,0.2253630345154098,-0.977415679962484
1.62,-0.4825788486733524,0.1410676210478151,1.6729884862397095,-0.0568736137156524,0.1217192684140349,0.0162541693692869,0.4724624763677539,-0.3616295987562195,-0.2245579240296486,-0.4776314284854953,0.1363282681399688,1.670285812050096,0.4902442862605906,-0.3766612110689391,-0.2279110244722223,1.1474991367948486,0.1486461817280876,0.8623819167838193,0.7422641114905454,11.302627641351137,-1.3787687979093386,0.2214946773322035,-0.9822438309101074
1.64,-0.4735754316938516,0.1343490067212374,1.6688662300312516,-0.0523854233783346,0.1192465554929793,0.0171227037791098,0.4748151689589937,-0.3465695071796494,-0.2101557733536032,-0.4776314284854953,0.1363282681399688,1.670285812050096,0.4902442862605906,-0.3766612110689391,-0.2279110244722223,1.0485269009651896,0.1176346295619884,0.7530045788285034,0.7201075338022694,11.302627641351137,-1.3862323171404063,0.219053378038703,-0.9878160191471376
1.66,-0.4640818758066524,0.1275731738546911,1.664810918578429,-0.0478755629370174,0.1136061337621313,0.0181588216685766,0.4738930377844753,-0.3319271820661514,-0.1961704065460125,-0.4727289856228894,0.1325616560292795,1.6680067018053737,0.4930358558288074,-0.3724557520851602,-0.2248031691894984,1.0134575661753848,-0.0461065587259224,0.7321162556749,0.6992683403795371,11.244347388840652,-1.3977314000814318,0.2167856303911008,-0.9882885104578256
1.68,-0.4546538870603437,0.1210775682178626,1.66101885379638,-0.0436350827010107,0.1064717938581573,0.0192144136202778,0.468643734049343,-0.3184550316648111,-0.1837134611989328,-0.4629240998976776,0.1250284318079007,1.6634484813159292,0.498618994965241,-0.3640448341176022,-0.2185874586240506,0.954239898453393,-0.2624651867566108,0.6736075200670155,0.6228472673539833,11.159310961863412,-1.4088569038552972,0.2145203182134842,-0.985516375271264
1.7,-0.4458323505978382,0.1151459245971184,1.6576337120500124,-0.039881625420593,0.0995892263563657,0.0201695023924078,0.460072053538346,-0.3066592729702199,-0.173232552316591,-0.4531192141724658,0.1174952075865219,1.6588902608264848,0.5042021341016746,-0.3556339161500443,-0.2123717480586028,0.8978628527837376,-0.4285840255498496,0.5897879347295576,0.5240454441170924,11.064645586751794,-1.418025716807566,0.2124778585810732,-0.982582803201014
1.72,-0.436754663002684,0.1091336310437618,1.6542741158372407,-0.0362590149500329,0.0932201489164764,0.0210856399455306,0.4479746938285908,-0.2952429169470204,-0.1633348926252677,-0.4430351714904323,0.110382529263521,1.6546428258653127,0.5097852732381082,-0.3472229981824865,-0.2061560374931549,0.967784795500657,-0.6048679854877642,0.5708178011599757,0.4948829845661626,10.977988473422556,-1.4264230116843784,0.2106863155876693,-0.9825472537219232
1.74,-0.4279505616017888,0.1033405761682498,1.6511044153420709,-0.0329938038615715,0.0886892182429656,0.0218854577359561,0.4328780259841011,-0.2846714137365163,-0.1541634452430991,-0.4329511288083988,0.1032698509405201,1.650395390904141,0.5153684123745418,-0.3388120802149285,-0.1999403269277071,1.0292977062303643,-0.7548333922244854,0.5285751605252076,0.4585723691084287,10.91523977999259,-1.4325145773776606,0.2091548534234262,-0.9838787002894982
1.76,-0.4203063027731381,0.098302145345455,1.6484040268530766,-0.0303253083527502,0.0870534817927402,0.0224925841567333,0.4173311116958894,-0.2757129869696741,-0.146359892493486,-0.4227275076479545,0.0963674455667082,1.6463033487071048,0.5209515515109754,-0.3304011622473706,-0.1937246163622593,0.9783345408625168,-0.777345714410585,0.4479213383421054,0.3901776374806556,10.87433185793452,-1.433662193077635,0.2075820681879138,-0.9877657945080648
1.78,-0.4121353981494832,0.0928866890766491,1.6455670951423955,-0.0276440096524927,0.0881051456317556,0.0230549906817222,0.4009674808098299,-0.2663481404159686,-0.137772204436524,-0.4123643080090993,0.0896753131420852,1.6423666992742052,0.526534690647409,-0.3219902442798127,-0.1875089057968115,1.0358778317366109,-0.8181815443029733,0.4682423276852754,0.4293844028481,10.87433185793452,-1.4296923565180517,0.205934845115462,-0.9941002332320316
1.8,-0.4046591332526349,0.0879112405172438,1.64303046022076,-0.0253458143449772,0.0911676101242618,0.0235157176418317,0.3870831396016356,-0.2578703455369465,-0.129683081941504,-0.3920870241089917,0.0795692820558506,1.6386784849205696,0.4053046812391204,-0.2493605651978871,-0.1186244320945574,0.9084077272015229,-0.6942170604097131,0.4238897439511085,0.404456124751,10.86215822209124,-1.4236033604018627,0.2044093337189372,-1.0038044610783634
1.82,-0.3970176146894988,0.0828429106899301,1.6405545859946429,-0.0232263329932362,0.0948448871331198,0.0239714713032879,0.378123954287037,-0.2494017121133349,-0.1180389940844521,-0.3920870241089917,0.0795692820558506,1.6386784849205696,0.4053046812391204,-0.2493605651978871,-0.1186244320945574,0.8478937663227246,-0.4479592657299303,0.4234316711805783,0.5822043928525956,10.86215822209124,-1.4116891260703537,0.2027088467773091,-1.0131271098542325
1.84,-0.3899111404759592,0.0781815296942745,1.6384235290243283,-0.021529426016999,0.0973866679583603,0.0244063682882533,0.3703241109766022,-0.2416635819820181,-0.1069199875045783,-0.3920870241089917,0.0795692820558506,1.6386784849205696,0.4053046812391204,-0.2493605651978871,-0.1186244320945574,0.7815825626890021,-0.3899921655217409,0.3869065065658372,0.5559503289936887,11.072214693966089,-1.409080188726168,0.2021445445023449,-1.0254696570668385
1.86,-0.3825904948854721,0.0734310825313817,1.6364026013754938,-0.020004753483845,0.0993703323544022,0.0248603259380071,0.3621525839003027,-0.2338097512833437,-0.0957990323524705,-0.3880339772966005,0.0770756764038718,1.637492240599624,0.4061721213249785,-0.2459630501542709,-0.1147948776261641,0.7939334904406856,-0.4085763538149767,0.3926915349337243,0.556047757605392,11.056947732737171,-1.406459906288642,0.2016807004327549,-1.036802407423535
1.88,-0.37578740018604,0.0690601789617146,1.6346825737187476,-0.0188164018525736,0.1008190814248564,0.0252803986951821,0.3543781222875496,-0.2266965930260651,-0.085850211238278,-0.3799278836718182,0.072088465099914,1.635119751957733,0.4079070014966948,-0.2391680200670383,-0.1071357686893774,0.724600433555391,-0.388723080637654,0.3556579128639284,0.4974410557096256,11.035280595346194,-1.4041770298522709,0.2014139648057351,-1.0469738986576935
1.9,-0.3687858432406652,0.0646014343928815,1.6330707936957851,-0.0179024618134313,0.1020777066634686,0.0257014223947818,0.3462042865374323,-0.2195611626306406,-0.0758847753621974,-0.3718217900470357,0.0671012537959563,1.6327472633158415,0.409641881668411,-0.2323729899798057,-0.0994766597525907,0.7366068659707778,-0.4086917875058632,0.3567715197712262,0.4982717938040275,11.008683243609994,-1.4021065573626066,0.2014219853824689,-1.0561429888804228
1.92,-0.3622858829997601,0.060495748353507,1.6317189281978708,-0.0173990926838596,0.1031627233494296,0.0260750854400486,0.3384432729076651,-0.2129672191500375,-0.0669311695747576,-0.3636289524136675,0.0624537939963602,1.63075773012079,0.4113767618401271,-0.2255779598925731,-0.0918175508158041,0.6780126838483468,-0.3880506814883611,0.3296971740301538,0.4476802893719884,10.970994034340038,-1.3999611697093863,0.2017513222090271,-1.0651370727173457
1.94,-0.3556019234630405,0.056308599309514,1.6304770684879404,-0.0172607200173001,0.1042920460633961,0.0264382906450032,0.3303983046760765,-0.2060869325158402,-0.0577479367050163,-0.3554361147802993,0.057806334196764,1.6287681969257382,0.4131116420118434,-0.2187829298053405,-0.0841584418790174,0.7006989795123892,-0.4022484115794283,0.3440143317098659,0.4591616434870674,10.970994034340038,-1.3975306312455569,0.2024127364722981,-1.0736150839043486
1.96,-0.3490770332090038,0.0522616887484512,1.6294155313060903,-0.0174434801521467,0.1054654455181014,0.0267752580977134,0.3225353627798537,-0.1989490112494855,-0.048891311625086,-0.3471999051426381,0.0533287501493487,1.626970141454106,0.4148465221835596,-0.2119878997181079,-0.0764993329422308,0.6914036141692232,-0.3931470948111415,0.3568960633177354,0.4428312539965156,10.958343666919063,-1.3952899010045208,0.2033368967531951,-1.0816709701767464
1.98,-0.3427070310737466,0.0483612792164251,1.6285277879805826,-0.0177809401504346,0.1067063782078621,0.0270971593939846,0.3149040851984168,-0.191458550116758,-0.040350541310776,-0.3389203235006841,0.0490210418541143,1.6253635637058936,0.4165814023552758,-0.2051928696308753,-0.0688402240054441,0.6842663280252098,-0.3815638790718473,0.3745230566363708,0.4270385157155013,10.950270233537594,-1.3929281387613603,0.2044658204608298,-1.0901323323366086
2.0,-0.3367944190483521,0.0447988517746595,1.6278398504714575,-0.0180640801426175,0.1079518695725273,0.0274014164850942,0.307906336475335,-0.1839533121751958,-0.032506510762692,-0.3269618268138258,0.0387883517105872,1.626510260915044,0.3308041215185071,-0.1585456587586209,-0.0561478713773377,0.6458055028221215,-0.3498874361540893,0.3752618970781135,0.3922015274041988,10.950270233537594,-1.3905932486954655,0.2055725501863268,-1.0986710693391
2.02,-0.3307354214513536,0.0411565748467233,1.627196617840489,-0.0196872496409545,0.1098176145392856,0.0276160579698015,0.2984331443878802,-0.1803143206712609,-0.0326503770119848,-0.3269618268138258,0.0387883517105872,1.626510260915044,0.3308041215185071,-0.1585456587586209,-0.0561478713773377,0.5074552319890188,-0.4736596043727392,0.1819495751967423,-0.0071933124646404,10.9442642175718,-1.3945360738185266,0.2084361451821249,-1.105143843944341
2.04,-0.3248627976810465,0.0376125295207744,1.6265284859835625,-0.023216012147458,0.1126631636184879,0.0276731903414357,0.2894793092978243,-0.1737913814708382,-0.0341416152302797,-0.3269618268138258,0.0387883517105872,1.626510260915044,0.3308041215185071,-0.1585456587586209,-0.0561478713773377,0.5588910673289366,-0.4476917545027936,0.3261469600211383,-0.0745619109147437,10.412104078087395,-1.3898002228303117,0.2121061263342112,-1.107397718536565
2.06,-0.3194389234011043,0.0343973638629971,1.6258641054221892,-0.0268382498090341,0.1160239974996834,0.0276849915065492,0.2820482383337458,-0.1649304808677045,-0.0357277329337497,-0.3236537855986408,0.037202895123001,1.6259487822012706,0.3339841287825251,-0.1519630804869935,-0.05930733739065,0.5836354695806419,-0.3715535482039261,0.4430450301566829,-0.0793058851735042,10.38736214898836,-1.384589311625304,0.2163434143122818,-1.1108936428029572
2.08,-0.313869141631933,0.0312112130096994,1.625131264580829,-0.0302224778031312,0.1199439048334596,0.0277067000757952,0.2754740004607835,-0.1541867546775745,-0.0374825116840691,-0.3170377031682706,0.0340319819478286,1.6248258247737235,0.3403441433105612,-0.1387979239437386,-0.0656262694172747,0.6358606461351203,-0.3287118936481148,0.5371863095064988,-0.087738937515969,10.386214514531275,-1.3797068598179487,0.2202564509003741,-1.1155447270456464
2.1,-0.3086875081502662,0.0283930393321503,1.6244022313869952,-0.0328175020058459,0.1237728249095072,0.0277583768129033,0.2704017881827177,-0.1430834829674212,-0.0391751605767631,-0.3104216207379004,0.0308610687726562,1.623702867346177,0.3467041578385973,-0.1256327674004838,-0.0719452014438994,0.6161879590214148,-0.2536106139032879,0.5551635855076675,-0.0846324446346965,10.386214514531275,-1.375555470159679,0.2234510856908951,-1.1207983458818664
2.12,-0.3033252894598441,0.0256593788070625,1.6235999413265787,-0.0348593530862627,0.1276930744839954,0.0278571252952808,0.2661926917114653,-0.1309650410933183,-0.0409720239275499,-0.3034875375811285,0.0283484134246465,1.622263963317299,0.3530641723666335,-0.1124676108572289,-0.078264133470524,0.6476917562809494,-0.2104548235626224,0.6059220937051426,-0.089843167539344,10.392596225982745,-1.371892492569401,0.2262120826843987,-1.126794687518036
2.14,-0.3025278255673136,0.0252700241124069,1.62347647129855,-0.0351209268479725,0.1282628543861093,0.0278751777717786,0.265637622328487,-0.1291953410125043,-0.0412493103074452,-0.2965534544243565,0.0258357580766368,1.620825059288421,0.3594241868946696,-0.0993024543139741,-0.0845830654971487,0.0937660403934773,-0.0277534691489139,0.0884850040407017,-0.0138643189947613,10.392596225982745,-1.3715847638218834,0.2264635002656482,-1.127387697573034
2.16,-0.3012022391355203,0.0246334038624034,1.6232685637918556,-0.0355272280765806,0.1291977215496118,0.027907603290846,0.2647796847747534,-0.1260984628671328,-0.0418357161391545,-0.2894603709043837,0.0236522316422085,1.6192281819588774,0.3657842014227057,-0.0861372977707192,-0.0909019975237734,0.1633292907966036,-0.0428968776866794,0.1548439072685745,-0.0293202915854648,10.399449276706946,-1.371094666440993,0.2272538293682456,-1.1296573433064565
2.18,-0.2962014190863417,0.0223440293596402,1.6224430914362058,-0.0371159571480976,0.132546086162639,0.0280325252876826,0.2618587273665448,-0.1153702710667629,-0.044963629992414,-0.28220828702121,0.0217978341213616,1.6174733313286682,0.3721442159507418,-0.0729721412274644,-0.0972209295503981,0.5775160962248298,-0.1460478704104317,0.5364095900184968,-0.1563956926629785,10.318698786892128,-1.3692418083788378,0.2294753387521724,-1.1342369992700825
2.2,-0.2915084747846983,0.0203780499266484,1.62160398273121,-0.0383994443564724,0.1353821072521503,0.0281756890508479,0.2597609775278988,-0.1037480436488843,-0.0481078146536044,-0.2831084827180144,0.016575515806302,1.620194909936585,0.2758876341887494,-0.0939844542095441,-0.0460970901946684,0.6110700076957041,-0.1048874919322984,0.5811113708939254,-0.1572092330595201,10.320689968800252,-1.3674710468419131,0.2316349241880546,-1.139184668571095
2.22,-0.2907298298899229,0.0200706261821713,1.6214585980277758,-0.0385708707211516,0.1358210002252531,0.0282035947119526,0.259442873254561,-0.1018382023305435,-0.0486386807290617,-0.2831084827180144,0.016575515806302,1.620194909936585,0.2758876341887494,-0.0939844542095441,-0.0460970901946684,0.1003805631089642,-0.0159052136668919,0.0954920659170431,-0.0265433037728607,10.32075118632929,-1.3527213680235797,0.2303153745094744,-1.133894103748469
2.24,-0.2891688546793689,0.01948432832992,1.6211735340011006,-0.0385439376077876,0.136516052486056,0.0282921336307052,0.2606444797531418,-0.0950131830937055,-0.0466883526629792,-0.2831084827180144,0.016575515806302,1.620194909936585,0.2758876341887494,-0.0939844542095441,-0.0460970901946684,0.3599601551768923,0.0600803249290404,0.3412509618418983,0.097516403304124,10.32075118632929,-1.3550649092836182,0.2309286533071288,-1.1378667351667595
2.26,-0.2844499483571041,0.01793397869551,1.6203875210751115,-0.0361415761771101,0.1371062275609454,0.0287754434638391,0.2633087718115331,-0.0787612189951475,-0.0409899800380189,-0.2803496063761269,0.0156356712642066,1.6197339390346384,0.2786934155531903,-0.0897072908381004,-0.0463237822351193,0.871344133804381,0.133214602919568,0.8125982049279008,0.2849186312480146,10.949619549915951,-1.360783828278994,0.2302276738800634,-1.1499369239481694
2.28,-0.2833955753863272,0.0176271961575961,1.6202263978439164,-0.0352662565767716,0.1369845231593736,0.0289152146724592,0.2637645585303512,-0.0754528941625234,-0.0398863640073963,-0.2748318536923519,0.0137559821800157,1.618811997230745,0.2843049782820721,-0.0811529640952129,-0.046777166316021,0.1758601935789848,0.0227893359409037,0.1654162416312041,0.055180801531128,10.917858732501372,-1.3619210926784882,0.2298922537812384,-1.152393292500494
2.3000000000000003,-0.2831317019876207,0.0175525317264171,1.6201867757250796,-0.0350302515742137,0.1369404797841061,0.0289517538541059,0.2638733987065006,-0.0746644311790368,-0.0396221188366876,-0.2693141010085769,0.0118762930958248,1.6178900554268516,0.289916541010954,-0.0725986373523254,-0.0472305503969227,0.0419328502046963,0.0054420088074685,0.0394231491743328,0.0132122585354374,10.859338553572345,-1.3626045197815215,0.2295719657631584,-1.1532857598766415
2.32,-0.2815465352285737,0.0171186812279238,1.619954442650047,-0.0335563003419443,0.1365747288498494,0.0291776715382502,0.2643883521059526,-0.0708276774832104,-0.0380885489873864,-0.2635157701883578,0.0104243203487783,1.616945444418913,0.2955281037398358,-0.0640443106094379,-0.0476839344778245,0.2081927737022237,0.0257476699726005,0.1918376847913197,0.076678492465056,10.858486796959369,-1.3652916730995954,0.2285389116325852,-1.1553973144395986
2.34,-0.276515549701145,0.0158715039632566,1.6192787951677683,-0.0291082303358188,0.1345455540498827,0.0298941824648426,0.2649378354796172,-0.0610948957163775,-0.0332932068132669,-0.2577174393681388,0.0089723476017318,1.6160008334109748,0.3011396664687176,-0.0554899838665504,-0.0481373185587262,0.5431948993354472,0.0274741686832308,0.4866390883416449,0.2397671087059787,10.83244336421012,-1.3709868829296237,0.2252028319698643,-1.1618263366560808
2.36,-0.2699063938242244,0.014497554881618,1.6185192039658638,-0.0238413678881712,0.1305486679401167,0.0308015945718724,0.2634920074928278,-0.0494561556849548,-0.0277585831085361,-0.2632686579271642,0.0128167591774377,1.617614134827105,0.2773011454516054,-0.0543961238708281,-0.0346104113715574,0.6484264561987577,-0.0722913993394719,0.5819370015711322,0.2767311852365407,10.796961402304078,-1.378769322245596,0.2213500363542191,-1.1672070473527123
2.38,-0.2683273123384024,0.0142149656068112,1.618357338518254,-0.0224930247015631,0.1294338250701402,0.031022931707372,0.2629609236258992,-0.0452862680234811,-0.026411760645775,-0.2632686579271642,0.0128167591774377,1.617614134827105,0.2773011454516054,-0.0543961238708281,-0.0346104113715574,0.2207031033380638,-0.0265541933464286,0.2084943830736884,0.0673411231380545,10.820711906536417,-1.3798078486085594,0.2200945434261784,-1.1700524060283457
2.4,-0.2633550407799996,0.0134576226591193,1.617900147744925,-0.0171451989112841,0.1255484243341076,0.0317842751311417,0.2603601151285365,-0.0357152271263514,-0.0219219795293867,-0.2632686579271642,0.0128167591774377,1.617614134827105,0.2773011454516054,-0.0543961238708281,-0.0346104113715574,0.5443509051327969,-0.1300404248681358,0.4785520448564804,0.224489055819412,10.822238085855131,-1.3866274804190435,0.2154125657497126,-1.171960924255828
2.42,-0.2599899141939131,0.0130272895638212,1.6176345822220537,-0.0133076196769677,0.1227861114149666,0.0322973438156027,0.2573712255462799,-0.031012111964151,-0.0192386000267619,-0.2604956464726481,0.0122727979387295,1.617268030713389,0.2797738074460031,-0.0530563695017183,-0.0348738522832155,0.3092461750731483,-0.1494444791128285,0.2351557581100238,0.1341689751312411,10.774669070418897,-1.3918284696264145,0.2120379516215577,-1.1736494155544286
2.44,-0.2592195215607403,0.0129360687668299,1.6175779900156482,-0.0124357831310216,0.1221733163137412,0.032411799629618,0.2564860725234666,-0.0301295649781795,-0.01868645770883,-0.254949623563616,0.0111848754613129,1.6165758224859583,0.2847191314347984,-0.0503768607634985,-0.0354007341065317,0.0683236085751871,-0.0442576511406667,0.0441273492985734,0.0276071158965966,10.754718051227428,-1.3937988525543688,0.2113382372815121,-1.1740911075351343
2.46,-0.2581968255251885,0.012818097820827,1.6175050591825073,-0.0113046332992158,0.1213915748461268,0.0325603100299064,0.2551743930564522,-0.029130581855436,-0.017956631066224,-0.2494036006545839,0.0100969529838963,1.6158836142585271,0.2896644554235936,-0.0476973520252788,-0.035927615929848,0.0901542737751667,-0.065583973350719,0.0499491561371769,0.0364913321302992,10.754718051227428,-1.3947981693899905,0.2102636237173699,-1.173912330957824
2.48,-0.2564204246486455,0.0126205424287321,1.617384540188311,-0.0094296626280326,0.1201404205606133,0.0328078453530651,0.2526830591505661,-0.0275720322982425,-0.0166602432146169,-0.243610311546112,0.0091430059433908,1.61516506193993,0.2946097794123889,-0.045017843287059,-0.0364544977531642,0.1605960990703091,-0.1245666952943064,0.0779274778596749,0.0648193925803524,10.767167925891954,-1.3961874857416727,0.208477369175066,-1.1738955954572312
2.5,-0.2526779208091564,0.0122309302631952,1.617156521709462,-0.005862427552885,0.1181001803008618,0.0332875666115542,0.2466126304251408,-0.0245579249177842,-0.0139344254664035,-0.2378170224376401,0.0081890589028852,1.6144465096213332,0.2995551034011842,-0.0423383345488393,-0.0369813795764804,0.3652568637543887,-0.3035214362712646,0.1507053690229151,0.1362908874106692,10.765653427733014,-1.3978437372331722,0.2050464261209373,-1.1743311021978715
2.52,-0.2483171701565842,0.011819588487659,1.616933230444103,-0.0021984767162489,0.1170992381913586,0.0337938347799867,0.2384293202667859,-0.0213250080411146,-0.0110838345831392,-0.2319001002294484,0.0073020995808351,1.6137147852571532,0.3045004273899795,-0.0396588258106196,-0.0375082613997966,0.462450497521188,-0.4091655079177414,0.161645843833477,0.1425295441632162,10.736496900382008,-1.397273289931875,0.2016103725038401,-1.1753301207108406
2.54,-0.2476045638415547,0.0117565823864762,1.6169008246481829,-0.0016380755950846,0.1170878790586735,0.0338727988101132,0.2370676756292271,-0.0208611079508269,-0.0106743829998829,-0.2258595449215368,0.0064821279772405,1.6129698888473905,0.3094457513787748,-0.0369793170723998,-0.0380351432231128,0.0747818495992319,-0.0680822318779431,0.0231950045143831,0.0204725791628185,10.708849672699216,-1.3976792739077255,0.2007725448754083,-1.1761498598601805
2.56,-0.2464260271897678,0.0116543655482845,1.6168493880717325,-0.0007474607173645,0.117170097617342,0.0340005221045117,0.2348173698821567,-0.0201780494881506,-0.010025009184389,-0.2357511800600933,0.0107135269889348,1.6163671054981887,0.2464549154430317,-0.014756141790917,-0.0297912223938562,0.1219849495940072,-0.1125152873535206,0.0341529231338174,0.0324686907746943,10.711091670076712,-1.396637719293069,0.2000068738922754,-1.1762014835636403
2.58,-0.2443296629581083,0.0114762645976026,1.616761922068808,0.0006442455515883,0.1175148946431294,0.0342136600586851,0.231554197164386,-0.0195405322558038,-0.0096315878895027,-0.2357511800600933,0.0107135269889348,1.6163671054981887,0.2464549154430317,-0.014756141790917,-0.0297912223938562,0.167402992228425,-0.1631586358885342,0.0318758616173411,0.0196710647443129,10.571997093893517,-1.394724698053775,0.1986815983868935,-1.1766345604138202
2.6,-0.2399953042867552,0.0111221028737346,1.6165746467541728,0.0027204485317653,0.1185918851745065,0.0345970823395624,0.2251324538829096,-0.0175928078970886,-0.0101034309137226,-0.2357511800600933,0.0107135269889348,1.6163671054981887,0.2464549154430317,-0.014756141790917,-0.0297912223938562,0.3363593791996303,-0.3210871640738189,0.0973862179357571,-0.0235921512109954,10.571997093893517,-1.3917712520074776,0.1965389476057841,-1.1781670368788082
2.62,-0.236437868025508,0.0108568862651978,1.6164051754262896,0.0040266768312237,0.1198039868074052,0.0348834303662849,0.2199244089869705,-0.0156666728602045,-0.0110871498244329,-0.233286630905663,0.0105659655710257,1.61606919327425,0.2483323634057926,-0.013535148558935,-0.0336145902726509,0.2819637862994079,-0.2604022447969575,0.0963067518442045,-0.0491859455355119,10.47513343276114,-1.3895260392218636,0.1953317761810595,-1.1790708980917768
2.64,-0.2340392307240875,0.0106924854134673,1.6162777745388135,0.0047664958195975,0.1207812498365913,0.0350665399679431,0.2164826806264324,-0.0143887177120505,-0.012129543611371,-0.2283575325968024,0.0102708427352073,1.6154733688263732,0.2520872593313145,-0.011093162094971,-0.0412613260302402,0.1908222227327884,-0.1720864180269024,0.0638977574077045,-0.0521196893469083,10.394587249480535,-1.3889377594282406,0.194816966905877,-1.1802126474575327
