t,x,y,z,roll,pitch,yaw,v_x,v_y,v_z,ref_x,ref_y,ref_z,ref_v_x,ref_v_y,ref_v_z,a_com,a_x,a_y,a_z,thrust,wind_x,wind_y,wind_z
0.0,-0.155604885724337,-2.518742095362013,1.92121993637114,0.0106553439188253,0.1362750849003037,0.0259238599984993,0.0047397769887423,0.0014779646813557,0.0048918145758249,-0.155550541911612,-2.5188781182795856,1.9212710396966457,0.0980732739109094,0.0964457034990408,-0.0429504172957627,0.3484957508586001,0.2369888494371166,0.0738982340677892,0.2445907287912471,10.546071036951616,-1.2870588385441006,0.1661939555782794,-1.1679607180058007
0.02,-0.1555975782625329,-2.5189548484160724,1.921210573670505,0.0028405902666703,0.1385381444700616,0.0254052578633743,-0.0033387474142428,-0.0182994040142524,-0.0057795672407806,-0.155550541911612,-2.5188781182795856,1.9212710396966457,0.0980732739109094,0.0964457034990408,-0.0429504172957627,1.1940323058102649,-0.403926220149259,-0.9888684347804112,-0.5335690908302784,10.546071036951616,-1.2919059823614794,0.174765556223632,-1.157631261253948
0.04,-0.1557277799045821,-2.5193457801044485,1.920929274513458,-0.0126182419131202,0.1443786782597064,0.0243285783064923,-0.0088214001481918,-0.0187068312323027,-0.0219894705107796,-0.155550541911612,-2.5188781182795856,1.9212710396966457,0.0980732739109094,0.0964457034990408,-0.0429504172957627,0.8558423364759019,-0.2741326366974512,-0.020371360902517,-0.8104951634999518,9.897488183638416,-1.2820170567058766,0.1905682168300005,-1.1544860391955762
0.06,-0.1559292553909401,-2.519644589745707,1.9203233596406424,-0.0290665946316199,0.1519180581903757,0.0230759873384572,-0.0107056547947058,-0.0107132754181092,-0.0377422060887191,-0.1545698091725029,-2.517913661244595,1.920841535523688,0.1166916012901361,0.116445703797064,-0.0525350676930634,0.8882511304749581,-0.0942127323257005,0.3996777907096743,-0.787636778896974,9.583978448947164,-1.2711342376590788,0.2071747278675025,-1.1503746060981743
0.08,-0.1561351437543608,-2.5197363693433474,1.919420127812784,-0.045001898984696,0.1600955353540374,0.0217358848278803,-0.009527037850935,0.0015117154228729,-0.0518403850576752,-0.1526083436942847,-2.5159847471746146,1.9199825271777728,0.1539282560485895,0.1564457043931105,-0.0717043684876649,0.934877250235238,0.0589308471885392,0.6112495420491106,-0.7049089484478074,9.639542876163432,-1.262732288460948,0.2226101832954544,-1.149127172855327
0.1,-0.1562851908383951,-2.5195445956785334,1.918313281989632,-0.0588132879936483,0.1679348709791938,0.0204572091662872,-0.0061254823951968,0.0179143678649846,-0.0639977368168843,-0.1506468782160665,-2.5140558331046337,1.9191235188318576,0.1911649108070429,0.196445704989157,-0.0908736692822663,1.0349139921417625,0.1700777727869125,0.8201326221055873,-0.6078675879604516,9.738750055976196,-1.25620588257426,0.2377444899993541,-1.150894352611595
0.12,-0.1563518613201771,-2.5189724064314345,1.9169081221955728,-0.0713800981063898,0.1759797843388935,0.0191772051086709,-0.000506953223569,0.038336281429413,-0.0758509824586413,-0.1468235799999257,-2.5101269190048505,1.9173060454462123,0.2284015655654962,0.2364457055852034,-0.1100429700768677,1.213591628111831,0.280926458581388,1.021095678221421,-0.5926622820878518,9.835053645512744,-1.2520689813726726,0.2511398638748444,-1.1552215992733523
0.14,-0.1562870203434359,-2.517963801599666,1.9152726716126365,-0.0817895182619494,0.1836728412711036,0.0180083585686746,0.0068960328376307,0.0613047304874965,-0.0870860263600136,-0.1430002817837848,-2.5061980049050674,1.915488572060567,0.2656382203239497,0.27644570618125,-0.1292122708714692,1.330958363569139,0.3701493030599895,1.1484224529041729,-0.5617521950686148,9.918004127925087,-1.2501088421289848,0.2621384852605327,-1.1613779375571098
0.16,-0.1560573447815306,-2.516466161802315,1.9134180863455448,-0.0897802041671586,0.1909554701987646,0.01700009732253,0.0158706359804976,0.0867339645187638,-0.0978093190137338,-0.1382460671986826,-2.501269090790383,1.9131918661550569,0.302874875082403,0.3164457067772964,-0.1483815716660706,1.451015549818684,0.4487301571433472,1.2714617015633627,-0.5361646326860086,9.980168741210946,-1.2498165591069337,0.2716303572109055,-1.169728389507782
0.18,-0.1556592854099946,-2.51455981271734,1.9114617060357637,-0.0951660147608816,0.1974790014038431,0.016212567271835,0.0257175177744652,0.1121247754181535,-0.1075768006481033,-0.1325609362446191,-2.495340176660797,1.9104159277296813,0.3401115298408563,0.3564457073733428,-0.1675508724606721,1.4465977815815678,0.492344089698379,1.2695405449694872,-0.4883740817184762,10.03765205354648,-1.2509559502784016,0.2789220655760097,-1.1794740871113178
0.2,-0.1550248312605786,-2.5120303551899643,1.9092055915085455,-0.0988496919345836,0.2039335383755078,0.0155583463333165,0.0373537356509524,0.1391413557754305,-0.1174944772461237,-0.1543734095212713,-2.508953573946432,1.9060828660033584,0.1164238289407517,0.2121247769082696,-0.1315023900456529,1.5521416573344786,0.5818108938243592,1.3508290178638511,-0.4958838299010212,10.132192626352662,-1.2527790418913851,0.2843112990015218,-1.190738667042795
0.22,-0.1541290165747714,-2.5088248857658595,1.9068282527566656,-0.09677742928424,0.2099636015870361,0.0153666755659599,0.0519084488407238,0.1785752167219693,-0.119153184153944,-0.1543734095212713,-2.508953573946432,1.9060828660033584,0.1164238289407517,0.2121247769082696,-0.1315023900456529,2.103342800040876,0.7277356594885726,1.9716930473269405,-0.0829353453910115,10.132192626352662,-1.250459375997787,0.2842846924386796,-1.2085904872403226
0.24,-0.1529236662250666,-2.5049309822156114,1.9044485776314428,-0.088679323148358,0.2155629317108469,0.0156908705838192,0.0680238959526627,0.2076488545268257,-0.118714510770521,-0.1543734095212713,-2.508953573946432,1.9060828660033584,0.1164238289407517,0.2121247769082696,-0.1315023900456529,1.66220973794148,0.805772355596945,1.4536818902428152,0.0219336691711466,10.78280510208424,-1.2551754630219834,0.2779257511401258,-1.22878875489244
0.26,-0.151470681138181,-2.500766218669973,1.9021956683883616,-0.0799758011339099,0.2205047964949267,0.016158700202915,0.0841997095971462,0.2291059318663345,-0.1184891988337238,-0.1532091712318638,-2.5068323261773493,1.904767842102902,0.134565091174009,0.2321247772062928,-0.1362875079251629,1.3436088348953952,0.8087906822241738,1.0728538669754415,0.0112655968398635,10.78280510208424,-1.2594724530846226,0.2700279171761687,-1.2494993733957298
0.28,-0.1496012208279136,-2.495983417485434,1.899823531257896,-0.0714625563168712,0.2253463126993394,0.0166871134678023,0.1019738985272041,0.2480457278562936,-0.118810835931777,-0.1508806946530488,-2.502589830639184,1.9021377943019888,0.1708476156405236,0.2721247778023393,-0.1458577436841827,1.2987889692762935,0.8887094465028965,0.9469897994979576,-0.0160818549026643,10.756523273683342,-1.263666262995059,0.2624948791120973,-1.268578854948327
0.3,-0.1473657324909688,-2.4908472462675277,1.897437768546938,-0.0642396745627068,0.2297505367325356,0.0172007790900873,0.1207264333367187,0.2648277300924786,-0.1198089982884577,-0.1485522180742337,-2.498347335101019,1.899507746501076,0.2071301401070381,0.3121247783983858,-0.1554279794432026,1.2592552252498954,0.9376267404757276,0.8391001118092475,-0.0499081178340347,10.7308444336486,-1.2665885317779615,0.2563430479284034,-1.284757655776453
0.32,-0.1448840018787717,-2.485670627238568,1.8951476274426076,-0.0586268318725962,0.233335465977526,0.0176718260927238,0.1395506287535665,0.2794589529778851,-0.1212529636922644,-0.144409615272093,-2.492104839533051,1.896399186912212,0.2434126645735527,0.3521247789944322,-0.1649982152022224,1.194265519369024,0.9412097708423895,0.7315611442703235,-0.0721982701903323,10.710811023769566,-1.2700529889980987,0.2511853868048689,-1.2999805371744269
0.34,-0.1418781151137807,-2.4799300963821453,1.8927068481734368,-0.0539540937499472,0.2363366607173941,0.0181512711632116,0.1600357006298601,0.2939771210080212,-0.1227740810275273,-0.1402670124699522,-2.485862343965083,1.893290627323348,0.2796951890400674,0.3921247795904787,-0.1745684509612423,1.2577054212690464,1.0242535938146793,0.7259084015068085,-0.0760558667631479,10.72122328317164,-1.2746166469801898,0.2474391660597641,-1.3135484109488849
0.36,-0.1384513929223775,-2.47389750652412,1.890236153300345,-0.0501648924342764,0.2383307412045113,0.0186413335918376,0.1814841625032856,0.3085937675258724,-0.1242353142988593,-0.1352173465561486,-2.4786198483822144,1.889942811840508,0.3159777135065819,0.4321247801865251,-0.1841386867202621,1.2998250601877608,1.0724230936712764,0.7308323258925581,-0.0730616635665974,10.72122328317164,-1.2796894425369705,0.2448248773724095,-1.325349391332174
0.38,-0.1347943430194248,-2.467897551054867,1.8878632584012545,-0.0469818432909945,0.2390975714573996,0.0191457973182546,0.2022403248902345,0.3222249057223416,-0.1254725046743355,-0.1292606175306821,-2.4703773527844444,1.886355740463693,0.3522602379730965,0.4721247807825716,-0.193708922479282,1.243138010831667,1.0378081193474455,0.6815569098234608,-0.0618595187738074,10.769941504849156,-1.2867711811465228,0.2426918568926417,-1.3373254492257078
0.4,-0.1305203448935827,-2.461307231608285,1.8853410521063836,-0.0439280513615186,0.2386911731944024,0.0197199080442993,0.2239763555051165,0.3360503917811342,-0.1266826390166063,-0.124682326774913,-2.4517863057687497,1.8815896331675372,0.2591001161690737,0.4222249072124577,-0.1553464103777609,1.2894412712288412,1.0868015307441012,0.691274302939629,-0.0605067171135426,10.78530328064062,-1.2950428735712414,0.2409545799424392,-1.3486062837123434
0.42,-0.1257217045003873,-2.454433984321721,1.8828062914078103,-0.0408125629170075,0.2342687503172688,0.0204720828014491,0.2545872217846999,0.3503897255525955,-0.126571133231366,-0.124682326774913,-2.4517863057687497,1.8815896331675372,0.2591001161690737,0.4222249072124577,-0.1553464103777609,1.6901583216788043,1.5305433139791658,0.7169666885730674,0.005575289262015,10.97600899173267,-1.2993031734752332,0.2385471261615197,-1.3554491305017562
0.44,-0.1203536470769718,-2.447301857984474,1.88027914397372,-0.0380727548415182,0.2238852162228111,0.0214232296853447,0.2796908178086808,0.3623309903796941,-0.1260290809450061,-0.124682326774913,-2.4517863057687497,1.8815896331675372,0.2591001161690737,0.4222249072124577,-0.1553464103777609,1.3902141558832577,1.2551798011990467,0.5970632413549254,0.0271026143179947,10.97600899173267,-1.324670595809872,0.2381006209306924,-1.3599836070625544
0.46,-0.1148608911865083,-2.440311446264926,1.8778858136136327,-0.0362214936706126,0.2111801229390165,0.0223580808931323,0.2966804329667138,0.3730490190690826,-0.1258540131928497,-0.1220913256132223,-2.447564056696625,1.88003616906376,0.2704720744248415,0.442224907510481,-0.1613211915184459,1.0044324403891798,0.8494807579016495,0.5359014344694268,0.0087533876078224,10.913141735806676,-1.3505866992098925,0.2380579061222358,-1.3578266257478535
0.48,-0.1088007814604346,-2.432740555190341,1.8753644903229043,-0.0351628155317268,0.197040243750115,0.0232886295190212,0.3079340830323875,0.3835363989028443,-0.1262972770081014,-0.1169093232898408,-2.439119558552376,1.8769292408562048,0.2932159909363772,0.4822249081065274,-0.1732707537998161,0.7694580209279476,0.5626825032836846,0.5243689916880873,-0.0221631907625849,10.829233186515012,-1.3757483591214956,0.238773873164326,-1.3508932691743072
0.5,-0.1025808204648688,-2.4249674808957984,1.8728228908328648,-0.0352899208821168,0.1838808543848996,0.0240988270909048,0.3133160832539586,0.3934015681444712,-0.1278187410870284,-0.1117273209664593,-2.430675060408127,1.8738223126486493,0.3159599074479128,0.5222249087025739,-0.1852203160811863,0.5670148664153282,0.2691000110785546,0.4932584620813418,-0.0760732039463543,10.745390455669622,-1.3967224290646654,0.240455010724419,-1.3418795131361552
0.52,-0.0966167476344746,-2.4174022600693577,1.8703706367813893,-0.0366497975788455,0.1733540239747655,0.024727292745408,0.3142154960129445,0.4026000100049445,-0.1302369976266962,-0.1054081228175011,-2.4202305622340754,1.8701179063270257,0.3387038239594484,0.5622249092986203,-0.1971698783625564,0.4776720649754937,0.0449706379492959,0.459922093023668,-0.1209128269833853,10.658750185206372,-1.4142408466102172,0.2434570991893858,-1.3316484985182644
0.54,-0.0903532368748713,-2.4092451123644096,1.8677322189491676,-0.039396137660981,0.1650132896997571,0.0252266342952368,0.3119836705399378,0.4130184349918175,-0.1335260329661797,-0.0990889246685428,-2.409786064060024,1.866413500005402,0.3614477404709841,0.6022249098946668,-0.2091194406439266,0.5575445668586324,-0.1115912736503355,0.5209212493436477,-0.1644517669741774,10.583669041341636,-1.42675930939354,0.2478716795927954,-1.3231079580254417
0.56,-0.0841643087097334,-2.4008471632093,1.8650208551154135,-0.0424520249561719,0.1601091051876806,0.0256018060586383,0.3070446141605646,0.4262148586974417,-0.1374428099790875,-0.0922011286067962,-2.398341565871071,1.862410354626744,0.3841916569825197,0.6422249104907132,-0.2210690029252968,0.731233578799944,-0.246952818968657,0.6598211852812091,-0.1958388506453912,10.533652454158982,-1.4344970788607707,0.2523451515221836,-1.318319400980084
0.58,-0.0783895097297404,-2.392609566320293,1.8623695185761988,-0.0448208952749683,0.1590577183155946,0.0258614461679613,0.3015320885570252,0.4400626643857204,-0.1414658201542053,-0.0847447346322612,-2.385897067667217,1.858108470191052,0.4069355734940553,0.6822249110867596,-0.2330185652066669,0.7719039314887296,-0.2756262801769715,0.6923902844139351,-0.2011505087558887,10.509875286169516,-1.4347025331901146,0.255978553055094,-1.316575716952398
0.6,-0.0724039481074894,-2.383648586520896,1.8594933577219388,-0.0465595334974434,0.1610342390946134,0.0260575683419791,0.2976533374921895,0.4551935217165508,-0.1459595267386135,-0.0633129053018892,-2.370606433101007,1.8552962275684888,0.3037416313418651,0.5400626658758365,-0.1599026189800653,0.8126822138075624,-0.1939375532417853,0.7565428665415236,-0.2246853292204115,10.485492576174693,-1.430656398353742,0.2586325160095151,-1.3192257785491628
0.62,-0.0663384023933392,-2.37430457091312,1.856632294837398,-0.0452934483677107,0.161500155608607,0.0265380506894981,0.3093954389850666,0.4778727520910448,-0.1393256006176194,-0.0633129053018892,-2.370606433101007,1.8552962275684888,0.3037416313418651,0.5400626658758365,-0.1599026189800653,1.319311765303415,0.5871050746438539,1.1339615187246992,0.3316963060497085,11.2913138074191,-1.4144567176856924,0.2566737795903505,-1.3217079659106723
0.64,-0.0600351937599063,-2.364550317704495,1.8539131484043252,-0.0402989046699283,0.1562300705276493,0.0275226945799833,0.3193926586828746,0.4954703107160801,-0.1328872427437976,-0.0633129053018892,-2.370606433101007,1.8552962275684888,0.3037416313418651,0.5400626658758365,-0.1599026189800653,1.0619215170614047,0.4998609848904017,0.8798779312517657,0.3219178936910871,11.2913138074191,-1.430206152036152,0.2536177147818316,-1.3318234011686376
0.66,-0.0539188528561301,-2.3550137976893115,1.8514290723945048,-0.034908874674346,0.1479130127079913,0.0285905328992191,0.3234331378918181,0.5074339772874253,-0.1288727645261652,-0.0602754889884705,-2.3652058064422485,1.853697201378688,0.304183539898833,0.5600626661738597,-0.1635899787452373,0.6625157081686284,0.2020239604471757,0.5981833285672589,0.2007239108816186,11.1532057936638,-1.4480548159621238,0.2488278840863288,-1.3331174725673
0.68,-0.0474555996402756,-2.344760784491656,1.8488759503858716,-0.0298920500995954,0.1376946564331521,0.0296561565313377,0.3222302752920258,0.5173174341961917,-0.1267356468542113,-0.0542006563616332,-2.354404553124732,1.8504991489990867,0.305067357012769,0.6000626667699062,-0.1709646982755813,0.5091583026063659,-0.0601431299896176,0.4941728454383176,0.1068558835976951,10.982494873000178,-1.465255208325681,0.2442356086918678,-1.3271863152251282
0.7000000000000001,-0.0410715941573523,-2.334328498231157,1.84634067472332,-0.0260288267330513,0.1276328101875972,0.0305784692717461,0.3160382676186917,0.5256866355275057,-0.1268776287415479,-0.0481258237347959,-2.3436032998072154,1.8473010966194852,0.305951174126705,0.6400626673659526,-0.1783394178059253,0.5205877659123114,-0.3096003836667055,0.4184600665657012,-0.0070990943668289,10.83042656158159,-1.4797422883117777,0.2407976001001669,-1.3178680499895818
0.72,-0.0351602065949397,-2.324271042593377,1.843912712719249,-0.0234417509555613,0.1193015200961724,0.0313084301497248,0.306501117563844,0.5328437227535227,-0.1286838557015517,-0.0420068002522618,-2.330802046459896,1.8437343082633668,0.3068349912406409,0.6800626679619991,-0.1857141373362694,0.6029999679944837,-0.476857502742381,0.3578543613008467,-0.090311348000191,10.69265885862842,-1.4918414297652485,0.2382522226436016,-1.3067773937656175
0.74,-0.0291625882656539,-2.3135427660864485,1.8413117124244531,-0.0218264751319941,0.1125686939034064,0.031927684031366,0.2936236697520523,0.5397497177263577,-0.1313498648113804,-0.0358877767697277,-2.318000793112577,1.8401675199072485,0.3077188083545769,0.7200626685580456,-0.1930888568666134,0.7426793273074397,-0.6438723905895866,0.345299748641753,-0.1333004554914349,10.58477760031019,-1.5005813034826223,0.2368678826808287,-1.2957000441133348
0.76,-0.0234528983969202,-2.3026736963357872,1.838651200248084,-0.0211960692374078,0.1088149448940611,0.0324020877209643,0.2780034095644131,0.546881133797941,-0.13455941468936,-0.0297466578593452,-2.304199539750357,1.8364163635628712,0.3086026254685128,0.7600626691540919,-0.2004635763969574,0.8734283512899339,-0.781013009381959,0.3565708035791648,-0.1604774938989792,10.540222160147096,-1.5047939224307942,0.2365359989318419,-1.2880315067198844
0.78,-0.018328279040137,-2.292214149555589,1.8360616996419896,-0.0212728716982749,0.1086012671650672,0.0327306124236289,0.2626692887073828,0.553812109486697,-0.1378566657862769,-0.0235834435211143,-2.289398286373236,1.832480839230236,0.3094864425824488,0.8000626697501384,-0.2078382959273014,0.857387822476298,-0.7667060428515171,0.3465487844378001,-0.1648625548458432,10.491838309809282,-1.5018871040080937,0.2367314567882419,-1.2843885032821378
0.8,-0.0132290167985058,-2.281059236373205,1.8332672946061528,-0.0219646840642334,0.1112188130725979,0.032970286254444,0.2483980130249151,0.5613597008403065,-0.1414140581378223,-0.0051948146047678,-2.2645235440812543,1.829168866352676,0.2622228663034717,0.6538121109768131,-0.1508048426098333,0.8265749893217609,-0.7135637841233833,0.3773795676804747,-0.1778696175772712,10.491838309809282,-1.495198022780987,0.2376201682907134,-1.2845326068677565
0.8200000000000001,-0.0083748678095054,-2.269692689468246,1.8304885804692723,-0.0214681187545271,0.1155798148749038,0.0332508202071116,0.2380778841763895,0.5745358915871078,-0.1358289079415777,-0.0051948146047678,-2.2645235440812543,1.829168866352676,0.2622228663034717,0.6538121109768131,-0.1508048426098333,0.88220032413403,-0.5160064424262811,0.658809537340066,0.2792575098122321,10.476691775285872,-1.4815649150548549,0.2369227889892046,-1.2905030482091446
0.84,-0.0037024595049247,-2.2580913932439324,1.827826827436121,-0.0191034997542128,0.1206987410304532,0.0336472652249284,0.2299005577704545,0.5848251121427355,-0.130698597348931,-0.0051948146047678,-2.2645235440812543,1.829168866352676,0.2622228663034717,0.6538121109768131,-0.1508048426098333,0.7054374769754136,-0.4088663202967496,0.5144610277813821,0.256515529632334,11.07949865628052,-1.4740462427912622,0.2348360596622029,-1.3021469061603277
0.86,0.0006031776251289,-2.246904733133212,1.8253763434601349,-0.0165100755610493,0.1257646099103947,0.0340501103309273,0.2238781372182677,0.5922171302866046,-0.1275207136617321,-0.0025725859417331,-2.2579854229714864,1.8276608179265776,0.2621335818226895,0.6738121112748363,-0.1533944779745446,0.5025197167178058,-0.3011210276093398,0.3696009071934569,0.1588941843599464,10.987371187412464,-1.4664537120639831,0.2321675612434651,-1.313042549992408
0.88,0.0050289602280748,-2.2349947243908743,1.822847396390904,-0.014335133020249,0.1308983507993963,0.0344440208655261,0.219141707423229,0.5985484746045322,-0.1256212386819113,0.0026718713843362,-2.24490918075195,1.8246447210743808,0.261955012861125,0.7138121118708828,-0.1585737487039672,0.4065946792398076,-0.236821489751933,0.3165672158963795,0.0949737489910354,10.886643406304756,-1.4591677503503928,0.2300929465519215,-1.32256149753562
0.9,0.0093750284379934,-2.2229666458492487,1.8203430496748223,-0.0130920413996147,0.1355301490942662,0.0347815185406436,0.2157842771783888,0.604047185935587,-0.1249683946384103,0.0079163287104057,-2.231832938532414,1.821628624222184,0.2617764438995605,0.7538121124669293,-0.1637530194333897,0.3237837607739675,-0.1678715122420113,0.274935566552742,0.0326422021750504,10.807899833080228,-1.4532122617760772,0.2291338139797731,-1.3299036575400605
0.92,0.0136662615309765,-2.210837252071821,1.8178412184341208,-0.0131690314689241,0.1394569639684792,0.0350329484138178,0.2135251006028626,0.6088337975230551,-0.1252574320663295,0.0131518575883969,-2.216756696283076,1.8183535638335164,0.2615978749379961,0.7938121130629757,-0.1689322901628123,0.2650427886371744,-0.1129588287763092,0.2393305793734035,-0.0144518713959602,10.70410401814297,-1.4480562646173485,0.2296499850439155,-1.335737069357232
0.94,0.0177095340212905,-2.1992277746314373,1.8154569568448369,-0.0147283616714268,0.1424576539472581,0.0351715220914269,0.212183209054709,0.6131913369622205,-0.1257107953071078,0.0183873864663881,-2.2016804540337365,1.815078503444849,0.2614193059764316,0.8338121136590222,-0.1741115608922349,0.2290980200644315,-0.0670945774076836,0.2178769719582696,-0.0226681620389135,10.70410401814297,-1.4438920044463046,0.2320946880295543,-1.33982277202353
0.96,0.0219436014003602,-2.186901291781366,1.8129376773093049,-0.0176981448303019,0.1448392797155517,0.0352286915368034,0.2112818532880292,0.6195982210668168,-0.1262024084566235,0.0236184511203402,-2.1856042117694967,1.8116739612879451,0.2612407370148672,0.8738121142550686,-0.1792908316216575,0.3244313857991886,-0.0450677883339897,0.3203442052298166,-0.0245806574757825,10.70188043253438,-1.4404113376028946,0.2362534511197641,-1.343522098312658
0.98,0.0261628064872468,-2.174416455061059,1.8104091081159803,-0.0208592381934431,0.146462713662903,0.0352801714034559,0.2106620124074889,0.6285780828033697,-0.1266291647855063,0.0288450515502532,-2.168527969490356,1.8081399373628064,0.2610621680533027,0.913812114851115,-0.18447010235108,0.4505669775101046,-0.0309920440270131,0.4489930868276426,-0.0213378164441391,10.720194692175935,-1.4384316197544995,0.2407396584937867,-1.3466862932327044
1.0,0.0303708916652541,-2.1617356770538696,1.8078725312173896,-0.0234593400280921,0.1474035003182565,0.0353821647760909,0.2101282426253282,0.6388856215706648,-0.1270093767050113,0.0366959071076213,-2.1429875509208904,1.804077649876705,0.2111056863038594,0.7285780842934858,-0.1371790816712995,0.5164175314688983,-0.0266884891080329,0.5153769383647533,-0.0190105959752537,10.720194692175935,-1.437678404656469,0.2444265312661268,-1.349328928630067
1.02,0.0343735756458668,-2.149417913668816,1.8055146582944892,-0.0229306488149232,0.1475132196292798,0.0357042899283216,0.2111388042143541,0.6560498582092714,-0.1211516995401935,0.0366959071076213,-2.1429875509208904,1.804077649876705,0.2111056863038594,0.7285780842934858,-0.1371790816712995,0.9082189106687476,0.0505280794512924,0.8582118319303333,0.2928838582408929,10.72902800076008,-1.433398908004632,0.2444040305661928,-1.355646116775269
1.04,0.0386021995983315,-2.136153871511279,1.8031487527120875,-0.0188002058014457,0.1467843428149284,0.0363019227890614,0.2115976750159134,0.6687328145069275,-0.1158154111876467,0.0366959071076213,-2.1429875509208904,1.804077649876705,0.2111056863038594,0.7285780842934858,-0.1371790816712995,0.6883747457640771,0.0229435400779673,0.6341478148828017,0.2668144176273396,11.077942664909642,-1.4367774036920489,0.2403317235219376,-1.3621803232519842
1.06,0.0428311744978892,-2.122693901822667,1.8008689576375114,-0.01391898030526,0.1454920508689514,0.0369439433801951,0.2112033108311884,0.6765934619070042,-0.1124263651080826,0.0388069639706599,-2.135701770077956,1.802705859059992,0.2111944210831335,0.748578084591509,-0.1392890650484581,0.4284592570710063,-0.0197182092362496,0.3930323700038374,0.1694523039782014,11.077942664909642,-1.4398944251621082,0.235342327757658,-1.3661336287247627
1.08,0.0468321392267677,-2.109788195832498,1.7987497269627404,-0.0099366302825215,0.1440013068277115,0.0374921840433563,0.2099081241464512,0.6817302139298389,-0.1108186609228856,0.0430290776967371,-2.1211302083920858,1.799962277426566,0.2113718906416816,0.7885780851875555,-0.1435090318027754,0.276805178056323,-0.0647593342368607,0.256837601141735,0.0803852092598526,10.960287297698414,-1.442746523813352,0.2307002500054955,-1.3677857023710145
1.1,0.051007053150185,-2.096110379682203,1.7965392656821346,-0.0068644076814107,0.1424425957420233,0.0379721714889422,0.2075683207145692,0.6859961045838685,-0.1103665507360084,0.0472511914228142,-2.1065586467062163,1.79721869579314,0.2115493602002298,0.8285780857836019,-0.1477289985570927,0.2443200093783875,-0.1169901715941015,0.2132945327014801,0.0226055093438586,10.859728447790076,-1.4452796067417408,0.2273774272721684,-1.367895505011268
1.12,0.055125195918262,-2.0823539872423344,1.7943270835721226,-0.0050242149515311,0.1411976783576788,0.0383486744626349,0.2043447181271976,0.6896219135232725,-0.1109131324853067,0.0514821786268188,-2.089987084990544,1.794264115821998,0.211726829758778,0.8685780863796484,-0.15194896531141,0.2441150124174916,-0.1611801293685794,0.1812904469702003,-0.0273290874649168,10.784304797449296,-1.4470918603941538,0.2255031291617776,-1.3670749336940402
1.14,0.0591744253289745,-2.068532663690961,1.7920986761640283,-0.0045806723843489,0.1404254593332888,0.0386144525099241,0.2007757257934881,0.6925715299949934,-0.1118967572844888,0.0557131658308234,-2.073415523274872,1.7913095358508562,0.2119042993173262,0.9085780869756948,-0.1561689320657272,0.2366720376063171,-0.1784496166854762,0.1474808235860436,-0.0491812399591028,10.704159814916238,-1.4480057028431244,0.2252743913070266,-1.3657576232752362
1.16,0.0629543061166415,-2.055341868859426,1.7899622953879697,-0.0053783220729004,0.1401116419098447,0.03877350998759,0.1973228142338045,0.6958861007570061,-0.1129358279235394,0.0599485897737917,-2.0558439615442987,1.7882494567108564,0.2120817688758744,0.9485780875717412,-0.1603888988200445,0.2448910235611102,-0.1726455779841818,0.1657285381006346,-0.0519535319525303,10.704159814916238,-1.447975026879031,0.226591567482119,-1.3646454369653267
1.18,0.0668632770013273,-2.041382267573047,1.7876922234824664,-0.0072687834374773,0.1401513261341433,0.0388612255209003,0.1937891694775599,0.6999884414842761,-0.1140163319356109,0.0641884504557237,-2.0372723997988245,1.785083878401999,0.2122592384344225,0.9885780881677876,-0.1646088655743618,0.2760585699903894,-0.1766822378122284,0.2051170363635002,-0.0540252006035739,10.697198650613243,-1.4474036672659285,0.2292503143737494,-1.3638478362273865
1.2,0.0707030991798446,-2.0273263843126776,1.7854015324706851,-0.0098692449311584,0.1404870674504072,0.0388941495587704,0.1904058178639022,0.705620190084274,-0.1150039701841772,0.0765527354752053,-2.006382845498833,1.781991406885686,0.1836256546026843,0.7999884429743922,-0.1092356426812078,0.3321862796129976,-0.1691675806828843,0.2815874299998966,-0.0493819124283152,10.70278174044688,-1.4461604422768506,0.2325950216770451,-1.3637595406998926
1.22,0.074321176525733,-2.013794379450211,1.7832866979544035,-0.0105127669844854,0.1403390536240184,0.0390544924400046,0.1906852138130517,0.7179765225814793,-0.1070971638063735,0.0765527354752053,-2.006382845498833,1.781991406885686,0.1836256546026843,0.7999884429743922,-0.1092356426812078,0.7336119580097659,0.0139697974574762,0.6178166248602623,0.3953403188901853,10.70278174044688,-1.4393982207623957,0.2334131463444311,-1.3662420653002694
1.24,0.0781369874093407,-1.9993288078256688,1.781234532727355,-0.0083834085238545,0.1389385044428251,0.0394223264510307,0.1907581216462611,0.7277337511277945,-0.098639952836312,0.0765527354752053,-2.006382845498833,1.781991406885686,0.1836256546026843,0.7999884429743922,-0.1092356426812078,0.6456261337827425,0.0036453916604672,0.4878614273157611,0.4228605485030755,11.341763107272527,-1.441808622511631,0.2314669455359903,-1.3723509941073846
1.26,0.0819443077098256,-1.984698564476147,1.779334719644078,-0.0050511301106254,0.1365057250427033,0.039864242846544,0.1898583055783929,0.7344768283337018,-0.0918331915689225,0.0783889920212321,-1.998382961069089,1.7808990504588738,0.1815929516277092,0.8199884432724154,-0.1082795048303272,0.481172417414105,-0.044990803393409,0.3371538602953638,0.3403380633694733,11.27658440567484,-1.4457925159978655,0.2281223474681036,-1.3758345485533443
1.28,0.0855324652831043,-1.970705486353326,1.7776394997496594,-0.0021765442403946,0.1334985469871741,0.0402456629575267,0.1877753183238424,0.7383295926021958,-0.0869413579365997,0.0820615051132858,-1.9823831922096011,1.7787143376052497,0.177527545677759,0.8599884438684618,-0.1063672291285659,0.3283011753616199,-0.1041493627275236,0.1926382134247006,0.2445916816161401,11.171453661295343,-1.4504189248345902,0.2247854556605642,-1.3767383144856016
1.3,0.0892512460480314,-1.9559100398865152,1.7759439291621273,-7.550485971748155e-05,0.129966106846641,0.0405619819572082,0.1840584999478167,0.7412077333475835,-0.0829180901090433,0.0857340182053395,-1.9663834233501132,1.7765296247516256,0.1734621397278088,0.8999884444645083,-0.1044549534268047,0.3093748414257149,-0.1858409188012874,0.1439070372693862,0.2011633913778225,11.076350804009053,-1.4553017065392446,0.222528720090412,-1.3753978564699605
1.32,0.0928772748164584,-1.9410659141007085,1.7743188165408308,0.0008074749212367,0.1265380989097768,0.0407767146938726,0.1785861905382738,0.7431850533872508,-0.0798252085058774,0.0892032609998957,-1.9483836544608235,1.7744405256830895,0.1693967337778586,0.9399884450605548,-0.1025426777250434,0.3294764082003552,-0.2736154704771412,0.0988660019833664,0.1546440801582935,11.005982031565509,-1.4600737147165916,0.2217420169534581,-1.3725414217461354
1.34,0.0963752658276318,-1.9261917861635465,1.7727522598644725,4.268749574659953e-05,0.1238169938762795,0.0408684037600702,0.1714061847692289,0.7443986583071117,-0.0769752613337664,0.0926725037944519,-1.930383885571533,1.7723514266145537,0.1653313278279083,0.9799884456566011,-0.1006304020232822,0.3909843942820872,-0.3590002884522464,0.0606802459930444,0.1424973586055478,10.951517276610502,-1.4633467114259966,0.2228272754475829,-1.3692592935141237
1.36,0.099551338381447,-1.9120301070658163,1.7713176978097105,-0.0021583318471594,0.122433025610516,0.0408512309884817,0.1633231377593154,0.7463816021617867,-0.0741738808464732,0.0960401114402593,-1.9113841166673415,1.7703101344385612,0.1612659218779581,1.0199884462526476,-0.0987181263215209,0.439077008991169,-0.4041523504956748,0.0991471927337506,0.140069024364664,10.947102291979718,-1.4639007311117525,0.2258013952032913,-1.3672482385066362
1.38,0.1027293876147915,-1.897060762242716,1.7698673495409354,-0.0053875522560211,0.1223678639036881,0.0407666929183545,0.1550432876823884,0.7507270585370458,-0.0710064289672362,0.0993060839373179,-1.8913843477482493,1.7683166491551132,0.1572005159280079,1.059988446848694,-0.0968058506197597,0.4936386831806986,-0.4139925038463499,0.2172728187629535,0.1583725939618495,10.947102291979718,-1.4614372069105088,0.2298909138037441,-1.3678346824867005
1.4,0.1057491536162967,-1.881980334877904,1.768482904840068,-0.0085071644630804,0.1233595504686179,0.0406818881133691,0.1474740052530975,0.7570885312650727,-0.0675946238083733,0.1104815519989109,-1.8595244093158636,1.7663170280925735,0.1302279164223415,0.8507270600271619,-0.0762922149663852,0.5229789341021431,-0.3784641214645459,0.3180736364013448,0.1705902579431435,10.958640446242498,-1.4583107182861694,0.2337289455376886,-1.370151252804414
1.42,0.1086409970769156,-1.8666899906959435,1.767162631861802,-0.0088265949970329,0.1245030537102923,0.0407863119556766,0.1421399752699794,0.7708711378329532,-0.0646221558651834,0.1104815519989109,-1.8595244093158636,1.7663170280925735,0.1302279164223415,0.8507270600271619,-0.0762922149663852,0.7537368329514588,-0.2667014991559038,0.6891303283940275,0.1486233971594933,10.976038972778952,-1.4530539729051308,0.2345147445519301,-1.3765657283694153
1.44,0.1112944279930552,-1.851947782265268,1.7659579470680824,-0.0059102452363353,0.125051749426299,0.0411071401615491,0.1373934137454152,0.7799243496268404,-0.0623317250898355,0.1104815519989109,-1.8595244093158636,1.7663170280925735,0.1302279164223415,0.8507270600271619,-0.0762922149663852,0.5237761049057896,-0.2373280762282117,0.4526605896943592,0.1145215387673946,10.92456554119235,-1.4528007739281863,0.2310771158942003,-1.3805983903059524
1.46,0.1139888021790398,-1.836291197481121,1.7647272916308852,-0.0018994454165686,0.1251833629061738,0.0415014247407698,0.1322586783516454,0.7851270698452718,-0.060902841919873,0.1117838311631344,-1.851017138715592,1.7655541059429096,0.1252648421703321,0.8707270603251851,-0.0773493721662151,0.372409426400264,-0.2567367696884912,0.2601360109215689,0.0714441584981285,10.92456554119235,-1.4528697428429005,0.2262576223243962,-1.383107398257191
1.48,0.1165774567722123,-1.820560548721586,1.7635128818000856,0.0014612630133321,0.1250105354974081,0.041837069088799,0.1268242610024914,0.7879394699530001,-0.0606055375152199,0.1143883894915812,-1.8340025975150485,1.764028261643582,0.1153386936663133,0.9107270609212316,-0.0794636865658747,0.3063122434696398,-0.2717208674576962,0.1406200053864159,0.014865220232654,10.8612533777723,-1.452894845597858,0.2223330137500278,-1.3839645282922524
1.5,0.1190539937091881,-1.8047854173608704,1.7622958988751456,0.0037074593050725,0.1246792521298792,0.0420813295433165,0.1210709774493923,0.7897766048109711,-0.061103118855161,0.116992947820028,-1.816988056314505,1.7625024173442545,0.1054125451622945,0.950727061517278,-0.0815780009655343,0.3029972083971692,-0.287664177654958,0.0918567428985495,-0.0248790669970581,10.798943592832984,-1.4528612771949505,0.2194913814018474,-1.383554735509298
1.52,0.1212975726121283,-1.7897717569267788,1.7611258161571517,0.0046608000483525,0.1243218459082728,0.0422202136957925,0.1153689187220117,0.7907409203691131,-0.0620330304220113,0.1191011987232739,-1.7979735150841598,1.7608708573249436,0.0954863966582757,0.9907270621133244,-0.083692315365194,0.2928656421822718,-0.2851029363690291,0.0482157779071013,-0.0464955783425143,10.753570707577635,-1.4529644402226487,0.2182180923874045,-1.3820124188118217
1.54,0.1235406535850162,-1.7739547168074632,1.759872872251068,0.0040635786846536,0.1239690546132115,0.0422467039042587,0.1092268339211996,0.7910864032980508,-0.0632154527842022,0.1212094496265198,-1.7789589738538143,1.7592392973056328,0.0855602481542569,1.030727062709371,-0.0858066297648536,0.3132199179377154,-0.3071042400406058,0.0172741464468828,-0.0591211181095452,10.712800048898316,-1.45289888346638,0.2189839091434285,-1.3796358721396742
1.56,0.1256583259968373,-1.7581226807890469,1.7585967341339104,0.0017918350636285,0.1237139545172731,0.0421523982733679,0.1028571103057066,0.792265986193736,-0.064332106442291,0.1230695468171652,-1.7589444326085677,1.7575548794263307,0.0756340996502381,1.0707270633054171,-0.0879209441645132,0.3286780725028862,-0.3184861807746484,0.0589791447842602,-0.05583268290444,10.712800048898316,-1.45238636496339,0.221640553952021,-1.3772409024348022
1.58,0.1275506873234922,-1.7430401655977428,1.757366415284504,-0.0012956761510605,0.1236224962329244,0.0419970601160426,0.0966704287096681,0.795556912091498,-0.0651189814948974,0.1246814902952102,-1.7379298913484196,1.755817603687037,0.0657079511462194,1.1107270639014637,-0.0900352585641729,0.3525776325284137,-0.3093340798019248,0.1645462948881015,-0.0393437526303157,10.714743923698734,-1.4509562590571603,0.22565111144697,-1.375568322182378
1.6,0.1294153927654341,-1.7270738558582228,1.7560579251550918,-0.0044906057951771,0.1237011792327614,0.0418367847491888,0.0901481477202976,0.8009128170017831,-0.0656786486988109,0.1323842087589756,-1.7032623199931678,1.754110466209759,0.0874491114631118,0.8955569135816142,-0.0582558000156221,0.4229039314414559,-0.326114049468526,0.2677952455142518,-0.0279833601956762,10.72887827694285,-1.4495929096090074,0.2296579458783594,-1.374793229608855
1.62,0.1311256854900996,-1.7109175649686534,1.7548029334451043,-0.0049087798282971,0.1249022037640267,0.0418620605092685,0.081454426404741,0.8136872439836855,-0.0594739190738027,0.1323842087589756,-1.7032623199931678,1.754110466209759,0.0874491114631118,0.8955569135816142,-0.0582558000156221,0.8325644791065351,-0.4346860657778284,0.6387213490951227,0.3102364812504098,10.745344466625284,-1.4441100660954778,0.2300679713159433,-1.3778225301610654
1.64,0.1326041689979365,-1.6953689917514256,1.753732386761956,-0.0020224873124995,0.1276316495883828,0.0421034870071395,0.074855890985096,0.8220223264572853,-0.0535790785807226,0.1323842087589756,-1.7032623199931678,1.754110466209759,0.0874491114631118,0.8955569135816142,-0.0582558000156221,0.6077898772702576,-0.3299267709822528,0.416754123679991,0.2947420246540041,11.214474890869496,-1.4388569451575517,0.2264202258235796,-1.3869992750328983
1.66,0.1340459127922881,-1.6788793813704717,1.7527137397112071,0.0020201582963148,0.1313724873901778,0.0424267642716603,0.0698549120774969,0.8263728205814054,-0.0486721577603284,0.1332586998736067,-1.6943067508573515,1.753527908209603,0.0856048480138006,0.9155569138796372,-0.0568831637197671,0.4123544018677116,-0.250048945379952,0.2175247062060015,0.2453460410197089,11.16033127337505,-1.4327362171222786,0.2213396594500382,-1.3963753882498622
1.68,0.1354068988889185,-1.6623330528886906,1.751777742340892,0.0053979234650415,0.1353582125765328,0.0427066955700968,0.0666044585267757,0.828323847566453,-0.0451874268110649,0.135007682102869,-1.6763956125857191,1.7523627922092904,0.081916321115178,0.9555569144756838,-0.054137891128057,0.2574650673903913,-0.1625226775360602,0.0975513492523838,0.174236547463177,11.008691621020262,-1.4266590624892168,0.2172198789727204,-1.4044282557247485
1.7,0.136719176928171,-1.645758815972626,1.7509009041357777,0.0076261544969801,0.1391017577935493,0.0429048866336443,0.0648327805252186,0.829360594119959,-0.0426826386699597,0.1367566643321312,-1.6584844743140872,1.751197676208978,0.0782277942165555,0.9955569150717304,-0.0513926185363469,0.1619232070244164,-0.0885839000778543,0.051837327675297,0.1252394070552581,11.008691621020262,-1.420749956642588,0.2142709775662319,-1.41159166335824
1.72,0.1379447487692729,-1.6300002603904713,1.7501085125103348,0.0085243292236787,0.1421303061253971,0.0430002849530786,0.0642603336822345,0.8296137903309083,-0.0408583850398866,0.1383212202164623,-1.6385733360126526,1.750169823838251,0.074539267317933,1.0355569156677766,-0.0486473459446368,0.0964326839836535,-0.0286223421492037,0.0126598105474662,0.0912126815036558,10.961570152991952,-1.4161116023778917,0.213016171590463,-1.4170602638282737
1.74,0.1392320963096777,-1.6134129947343638,1.7493118022331464,0.0078250132544544,0.1445871536159821,0.0429727439330005,0.0645047149817745,0.8292797086388429,-0.0389047141706393,0.1398857761007934,-1.618662197711218,1.7491419714675245,0.0708507404193105,1.0755569162638232,-0.0459020733529267,0.0998519236405057,0.0122190649769968,-0.0167040846032695,0.0976835434623669,10.94952845070202,-1.412627702369411,0.2139458511332173,-1.4207721299186833
1.76,0.1405308465669673,-1.5968232905913209,1.748557377810247,0.0054187018036599,0.1462089552166079,0.0428118742023801,0.0652902901779412,0.8298928430942214,-0.0366366421029645,0.141358118812659,-1.5977510593948825,1.74818275091159,0.067162213520688,1.1155569168598696,-0.0431568007612166,0.123866996748238,0.0392787598083359,0.0306567227689236,0.1134036033837392,10.94952845070202,-1.4101858378145926,0.2168929417043535,-1.4233293030211702
1.78,0.141781114652166,-1.5810289198569594,1.7478872874416285,0.0022584380766117,0.1470000688120665,0.0425891347374357,0.0662012959525845,0.8328472412646671,-0.0340154074050282,0.142738248352059,-1.5758399210636451,1.7472921621704487,0.0634736866220655,1.155556917455916,-0.0404115281695065,0.2026651882578237,0.0455502887321629,0.1477199085222869,0.1310617348968146,11.004271986506865,-1.408483638908598,0.2212445115997564,-1.4256706857398933
1.8,0.1431147547504319,-1.5643208547758642,1.7472402891493624,-0.000949710700322,0.1471379422384634,0.0423597596817667,0.0670564138973194,0.8378026577976271,-0.0308045049909806,0.1450911794497952,-1.539386557793726,1.746186517071377,0.051005839619126,0.9328472427547831,-0.0449999548412655,0.2983172557323715,0.0427558972367479,0.2477708266479972,0.1605451207023805,11.004271986506865,-1.408241892930263,0.2255352226313009,-1.427691612987213
1.82,0.1444568657093852,-1.547431200258494,1.7466196295733445,-0.0013514226363795,0.14660386502418,0.0423255301078039,0.0670459622125255,0.8501416409830886,-0.0316188555043392,0.1450911794497952,-1.539386557793726,1.746186517071377,0.051005839619126,0.9328472427547831,-0.0449999548412655,0.6182915615780017,-0.0005225842396969,0.616949159273078,-0.0407175256679291,11.03641813035847,-1.4095321049085394,0.2262941844951834,-1.4319524238986558
1.84,0.145795065846064,-1.5303402751207134,1.7459727678300778,0.0016433229523346,0.1454274768043791,0.0425190776264063,0.0667117712124951,0.857992025880409,-0.032996053139045,0.1450911794497952,-1.539386557793726,1.746186517071377,0.051005839619126,0.9328472427547831,-0.0449999548412655,0.3988636984786171,-0.0167095500015201,0.3925192448660186,-0.0688598817352916,10.7811977467436,-1.4124705452444002,0.2224812729605912,-1.432111638786382
1.86,0.1471204641720866,-1.5131391703190715,1.7452913705867654,0.0055363968617923,0.1437823753043461,0.0427566688900292,0.0657749148779794,0.8616573581803011,-0.0350673961696503,0.1456012378459865,-1.5300580853661785,1.7457365175229644,0.0479667483524344,0.9528472430528064,-0.047196864328513,0.2156549478367668,-0.0468428167257825,0.1832666149946038,-0.1035671515302656,10.71963447752114,-1.4156760934070047,0.2176604629002149,-1.43095668106844
1.88,0.1483548316299399,-1.4967565967662355,1.744598913001127,0.0086358425932804,0.1419880629788852,0.0429210080807347,0.0641371034652302,0.8628933986951869,-0.0377091756944386,0.146621354638369,-1.5114011405110823,1.744836518426139,0.041888565819051,0.9928472436488528,-0.0515906833030079,0.1672514681233139,-0.0818905706374606,0.0618020257442897,-0.1320889762394163,10.71963447752114,-1.4189189819249752,0.2132913291866934,-1.4282839366052902
1.9,0.1496118365440505,-1.4794972416946426,1.7438110244817162,0.0107925655006111,0.1400955917867939,0.0430001319632813,0.061564578518325,0.863209085719348,-0.0409516529856269,0.1476414714307515,-1.4927441956559868,1.7439365193293137,0.0358103832856676,1.0328472442448993,-0.0559845022775028,0.2075524143652934,-0.128626247345261,0.0157843512080535,-0.1621238645594134,10.675514042270152,-1.4218865348009972,0.2103571433058103,-1.4245657577282038
1.92,0.1508081315090927,-1.462239243605637,1.7429555262741818,0.0116125255856753,0.1384724940497714,0.0429765120863438,0.0581247474722949,0.8627173753060592,-0.0444350519754659,0.1483576790964649,-1.4720872507710887,1.7428168292837636,0.0297322007522842,1.0728472448409456,-0.0603783212519978,0.2460095794790365,-0.171991552301506,-0.0245855206644385,-0.1741699494919521,10.64454127935278,-1.4244580625422252,0.2091491968080642,-1.4201927329324262
1.94,0.1519282081387918,-1.44500004971062,1.74202864919366,0.0106713321193311,0.1373875419701626,0.0428296937469312,0.0540969714865498,0.8615215753813542,-0.0480672734972856,0.1490738867621782,-1.4514303058861908,1.7416971392382137,0.0236540182189009,1.1128472454369922,-0.0647721402264927,0.2776956519052807,-0.2013887992872554,-0.0597899962352488,-0.1816110760909844,10.628659626255285,-1.4257029166382116,0.2100681648701643,-1.4160251279303864
1.96,0.1529167996560687,-1.4286349957085756,1.741082478234982,0.0082076134218646,0.1368705152674831,0.0425850306737149,0.0502056763731339,0.8613782803684742,-0.0513404475149525,0.149638139864557,-1.4297733609863916,1.7404676037183011,0.0175758356855175,1.1528472460330386,-0.0691659592009877,0.2543441530207649,-0.1945647556707928,-0.0071647506440009,-0.1636587008833453,10.616320544191694,-1.425533607553061,0.2131190624160734,-1.4123387314682072
1.98,0.1538785120389295,-1.4113858251325728,1.7400227534812167,0.0047638596676405,0.1367639345230553,0.0422731626703449,0.0462021019118962,0.8637682260544588,-0.0544435538452326,0.1500504384036012,-1.4071164160716914,1.7391282227240263,0.0114976531521341,1.192847246629085,-0.0735597781754826,0.2800433794327928,-0.2001787230618865,0.1194972842992303,-0.1551553165140034,10.62163914541452,-1.4245604072165772,0.2173180501689604,-1.4098114039774363
2.0,0.1547619708794994,-1.3940657016286817,1.7389058011154352,0.001504824425432,0.1369947896389851,0.0419772996778739,0.0423904366525073,0.8680653642592463,-0.0570998177332593,0.1561886171345243,-1.3681974138298498,1.737300575788955,0.0209066524910864,0.9637682275445748,-0.073102230961269,0.3164250568598808,-0.1905832629694449,0.2148569102393749,-0.1328131944013374,10.63785405561157,-1.4234686481689216,0.2211283256505627,-1.408459686113
2.02,0.1555376449005406,-1.3774533329978855,1.737812438234538,0.0011319478934252,0.1372739846573884,0.04188573210965,0.0394750090242973,0.8792326430864578,-0.057861424768866,0.1561886171345243,-1.3681974138298498,1.737300575788955,0.0209066524910864,0.9637682275445748,-0.073102230961269,0.5783335541378813,-0.1457713814105012,0.5583639413605734,-0.0380803517803337,10.784851348001212,-1.4201710480273293,0.2215131409081305,-1.4113465709532302
2.04,0.1562975417668147,-1.3597897209463288,1.7366401187045817,0.0038706056532831,0.1373987302208927,0.0420013404988935,0.036657410514545,0.8862981891988023,-0.0593733289133553,0.1561886171345243,-1.3681974138298498,1.737300575788955,0.0209066524910864,0.9637682275445748,-0.073102230961269,0.3877713803581598,-0.1408799254876108,0.3532773056172278,-0.0755952072244638,10.784851348001212,-1.4207501256104271,0.2179189126741328,-1.4125474741205857
2.06,0.157000371638332,-1.3420270159664387,1.7354236176490114,0.0075548340171134,0.1373327391349982,0.042171952299598,0.0337446878630646,0.8894767619875581,-0.0622592531739203,0.1563976836594351,-1.358559731554404,1.7365695534793424,0.0158475626069245,0.983768227842598,-0.0768339663844763,0.2594023759316009,-0.145636132574024,0.1589286394377886,-0.1442962130282506,10.642432008077776,-1.42162006162798,0.2130434147395908,-1.4124811914883575
2.08,0.1576428423860651,-1.324229943776756,1.7341343728928431,0.0106193404628687,0.1371201303007294,0.0422868784334822,0.0306189935408335,0.8903387984957346,-0.066507738000788,0.1568158167092569,-1.3392843670035126,1.7351075088601169,0.0057293828386006,1.023768228438645,-0.0842974372308909,0.2672203924739909,-0.156284716111551,0.0431018254088255,-0.2124242413433851,10.642432008077776,-1.4222456572374809,0.2090792768588788,-1.4111707477937296
2.1,0.158193145026329,-1.3073174696910632,1.7328219215184228,0.0124962740197223,0.1368297111324987,0.0423134062455882,0.0274391776148606,0.8901802536731505,-0.0714208479276864,0.1572339497590786,-1.320009002452621,1.7336454642408916,-0.0043887969297232,1.063768229034691,-0.0917609080773054,0.2927243367813282,-0.1589907962986487,-0.0079272411292075,-0.2456554963449209,10.56741287238492,-1.422837311728662,0.2062526331065776,-1.4086209364130895
2.12,0.1587053199009885,-1.2895247345492251,1.7313337862203142,0.0131557935605461,0.1364702827708442,0.0422409542663083,0.0239231563435243,0.8892469433761307,-0.0771489063359764,0.1571461738204841,-1.2987336378719272,1.7318102460793454,-0.0145069766980471,1.1037682296307374,-0.09922437892372,0.3392791137831559,-0.1758010635668132,-0.0466655148509853,-0.2864029204144983,10.477937290905174,-1.4235393278295303,0.2051564022865031,-1.404851652329561
2.14,0.1591457904627053,-1.2717587940917203,1.729728819371951,0.0120202820198054,0.1360869886110103,0.0420384554473863,0.0202784126994836,0.8876883270244457,-0.083043644288866,0.1570583978818897,-1.2774582732912334,1.7299750279177992,-0.024625156466371,1.143768230226784,-0.1066878497701346,0.3551808577885068,-0.1822371822020342,-0.0779308175842541,-0.2947368976444784,10.477937290905174,-1.4240527251487014,0.2063374962746058,-1.4002031505833596
2.16,0.1595111997000414,-1.2540115525774325,1.7280085560408345,0.0092025252403257,0.1357310842538642,0.0417189371023937,0.0164334186287083,0.8874300600422843,-0.0886744195027264,0.1567176674490871,-1.2551829086956383,1.727953222985093,-0.0347433362346949,1.1837682308228303,-0.1141513206165491,0.341160925178267,-0.1922497035387648,-0.0129133491080679,-0.2815387606930196,10.467318285668624,-1.4238792446788868,0.209420829075321,-1.3961422908861816
2.18,0.1597854732750114,-1.2371296460100751,1.7262742536565807,0.0058908335474806,0.1354637526682149,0.0413747967771672,0.0126308761258534,0.8897338929075879,-0.09359725567801,0.1561239825220765,-1.2319075440851424,1.725744831281226,-0.0448615160030188,1.2237682314188767,-0.1216147914629637,0.3316673460183864,-0.190127125142746,0.1151916432651778,-0.246141808764181,10.476022697654116,-1.4235276967819777,0.2135540824642654,-1.3925773135664063
2.2,0.1599953080980132,-1.219293934192498,1.7243508770619005,0.0026360753161532,0.1352754921669858,0.0410331978039615,0.0085590662996719,0.8937071010681406,-0.0984661143002053,0.1604170170813041,-1.1926429513646957,1.7215943908726803,-0.0088415984342881,0.989733894397704,-0.1107527744333267,0.3744055375879096,-0.2035904913090752,0.1986604080276344,-0.243442931109767,10.496726212609246,-1.4233174257037724,0.2174224906374634,-1.3895715093319092
2.22,0.1601103924070546,-1.20129877052666,1.722385979864825,0.0021772577565998,0.1357564781309208,0.0408898772005987,0.0033177235214911,0.904854395809808,-0.0975076584499544,0.1604170170813041,-1.1926429513646957,1.7215943908726803,-0.0088415984342881,0.989733894397704,-0.1107527744333267,0.6177630852375204,-0.2620671389090396,0.5573647370833656,0.0479227925125481,10.512037299152324,-1.419412576670779,0.2176621724909682,-1.391036535636227
2.24,0.1601317731063022,-1.1840350505638384,1.7205378251972914,0.0049388654253626,0.1371435857317167,0.0409761616140313,-0.0006718561019821,0.9115397804762896,-0.0971222254086746,0.1604170170813041,-1.1926429513646957,1.7215943908726803,-0.0088415984342881,0.989733894397704,-0.1107527744333267,0.3897424545137907,-0.1994789811736638,0.3342692333240915,0.0192716520639867,10.898630613572095,-1.4173595356761226,0.2138705789443094,-1.3950304955377828
2.26,0.1600833781842655,-1.1657710933949468,1.7185829014077856,0.008827298166902,0.1390755076899696,0.0411354627178658,-0.0038653562729389,0.914367978494163,-0.0984774671075086,0.1603286010969612,-1.1827456124207187,1.720486863128347,-0.0131360933463164,1.0097338946957273,-0.1141838781843901,0.2237958189536928,-0.159675008547839,0.1414099008936631,-0.0677620849416985,10.819344229687886,-1.4149542632454637,0.2087022023477738,-1.3984798723755063
2.28,0.1599803331447464,-1.147479095125533,1.716582663325108,0.0121131386815599,0.1411128005721564,0.0412518416312191,-0.0062284060367971,0.9148628632076188,-0.1015456778914674,0.1601517691282755,-1.1629509345327649,1.7182718076396806,-0.021725083170373,1.0497338952917736,-0.1210460856865168,0.1952103511656285,-0.1181524881929093,0.0247442356727856,-0.153410539197938,10.710569481056154,-1.4122561126305315,0.2042453801730758,-1.4008517379385443
2.3000000000000003,0.1598375269393681,-1.129189897923445,1.7145062217082476,0.0142378657708948,0.14297265496493,0.0412823591319383,-0.0079272489445353,0.9143847115898942,-0.1059313558937379,0.1599749371595897,-1.1431562566448106,1.716056752151014,-0.0303140729944296,1.0897338958878202,-0.1279082931886435,0.2363729454395381,-0.084942145386913,-0.0239075808862232,-0.2192839001135288,10.616020264177678,-1.4099820416843376,0.2013749901190569,-1.4017276569069042
2.32,0.1596755445072209,-1.1118303989746756,1.7124449154284795,0.015028166650327,0.1444151357211877,0.0412175399090916,-0.0090549155154544,0.9131852533933572,-0.1108183644052591,0.1593686556997011,-1.121361578727054,1.713498586287241,-0.0389030628184863,1.1297338964838666,-0.1347705006907701,0.2578428981574289,-0.0563833285459528,-0.0599729098268553,-0.2443504255760592,10.548958189757286,-1.4080435337692851,0.1999792977867098,-1.4015375172942657
2.34,0.1594857950424366,-1.0935877858373186,1.710172805597768,0.0141997080078038,0.145504357045289,0.0410233210170995,-0.0098760226136176,0.9113207221543468,-0.1161299123140234,0.1587623742398125,-1.099566900809298,1.7109404204234682,-0.0474920526425429,1.1697338970799132,-0.1416327081928969,0.284443468878256,-0.0410553549081608,-0.0932265619505212,-0.2655773954382149,10.508618692909296,-1.4067680692053353,0.2007621395447889,-1.3998726284761132
2.36,0.1592813595636857,-1.0753731021906885,1.7077968584183003,0.011659049672552,0.1461398441768998,0.0407012967454432,-0.0105544426689029,0.9104351512498328,-0.1211760325122783,0.1579413680343225,-1.0767722228766403,1.708210699372142,-0.0560810424665995,1.2097338976759595,-0.1484949156950235,0.2583980391448938,-0.0339210027642662,-0.0442785452256955,-0.2523060099127422,10.50055025275833,-1.4059755629677462,0.2037198044391704,-1.3971010460819908
2.38,0.1590635639174644,-1.0571500868337704,1.7053254880127402,0.0082264633738409,0.1463578934978689,0.0403135458909206,-0.0112437037822059,0.9121206564973108,-0.1257017992627426,0.1569056370832311,-1.0529775449290817,1.7053094231332628,-0.0646700322906561,1.249733898272006,-0.1553571231971502,0.2439189081497995,-0.034463055665148,0.0842752623739062,-0.2262883375232151,10.513440913135128,-1.4057048173221829,0.2076158338144698,-1.394564774556904
2.4,0.1588427387013104,-1.039786678958187,1.7028983649534826,0.0051251242619678,0.1462405907384195,0.0399572636929335,-0.012004323185797,0.9154644131163118,-0.1295571778307626,0.1585013787283541,-1.011544054008905,1.6990403980496032,-0.0300578223612359,1.0121206579874271,-0.1267694860887332,0.257988343278235,-0.0380309701795568,0.167187830950044,-0.1927689284009992,10.562076634947516,-1.4060395564034802,0.2115554976530594,-1.3924677872858515
2.42,0.1585963332753741,-1.021365201919063,1.70035179559513,0.0045070490375176,0.1460821838533501,0.0397695315713059,-0.0125028823140393,0.925782024291508,-0.1244588263772913,0.1585013787283541,-1.011544054008905,1.6990403980496032,-0.0300578223612359,1.0121206579874271,-0.1267694860887332,0.5759662514201737,-0.0249279564121156,0.5158805587598181,0.2549175726735609,10.562076634947516,-1.40151004290054,0.2117253534099533,-1.393720522846868
2.44,0.1583450983227524,-1.0027763745266356,1.6979161397068128,0.0071590910279184,0.1460499936777698,0.0398067791500195,-0.012594452091502,0.9323124785084372,-0.1194188434670446,0.1585013787283541,-1.011544054008905,1.6990403980496032,-0.0300578223612359,1.0121206579874271,-0.1267694860887332,0.412482257312753,-0.0045784888731333,0.3265227108464497,0.2519991455123382,11.17055413748949,-1.4022332758302225,0.2082692190962572,-1.3983418572381283
2.46,0.1580931035706709,-0.9841005568598208,1.6955627599434064,0.0108693530517461,0.1459640838891862,0.0399094309944011,-0.012617156681573,0.9348175196218887,-0.1161739007223884,0.1582008005047418,-1.0014228474290303,1.6977727031887158,-0.0338206460770419,1.0321206582854503,-0.1269830234539314,0.2049719486575544,-0.001135229503549,0.1252520556725811,0.1622471372328092,11.102634346250852,-1.4032866303516842,0.2036479675578986,-1.401465508079312
2.48,0.1578527674780331,-0.9663397777510404,1.6933714011560232,0.0138634763053816,0.1457477886529402,0.0399600069584291,-0.0127173993641492,0.9348625506528035,-0.1146504091564367,0.157599644057517,-0.981180434269282,1.6952373134669412,-0.0413462935086539,1.0721206588814969,-0.1274100981843277,0.0763724908046261,-0.0050121341288091,0.0022515515457399,0.0761745782975817,10.902118052888,-1.4040726472985543,0.1993702689421492,-1.4036891180326014
2.5,0.1575960512576411,-0.9476544991705168,1.6910845740132183,0.0159206032571851,0.1453420432167592,0.039926370718423,-0.0129935930097338,0.9338910912150438,-0.1141520649010464,0.1569984876102923,-0.9609380211095336,1.6927019237451666,-0.0488719409402659,1.1121206594775432,-0.1278371729147239,0.0563108196964504,-0.0138096822792311,-0.048572971887989,0.0249172127695186,10.902118052888,-1.4049738443427628,0.1964813839213915,-1.4042050660505103
2.52,0.1573315675079893,-0.9289964725670914,1.6887992619947283,0.0166039679515412,0.1447510833894601,0.0397879119291966,-0.0134856325282672,0.9321104550942672,-0.1144235879664292,0.156021048791487,-0.9386956079199826,1.690145180286872,-0.056397588371878,1.1521206600735896,-0.1282642476451202,0.0933607607275114,-0.0246019759266695,-0.0890318060388306,-0.0135761532691423,10.837096194532933,-1.4061154774237326,0.1953581525557284,-1.4035041925367002
2.54,0.1570697531456985,-0.9113123728524578,1.6866223952963364,0.0155673073880675,0.1440317304408234,0.0395341641051335,-0.0140985132219228,0.9297388442481448,-0.1146905872097329,0.1550436099726817,-0.916453194730432,1.6875884368285776,-0.06392323580349,1.1921206606696362,-0.1286913223755165,0.1232015558548909,-0.0306440346827821,-0.1185805423061236,-0.013349962165185,10.797905514727972,-1.4072304201971844,0.1963949732993151,-1.4014298867265575
2.56,0.1567786903772657,-0.892734948465819,1.6843292490850683,0.0127511358836404,0.1431552894236479,0.0391481584528477,-0.0150206191082107,0.9284287871350132,-0.1145822869384543,0.1538780299680861,-0.8932107815259798,1.6850210165020234,-0.071448883235102,1.2321206612656823,-0.1291183971059127,0.0802847721232441,-0.046105294314395,-0.0655028556565795,0.0054150135639301,10.797905514727972,-1.4080655133024358,0.199677778554628,-1.3987524400702132
2.58,0.1564658666523215,-0.8741537967945217,1.6820445167373277,0.009141794467936,0.142217357836165,0.0387140801780759,-0.016251984234327,0.929923268476354,-0.1138703120618069,0.1525243087777001,-0.8689683683066266,1.682442919307209,-0.078974530666714,1.272120661861729,-0.129545471836309,0.1031581647084729,-0.0615682563058135,0.074724067067039,0.0355987438323705,10.816913129136084,-1.4088851600349308,0.2039953163068231,-1.396823560322684
2.6,0.1561254300704057,-0.855521151366101,1.6797800955368432,0.0057789327498814,0.1412713497373196,0.0383067378942901,-0.017757470383056,0.9332047965138196,-0.1126108208372552,0.1556532674406051,-0.827657633370704,1.6763510011342373,-0.0401723172472655,1.00137304745041,-0.1081928867592418,0.1911886041936834,-0.0752743074364533,0.1640764018732865,0.0629745612275863,10.84836696282946,-1.4097649872475029,0.2078476352780335,-1.3959061426345398
2.62,0.1557713281634632,-0.837587074179849,1.6776903406684558,0.008361455191517,0.1404159439268076,0.0383258327494804,-0.0193650034987588,0.9515507246655852,-0.1074329755857245,0.1556532674406051,-0.827657633370704,1.6763510011342373,-0.0401723172472655,1.00137304745041,-0.1081928867592418,0.9565136223763648,-0.0803766557851352,0.917296407588275,0.2588922625765363,10.877702105265598,-1.4069411972849517,0.2043158163836815,-1.4031587706359303
2.64,0.155369380347247,-0.8184795601967642,1.6755945630813052,0.0170272530906945,0.1395441519147408,0.0387423860584174,-0.0207448830212203,0.9572807912449002,-0.1024687721062034,0.1556532674406051,-0.827657633370704,1.6763510011342373,-0.0401723172472655,1.00137304745041,-0.1081928867592418,0.3852954927259751,-0.0689939761230757,0.2865033289657537,0.248210173976051,11.16223395627094,-1.4096363038088318,0.1930258537866595,-1.4064697460227753
