t,x,y,z,roll,pitch,yaw,v_x,v_y,v_z,ref_x,ref_y,ref_z,ref_v_x,ref_v_y,ref_v_z,a_com,a_x,a_y,a_z,thrust,wind_x,wind_y,wind_z
0.0,0.0635381388976872,-1.8206779857196311,2.2307747590210587,0.0229290522748874,0.1364823274196314,0.0265574395370641,0.0027926946017339,0.0039781814682126,0.002976615190589,0.0636201252692647,-1.8204709578306453,2.2308675252403942,0.0644859811044962,0.1061434730232081,-0.0969384180836391,0.2849794243688061,0.1396347300866958,0.1989090734106348,0.1488307595294546,10.54718323625093,-1.286832435434254,0.1527696740781546,-1.16888317515284
0.02,0.0634910834363106,-1.8208931459767563,2.230608492468667,0.0146293791066562,0.1388502448254955,0.0260181290279511,-0.007101722983906,-0.0205715576272402,-0.0202609104620808,0.0636201252692647,-1.8204709578306453,2.2308675252403942,0.0644859811044962,0.1061434730232081,-0.0969384180836391,1.7610875812068016,-0.4947208792819968,-1.2274869547726492,-1.1618762826334994,10.54791028058844,-1.2986033022063974,0.1624915472962255,-1.1569389524258271
0.04,0.0632639198506038,-1.821343948963033,2.2298930234261065,-0.0017770730463387,0.1448639875484545,0.02492392466334,-0.0146484959878724,-0.022358995737647,-0.0502223352850686,0.0636201252692647,-1.8204709578306453,2.2308675252403942,0.0644859811044962,0.1061434730232081,-0.0969384180836391,1.5474460371814869,-0.3773386501983205,-0.0893719055203377,-1.4980712411493855,8.850679403796676,-1.2882665492843122,0.1790631782225277,-1.1465919269032387
0.06,0.0629242801287387,-1.8217368316643403,2.2285780394467056,-0.0188284569741291,0.1526039132205159,0.0236870702246003,-0.0185908082115503,-0.0164403362632329,-0.0797106504977119,0.0642649850803097,-1.8194095231004133,2.2298981410595577,0.0768336867667467,0.1261434733212313,-0.1169384183816623,1.5166847807992645,-0.1971156111838959,0.2959329737207054,-1.474415760632167,8.850679403796676,-1.2767362590625762,0.1949042564763711,-1.134717716948599
0.08,0.0625582090571971,-1.821961329191734,2.226797812506877,-0.0344818703760287,0.160566342498072,0.0224330950828719,-0.0195172965536596,-0.0071759988160971,-0.1062238035914675,0.0655547047023996,-1.8172866536399488,2.227959372697885,0.1015290980912478,0.1661434739172778,-0.1569384189777088,1.405021010479371,-0.0463244171054673,0.4632168723567878,-1.3256576546877803,8.894277516566035,-1.2665629304322834,0.2107891348099587,-1.1243642868956645
0.1,0.062178994370728,-1.82197487097238,2.2243911796460147,-0.050213411549681,0.1690253658287322,0.0210515219712537,-0.0181236112126557,0.0056796886484734,-0.1330124786808802,0.0668444243244895,-1.815163784179485,2.2260206043362123,0.1262245094157488,0.2061434745133242,-0.1969384195737553,1.4873165198290543,0.0696842670501955,0.6427843732285294,-1.339433754470632,8.974173713213531,-1.2590714210842622,0.2258485336465787,-1.1164045332272887
0.12,0.0618502182611717,-1.8216998529349349,2.221462090003888,-0.0651796990320534,0.1772591349780843,0.0196301259830372,-0.0146274931720939,0.0215055298924458,-0.1585267889938618,0.0693689145128045,-1.8110409146892184,2.222081835944737,0.1509199207402499,0.2461434751093706,-0.2369384201698017,1.5113405665005517,0.1748059020280914,0.7912920621986206,-1.275715515649084,9.039903179215798,-1.2538728745596643,0.2401682719516072,-1.1105851143893948
0.14,0.0616088986695579,-1.8210736214537429,2.2180259661356585,-0.0792364075367236,0.1851175620527556,0.0182057299461918,-0.0095192019741737,0.0405113753953423,-0.1838486503071513,0.0718934047011195,-1.806918045198952,2.218143067553262,0.1756153320647509,0.2861434757054172,-0.2769384207658482,1.6035222656796724,0.2554145598960108,0.9502922751448264,-1.266093065664474,9.117336869261637,-1.2517927783897096,0.2532191696584174,-1.107901258649674
0.16,0.0614867452763314,-1.820077371072693,2.214290459050051,-0.0908803149824185,0.1921869382411559,0.016935470949993,-0.0034518010672266,0.0629926337490972,-0.2080853792104424,0.075035280172547,-1.8017951756937844,2.213204299146886,0.2003107433892519,0.3261434763014636,-0.3169384213618946,1.6805053993259929,0.3033700453473554,1.124062917687747,-1.211836445164556,9.137491686731664,-1.2511648264749118,0.2653467074030456,-1.1066615231365136
0.18,0.0614952817368276,-1.818544803939788,2.209858805414353,-0.1008041894158669,0.1992039365763355,0.0157511224347588,0.0041357289384317,0.0887834458390998,-0.2337889878436214,0.078794540927087,-1.7956723061737156,2.2072655307256084,0.225006154713753,0.36614347689751,-0.356938421957941,1.8597124082880532,0.3793765002829184,1.2895406045001263,-1.28518043165895,9.157103213441587,-1.250917122440055,0.2751163051741732,-1.106435541085819
0.2,0.0616683376593665,-1.816478432215165,2.2049147978795016,-0.1083321923232029,0.2057941490100134,0.0147487972648751,0.0129317459553415,0.1161999762871889,-0.2592800375803019,0.0617020681837492,-1.8141056316478328,2.1981693560221727,0.056109053207488,0.1887834473292159,-0.3045501320048458,1.922777726266531,0.4398008508454922,1.3708265224044536,-1.27455248683402,9.169066105259844,-1.2519160891013197,0.2825648695329298,-1.1067138041953526
0.22,0.0620753777507388,-1.8136733817476511,2.199667278327592,-0.1085751573525642,0.2118789048648448,0.014313421245693,0.0275088166213525,0.1599543093338935,-0.2639054147095369,0.0617020681837492,-1.8141056316478328,2.1981693560221727,0.056109053207488,0.1887834473292159,-0.3045501320048458,2.3175022994333125,0.7288535333005506,2.1877166523352307,-0.2312688564617498,9.201302304728417,-1.249509595773136,0.282845696921751,-1.1094507512752878
0.24,0.0627485999855491,-1.8103077343286025,2.1946098913315875,-0.1023302978133606,0.2170201866335631,0.0144640742206565,0.0426866326108099,0.1908928882949549,-0.268157567156376,0.0617020681837492,-1.8141056316478328,2.1981693560221727,0.056109053207488,0.1887834473292159,-0.3045501320048458,1.7361182036160592,0.7588907994728692,1.546928948053071,-0.2126076223419593,10.54137073493166,-1.255995295842672,0.278176911491268,-1.1233809338011749
0.26,0.0637773399262271,-1.806214605648206,2.1891793568358677,-0.0940235139334823,0.2215612892887314,0.0148852175991745,0.0593931368194554,0.2164282212506725,-0.2747831491935977,0.0622631587158241,-1.8122177971745408,2.1951238547021243,0.0665037180612993,0.2087834476272391,-0.3187023608370907,1.5612966160893311,0.8353252104322747,1.2767666477858777,-0.3312791018610816,10.399766836414528,-1.2613889598437202,0.2716163793338405,-1.1382983887008624
0.28,0.0651445384690132,-1.801654132668184,2.1835913271936325,-0.0858285001681427,0.2250464395339983,0.0154426269757594,0.0764446924604446,0.2382217177809346,-0.2838002312423771,0.0633853397799739,-1.8084421282279564,2.1890328520620272,0.0872930477689218,0.2487834482232856,-0.3470068185015804,1.4551802375193217,0.8525777820494573,1.089674826513105,-0.4508541024389717,10.241223641856775,-1.2669109744011589,0.2656023903378045,-1.1533765919112589
0.3,0.0668527143598132,-1.7966857882957767,2.1777988797868004,-0.0784533989268708,0.2274161800493602,0.0160703156431263,0.0934220099952039,0.2575920970966933,-0.2950005467778792,0.0645075208441236,-1.804666459281372,2.1829418494219306,0.1080823774765443,0.288783448819332,-0.3753112761660702,1.404357480849543,0.848865876737967,0.9685189657879372,-0.5600157767751024,10.107821056950344,-1.273521664764473,0.2597256985529365,-1.1658381430335585
0.32,0.0687864411970569,-1.7916237560998909,2.17207267766125,-0.0723929164544994,0.2287281865782316,0.0166932409751799,0.1091882200508671,0.2744075821560736,-0.3072057706582945,0.0666691683936545,-1.798890790304985,2.175435623898609,0.1288717071841669,0.3287834494153784,-0.4036157338305599,1.30412941005925,0.7883105027831578,0.8407742529690121,-0.610261194020767,9.99813851107865,-1.2798714343206967,0.2545234936658359,-1.174759968414259
0.34,0.0711406803270446,-1.78596274849489,2.165788355233492,-0.0670539227559878,0.2293160652830848,0.0173456482290684,0.1253285197184028,0.2909024375594877,-0.3206181548597515,0.0688308159431854,-1.7931151213285983,2.167929398375288,0.1496610368917894,0.368783450011425,-0.4319201914950497,1.3346175277068042,0.8070149833767859,0.8247427701707083,-0.6706192100728509,9.880992017777317,-1.284788017730051,0.2501945551203527,-1.18172898864762
0.36,0.0738165274586636,-1.7799722670433271,2.1592315468047145,-0.0624634564115797,0.2291942973403055,0.0180007078676066,0.1413736458636434,0.3072774544255566,-0.3343977840716387,0.0715121967354069,-1.7863394523373108,2.1597155614103545,0.1704503665994119,0.4087834506074714,-0.4602246491595394,1.337409278790358,0.8022563072620281,0.8187508433034452,-0.6889814605943595,9.880992017777317,-1.2897644708157276,0.2465390429939337,-1.187082005235242
0.38,0.0768118703412355,-1.7736594340754206,2.152395501158635,-0.0582526764066118,0.2282989563641377,0.0186808623625405,0.1572697350518678,0.3231118676718856,-0.3485061539063206,0.0747133107703189,-1.778563783331122,2.1507941130038084,0.1912396963070344,0.4487834512035178,-0.4885291068240291,1.325198469784496,0.7948044594112232,0.7917206623164502,-0.7054184917340944,9.867315321912429,-1.2950335683841003,0.2433561937990302,-1.1905440585322573
0.4,0.0799493740428107,-1.7673753639799084,2.145636467737739,-0.0544814475680386,0.2266498051918147,0.019356697213323,0.172116401699769,0.3375027187458413,-0.3622508247595691,0.0846753570938289,-1.7575038406918264,2.1349701934633187,0.1558844817798485,0.4231118691620018,-0.388461520309185,1.2414065430498695,0.7423333323950578,0.7195425536977829,-0.6872335426624271,9.828423388720694,-1.3014781291700344,0.2402194993857013,-1.1926236638573444
0.42,0.0837230914901291,-1.7604618776255163,2.138449817985982,-0.0508290146576585,0.2202880327351391,0.020284683194497,0.2041222410463682,0.353140145060955,-0.3544376934243247,0.0846753570938289,-1.7575038406918264,2.1349701934633187,0.1558844817798485,0.4231118691620018,-0.388461520309185,1.823422520497312,1.60029196732996,0.7818713157556861,0.3906565667622236,9.828423388720694,-1.3004973052986808,0.2355910338408737,-1.1775178789615448
0.44,0.0880861742165211,-1.753249511557413,2.131445268508928,-0.0477923604489346,0.206742498246409,0.0215044159469058,0.2293683855254928,0.3673920321375603,-0.3465588824573143,0.0846753570938289,-1.7575038406918264,2.1349701934633187,0.1558844817798485,0.4231118691620018,-0.388461520309185,1.5021316175347477,1.26230722395623,0.712594353830262,0.3939405483505159,11.376422770136742,-1.3318937691673496,0.2362145272801987,-1.1844347301145417
0.46,0.0928559766027524,-1.7457598010954316,2.124562749744461,-0.0454741643442884,0.1891158053121505,0.0228268160897827,0.2454335396191151,0.3809792790352985,-0.3419514290844102,0.0862342019116274,-1.7532727220002065,2.131085578260227,0.1556074311254446,0.4431118694600249,-0.396452593589758,1.0769529712287966,0.8032577046811151,0.6793623448869135,0.2303726686452067,11.11025872389564,-1.3635665783954705,0.2370286328948383,-1.1820950173708422
0.48,0.0975997315807541,-1.7383995580020075,2.118082580469933,-0.0438600005760046,0.1709339953376238,0.0240714815234014,0.2525413900769184,0.3931709034361297,-0.3403324504346086,0.0893518915472243,-1.7448104846169663,2.123316347854043,0.1550533298166369,0.4831118700560714,-0.4124347401509037,0.7102435067108149,0.3553925228901661,0.6095812200415579,0.0809489324900825,10.851648803720307,-1.3951522853654192,0.2378849650042405,-1.1722931824202436
0.5,0.1026602739675705,-1.730410867242803,2.1112694196585453,-0.0429254307304793,0.1521998405934693,0.0252853481434679,0.2526020986856637,0.4050891856326663,-0.3411682546343759,0.0924695811828213,-1.7363482472337264,2.1155471174478597,0.1544992285078292,0.5231118706521178,-0.4284168867120495,0.5973853545070515,0.003035430437262,0.5959141098268311,-0.0417902099883654,10.631613168859984,-1.422714541116567,0.23890928469362,-1.1574928443263872
0.52,0.1076524094810419,-1.7221908976974591,2.104412818446056,-0.04299423688888,0.1353238335053617,0.0263437044706361,0.2462836219385744,0.4163744913835793,-0.3445478455065643,0.0955595657529779,-1.725886009820684,2.1069787797136184,0.1539451271990214,0.5631118712481643,-0.4443990332731953,0.6683990364267379,-0.3159238373544634,0.5642652875456483,-0.1689795436094238,10.290700453557292,-1.444970074221332,0.2403945644102398,-1.1402631123539797
0.54,0.1124632431494904,-1.71374904929833,2.0974733361168054,-0.0442320897654464,0.1213572386622762,0.0272108915986712,0.235126196457153,0.4273923170516258,-0.349217159817648,0.0986495503231345,-1.7154237724076418,2.098410441979377,0.1533910258902137,0.6031118718442108,-0.4603811798343411,0.8180512238861117,-0.5578712740710673,0.5508912834023272,-0.2334657155541819,10.290700453557292,-1.4600717347197634,0.2423736738283591,-1.1232798336495224
0.56,0.1167947041193769,-1.7055135774438968,2.090786483954891,-0.0462248643748325,0.1112277058765704,0.0278665967943578,0.2215070118290104,0.4389756820627062,-0.3544228783036601,0.1017256823605708,-1.7039615349796982,2.089442550581108,0.152836924581406,0.6431118724402571,-0.4763633263954868,0.931069331294623,-0.68095923140713,0.5791682505540213,-0.2602859243006072,10.223049011703552,-1.4697327061213568,0.2449898296155586,-1.108178190060628
0.58,0.1210517049521113,-1.6965912240091776,2.0836338395681917,-0.0485369282780307,0.1040644415155633,0.0284090548513649,0.2048099685708101,0.4526980038002071,-0.3605949372223527,0.104787961865287,-1.6914992975368537,2.0800751055188096,0.1522828232725983,0.6831118730363036,-0.4923454729566326,1.1238190231633314,-0.8348521629100144,0.6861160868750438,-0.3086029459346301,10.177289167276284,-1.4753244540013322,0.2477527791019126,-1.0975627801471843
0.6,0.1249466616085825,-1.6873805757968263,2.076351054516648,-0.0503932009384376,0.1011633956705797,0.0287955416983963,0.1858184150635793,0.4675096285690499,-0.3673561644880506,0.1312922033806518,-1.6739563238191673,2.0656040927070736,0.1568095322946127,0.5526980052903232,-0.389725498499623,1.2507772853804,-0.9495776753615432,0.7405812384421367,-0.3380613632848944,10.12134000858532,-1.4744445536453392,0.2497378397726982,-1.0913937265396936
0.62,0.1285527029347007,-1.6777949502342877,2.069112908025808,-0.0495945737899757,0.1004561628648897,0.0292633528673128,0.1756369765229958,0.4893741453163541,-0.3560966533254195,0.1312922033806518,-1.6739563238191673,2.0656040927070736,0.1568095322946127,0.5526980052903232,-0.389725498499623,1.3308788214655771,-0.509071927029174,1.0932258373652135,0.5629755581315538,10.12134000858532,-1.4594115901483606,0.2478399230180581,-1.084329012076127
0.64,0.1317906611290789,-1.668318228829999,2.062431335904364,-0.0458558697516703,0.0997468391916635,0.0299118775125208,0.165686241551727,0.5064813055013573,-0.347817571584028,0.1312922033806518,-1.6739563238191673,2.0656040927070736,0.1568095322946127,0.5526980052903232,-0.389725498499623,1.0726314028411992,-0.4975367485634416,0.8553580092501567,0.4139540870695762,11.20668591172216,-1.4637216409104357,0.2458071923751251,-1.095267624824358
0.66,0.1349886825648609,-1.6580423914388962,2.0555352649936105,-0.0410147339583114,0.0990667699490206,0.0306431290076502,0.1546154432704797,0.5200348084554411,-0.342378125316913,0.1328602987035979,-1.668429343766264,2.061706837722077,0.1472094450393732,0.5726980055883464,-0.3955516107550771,0.9163072527859576,-0.5535399140623648,0.6776751477041931,0.2719723133557505,10.771661062671228,-1.4662235353769115,0.2423337530664823,-1.1033127112960364
0.68,0.1379588810170516,-1.6475234446698868,2.0487147540541817,-0.0365586926321732,0.0985640251377635,0.0313279240821344,0.1429507354382854,0.5312127899318376,-0.3400758164323196,0.1359964893494902,-1.6573753836604574,2.053912327752085,0.1280092705288943,0.6126980061843929,-0.4072038352659852,0.8159554290786885,-0.5832353916097127,0.5588990738198241,0.1151154442296714,10.771661062671228,-1.4673433599438082,0.2388715449836611,-1.1088117969586762
0.7000000000000001,0.140690595148819,-1.6367973859623377,2.0419104643722994,-0.0329406635845854,0.0983431480613007,0.0319334036147386,0.1308439301601402,0.5410233619553323,-0.3404633147953144,0.1391326799953824,-1.646321423554651,2.0461178177820925,0.1088090960184153,0.6526980067804393,-0.4188560597768934,0.7793782978317159,-0.6053402639072614,0.4905286011747334,-0.0193749181497421,10.45196141965971,-1.4670352405001146,0.236072175485344,-1.1120262232325695
0.72,0.1430592281732129,-1.626433842474094,2.0354203638368187,-0.0303521399744606,0.0984402712279509,0.0324315840870265,0.1191369434946369,0.5495892533246075,-0.3426883122449404,0.1413088619157508,-1.6332674634190425,2.0377406965865545,0.0896089215079363,0.6926980073764858,-0.4305082842878015,0.7337892159662384,-0.5853493332751668,0.4282945684637607,-0.1112498724813004,10.34357173116132,-1.4655509658460022,0.2338163852802764,-1.1141781877710075
0.74,0.1453132904202194,-1.61535403846626,2.028534612764027,-0.028522846711838,0.0988542186626406,0.03287780975291,0.1069267940699166,0.5580774960523832,-0.3458042071099382,0.1434850438361191,-1.6202135032834335,2.0293635753910166,0.0704087469974573,0.7326980079725323,-0.4421605087987096,0.7596821940610314,-0.6105074712360131,0.4244121363887854,-0.1557947432498874,10.34357173116132,-1.4628511377766695,0.2322871603207511,-1.1148418699781368
0.76,0.1473227615164323,-1.6040995989685924,2.021580343087402,-0.0273735261685089,0.0996084680788185,0.0332617928901303,0.0946912169458614,0.5669468971670896,-0.3494866426535165,0.1451812213937254,-1.6061595431329234,2.0206951485827065,0.0512085724869783,0.7726980085685786,-0.4538127333096177,0.7777145286428474,-0.6117788562027604,0.4434700557353177,-0.1841217771789166,10.301196582833654,-1.459636485990325,0.2314081509392263,-1.1157054059153064
0.78,0.1490886124146398,-1.5926670124379514,2.014546882951763,-0.0266261341668207,0.1007692738977071,0.0336020609702483,0.0826085743765693,0.5758547157010524,-0.3536718821062715,0.1463973945885698,-1.5911055829675125,2.011735416161623,0.0320083979764994,0.8126980091646251,-0.4654649578205259,0.7791914266856642,-0.6041321284646017,0.4453909266981415,-0.2092619726377476,10.246412066155244,-1.4560504833187504,0.230907700968582,-1.1166319872065125
0.8,0.1505454426495865,-1.581640787978755,2.0077830995618844,-0.0261838848763673,0.1022369945726862,0.0338929093286757,0.0714416048316761,0.5843347564776873,-0.3580942811958866,0.1532190411334683,-1.5638742766528988,1.9968632888464493,0.0606358492086988,0.6758547171911685,-0.3779414908870132,0.7351358957665445,-0.5583484772446613,0.4240020388317445,-0.2211199544807557,10.246412066155244,-1.451743443720381,0.2306324449017255,-1.117841210762074
0.8200000000000001,0.1518193625502202,-1.5698144141243884,2.000696338270942,-0.0245333417179539,0.105638244007869,0.0342302163864091,0.0569603619237835,0.5974774750113435,-0.3496894613549023,0.1532190411334683,-1.5638742766528988,1.9968632888464493,0.0606358492086988,0.6758547171911685,-0.3779414908870132,1.0642819682439704,-0.72406214539463,0.6571359266828114,0.4202409920492145,10.22038173616329,-1.440177483657774,0.2286251341496593,-1.120793378057861
0.84,0.152832111278788,-1.5577641357996466,1.9937820128536317,-0.0215980926233475,0.1117837564324041,0.0345941017700454,0.0454732281521974,0.6067378067405808,-0.3423817875667701,0.1532190411334683,-1.5638742766528988,1.9968632888464493,0.0606358492086988,0.6758547171911685,-0.3779414908870132,0.8232710401435019,-0.5743566885793038,0.4630165864618618,0.3653836894066092,11.093364219724208,-1.4324992117418518,0.2263209485554566,-1.133382408375012
0.86,0.153612196956476,-1.5461665697576696,1.9873182471015505,-0.0191124470337549,0.1189395138910902,0.034900085002944,0.0375100426617207,0.6137515773049833,-0.3383956375589372,0.1538253996255553,-1.5571157294809872,1.9930838739375796,0.0562413041751247,0.6958547174891917,-0.3827954126431615,0.5667774972834697,-0.398159274523837,0.3506885282201277,0.1993075003916461,10.73665351188447,-1.4230205931890587,0.2241440531639282,-1.148075792340565
0.88,0.1543008467613587,-1.5338240305482689,1.9805726642539525,-0.0172360864904327,0.1268512241144188,0.0351725464984308,0.0320241534820109,0.6202792423393494,-0.3364964645769885,0.1550381166097293,-1.5435986351371638,1.985525044119839,0.0474522141079765,0.7358547180852382,-0.3925032561554581,0.4367844116618244,-0.2742944589854898,0.326383251718304,0.0949586490974346,10.73665351188447,-1.4134157281591109,0.2227054420992816,-1.1623644657773498
0.9,0.1549081532925673,-1.5213582912972743,1.973842531478194,-0.0163787795307923,0.1343657692866984,0.035384219231706,0.0291131517032037,0.6261477046853466,-0.3366342315557728,0.1562508335939032,-1.5300815407933404,1.9779662143020988,0.0386631240408283,0.7758547186812846,-0.4022110996677548,0.3276116657074721,-0.1455500889403617,0.2934231172998625,-0.0068883489392157,10.610313619504268,-1.4045327146298212,0.2222766703975857,-1.174514245400545
0.92,0.1554800348716161,-1.5087801724699363,1.9670944663195964,-0.016809416642514,0.1409569601927309,0.0355168428758284,0.0282702611325488,0.6315668445357359,-0.3381887626350955,0.1570240960747198,-1.5145644464197143,1.969921992308744,0.0298740339736801,0.8158547192773311,-0.4119189431800515,0.2850180174513346,-0.0421445285327433,0.270956992519461,-0.077726553966137,10.51507668985505,-1.3971313364256184,0.2230981541934055,-1.1837541483845355
0.94,0.1560241487340986,-1.4967311908974583,1.9606503109377216,-0.0186376621180321,0.1460698797526223,0.0355528914780713,0.0290255234015605,0.6366758970501243,-0.3400812678920479,0.1577973585555364,-1.499047352046089,1.961877770315389,0.0210849439065319,0.8558547198733776,-0.4216267866923482,0.2750200667104294,0.0377631134505857,0.2554526257194212,-0.0946252628476168,10.45000315262132,-1.390909817810789,0.2255621347046585,-1.1911126495435116
0.96,0.156622263474709,-1.4839233922267874,1.95382573923648,-0.0217103982709973,0.1501341121047732,0.0355216516802329,0.0307276725469196,0.6441899890606683,-0.342301117899383,0.1583508937846742,-1.482530257657562,1.953590852234226,0.0122958538393837,0.8958547204694239,-0.4313346302046449,0.4008947009846634,0.085107457267952,0.3757046005271991,-0.110992500366755,10.440271322751869,-1.3865432187145978,0.2294786239749165,-1.198496620701444
0.98,0.1572612710364741,-1.4709367561291666,1.9469553215185769,-0.0247580391175731,0.1528513953893962,0.0355102513698579,0.0329973508675057,0.6540289743553026,-0.344638438896526,0.1586847017621334,-1.465013163254134,1.945061238065256,0.0035067637722355,0.9358547210654704,-0.4410424737169415,0.5182184403093333,0.1134839160293053,0.4919492647317169,-0.1168660498571533,10.44012188828856,-1.384443085394948,0.2332922693966931,-1.2042941042255957
1.0,0.1579120150547414,-1.4584049603937876,1.9403838958803397,-0.0270979425040829,0.1542933960032319,0.0355607697052161,0.0352974552199793,0.6644536827007266,-0.3469740073255705,0.1589111385798494,-1.4382353074114016,1.9297233995737504,0.0260243031267482,0.7540289758454187,-0.360269742087711,0.546397071748581,0.1150052176236808,0.5212354172711986,-0.1167784214522238,10.450099271371982,-1.384140331674389,0.2367722785932201,-1.209218279081605
1.02,0.1586371234894946,-1.4449252774347443,1.9335320143922397,-0.0267091367154727,0.1554839718546631,0.035818119231461,0.0372344717185448,0.6823278826493591,-0.337492155216845,0.1589111385798494,-1.4382353074114016,1.9297233995737504,0.0260243031267482,0.7540289758454187,-0.360269742087711,1.0162979092411222,0.096850824928275,0.8937099974316243,0.4740926054362743,11.26201501052492,-1.3782002535445277,0.2365512240177373,-1.2140785923520885
1.04,0.1594088271656564,-1.43112605870557,1.9268758801093429,-0.0226889208284047,0.1569496864893242,0.0363167900665545,0.0399031839066707,0.695974438828135,-0.3287634477490072,0.1589111385798494,-1.4382353074114016,1.9297233995737504,0.0260243031267482,0.7540289758454187,-0.360269742087711,0.8208849711479512,0.1334356094062943,0.6823278089387985,0.4364353733918941,11.26201501052492,-1.3809365820134054,0.2334496927705005,-1.226365860784476
1.06,0.1602393097832262,-1.4171088353659456,1.9203636656820235,-0.0177152958440789,0.1583008890863637,0.0368785998144532,0.0430134092506514,0.7049488264013379,-0.3229002601440617,0.1591713816111168,-1.4306950176529474,1.9261207021528728,0.0246296935785967,0.7740289761434419,-0.3633960027259481,0.5580996839615322,0.1555112671990353,0.4487193786601451,0.2931593802472737,11.11749050079834,-1.3832815663148104,0.2292936673725527,-1.2369068591781087
1.08,0.1610879597387295,-1.4036532049188382,1.9142625575916703,-0.0134610399393986,0.1592687439934437,0.0373777841228808,0.0461288656268483,0.7111334790525841,-0.3196222902195947,0.1596918676736518,-1.4156144381360392,1.9189153073111191,0.0218404744822937,0.8140289767394884,-0.369648524002422,0.3830831622319798,0.1557728188098444,0.3092326325623062,0.1638984962233469,10.954355085847965,-1.3852893989160724,0.2252132881601827,-1.2461833105018736
1.1,0.1620449700093073,-1.3893764741265022,1.907889361076864,-0.0099430825064792,0.1598584741436803,0.0378323656199029,0.049361210839997,0.7163765274083491,-0.3179523995915098,0.1602123537361868,-1.4005338586191307,1.9117099124693648,0.0190512553859907,0.8540289773355348,-0.375901045278896,0.3190852015826734,0.1616172606574373,0.2621524177882528,0.0834945314042462,10.82056840630048,-1.3872388501948176,0.2220397746055974,-1.2529370284267842
1.12,0.1630649275805994,-1.3750020332631934,1.901533890202036,-0.0075002650780674,0.1599872497592072,0.0382055857720266,0.0524134150914573,0.7209959025681373,-0.3177352817577574,0.1605933788439066,-1.38345327907242,1.904191891563787,0.0162620362896878,0.8940289779315813,-0.3821535665553701,0.2770456542396648,0.1526102125730146,0.2309687579894082,0.0108558916876222,10.720485986610583,-1.3892426075943756,0.2200370972003034,-1.25742110284287
1.14,0.1641441482404264,-1.3605415831422678,1.8951755735734124,-0.0061642784330817,0.1596722404044641,0.0384941538874073,0.0552792677840771,0.7250271272114481,-0.3181021311153902,0.1609744039516264,-1.3663726995257093,1.896673870658209,0.0134728171933848,0.9340289785276278,-0.388406087831844,0.2479841841319134,0.1432926346309888,0.2015612321655424,-0.0183424678816407,10.643630358557855,-1.3912208591046342,0.2190108303523969,-1.2600371704679367
1.16,0.165219615830329,-1.3467252525395126,1.889126180775028,-0.0057712993991344,0.1590212912843919,0.0387006826642751,0.0577204232170915,0.7291725108932096,-0.3186565734431262,0.1612856985819386,-1.3482921199640974,1.888999536720719,0.0106835980970818,0.974028979123674,-0.394658609108318,0.2421303988140233,0.1220577716507218,0.2072691840880713,-0.0277221163868024,10.619424054849333,-1.3933724394261908,0.2190347552140505,-1.261794747949999
1.18,0.166397772995009,-1.3320950964620768,1.88274543955198,-0.0061054495643187,0.1580486931570151,0.0388603470296489,0.059905739666834,0.7336624120776679,-0.3193941270170935,0.1615272627348433,-1.3292115403875844,1.8811688897513172,0.0078943790007788,1.0140289797197206,-0.400911130384792,0.2523826752482603,0.1092658224871243,0.2244950592229178,-0.0368776786983632,10.609263637285949,-1.3957752799198413,0.2199185975352725,-1.2628960199445762
1.2,0.1676153255028264,-1.3173712606166907,1.8763484778583728,-0.0070939707631438,0.1568591894984919,0.0389705610098075,0.0616805958786275,0.7385307104555383,-0.3202633111856796,0.1693930599783507,-1.2954119758581937,1.866775733201125,0.0291588680613185,0.833662413567784,-0.3306338596327432,0.2627067033187306,0.0887428105896748,0.2434149188935197,-0.0434592084293056,10.600902793670684,-1.3981418157446277,0.2214354429273251,-1.263499373235073
1.22,0.1689111903257566,-1.3024922277407929,1.870020349819049,-0.0069606228523162,0.1544533771087223,0.0391630255400763,0.0679484072244096,0.7487624593518534,-0.3120487164177392,0.1693930599783507,-1.2954119758581937,1.866775733201125,0.0291588680613185,0.833662413567784,-0.3306338596327432,0.7270724031089234,0.3133905672891047,0.5115874448157531,0.4107297383970226,10.594062701562509,-1.3929258668611255,0.2208977438460074,-1.2589053317119532
1.24,0.17026234254243,-1.2881926032235893,1.864162020773019,-0.005193326555393,0.1496722653589083,0.0394636577490845,0.073632672251746,0.7558960468025059,-0.3050596976582109,0.1693930599783507,-1.2954119758581937,1.866775733201125,0.0291588680613185,0.833662413567784,-0.3306338596327432,0.5745548756170817,0.2842132513668195,0.3566793725326256,0.3494509379764116,11.202399854675605,-1.40454922510318,0.2199619110059136,-1.262365168697259
1.26,0.1717682163092763,-1.273014418762994,1.858120286734552,-0.0028248335021619,0.1424688046877128,0.0398009668968618,0.076193527038118,0.7614271151104677,-0.2995438785131494,0.1696846486589639,-1.2870753517225155,1.863469394604797,0.0230094937402154,0.8536624138658072,-0.3328818061558731,0.4110199347515012,0.1280427393186005,0.2765534153980897,0.2757909572530775,11.080028427147226,-1.4188622852781632,0.218353331370102,-1.2627939117415217
1.28,0.1732837505444881,-1.2577469702237505,1.8521700181298453,-0.0007981950052182,0.1342295332800979,0.0400864884261999,0.074883902942415,0.7651414879826897,-0.2958146278100728,0.1702678260201902,-1.27040210345116,1.8568567174121424,0.0107107450980092,0.8936624144618537,-0.337377699202133,0.2711963860025677,-0.0654812047851498,0.1857186436110991,0.1864625351538279,10.953842530273503,-1.4325367261210902,0.2168109753301073,-1.2588048742495523
1.3,0.1747345836058775,-1.2424194181225132,1.8462769723988863,0.0003272046093704,0.1259700300979562,0.0402838840484634,0.0700586305826734,0.7676096107815845,-0.2936479841381769,0.1708510033814166,-1.2537288551798045,1.850244040219488,-0.0015880035441969,0.9336624150579002,-0.3418735922483929,0.2918442576832602,-0.2412636179870794,0.1234061399447428,0.1083321835947948,10.839705377091375,-1.444006811062984,0.2160482935988281,-1.252260364159835
1.32,0.1759949515544554,-1.2278220551677363,1.8407082343661807,0.0001553839869003,0.1187843448627622,0.0403728707611086,0.0627648136778009,0.7690369799080703,-0.2926259493331004,0.1708192433105327,-1.2350556068786462,1.84340656837452,-0.013886752186403,0.9736624156539464,-0.3463694852946528,0.3751056611404205,-0.3646908452436259,0.0713684563242889,0.0511017402538283,10.747840043791255,-1.4533814979825737,0.2164587964343305,-1.243852817800451
1.34,0.1771492232615583,-1.212431791021422,1.8348638911862167,-0.001724640254719,0.1123932218482108,0.0403501564383164,0.0529034852780003,0.7701017958144912,-0.2918631621204841,0.1707874832396488,-1.2163823585774882,1.836569096529552,-0.0261855008286093,1.013662416249993,-0.3508653783409127,0.4973969115681464,-0.4930664199900309,0.0532407953210467,0.038139360630815,10.679987619086203,-1.4597425178433714,0.2186262953578915,-1.2349662169526805
1.36,0.1780812105806088,-1.1970016098990852,1.8290342898598408,-0.0050785488431707,0.1077572527045784,0.0402358563166729,0.0406358542930046,0.7732981165065128,-0.2911327284204079,0.1704482544527097,-1.1967091102614291,1.8296192273584275,-0.0384842494708154,1.0536624168460391,-0.3553612713871725,0.6349109570256264,-0.6133815492497848,0.159816034601079,0.0365216850038069,10.659697383524872,-1.4633353524741752,0.2223930837613172,-1.2286262325305497
1.38,0.1787436366736129,-1.181478110730188,1.823220126771908,-0.0085977118728421,0.1056943675926208,0.0401101597439528,0.0263249022882976,0.7789044557325961,-0.2903201258103306,0.1698015569497154,-1.1760358619304687,1.8225569608611467,-0.0507829981130216,1.0936624174420857,-0.3598571644334324,0.7695692135877891,-0.7155476002353479,0.2803169613041667,0.0406301305038658,10.660685136520442,-1.4628921063501483,0.2260364937937878,-1.225497494335198
1.4,0.1791099818301943,-1.1666129715049067,1.817712115533921,-0.0115187428470489,0.1062781031063338,0.0400018143551604,0.0132825472907905,0.7854814321883512,-0.2895124266107346,0.1800598817880278,-1.142532887943558,1.8087041204813916,-0.0086917461830577,0.8789044572227123,-0.299617663427716,0.7314574853974503,-0.6521177498753581,0.3288488227877528,0.0403849599798,10.66966365022654,-1.4578888782375536,0.2292163027769123,-1.2250012198208886
1.42,0.1792424313070858,-1.1507527848536503,1.8120009049486028,-0.011766966963379,0.1091189183845108,0.0400550416917204,0.0010216266491296,0.7994740205847758,-0.2812882630309757,0.1800598817880278,-1.142532887943558,1.8087041204813916,-0.0086917461830577,0.8789044572227123,-0.299617663427716,1.0170540442861091,-0.6130460320830408,0.6996294198212294,0.4112081789879429,11.164317101697634,-1.445893254605232,0.2288462573076068,-1.2288843474098372
1.44,0.179157101589441,-1.1346529906034415,1.8064547911077768,-0.0085279848922853,0.1136222440285637,0.0403313435262049,-0.0086536574926458,0.8093493895791792,-0.2738665670009043,0.1800598817880278,-1.142532887943558,1.8087041204813916,-0.0086917461830577,0.8789044572227123,-0.299617663427716,0.7845629483389093,-0.4837642070887769,0.4937684497201722,0.3710848015035739,11.164317101697634,-1.4398819445861757,0.2257339690977056,-1.2409774604978412
1.46,0.1789035096851058,-1.1184044543786067,1.801031117691187,-0.0043022200109537,0.1188312732504847,0.0406786281008558,-0.0160138208098174,0.814921928336855,-0.2688850945644551,0.1799729643261972,-1.133743843371331,1.8057079438471144,-0.0156950758773288,0.8989044575207354,-0.3014771709511931,0.5245003810683542,-0.3680081658585797,0.2786269378837858,0.2490736218224598,11.048818873244272,-1.4330979152326964,0.2211880186967117,-1.2530807668095585
1.48,0.1785462578427795,-1.1028908939155628,1.795950999814458,-0.0008024595165612,0.1237880422101628,0.0409815832854074,-0.0211238575412861,0.8180171074963162,-0.2661271881316328,0.1797991294025361,-1.1161657542268768,1.79971559057856,-0.029701735265871,0.938904458116782,-0.3051961859981472,0.3290085763256214,-0.2555018365734341,0.1547589579730612,0.1378953216411155,10.910585515695857,-1.426213391244664,0.2170937121600363,-1.263358416119786
1.5,0.178082450214824,-1.0865083484794285,1.7906445138099572,0.0018662270070565,0.1285351277482558,0.0412350744943494,-0.0249067739887898,0.8202886462356589,-0.2647422237641543,0.1796252944788749,-1.0985876650824224,1.7937232373100056,-0.0437083946544132,0.9789044587128284,-0.3089152010451014,0.231238358584351,-0.1891458223751863,0.1135769369671357,0.069248218373924,10.797794827043615,-1.4199011462042088,0.2141130750004169,-1.271573482353754
1.52,0.1775569303376785,-1.070086494192896,1.7853527156244728,0.0033573869232511,0.1324804098619217,0.0414042611269628,-0.0274269375486404,0.821943707246414,-0.2645583205206518,0.1787511265857867,-1.079009575908166,1.7875449332891036,-0.0577150540429553,1.0189044593088747,-0.3126342160920555,0.1510320472672199,-0.126008177992529,0.0827530505377538,0.009195162175124,10.716790241313902,-1.4146812987285378,0.2124558521577618,-1.27770072359668
1.54,0.1769920503126229,-1.0536393172321787,1.780058434149577,0.0033982429695648,0.135428026684092,0.0414635053548698,-0.028990672635796,0.8229360718875732,-0.2648802403547738,0.1778769586926984,-1.0594314867339092,1.7813666292682016,-0.0717217134314975,1.058904459904921,-0.3163532311390097,0.0939905232380628,-0.0781867543577818,0.049618232057963,-0.0160959917060998,10.64151529136234,-1.4106251240159853,0.2123850408507897,-1.2812256805259123
1.56,0.1764304588229461,-1.0379891392841338,1.775021981907784,0.0021464122961052,0.1373040801246738,0.0414195853504108,-0.0301052811467733,0.8245070911740208,-0.265258361530544,0.1766526243148966,-1.0388533975447514,1.7750953498711255,-0.0857283728200397,1.0989044605009677,-0.3200722461859638,0.0981507686508224,-0.055730425548863,0.0785509643223769,-0.0189060587885092,10.64151529136234,-1.4078705485366243,0.2139339887542942,-1.2836816538586635
1.58,0.1758174826561606,-1.02147485924836,1.769713247514995,-0.0002723405782859,0.1384172159404833,0.0412883874198614,-0.0311854446360263,0.8270070037242158,-0.2655917618051937,0.1750781234523812,-1.017275308340693,1.7687310950978758,-0.0997350322085819,1.138904461097014,-0.323791261232918,0.1371811909963806,-0.0540081744626504,0.1249956275097496,-0.0166700137324865,10.642074534678612,-1.4063712846903942,0.21683797738745,-1.2851392377519442
1.6,0.1751817063696156,-1.0048885777187515,1.764399542663135,-0.0031720691903057,0.1387840914918561,0.0411202807522987,-0.0323986250624538,0.8316083355479205,-0.2657568965530889,0.1742582104243592,-0.9801245090621492,1.7564336594247354,-0.0503614304640683,0.927007005214332,-0.242220767550247,0.2380721045390813,-0.0606590213213761,0.2300665911852351,-0.00825673739476,10.648438729394002,-1.4059764528798706,0.2201825633907177,-1.2863417227367382
1.62,0.1745505032792651,-0.9889695479853292,1.7594874751827831,-0.0036761361554258,0.1392440132925988,0.0411140828534597,-0.0338029580315548,0.8428268132126673,-0.2513210762676127,0.1742582104243592,-0.9801245090621492,1.7564336594247354,-0.0503614304640683,0.927007005214332,-0.242220767550247,0.9168141844412838,-0.0702166484550508,0.5609238832373409,0.7217910142738121,11.65540487139424,-1.3959143691889009,0.2200498595415806,-1.2854333381551195
1.64,0.1738686730650953,-0.9720223856431842,1.754617781036268,-0.0013065105241561,0.1402877349619639,0.041301260028557,-0.0342360067712621,0.8511135419815944,-0.2365284091158963,0.1742582104243592,-0.9801245090621492,1.7564336594247354,-0.0503614304640683,0.927007005214332,-0.242220767550247,0.8480572008452524,-0.0216524369853612,0.4143364384463555,0.7396333575858172,11.574696735758152,-1.3966647985497027,0.2178662471793079,-1.297396678502318
1.66,0.1731861420209786,-0.9549456586989076,1.750023594906605,0.0022545523978438,0.1414194878728138,0.0415634064170783,-0.0339667034742799,0.8558814973252006,-0.2237308880222304,0.1737545961197185,-0.970854439010006,1.754011451749233,-0.0541966276296767,0.9470070055123552,-0.2375465686992576,0.6829759669402936,0.0134651648491072,0.2383977671803094,0.6398760546832943,11.574696735758152,-1.3976380494434089,0.2144038183200839,-1.3088216634498564
1.68,0.1725143825945005,-0.9378054958251776,1.7456639271101255,0.0053840736337801,0.1423148452590142,0.0417861331276144,-0.033257001201897,0.8581141925481109,-0.2128826523827356,0.1727473675104372,-0.9523142989057192,1.749167036398228,-0.0618670219608935,0.9870070061084016,-0.228198170997279,0.5549162589162381,0.0354851136191436,0.1116347611455181,0.54241178197474,11.456022946505072,-1.398265246085043,0.2110216216201545,-1.3187200817141826
1.7,0.1718915640220819,-0.9214926250068012,1.7417098983051928,0.007431927111025,0.1427833136679523,0.0419223805952337,-0.0323965882214992,0.8592088080684859,-0.2038760019584098,0.1717401389011558,-0.9337741588014326,1.7443226210472231,-0.0695374162921104,1.027007006704448,-0.2188497732953003,0.4556814827823567,0.0430206490198915,0.0547307760187465,0.4503325212162901,11.354760352740414,-1.3988556083278822,0.2086495845081006,-1.3258153039018217
1.72,0.171253808228039,-0.9043057796792966,1.7377244383069448,0.008399277735022,0.1428037884404668,0.0419703609223311,-0.0314816458375077,0.8595465962061843,-0.1951777729809701,0.1703493905753136,-0.9132340186673436,1.739945625581317,-0.0772078106233272,1.0670070073004942,-0.2095013755933216,0.4376368578398256,0.0457471191995757,0.0168894068849234,0.4349114488719871,11.28215640585222,-1.399744956908972,0.2076650709248462,-1.3309673910659348
1.74,0.1706343470495223,-0.8871213870208189,1.733912244749016,0.0076933547860596,0.1423218462638771,0.0418904258760885,-0.030606486939157,0.8591529357236356,-0.1864736191314162,0.1689586422494714,-0.8926938785332547,1.735568630115411,-0.084878204954544,1.1070070078965408,-0.2001529778913429,0.4378446240094386,0.043757944917532,-0.019683024127437,0.4352076924776946,11.242079132268373,-1.4006960453304318,0.2086283035489939,-1.334300414172457
1.76,0.1700289599939708,-0.8699348943001013,1.7302777526583573,0.0053638621222373,0.1414106151701481,0.041691688117728,-0.030064181399967,0.8596777615991432,-0.1774143861595873,0.1673761340653488,-0.8711537383842645,1.7314253445920544,-0.0925485992857608,1.1470070084925872,-0.1908045801893642,0.4545306357532717,0.0271152769595023,0.0262412937753808,0.452961648591442,11.278184593139486,-1.401847218508426,0.2113811556470278,-1.3371148083566404
1.78,0.1694597913320249,-0.8535773696627457,1.7269973309886475,0.0022619631168958,0.1402473607042915,0.0414420282783519,-0.0299483285602588,0.8623729731493281,-0.1683540596183861,0.1656018660229457,-0.8486135982203732,1.7275157690112477,-0.1002189936169776,1.1870070090886335,-0.1814561824873855,0.4726708797194794,0.0057926419854078,0.1347605775092464,0.4530163270600629,11.278184593139486,-1.4031207454860208,0.2154818313602309,-1.340785059244359
1.8,0.1688581388311209,-0.8362818083942389,1.723734839297115,-0.0009330865361293,0.1387995403120903,0.0411893349004448,-0.0302839389444615,0.8670553207009537,-0.1583582309072198,0.167962374904012,-0.8104587210052793,1.7185796280077283,-0.060778486480977,0.9407657321148204,-0.1544873416912282,0.5521630297004129,-0.0167805192101315,0.2341173775812777,0.4997914355583166,11.310562521474822,-1.4049962455798508,0.2195860806957328,-1.3444831847474157
1.82,0.168236961946675,-0.8187280488424622,1.720636273480434,0.0012737774973725,0.1370895266676107,0.0413128293723562,-0.0317906801015458,0.8855527955269953,-0.151986904030326,0.167962374904012,-0.8104587210052793,1.7185796280077283,-0.060778486480977,0.9407657321148204,-0.1544873416912282,0.9810971537349426,-0.0753370578542148,0.9248737413020792,0.3185663438446867,11.345804038655842,-1.407801645563537,0.2172922209849754,-1.355093569477295
1.84,0.1675858815013294,-0.8009304222580407,1.7176613847419608,0.0087400975146372,0.1350154766843279,0.0417754479964382,-0.0332772486428703,0.8924562139375197,-0.1458128722416348,0.167962374904012,-0.8104587210052793,1.7185796280077283,-0.060778486480977,0.9407657321148204,-0.1544873416912282,0.4690035722321142,-0.074328427066226,0.3451709205262221,0.3087015894345624,11.11789627132748,-1.4114570954989656,0.2086484941046087,-1.35772131732091
1.86,0.1669349000486743,-0.7839655917048085,1.714939143157534,0.0162601146296492,0.132732090483199,0.0422046562369488,-0.0352467631246979,0.8930124174627254,-0.1410513441770395,0.1673545900392022,-0.801051063684131,1.717034754590816,-0.0669445180651207,0.9564442839079188,-0.1517139981057966,0.2591355782477043,-0.0984757240913816,0.0278101762602844,0.2380764032297658,11.11789627132748,-1.4151802189851077,0.198767089480811,-1.3593996050554078
1.88,0.1662012397969522,-0.7661325448525882,1.7121615420482288,0.0230118302599224,0.1301317799693035,0.0425317019860003,-0.0381173094465855,0.8904418046888719,-0.1369941375935306,0.1661390203095827,-0.7822357490418347,1.7139450077569915,-0.079276581233408,0.9878013874941156,-0.1461673109349335,0.2797722800800166,-0.1435273160943766,-0.1285306386926754,0.202860329175443,11.045929584570333,-1.4185702030512246,0.1902051155037881,-1.359096636352431
1.9,0.1653997215453547,-0.7483725209038639,1.7094562550067085,0.0280064716352373,0.1275310073536665,0.042700192665709,-0.0419859727071031,0.8861328375326468,-0.1337180098540598,0.1649234505799632,-0.7634204343995382,1.7108552609231669,-0.0916086444016952,1.0191584910803126,-0.1406206237640703,0.332666373195562,-0.1934331630258808,-0.2154483578112542,0.1638063869735417,10.9913536863196,-1.4215362285021833,0.1840371411598674,-1.3573912492764086
1.92,0.1645102654218052,-0.730707334009663,1.7068133373064305,0.0312852848707162,0.1251904204620818,0.0427284099772515,-0.0468495936225043,0.881051367841305,-0.1307184763909658,0.1630912776919293,-0.743037264577932,1.7080428484478851,-0.1039407075699825,1.0505155946665097,-0.1350739365932072,0.3823393245174181,-0.2431810457700606,-0.2540734845670911,0.1499766731546989,10.936526660139862,-1.423901826926382,0.179554885435881,-1.3548635980866075
1.94,0.1635663707970319,-0.7140238792619875,1.7043572435706889,0.0329262652595041,0.1234678274048386,0.0426497445302039,-0.0523168565204008,0.8756969821724426,-0.1279531769082997,0.1612591048038953,-0.7226540947563257,1.705230435972604,-0.1162727707382698,1.0818726982527065,-0.129527249422344,0.4068393132259595,-0.2733631448948267,-0.2677192834431185,0.138264974133305,10.936526660139862,-1.4253871630457549,0.177014518933967,-1.3521361259623097
1.96,0.1624542108749778,-0.6965684408988492,1.701830385665826,0.033287392264037,0.1224140077932196,0.0424840771355878,-0.0585443263116248,0.8702423010334549,-0.1248677426608271,0.1591186303366543,-0.7014869973450646,1.702556690676594,-0.1286048339065571,1.1132298018389033,-0.1239805622514809,0.4417432252568002,-0.3113734895611977,-0.2727340569493863,0.1542717123736291,10.931997849239451,-1.424908160324429,0.1761286840661584,-1.3501152256281488
1.98,0.1612186966814872,-0.6792226424974935,1.699368153177767,0.0322803324892081,0.1220889492124301,0.0422390030898934,-0.0646228235008565,0.864787760894253,-0.1215065812918883,0.156669854290206,-0.6795359723441485,1.700021612559856,-0.1409368970748443,1.1445869054251003,-0.1184338750806177,0.4415810852994868,-0.3039248594615861,-0.272727006960094,0.1680580684469405,10.940333563767126,-1.4232561596882145,0.1768239642982325,-1.3489857314335152
2.0,0.1598652691267903,-0.6619813617162953,1.6969772345767484,0.0299293086882952,0.1223207763630668,0.0419129463720577,-0.0703518424637749,0.859815131940304,-0.1177501251149773,0.1579875555064444,-0.6359832544527809,1.6932928241131722,-0.0894268195869771,0.8983458837079547,-0.1201499026262727,0.4232601445924931,-0.28645094814592,-0.2486314476974505,0.1878228088455488,10.954908637676454,-1.420681658552238,0.1791641321072134,-1.3487397281008964
2.02,0.158443550773066,-0.6455039179439456,1.6947485823554969,0.0324230433596424,0.123603852796602,0.041959206179954,-0.0788370692511354,0.8730943844622394,-0.1172635687641101,0.1579875555064444,-0.6359832544527809,1.6932928241131722,-0.0894268195869771,0.8983458837079547,-0.1201499026262727,0.7883120547359983,-0.4242613393680233,0.6639626260967701,0.0243278175433625,10.97643848395819,-1.4188566426742035,0.1759879460052443,-1.3586989195767096
2.04,0.1567910166861486,-0.6280132880050369,1.6924019083066284,0.0417218620148715,0.1264279854100546,0.0425180421054694,-0.0856871729074381,0.8741064348990062,-0.1174402097458889,0.1579875555064444,-0.6359832544527809,1.6932928241131722,-0.0894268195869771,0.8983458837079547,-0.1201499026262727,0.3463357050070647,-0.3425051828151386,0.0506025218383388,-0.0088320490889436,10.759020106978824,-1.4139930565500591,0.163990948248996,-1.3616400229043766
2.06,0.1550232401800246,-0.610598556337026,1.6900372126648464,0.0518428977583436,0.1299795912973393,0.0431720800830912,-0.0905807993638024,0.867269203756732,-0.1190385093113634,0.1570932873105746,-0.6269997956157014,1.6920913250869094,-0.0943876188042012,0.905057508270695,-0.1198785668931495,0.4279306926603529,-0.2446813228182118,-0.3418615571137096,-0.0799149782737214,10.664461812980337,-1.408041510920376,0.1515385574120286,-1.3648356995720357
2.08,0.1532702292614069,-0.5942246443270864,1.687749378612504,0.0602376053040107,0.133493073099029,0.0437245216016924,-0.0936255971993304,0.856968827645306,-0.121699956242684,0.155304750918835,-0.6090328779415423,1.689688327034384,-0.1043092172386495,0.9184807573961756,-0.1193358954269033,0.5532898012441289,-0.1522398917764005,-0.515018805571299,-0.1330723465660314,10.664461812980337,-1.4014007490516265,0.1399722672893724,-1.3670174803940889
2.1,0.1513774694257877,-0.5772208661060548,1.6852798436201284,0.0672103916390298,0.1369167295419615,0.0441633262857627,-0.0954253194824689,0.8442292859536019,-0.1251213819415602,0.1535162145270955,-0.5910659602673832,1.6872853289818586,-0.1142308156730977,0.9319040065216564,-0.118793223960657,0.6656595913528602,-0.0899861141569272,-0.6369770845852052,-0.1710712849438085,10.611073845997453,-1.3952921080464025,0.1308346381926597,-1.3676048329174475
2.12,0.1494620909506326,-0.560486927301194,1.6827390530704471,0.0721472750320128,0.1397417490443709,0.04441548200429,-0.0960461740330572,0.8303004635019382,-0.1287528242948687,0.1512315982136336,-0.5724278801369501,1.6849094645026454,-0.124152414107546,0.9453272556471368,-0.1182505524944108,0.7203903955987346,-0.0310427275294157,-0.6964411225831857,-0.181572117665428,10.587059165836765,-1.390477249537601,0.1245660802976275,-1.366624916992573
2.14,0.147639092339224,-0.5448522519164832,1.680258845509495,0.0751526798265806,0.1417117437595443,0.0444754231283437,-0.0958722582062594,0.8165804472566989,-0.132105002826917,0.1489469819001716,-0.553789800006517,1.6825336000234323,-0.1340740125419942,0.9587505047726176,-0.1177078810281646,0.706233306696815,0.0086957913398924,-0.6860008122619665,-0.1676089266024125,10.584910532626054,-1.3867357867683918,0.1201949881378333,-1.364263783601736
2.16,0.1457273760026951,-0.5286732791150166,1.6775833132034046,0.0768958085995971,0.1430104818318051,0.0443660739349803,-0.0953407328095519,0.8022270077754777,-0.1352302012852932,0.1464143256258485,-0.5348161386479469,1.6801713023308753,-0.1439956109764424,0.9721737538980982,-0.1171652095619183,0.7349670223769564,0.0265762698353752,-0.7176719740610571,-0.1562599229188097,10.594144176066038,-1.383449279429273,0.1176053418328781,-1.3601500107092632
2.18,0.1438286228045127,-0.5127853572802681,1.6748508963449984,0.0772667428126696,0.1435854856033629,0.0440889655305192,-0.0946058870780317,0.7874117638419867,-0.1378105349221707,0.1436336293906641,-0.5155068960612397,1.6778225714249744,-0.1539172094108907,0.9855970030235788,-0.1166225380956721,0.7528106879149243,0.0367422865760073,-0.7407621966745492,-0.1290166818438784,10.616781857092064,-1.3808797661516805,0.1166995698048805,-1.3543422787478665
2.2,0.141945451159061,-0.4971993223288422,1.6720739810814946,0.0759996416661816,0.1435283754474131,0.0436343904342133,-0.0938296595790922,0.7721798605579598,-0.1397177996537268,0.1390983284506111,-0.4734147690881687,1.6679603695988898,-0.1167487499791233,0.7852794810167999,-0.1268256531411291,0.7685230405464384,0.0388113749469766,-0.7615951642013452,-0.0953632365778014,10.679152778914611,-1.3791526205451814,0.1176803284703086,-1.3479710841910095
2.22,0.1401596447984598,-0.4825383163048958,1.6694205681993832,0.0775021796283002,0.1431825151337621,0.0433571068638602,-0.0941430009600662,0.7701674682365713,-0.1396060514008443,0.1390983284506111,-0.4734147690881687,1.6679603695988898,-0.1167487499791233,0.7852794810167999,-0.1268256531411291,0.1019852115288826,-0.0156670690486991,-0.100619616069425,0.0055874126441243,10.748894040364576,-1.377371275840508,0.1150675943585188,-1.3492276682745798
2.24,0.1382778118210992,-0.4672321029470576,1.6666298445596517,0.0830667580969454,0.1426917715292882,0.0433107096336594,-0.0940207915737069,0.7598372636709757,-0.1394921709191176,0.1390983284506111,-0.4734147690881687,1.6679603695988898,-0.1167487499791233,0.7852794810167999,-0.1268256531411291,0.5165777537440166,0.0061104693179665,-0.5165102282797818,0.0056940240863348,10.76816322085142,-1.3773460889447746,0.1076924571088124,-1.344565025768132
2.26,0.136400541417807,-0.4521953290529544,1.6638379870248607,0.0889952420973569,0.1419907128674916,0.0432428006979958,-0.0937631631662035,0.7444066781585068,-0.1396864459384973,0.1379308409508199,-0.4655619742780008,1.6666921130674786,-0.1211773225593416,0.7848530244517625,-0.1246286767849208,0.7716979403191424,0.0128814203751659,-0.7715292756234449,-0.0097137509689856,10.76320041343206,-1.3766066531301997,0.1002036646486977,-1.3390507294791163
2.28,0.134621823791723,-0.4382237494464491,1.66118109083328,0.0936801873400476,0.1411226082087203,0.0430661711082014,-0.093539424229003,0.7273420141906466,-0.1399422860907218,0.1355958659512374,-0.4498563846576647,1.664155600004656,-0.1300344677197783,0.7840001113216878,-0.1202347240725041,0.8534024104012957,0.0111869468600256,-0.8532331983930108,-0.0127920076112245,10.76320041343206,-1.3754864513967844,0.0935055007203569,-1.3322343147811115
2.3000000000000003,0.1327530980069539,-0.4238785383521727,1.6583814620586887,0.0972781665409535,0.13999796540478,0.0427398237023246,-0.0933909169742645,0.708309934459278,-0.1399601274834803,0.1332608909516549,-0.4341507950373288,1.6616190869418337,-0.1388916128802149,0.783147198191613,-0.1158407713600875,0.9516333742849388,0.007425362736925,-0.9516039865684278,-0.0008920696379241,10.780068006096371,-1.3741483687697236,0.0884697960696962,-1.3246919398480086
2.32,0.1308862302154324,-0.409921483618819,1.655586114316628,0.0994894017571743,0.1386479406956811,0.0422698938642855,-0.0933482344415779,0.6886135417873447,-0.1395157832429851,0.1304830586940506,-0.4184878510734965,1.6593022715146315,-0.1477487580406515,0.7822942850615383,-0.1114468186476708,0.9850725200329764,0.002134126634333,-0.9848196335966676,0.0222172120247596,10.780068006096371,-1.3728004068852169,0.0851051675627137,-1.3165810052589
2.34,0.1290192452293845,-0.3963670141524935,1.6528063254246208,0.1002109941258566,0.1370490857613784,0.0416510086103074,-0.093414533820714,0.6680988260155178,-0.1384398943240807,0.1277052264364463,-0.4028249071096642,1.65698545608743,-0.1566059032010882,0.7814413719314636,-0.1070528659352542,1.0271507870954684,-0.0033149689568072,-1.025735788591342,0.0537944459452197,10.803240604368511,-1.3714068502281282,0.0836034720403524,-1.3073431551884331
2.36,0.1272413920860748,-0.3838767585865836,1.6501924754060544,0.0992297134235519,0.1353312897691978,0.0409140376287982,-0.0937813294372747,0.6479578490593527,-0.1367114776705694,0.1247059655498311,-0.3871832859740839,1.6547784894780386,-0.1654630483615248,0.7805884588013888,-0.1026589132228375,1.010916559243687,-0.0183397808280361,-1.0070488478082562,0.0864208326755655,10.834840400128996,-1.3699726342517649,0.0840779779103641,-1.2969495407521097
2.38,0.1253583441662105,-0.3711421098042257,1.6474857272495476,0.0961721115596349,0.1334099255646889,0.0399810188737539,-0.0945759502169602,0.6270761028575002,-0.1339848141338934,0.121485276034205,-0.3715629876667554,1.6526813716864577,-0.1743201935219614,0.7797355456713141,-0.0982649605104209,1.0536999580814388,-0.0397310389842725,-1.0440873100926285,0.1363331768337985,10.872208437249355,-1.368243463627623,0.0868519848691707,-1.2876428023056747
2.4,0.1234536087173371,-0.3587974504752114,1.6448455437386975,0.0917665774274511,0.131490457578194,0.0389583498614927,-0.0959263121912515,0.608850539787359,-0.1301179198231533,0.1206295466553625,-0.3397883046613507,1.640786486542853,-0.1087118240934722,0.6226024338687061,-0.1135454016890634,0.934006823176011,-0.0675180987145654,-0.9112781535070558,0.1933447155370055,10.911058792226868,-1.366809069913105,0.0908579630728081,-1.280402970363815
2.42,0.121578337411044,-0.3473573531973318,1.642397529109603,0.0881853268191492,0.1307595105989932,0.0381340405370098,-0.1011197741147168,0.5958243621774407,-0.1278036300612556,0.1206295466553625,-0.3397883046613507,1.640786486542853,-0.1087118240934722,0.6226024338687061,-0.1135454016890634,0.7106498557265132,-0.2596730961732657,-0.6513088804959155,0.115714488094884,10.953255926882775,-1.3681309294635584,0.0946349645158376,-1.276682952224617
2.44,0.1195126860143019,-0.3355941166908041,1.6398763803847602,0.0852914297837924,0.1317111807820792,0.0374779931306994,-0.1049607844811612,0.5811943971140746,-0.1243681474675406,0.1206295466553625,-0.3397883046613507,1.640786486542853,-0.1087118240934722,0.6226024338687061,-0.1135454016890634,0.7755510606049171,-0.1920505183222176,-0.7314982531683056,0.1717741296857498,10.83836013567634,-1.36065160255373,0.0969211970748703,-1.2721551062522771
2.46,0.1173891186862187,-0.3241249361076486,1.6374358838677023,0.0826676201605326,0.1336104228874967,0.0369159575396319,-0.1070683590582411,0.5665464091480505,-0.1198552679407477,0.1195424284144277,-0.3335622803226636,1.6396510325259623,-0.1115389988687746,0.6217077000709472,-0.1094575192000975,0.7735817727850208,-0.1053787288539977,-0.7323993983012034,0.2256439763396456,10.90701940623876,-1.3534027913638105,0.0988206694430064,-1.2702819455123793
2.48,0.115348135699112,-0.3134976863879445,1.6352085971905546,0.0802256071036724,0.1357133676844447,0.0364039671618928,-0.1076052325841155,0.552949048417441,-0.1148194107487144,0.1173681919325583,-0.3211102316452895,1.637380124492181,-0.1171933484193795,0.6199182324754297,-0.1012817542221655,0.7254934694393552,-0.0268436762937189,-0.6798680365304788,0.251792859601662,10.962431818316873,-1.3464602242851094,0.100798596577046,-1.2697577694833042
2.5,0.1132019597732061,-0.3025845777406643,1.6329739334116744,0.0776617896839061,0.137788129260537,0.0358482266829664,-0.1069321579173754,0.5391742710325671,-0.1088812419477399,0.1151939554506889,-0.3086581829679153,1.6351092164583998,-0.1228476979699843,0.618128764879912,-0.0931059892442335,0.7507652266499609,0.0336537333370037,-0.6887388692436935,0.2969084400487251,11.006470218779214,-1.3406474194179856,0.102803435858774,-1.270025726885814
2.52,0.1110798853056732,-0.291941131808314,1.6308638596149978,0.0751043490497909,0.1394011820721152,0.0352523971831448,-0.1053038715364254,0.5259531558813026,-0.1023984465789048,0.1127370014912892,-0.2962956076703171,1.633247096673515,-0.1285020475205891,0.6163392972843943,-0.0849302242663015,0.7407358472754855,0.0814143190474993,-0.6610557575632225,0.3241397684417592,11.0449584422322,-1.3362337385076064,0.1048286379348709,-1.270553868056122
2.54,0.1089975519469312,-0.2815562640797862,1.6288876562592736,0.0725555866370311,0.1403460919453623,0.0346047656553114,-0.1030822104358442,0.5132956125440012,-0.0955415824889171,0.1102800475318895,-0.2839330323727189,1.6313849768886304,-0.1341563970711939,0.6145498296888767,-0.0767544592883695,0.7282955556126595,0.1110830550290625,-0.6328771668650701,0.3428432044993816,11.076704349971806,-1.33347916027324,0.10676649807775,-1.2709639432836315
2.56,0.107062031577629,-0.2719194258084626,1.6271400948050618,0.0701678625327986,0.1405931816398789,0.0339451076951919,-0.1008426733438314,0.5018163936524623,-0.0887493491241209,0.1076817348337247,-0.2716151937650086,1.629727251228194,-0.1398107466217988,0.612760362093359,-0.0685786943104376,0.6762440883812136,0.1119768546006393,-0.5739609445769456,0.3396116682398093,11.11329990379545,-1.3319354955217813,0.1087795576261523,-1.2711333460484833
2.58,0.1050692231381848,-0.2620048864353101,1.6254430622076332,0.0677287509161236,0.1402396959602097,0.0332159450728278,-0.0986231117765192,0.4903065780340829,-0.0812928380587456,0.1049420633967948,-0.2593420918471862,1.628273919692206,-0.1454650961724036,0.6109708944978415,-0.0604029293325056,0.694625558103509,0.1109780783656082,-0.5754907809189691,0.3728255532687685,11.11329990379545,-1.3312738280111964,0.1106974043121837,-1.2708575612326318
2.6,0.1031179219242273,-0.2523150391594161,1.6238978487608082,0.0653893362655185,0.1393611180814817,0.032463544337874,-0.0966839403802262,0.4793125509272458,-0.0735873251467782,0.1001380675493588,-0.237489557533606,1.621378420304696,-0.1061643482441787,0.4704250520258346,-0.0669301796847341,0.6782402726294104,0.0969585698146521,-0.5497013553418584,0.3852756455983666,11.131003076795423,-1.3312327795771266,0.1124025159909443,-1.2702093895151616
2.62,0.1011678850065928,-0.2427540760767858,1.622453337006155,0.0658333093013449,0.138736203970043,0.0319259906412208,-0.0982565528065138,0.4761934694739995,-0.0713176684784969,0.1001380675493588,-0.237489557533606,1.621378420304696,-0.1061643482441787,0.4704250520258346,-0.0669301796847341,0.2082853832315949,-0.0786306213143794,-0.1559540726623148,0.113482833414065,11.143193699208496,-1.337668817765788,0.1116338451783094,-1.275599740624062
2.64,0.0992909865583256,-0.2337641919611262,1.6211210230439803,0.0696453287228993,0.1388101240402543,0.0316921048842843,-0.0991473499884806,0.4695183557265203,-0.069063770365883,0.1001380675493588,-0.237489557533606,1.621378420304696,-0.1061643482441787,0.4704250520258346,-0.0669301796847341,0.3550729497695878,-0.0445398590983428,-0.33375568737396,0.1126949056306961,10.782703301348192,-1.3356329400482465,0.1061634412842889,-1.2731827082308476
