t,x,y,z,roll,pitch,yaw,v_x,v_y,v_z,ref_x,ref_y,ref_z,ref_v_x,ref_v_y,ref_v_z,a_com,a_x,a_y,a_z,thrust,wind_x,wind_y,wind_z
0.0,-0.4482413516864615,1.7048774674174425,1.7180022074965544,0.0118478083932544,0.1363220801915261,0.0257846620049703,0.003612407902386,-0.0062721318036176,0.0011569448740184,-0.4481317276132761,1.7046183938550346,1.7180363580982572,-0.0428453079061841,-0.1080205104234228,-0.0988559817195018,0.3664957355027829,0.1806203951193007,-0.3136065901808824,0.0578472437009202,10.54424634804218,-1.2847959094963808,0.1642125147093584,-1.1622774546825392
0.02,-0.4481594096918918,1.7050330950263566,1.7177894041497206,0.0189867060317055,0.1345429019931182,0.0262569658840245,0.004989200061616,0.0172690130166109,-0.0234811323742068,-0.4481317276132761,1.7046183938550346,1.7180363580982572,-0.0428453079061841,-0.1080205104234228,-0.0988559817195018,1.70522425694262,0.0688396079614992,1.1770572410114275,-1.231903862411261,10.543353149144425,-1.301367710003466,0.1580194861755005,-1.1728584199142682
0.04,-0.4480503647007517,1.7054264024746115,1.71700460967309,0.0337674164917156,0.1288799637569466,0.0271082597628094,0.0052178475214982,0.0199905975832979,-0.0537219047296999,-0.4481317276132761,1.7046183938550346,1.7180363580982572,-0.0428453079061841,-0.1080205104234228,-0.0988559817195018,1.518192687763393,0.0114323729941146,0.1360792283343506,-1.512038617774654,9.072799437802589,-1.314741033491636,0.1427269335596039,-1.148807552660296
0.06,-0.4479834672276142,1.7057859965451707,1.7156189395034736,0.0491409026852439,0.1207627711650001,0.0277716737756928,0.0010744584293726,0.0154640261881164,-0.0832281907253491,-0.448560180692338,1.7035381887508003,1.717047798281062,-0.0521432234542703,-0.128020510721446,-0.118855982017525,1.5068829043935907,-0.2071694546062839,-0.2263285697590757,-1.4753142997824598,8.864980837611256,-1.3259035669250472,0.1270614334880542,-1.1193595621224937
0.08,-0.4480421672735932,1.7060145959008528,1.71365812877309,0.0639334702500072,0.1120232927415873,0.0281910071113549,-0.0069228955003368,0.0072971349061534,-0.1113433849110144,-0.4494170868504616,1.701377778542332,1.715070678646672,-0.0707390545504426,-0.1680205113174925,-0.1588559826135715,1.5174978807119563,-0.3998676964854741,-0.40834456409815,-1.4057597092832657,8.893595074127006,-1.3337491286769656,0.1130373704858847,-1.0924941113917026
0.1,-0.4482761780942147,1.7060524945459603,1.7112848304773034,0.0773121167362733,0.1043046140683756,0.0284238592638673,-0.0173388911701826,-0.0031635156563307,-0.1370485178570915,-0.4502739930085853,1.6992173683338634,1.713093559012282,-0.0893348856466149,-0.2080205119135389,-0.1988559832096179,1.4821201332551823,-0.5207997834922907,-0.5230325281242068,-1.2852566473038542,8.980999056002474,-1.3381467549646882,0.0993585483206189,-1.063954192956017
0.12,-0.4487579502083408,1.7058507661311415,1.7082642720856989,0.0907022100315428,0.0975311351818045,0.0285823877089822,-0.0303445531290661,-0.0167516759004464,-0.163620641364861,-0.4520606907215176,1.6950569580955923,1.7091164393480898,-0.1079307167427873,-0.2480205125095854,-0.2388559838056644,1.6277769269164872,-0.6502830979441725,-0.6794080122057866,-1.328606175388476,8.994275753970214,-1.338857109664561,0.0868332064725149,-1.0362481527765477
0.14,-0.4495209085427185,1.7053515379592794,1.7047093858018896,0.1034236840384687,0.0927340317783027,0.028756993397814,-0.0453894625151095,-0.032761725227716,-0.1905534480968578,-0.4538473884344499,1.6908965478573217,1.705139319683897,-0.1265265478389596,-0.2880205131056319,-0.2788559844017109,1.737848566733417,-0.7522454693021702,-0.8005024663634801,-1.3466403365998414,8.994275753970214,-1.3381224209611575,0.0754200922644398,-1.0128675656032358
0.16,-0.4506059173393227,1.7045078037807346,1.7006130246178448,0.1155239825741876,0.090731994704328,0.0290988204182086,-0.0623109169030655,-0.0510652163949946,-0.2177454951716683,-0.4560989819247865,1.6857361376041498,1.7001622000048038,-0.145122378935132,-0.3280205137016783,-0.3188559849977573,1.844424592951032,-0.8460727193977984,-0.9151745583639306,-1.3596023537405255,8.965203380238563,-1.33451904328167,0.0652485416992029,-0.9970694672340704
0.18,-0.4519480026417294,1.7033467913978777,1.6962160607870207,0.1264826449402545,0.091716183009552,0.0296835498117277,-0.077704498437777,-0.0704369887695915,-0.2437283002060885,-0.4588154711925274,1.6795757273360767,1.6941850803108092,-0.1637182100313043,-0.3680205142977247,-0.3588559855938037,1.7939719025501073,-0.7696790767355792,-0.9685886187298456,-1.299140251721009,8.952889348446206,-1.323991874227861,0.0551290248729485,-0.9836037087867832
0.2,-0.4536543945518256,1.7017003074827246,1.6910507553072731,0.1372693237105813,0.0949832834615907,0.0305251682900496,-0.0918122113249736,-0.0933047374180584,-0.2714378676288064,-0.4558332275636183,1.699824941959398,1.6840296457767163,-0.1049893981642871,-0.1704369902597077,-0.3067263789695735,1.9298844641008792,-0.7053856443598288,-1.1433874324233415,-1.3854783711358925,8.940139649351295,-1.3121503385079405,0.0460672778596982,-0.9728157920425202
0.22,-0.4556112236966212,1.6993673744479854,1.6855553428339254,0.1415292360841826,0.1005053386049936,0.0312304098814146,-0.1026512323480505,-0.1366393664313481,-0.2751209726163846,-0.4558332275636183,1.699824941959398,1.6840296457767163,-0.1049893981642871,-0.1704369902597077,-0.3067263789695735,2.2410598557421872,-0.5419510511538452,-2.1667314506644857,-0.1841552493789089,10.535195440582356,-1.2816470105004436,0.0415540807180621,-0.9638701067860658
0.24,-0.4576363660737827,1.6964232635191974,1.680307236957976,0.138300396563268,0.1076021991276771,0.0316369585417719,-0.1096576781562102,-0.1697942646173842,-0.2770939688924875,-0.4558332275636183,1.699824941959398,1.6840296457767163,-0.1049893981642871,-0.1704369902597077,-0.3067263789695735,1.6972258769051731,-0.3503222904079845,-1.6577449093018046,-0.0986498138051461,10.535195440582356,-1.2679923818670262,0.0436373858235434,-0.9704019902733148
0.26,-0.4598788133989743,1.6927309404961484,1.6747207171109095,0.1320828791446459,0.1157275604416528,0.0319110639331846,-0.1139499615226591,-0.197154163197512,-0.2815475926919419,-0.4568831215452612,1.698120572056801,1.6809623819870203,-0.1104463781095891,-0.1904369905577309,-0.3193259947222704,1.402517835679678,-0.2146141683224439,-1.3679949290063929,-0.2226811899727232,10.361308828800247,-1.2559185906689485,0.0486985766624331,-0.9766178235204734
0.28,-0.4621784394194175,1.6885407102774654,1.6690155430696707,0.1253688840650451,0.1235465636682022,0.0320513682990888,-0.1156273495596711,-0.2203000390425812,-0.2888684382673054,-0.4589829095085469,1.6947118322516068,1.6748278544076292,-0.1213603380001931,-0.2304369911537774,-0.3445252262276644,1.216696325301,-0.0838694018505982,-1.1572937922534554,-0.3660422787681722,10.155510260377014,-1.2451633969811975,0.0541827280911815,-0.9834706298617356
0.3,-0.4644890494314202,1.6839187791850416,1.6631333516887177,0.1190885997520172,0.1303809039153494,0.0320453416265222,-0.1153039301255306,-0.240745515595913,-0.2989792899261212,-0.4610826974718326,1.6913030924464127,1.6686933268282376,-0.1322742978907972,-0.2704369917498238,-0.3697244577330584,1.1405606438171103,0.0161709717070239,-1.022273827666592,-0.5055425829407906,9.976542854102265,-1.2371179543268365,0.0592350039543511,-0.9878588724807932
0.32,-0.4666645007650034,1.679167722883585,1.6573369802087723,0.1138335408159405,0.1356375106728074,0.0319038259422569,-0.1137287600641496,-0.2584357434089819,-0.3106636267861396,-0.4637281834296486,1.6858943526114163,1.6612988376735764,-0.1431882577814012,-0.3104369923458702,-0.3949236892384524,1.0629546658476678,0.0787585030690478,-0.8845113906534432,-0.5842168430009204,9.827081337388336,-1.2309411220389033,0.0640620368945786,-0.98957958575096
0.34,-0.4689127132487487,1.6738170561665389,1.6509870482969864,0.109176913673486,0.1397489565118231,0.0316265063804397,-0.111194000862052,-0.2757864613575504,-0.3237524802795689,-0.4663736693874645,1.6804856127764198,1.653904348518915,-0.1541022176720052,-0.3504369929419167,-0.4201229207438464,1.0940641015450734,0.1267379601048814,-0.8675358974284259,-0.6544426746714627,9.70651365813228,-1.2265723524110013,0.0681321886071917,-0.9886770619548244
0.36,-0.4711045851830788,1.6681198478168044,1.6443693339249277,0.1051517838453764,0.1424296924586978,0.0312192087367385,-0.1082162059048781,-0.2930331801774584,-0.3373422566126342,-0.4692920043425456,1.6740768729265223,1.645879878576619,-0.1650161775626092,-0.3904369935379632,-0.4453221522492404,1.107924403606446,0.148889747858695,-0.8623359409953985,-0.6794888166532648,9.66228888732985,-1.2240416102947518,0.0714704975680923,-0.9858099579213064
0.38,-0.4732365212966755,1.662082237121142,1.637476054417587,0.1014075056409272,0.1438668586810318,0.0306905912389943,-0.1052293894767176,-0.3097855155547282,-0.3512779776011826,-0.4724831882948918,1.6666681330617237,1.6372254278466885,-0.1759301374532132,-0.4304369941340096,-0.4705213837546343,1.0997342092964164,0.1493408214080255,-0.8376167688634917,-0.6967860494274225,9.63811855453332,-1.2228014353403511,0.0747056158267817,-0.9811716111688688
0.4,-0.4752089828413909,1.6560422230837528,1.6306658201826754,0.0980076761658691,0.1442849333713113,0.0300992172294401,-0.1026379620810239,-0.3250897567542541,-0.364865420090724,-0.4784979907705113,1.6465929613434056,1.619912155537528,-0.0987519841595899,-0.4097855170448443,-0.3685826215897919,1.0314478756183116,0.1295713697846826,-0.7652120599762946,-0.6793721244770679,9.613330533452428,-1.222517509559127,0.077703385698429,-0.9756320670498828
0.42,-0.4772417008828838,1.649348502636265,1.6234699916283033,0.0944543960767914,0.1453734773472872,0.029539151773432,-0.1004179246518848,-0.3434276535748399,-0.3526977169952978,-0.4784979907705113,1.6465929613434056,1.619912155537528,-0.0987519841595899,-0.4097855170448443,-0.3685826215897919,1.105961148286495,0.1110018714569553,-0.9168948410292892,0.6083851547713098,9.584459467029774,-1.2074633744391243,0.0793463627505818,-0.9730262632885154
0.44,-0.4792104087695221,1.6423031842660984,1.616545508311906,0.0911457259560994,0.1481550278497341,0.0291509832684969,-0.0963602006038696,-0.3601560340188758,-0.3406803258052617,-0.4784979907705113,1.6465929613434056,1.619912155537528,-0.0987519841595899,-0.4097855170448443,-0.3685826215897919,1.0496684330594612,0.2028862024007635,-0.8364190222017981,0.6008695595018015,11.275840614706794,-1.204100500243722,0.0815660281510334,-0.9781043663713748
0.46,-0.4810802506988121,1.6349362524962916,1.6098218499960386,0.0883261111897437,0.1515781446110712,0.0288468131384741,-0.0906995082770158,-0.3757564609101872,-0.3322949597436976,-0.4794855106121072,1.6424951061729571,1.61622632932163,-0.0974565030961643,-0.4297855173428676,-0.3720435503875138,0.9296923157648485,0.2830346163426887,-0.7800213445655679,0.4192683030782046,11.059186713045165,-1.2008177391080963,0.0834454888651426,-0.9839667571036922
0.48,-0.4828220969426284,1.6272664623267077,1.6032360519718882,0.0859922410287819,0.1548966316758113,0.0285588788591544,-0.0837228482913265,-0.3905179861747051,-0.3267161048140815,-0.481460550295299,1.6342993958320604,1.6088546768898342,-0.0948655409693133,-0.469785517938914,-0.3789654079829575,0.8626993030839611,0.3488329992844631,-0.7380762632258953,0.2789427464808092,10.854313242525675,-1.1977972934900794,0.0848437642516685,-0.9895539829466194
0.5,-0.4843380234006397,1.6197129366774383,1.5970617463558714,0.0842116400095758,0.1575074781678511,0.0282631620233978,-0.0762174880956726,-0.4039363840278043,-0.3234949686559216,-0.4834355899784908,1.6261036854911637,1.6014830244580385,-0.0922745788424622,-0.5097855185349605,-0.3858872655784012,0.785429103675132,0.3752680097826983,-0.6709198926549587,0.1610568079079943,10.5783438504659,-1.195483934234793,0.0859935637434453,-0.993770233209668
0.52,-0.485774472490376,1.6114930764908797,1.5906124878989512,0.0828416975077182,0.1594412213840106,0.0279143609557885,-0.0678569529983008,-0.4173677365520047,-0.3216694816695156,-0.48528108155534,1.6159079751204644,1.5937652791464705,-0.0896836167156111,-0.5497855191310069,-0.392809123173845,0.796291687262383,0.4180267548685882,-0.6715676262100234,0.0912743493202999,10.5783438504659,-1.194482920140688,0.0867518602937851,-0.9962334293275292
0.54,-0.4870396168835371,1.6030098542544378,1.584195279667889,0.0821462895046442,0.1604322366976575,0.0275320546838081,-0.0591375889069269,-0.4303226480259749,-0.3201403134703642,-0.4871265731321893,1.605712264749765,1.5860475338349025,-0.08709265458876,-0.5897855197270534,-0.3997309807692887,0.784530746430056,0.4359682045686958,-0.6477455736985077,0.0764584099575693,10.48093894302292,-1.1942495835542573,0.0869038582036567,-0.9970679779025036
0.56,-0.4881285958964402,1.5942607122266328,1.5778074016254164,0.0819428696614907,0.1604422764696062,0.0271016721759956,-0.0503254798309167,-0.4438994265838457,-0.3187079519544649,-0.4889072906558673,1.5945165543641646,1.5781567420834484,-0.0845016924619089,-0.6297855203230998,-0.4066528383647324,0.8124559094024563,0.4406054538005074,-0.6788389278935381,0.071618075794963,10.48093894302292,-1.194927937309736,0.0866255931452892,-0.9966717123354892
0.58,-0.4890426988191485,1.585234109015889,1.571446978737046,0.0818361672450661,0.1595024409809848,0.0265985368813574,-0.0416223120536208,-0.457997733463621,-0.317387498343854,-0.490623234126374,1.5823208439636631,1.5700929038921083,-0.0819107303350579,-0.6697855209191462,-0.4135746959601761,0.8310399869649121,0.4351583888647939,-0.7049153439887657,0.0660226805305447,10.479491195343144,-1.1962543391911842,0.0861924505707713,-0.9952789643907318
0.6,-0.4897517396021676,1.576392984517397,1.5654273223993709,0.081529206329106,0.1576797731194825,0.0260292826484691,-0.0335412583726675,-0.4718374435644544,-0.316304739927369,-0.4911238144218295,1.562334222342708,1.5555776038198532,-0.0412414094734025,-0.5579977349537371,-0.3259796103337098,0.8031397295272289,0.4040526840476652,-0.6919855050416701,0.0541379208242487,10.461377777296548,-1.198448087407512,0.0859230151474688,-0.9926713560513002
0.62,-0.4903127408800011,1.566748835397563,1.5592059211835556,0.0793264712801073,0.1545051086294081,0.0252004904572807,-0.0230006539682864,-0.4913203702014813,-0.3053267773529999,-0.4911238144218295,1.562334222342708,1.5555776038198532,-0.0412414094734025,-0.5579977349537371,-0.3259796103337098,1.2361274548339276,0.5270302202190581,-0.9741463318513444,0.5488981287184586,10.461377777296548,-1.194801830254481,0.0867711122802329,-0.9885659330525092
0.64,-0.4906689757636839,1.556761670671159,1.5532120474003637,0.0752834618847409,0.1497053478575354,0.0241361136189294,-0.0133767829238354,-0.5061311556572914,-0.2946198863576769,-0.4911238144218295,1.562334222342708,1.5555776038198532,-0.0412414094734025,-0.5579977349537371,-0.3259796103337098,1.032733961971798,0.4811935522225479,-0.7405392727905052,0.5353445497661508,11.128105925994532,-1.2001851919403068,0.0896856030186343,-0.9857507700468956
0.66,-0.4908582846613785,1.5465094746930643,1.547413787520926,0.0712861129649328,0.1435320318108764,0.0230055292629419,-0.006383426678827,-0.5183817479544649,-0.2857065832492895,-0.4915362285165636,1.5567542449931706,1.552317807716516,-0.0411652289573588,-0.5779977352517602,-0.3276980327316809,0.8343126145264046,0.3496678122504222,-0.6125296148586756,0.4456651554193697,11.00705843448577,-1.207494376355025,0.0925359749796181,-0.9804975095464528
0.68,-0.4909381416099059,1.5365576999911847,1.5420553315539167,0.068052376615719,0.1371186182639777,0.021965441650448,-0.0025732421132653,-0.5286925542011011,-0.2787718916714167,-0.4923610567060316,1.5455942902940958,1.545798215509842,-0.0410128679252714,-0.6179977358478067,-0.3311348775276233,0.6498464802542501,0.1905092282780844,-0.5155403123318081,0.3467345788936371,10.876942471513756,-1.214770049567752,0.0949564849342484,-0.9740372893563044
0.7000000000000001,-0.4909717045010968,1.5258793097465224,1.536544438924109,0.0654174758572299,0.1304472201351342,0.0209610289227327,-0.0011779762927009,-0.5387264491639904,-0.2727403912624232,-0.4931858848954997,1.534434335595021,1.5392786233031677,-0.0408605068931841,-0.6579977364438532,-0.3345717223235656,0.5895015097945461,0.0697632910282178,-0.5016947481444656,0.3015750204496764,10.765469418130124,-1.221010724864117,0.0966255568499943,-0.967510991236558
0.72,-0.4910029147752996,1.5150051693719586,1.5311412762176324,0.0635846775896676,0.1243813686820674,0.0200769883740121,-0.0021661650906384,-0.5482891669036989,-0.2679279545336267,-0.4940030950333633,1.521274380866144,1.5325871888566964,-0.0407081458610967,-0.6979977370398996,-0.3380085671195079,0.5375444980147565,-0.0494094398968746,-0.4781358869854257,0.2406218364398249,10.676365933807574,-1.2260671246129715,0.097574982222049,-0.9614604840695686
0.74,-0.4910781639888899,1.5039457500590805,1.525826995920283,0.062626989819607,0.1194658641028435,0.0193440073616937,-0.0054075924640362,-0.5573030921162984,-0.2637373515521988,-0.494820305171227,1.508114426137267,1.525895754410225,-0.0405557848290093,-0.7379977376359461,-0.3414454119154502,0.5227782811654029,-0.1620713686698907,-0.4506962606299736,0.2095301490713935,10.59921349045726,-1.2294453936002232,0.0977761019467535,-0.9566162387119204
0.76,-0.4912290843472217,1.493266774352787,1.5208515811080372,0.0623826855171029,0.1164408521685236,0.0188062600087391,-0.0103612669057139,-0.5663462881786236,-0.2601989525257863,-0.4956337062832885,1.4939544713934887,1.519118398843855,-0.040403423796922,-0.7779977382319925,-0.3448822567113925,0.5450654849784187,-0.2476837220838854,-0.4521598031162643,0.1769199513206254,10.56606516492684,-1.230782539638205,0.0973634442736872,-0.9534907296798688
0.78,-0.4915010279205735,1.4818370846076772,1.5156829983139424,0.0625694119141812,0.1154978216780604,0.0184173831725665,-0.0163416683896928,-0.5761413742926355,-0.256873876967055,-0.4964432983695479,1.478794516634809,1.5122551221575866,-0.0402510627648346,-0.817997738828039,-0.3483191015073348,0.5974216295083316,-0.2990200741989443,-0.4897543057005904,0.1662537779365647,10.543855871954293,-1.2281860563310183,0.0964244715995579,-0.9541960768150544
0.8,-0.4918813785892796,1.4702066506409113,1.51057586890728,0.0629880025448906,0.116500886623536,0.0181723700464225,-0.0211877863488871,-0.5863910757508032,-0.2540303098919458,-0.4923181113400581,1.4530300158930454,1.5028393044655897,-0.008745632901743,-0.6761413757827516,-0.251752643559647,0.5844380056230012,-0.242305897959715,-0.5124850729083863,0.1421783537554621,10.516573665956455,-1.2238954718730266,0.0953291458659107,-0.9569993161622764
0.8200000000000001,-0.4923411928435895,1.458308965038233,1.5056246722066224,0.0617467134438235,0.1191419634571307,0.0179205739302274,-0.0242417345380874,-0.6024423255890932,-0.2406784400423503,-0.4923181113400581,1.4530300158930454,1.5028393044655897,-0.008745632901743,-0.6761413757827516,-0.251752643559647,1.0550374986156417,-0.1526974094600125,-0.8025624919144991,0.6675934924797733,10.4893836684314,-1.2125407004592743,0.0952169897679939,-0.9606558568805004
0.84,-0.4928149620826683,1.4467400153983527,1.501175540316908,0.0584832843782822,0.1228504607933897,0.0176116436271551,-0.0252784130420285,-0.6140829962221463,-0.2283747946174922,-0.4923181113400581,1.4530300158930454,1.5028393044655897,-0.008745632901743,-0.6761413757827516,-0.251752643559647,0.8484686291319083,-0.0518339251970548,-0.5820335316526593,0.6151822712429047,11.098293446970274,-1.2057514701415972,0.0974127693576876,-0.9702352578766356
0.86,-0.4933155647433834,1.4343622569539918,1.4967267433946432,0.0548747643449372,0.1272379282655611,0.0172997559314003,-0.0245631248964509,-0.6230756724568397,-0.2172596113661251,-0.4924055676690755,1.4462686021352178,1.5003217780299931,-0.007226425804153,-0.6961413760807748,-0.2507283968781654,0.7157638606843286,0.0357644072788782,-0.4496338117346676,0.5557591625683547,11.098293446970274,-1.1998271179219049,0.0999902708630406,-0.9793913598420168
0.88,-0.493784497916004,1.4218231981600191,1.4924804316865352,0.051899636794337,0.1315208987222273,0.017023768620578,-0.0222611429174349,-0.6304915797930457,-0.2080235621587307,-0.4925804803271104,1.4327457746195629,1.4952867251588002,-0.0041880116089731,-0.7361413766768212,-0.2486799035152022,0.6033228978174137,0.1150990989508025,-0.3707953668103003,0.4618024603697229,10.980532702687924,-1.1948680745273188,0.1021542752879427,-0.987274897678998
0.9,-0.4941934413153639,1.4091450691355245,1.4884025855891416,0.0497782137043005,0.1352747052337902,0.0167806318637743,-0.0186952948951772,-0.6371079308973855,-0.2002990151855854,-0.4927553929851453,1.4192229471039075,1.4902516722876074,-0.0011495974137931,-0.7761413772728677,-0.246631410152239,0.5388877433985311,0.1782924011128846,-0.3308175552169889,0.3862273486572615,10.876651631736422,-1.191105672690243,0.1035829923280873,-0.9936258248328907
0.92,-0.4945062476483155,1.3969855384284078,1.484660001066498,0.0486654745080017,0.1380941078858156,0.0165794757494884,-0.0144346113679471,-0.6426734416345127,-0.1940539829718027,-0.4927783849334212,1.4037001195584504,1.4853190440845625,0.0018888167813867,-0.8161413778689142,-0.2445829167892758,0.4693846003957502,0.213034176361501,-0.2782755368563594,0.3122516106891362,10.798803079345817,-1.1882279339538169,0.1042934643555933,-0.9990557581660288
0.94,-0.4947420063701316,1.3840780484592667,1.4808457673282345,0.0486929670707348,0.1401794532677935,0.0164151313910602,-0.00938604514339,-0.6479016890211552,-0.1877136583406134,-0.492801376881697,1.388177292012993,1.480386415881518,0.0049272309765667,-0.8561413784649606,-0.2425344234263126,0.482240365607596,0.2524283112278566,-0.2614123693321257,0.3170162315594652,10.743959062607246,-1.1862600653482465,0.1039089739820329,-1.0030933716835826
0.96,-0.4948727757608512,1.3710586702537193,1.4771567109964925,0.0499147583635982,0.1413466475337016,0.0162966863134114,-0.003993787287184,-0.6538498701598162,-0.1815149731484603,-0.4927484084750934,1.3716544644526345,1.4755050000125471,0.0079656451717466,-0.896141379061007,-0.2404859300633494,0.5071513624095781,0.2696128928102992,-0.2974090569330512,0.3099342596076568,10.7385149881311,-1.1852842531656638,0.1024436253010137,-1.006098028327186
0.98,-0.4948943149561149,1.357910240743372,1.473591422465684,0.0519518135823074,0.1416282532195428,0.0161963398084999,0.0014667742798835,-0.6607356901379157,-0.1753225785587119,-0.4926194797136102,1.3541316368773748,1.4706747964776503,0.0110040593669265,-0.9361413796570536,-0.2384374367003862,0.5375360456603693,0.2730280783533833,-0.3442909989049725,0.3096197294874175,10.737782537085875,-1.1850859598468138,0.1003477930856465,-1.0079488207144378
1.0,-0.4948153982437985,1.345277537852818,1.4703192638654583,0.0541964361659456,0.1411816474557508,0.0160878553159787,0.0064754044924349,-0.6687575209879426,-0.1694255215656238,-0.4948209762421207,1.3248734562364763,1.4648252935377486,0.0136353847483904,-0.7607356916280318,-0.1749754593556417,0.5572509039298542,0.2504315106275696,-0.4010915425013472,0.2948528496544048,10.743149347853432,-1.1855193279753595,0.0978148356414535,-1.0089762474192254
1.02,-0.4946343084771455,1.331741960471316,1.4670190220092578,0.0543969493286274,0.1402664399775064,0.0158013193994157,0.0113245288822745,-0.6838077636300849,-0.1607372914319781,-0.4948209762421207,1.3248734562364763,1.4648252935377486,0.0136353847483904,-0.7607356916280318,-0.1749754593556417,0.9020936118146008,0.2424562194919804,-0.7525121321071138,0.4344115066822862,10.749773257181005,-1.1843956337638966,0.0971356731191029,-1.0086156159588582
1.04,-0.4943612008432516,1.3179366755571285,1.4638930603304616,0.0516366397635652,0.1391845344328705,0.015310363483583,0.0156893711804993,-0.6957098253451869,-0.1523305019621199,-0.4948209762421207,1.3248734562364763,1.4648252935377486,0.0136353847483904,-0.7607356916280318,-0.1749754593556417,0.7605672727461169,0.2182421149112373,-0.5951030857550998,0.4203394734929075,10.940709652771147,-1.1846612060212007,0.0992412462151932,-1.0090101356512675
1.06,-0.4940263729036731,1.3046361498554382,1.4610694374003288,0.0479654956382273,0.1380707068082656,0.0147830303336446,0.0192901037779232,-0.7035544621587866,-0.1453585826938492,-0.4946846223946368,1.317266099320196,1.4630755389441925,0.0160691068420917,-0.780735691926055,-0.1749060355150277,0.554777568622597,0.1800366298711966,-0.3922318406799852,0.348595963413538,10.886100602163424,-1.1856809365635392,0.1022721640053279,-1.0092676823274955
1.08,-0.4936062406859303,1.2905040342691,1.458228939743409,0.0444933169535247,0.1368831120483197,0.0142737762776807,0.0224899754905259,-0.7093495686151963,-0.1391113997467329,-0.494411914699669,1.3020513854876354,1.4595760297570797,0.0209365510294944,-0.8207356925221014,-0.1747671878337996,0.4551091423850324,0.1599935856301339,-0.2897553228204841,0.3123591473558118,10.8068685794442,-1.1871047156024652,0.1051556842370211,-1.0094118346835117
1.1,-0.4931278855833362,1.276268894941578,1.4555024634798923,0.041942863899259,0.1357573616896349,0.0138494080695216,0.0251530719195973,-0.7140559075918721,-0.1338998164440803,-0.4941392070047012,1.2868366716550748,1.4560765205699666,0.0258039952168972,-0.8607356931181479,-0.1746283401525716,0.3755073557015848,0.1331548214535684,-0.2353169488337914,0.2605791651326322,10.737502744340418,-1.188518958917445,0.1072257038108394,-1.0094734323647832
1.12,-0.4926010149645797,1.2619466649280722,1.4528717558869022,0.0404474728292298,0.1347527997613186,0.013518586586384,0.0273791527548775,-0.7180702799214149,-0.1294678939953894,-0.4936231271003632,1.2696219577927117,1.4525839537669152,0.0306714394042999,-0.9007356937141944,-0.1744894924713435,0.3190319642160127,0.1113040417640093,-0.2007186164771413,0.2215961224345433,10.675644932243811,-1.189603653107909,0.1083078206407091,-1.0094876355133056
1.14,-0.4920625128321914,1.2482736662766571,1.4504503045503336,0.040244957959853,0.1339483527132276,0.0133059100458838,0.0291934250786951,-0.7211935680358857,-0.1256486498461701,-0.4931070471960253,1.2524072439303489,1.4490913869638635,0.0355388835917026,-0.9407356943102408,-0.1743506447901154,0.2628361589579702,0.0907136161908831,-0.1561644057235411,0.1909622074609679,10.630926239679866,-1.1903371134586846,0.1082843557569165,-1.0096241815310611
1.16,-0.4914598824796554,1.2338103631758377,1.447977980846658,0.0412731121810643,0.1332579511219776,0.0131823573643641,0.0309681870856875,-0.7250582667191255,-0.1217933868338057,-0.4924692811870023,1.2341925300530847,1.4456022913528432,0.0404063277791054,-0.9807356949062872,-0.1742117971088873,0.2870049171538858,0.0887381003496192,-0.1932349341619899,0.1927631506182164,10.6092340488849,-1.1907102168126802,0.107084132634738,-1.0100130226648014
1.18,-0.4908225700961592,1.2192611604637509,1.4455821569966243,0.0432870745862437,0.1326989044131456,0.01313761839219,0.0326707796702137,-0.7297420925138262,-0.1179842763613593,-0.4917098290732942,1.2149778161609193,1.4421166669338532,0.0452737719665081,-1.0207356955023337,-0.1740729494276593,0.3136334172855622,0.0851296292263116,-0.2341912897350306,0.190455523622323,10.601287576481807,-1.190768586194605,0.1049737190562631,-1.0105622346286691
1.2,-0.4901514769696833,1.2046027617535828,1.4432627092646246,0.04582245611008,0.1322381496238087,0.0131360507747674,0.0343508782440773,-0.7360226135735669,-0.1141591801217395,-0.4891890311126485,1.1827740558380595,1.4396829431785565,0.0427431022325507,-0.8297420940039423,-0.1209740167051237,0.37715725248926,0.0840049286931796,-0.3140260529870375,0.1912548119809891,10.60588710564116,-1.1906035013372496,0.1025090588408453,-1.0111836864790775
1.22,-0.4894369158446107,1.1897341668673436,1.4410526616931172,0.0460319648038835,0.1317150524708061,0.0129731704829712,0.036968520149293,-0.7494771614857318,-0.10698956249379,-0.4891890311126485,1.1827740558380595,1.4396829431785565,0.0427431022325507,-0.8297420940039423,-0.1209740167051237,0.7734344277243016,0.1308820952607807,-0.6727273956082469,0.3584808813974757,10.60588710564116,-1.187547900380607,0.1016755278302369,-1.011382996241388
1.24,-0.4887128791846069,1.1753969216376954,1.4390830814742344,0.0435978169210533,0.1310919162558696,0.0126394393369741,0.0390866668109911,-0.7588940913870779,-0.1006948302714605,-0.4891890311126485,1.1827740558380595,1.4396829431785565,0.0427431022325507,-0.8297420940039423,-0.1209740167051237,0.5761700439066598,0.1059073330849067,-0.4708464950673008,0.3147366111164749,10.837461137169155,-1.1873707014013668,0.1037120562731973,-1.0119631375176374
1.26,-0.4879121185225875,1.1601479113794706,1.4371284184740536,0.040017974136277,0.1303959813001878,0.0122314750874166,0.0408453809612291,-0.7652905065887246,-0.0951521924270391,-0.488761600090323,1.17447663489802,1.438473203011505,0.044757566745018,-0.8497420943019655,-0.1215719647738766,0.4322268998122288,0.0879357075119026,-0.3198207600823344,0.2771318922210677,10.778396247482306,-1.1878239381373223,0.1067973977459704,-1.0124472094578851
1.28,-0.487081235647112,1.1447996804080034,1.4352714796105102,0.0368638392603133,0.1297360337646207,0.0118720168373027,0.0421328486330664,-0.76933546819924,-0.0908810142561936,-0.487906738045672,1.1578817930179413,1.4360537226774026,0.0487864957699528,-0.8897420948980119,-0.1227678609113823,0.3010907272055951,0.064373383591864,-0.2022480805257742,0.2135589085422773,10.70008518792656,-1.1887238035235956,0.1095510135389221,-1.012861455254831
1.3,-0.4862290397388986,1.1293840515058111,1.4334874024303488,0.0346892620292808,0.1291801622964705,0.0116002510203656,0.0430263615470911,-0.7723285693933637,-0.0877472842069717,-0.487051876001021,1.1412869511378625,1.4336342423433002,0.0528154247948876,-0.9297420954940584,-0.1239637570488881,0.221231124094179,0.0446756457012323,-0.1496550597061829,0.1566865024610952,10.621558261053906,-1.1893979828444148,0.1113460962361652,-1.0131872229895325
1.32,-0.4854055090324511,1.1146904048468886,1.4318433480846022,0.0336732309805065,0.1287870027780289,0.011431928904403,0.0436265151677978,-0.774420696235499,-0.0854740357833566,-0.4859955675051232,1.1226921092279811,1.4311549672023225,0.0568443538198224,-0.9697420960901048,-0.1251596531863939,0.1573597588926312,0.0300076810353364,-0.1046063421067666,0.1136624211807518,10.559480519401404,-1.1897919845817566,0.1122404503318459,-1.0134590012843168
1.34,-0.4845275874389323,1.0991870127901058,1.4301564186002893,0.0340380770431389,0.1285302728968002,0.0113696206781561,0.0441413950203051,-0.7759606630231073,-0.0833555164427705,-0.4849392590092255,1.1040972673181,1.4286756920613446,0.0608732828447571,-1.0097420966861514,-0.1263555493238997,0.1334608853362294,0.0257439926253665,-0.076998339380413,0.1059259670293077,10.517268166938264,-1.1898858337485645,0.1117857796893814,-1.0138807972875994
1.36,-0.4836391928772079,1.0836449069243723,1.4285104550336314,0.0358787904788261,0.1284147967116195,0.0114214247617156,0.0446830868012008,-0.7782852766707038,-0.0813523728993246,-0.4837822272877043,1.0845024253933178,1.4261665195169293,0.0649022118696919,-1.0497420972821978,-0.1275514454614054,0.1558031021171503,0.0270845890447846,-0.1162306823798253,0.1001571771722949,10.50188794454334,-1.189674534438087,0.1099678192311231,-1.0146027208038375
1.38,-0.4827389517656124,1.0680418122343052,1.4269053228887287,0.038735505090771,0.1283939202336916,0.0115511291544153,0.0453250185314709,-0.7822037543357533,-0.0792728920586307,-0.4825244723405599,1.0639075834536342,1.4236274495690762,0.0689311408946267,-1.0897420978782442,-0.1287473415989112,0.2241137218279589,0.0320965865135018,-0.1959238832524745,0.1039740420346914,10.497920783551308,-1.1892221130713192,0.1073514152058332,-1.0154764957644673
1.4,-0.4818705223610588,1.053123308417978,1.4254201742514738,0.0414959077530641,0.1284191956144066,0.0116814622024122,0.0460606630289213,-0.7879274232444637,-0.0771631859970727,-0.4804727008390388,1.0289316245175175,1.422941678285797,0.0839835033480221,-0.8822037558258694,-0.0670659558035334,0.3072149828269399,0.0367822248725228,-0.2861834454355227,0.105485303077904,10.505695864084371,-1.1883621405316946,0.1045132574047486,-1.016249046749861
1.42,-0.4809687954140595,1.0372230124463535,1.423977188390097,0.0418696108305417,0.1297104158308892,0.011699041591477,0.0443328894689184,-0.8011351685374744,-0.0668264804981053,-0.4804727008390388,1.0289316245175175,1.422941678285797,0.0839835033480221,-0.8822037558258694,-0.0670659558035334,0.8430261232193093,-0.086388678000145,-0.6603872646505304,0.5168352749483685,10.519346744369614,-1.1827270797707146,0.1038314105213549,-1.0160357815375909
1.44,-0.4800848604659838,1.021093253953163,1.422751524386214,0.0389284957572475,0.1330937739474766,0.011577390843447,0.0444410449301525,-0.8107956994466821,-0.056348656942638,-0.4804727008390388,1.0289316245175175,1.422941678285797,0.0839835033480221,-0.8822037558258694,-0.0670659558035334,0.7126049773736093,0.0054077730617062,-0.4830265454603855,0.523891177773363,11.082998081693404,-1.1764905518081152,0.1060991228579597,-1.0231893080395942
1.46,-0.4791763782263312,1.0048181712863655,1.4217205111632083,0.0349101423541511,0.1376200723254934,0.0114227910878349,0.0466340581719399,-0.816106212926463,-0.0472959492279128,-0.4796328658055586,1.020109586959259,1.4222710187277618,0.0917152003113323,-0.9022037561238926,-0.0646245685525139,0.5361025495785177,0.109650662089367,-0.2655256739890477,0.4526353857362594,11.018534501661634,-1.1704541319342254,0.1097071327023103,-1.0315831453978412
1.48,-0.4782533198233062,0.9892869217023949,1.4208958368412463,0.0316068060635519,0.1422690741363264,0.0113189688387647,0.0505539775879977,-0.8187238499798538,-0.0399927429838763,-0.4779531957385982,1.0024655118427417,1.4209296996116911,0.1071785942379528,-0.9422037567199392,-0.0597417940504749,0.43461078396252,0.1959959708028913,-0.1308818526695399,0.3651603122018291,10.929806848112094,-1.1652540344411877,0.1129839549286619,-1.039945553189314
1.5,-0.4771835748074829,0.972896652485895,1.4201678772135788,0.0291868604812413,0.1469849613617062,0.0112751574886777,0.0563296182030811,-0.820395894187026,-0.0332498351334687,-0.4762735256716378,0.984821436726224,1.4195883804956204,0.1226419881645733,-0.9822037573159856,-0.054859019548436,0.4517204960604142,0.2887820307541696,-0.0836022103586076,0.3371453925203778,10.855224537002869,-1.1609274606494844,0.1153253900184286,-1.0475884967858962
1.52,-0.475982134989736,0.9564819634533755,1.4195664871174112,0.0280739383006867,0.1511053336567573,0.0113072858914341,0.0635509201792852,-0.8212574912902368,-0.0272471446104549,-0.4738206859083463,0.9651773615799044,1.4184912001046517,0.1381053820911938,-1.022203757912032,-0.049976245046397,0.4714919016135656,0.3610650988102051,-0.0430798551605438,0.3001345261506907,10.809790139369396,-1.1576765337958996,0.116474670655041,-1.054232217231364
1.54,-0.4746238514537995,0.9400566367188316,1.419084778761666,0.0285384528148745,0.1543731308413606,0.0114321151460685,0.0718923807203792,-0.8214954585747012,-0.0212401330968562,-0.4713678461450548,0.9455332864335846,1.417394019713683,0.1535687760178143,-1.0622037585080786,-0.0450934705443581,0.5141030531703029,0.4170730270547013,-0.0118983642232173,0.3003505756799333,10.781068034631971,-1.1554911963865817,0.1161759473459911,-1.059538565727519
1.56,-0.4731696648846555,0.9244397773659688,1.4187404802659678,0.0303979988350482,0.1565273454991137,0.0116304985625107,0.0806903716015655,-0.8224980298045238,-0.0153081674745636,-0.4685284215335978,0.9248892112723638,1.4164189086852652,0.1690321699444348,-1.102203759104125,-0.0402106960423191,0.5329118331402617,0.4398995440593127,-0.0501285614911306,0.2965982811146295,10.793723632274125,-1.154366861469689,0.1144184276301666,-1.0641785659021212
1.58,-0.4714539817771293,0.907965607874108,1.4185039211189423,0.0334103754667999,0.1577336180268761,0.0118872580880249,0.0903532764046338,-0.8252159017753176,-0.008646958597903,-0.4653024120739754,0.9032451360962416,1.4155658670193985,0.1844955638710552,-1.1422037597001713,-0.0353279215402801,0.6023501078718456,0.483145240153416,-0.135893598539688,0.3330604438330318,10.817924734950791,-1.15453273337623,0.1115944709149932,-1.0676841392069163
1.6,-0.469543374775505,0.8914103650835334,1.4184049961448988,0.0364873762077648,0.1578975956971696,0.0121164748911883,0.1001329343856515,-0.8301790795708408,-0.0015549381929433,-0.4669363179568976,0.8667048127853422,1.4180715731890472,0.1333738191156533,-0.9252159032654336,-0.0021080003091738,0.6530153089323827,0.4889828990508833,-0.2481588897761621,0.3546010202479843,10.885179681130468,-1.155462846221873,0.1086678639586444,-1.069939057622235
1.62,-0.4675389021489635,0.8755127585515526,1.4184288160245524,0.0367912034084104,0.1568120615228662,0.0121074182449539,0.1102558609044865,-0.8418901324191446,0.0037573915799044,-0.4669363179568976,0.8667048127853422,1.4180715731890472,0.1333738191156533,-0.9252159032654336,-0.0021080003091738,0.8182958629630585,0.5061463259417517,-0.585552642415188,0.2656164886423913,10.885179681130468,-1.1571550304139384,0.1084005922463434,-1.0712304252672205
1.64,-0.4652301192480581,0.85858717678505,1.4185658148492677,0.0339947748273669,0.1541542200939978,0.011836672506728,0.1199467854117218,-0.8497888363448052,0.0097023279893313,-0.4669363179568976,0.8667048127853422,1.4180715731890472,0.1333738191156533,-0.9252159032654336,-0.0021080003091738,0.6921809922670318,0.4845462253617642,-0.3949351962830305,0.2972468204713437,10.81563267034835,-1.1611864344495018,0.111219731108574,-1.0683128530716195
1.66,-0.4627430687721429,0.8415472599340651,1.4188187410486328,0.0302535322477324,0.1503249076901576,0.0114848920101798,0.128118784605781,-0.8537169074995157,0.0153129198155605,-0.4656025797657411,0.8574526537526879,1.4180504931859554,0.1419779276578572,-0.9452159035634567,-0.000800208651428,0.5331276921730892,0.4085999597029578,-0.1964035577355249,0.2805295913114581,10.82063130363622,-1.1668362261416998,0.1148212391470339,-1.0643907293724415
1.68,-0.4602480172436991,0.8253130060852459,1.419157907236786,0.0272608156223229,0.1460518038207691,0.0111974086287521,0.1339724900338262,-0.8552084756170492,0.0201157406841934,-0.4629351033834281,0.8389483356873791,1.418008333179772,0.159186144742265,-0.9852159041595032,0.0018153746640636,0.3858682773426194,0.2926852714022598,-0.074578405876674,0.2401410434316471,10.78003417790478,-1.1738381843720829,0.1180911730850836,-1.0595726518332438
1.7,-0.4575246183866582,0.8082043898169322,1.4196096675097705,0.025203694953174,0.1415287150224205,0.0109943341953575,0.1378685144031854,-0.8558028516432805,0.0247910363108734,-0.460267627001115,0.8204440176220705,1.4179661731735884,0.1763943618266729,-1.0252159047555498,0.0044309579795553,0.3057395866748889,0.1948012184679604,-0.0297188013115679,0.2337647813340013,10.703651661608092,-1.1805689290321972,0.1202654613203847,-1.0546877064296607
1.72,-0.454749796414321,0.7910929239925754,1.420151176227881,0.0245559003571581,0.1378101905734791,0.0109257209882173,0.1393183182121394,-0.8555817635178901,0.0291283132902712,-0.4567397397645815,0.7999396995269595,1.4180547923331794,0.1936025789110807,-1.0652159053515962,0.007046541295047,0.2289256573631511,0.0724901904477035,0.0110544062695228,0.2168638489698891,10.703651661608092,-1.1859150421946592,0.1210617168722798,-1.0507907763606226
1.74,-0.4519684726528319,0.7739914472766662,1.4207778647152596,0.0256467201172407,0.1357540109234247,0.0110256714989911,0.1387232373662778,-0.8548590131373542,0.0333173782631198,-0.4532118525280481,0.7794353814318485,1.418143411492771,0.2108107959954885,-1.1052159059476427,0.0096621246105386,0.21462033147178,-0.0297540422930828,0.0361375190267909,0.2094532486424273,10.682440911412414,-1.1886277739221711,0.1202415143827089,-1.04925479698812
1.76,-0.4493393285792817,0.7577473346044783,1.4214509360963914,0.0282095266277979,0.1356760467917721,0.0112762679902011,0.1382974027511212,-0.8553027951189021,0.0373032383933848,-0.4492537598644044,0.7579310633218364,1.418297420235249,0.2280190130798963,-1.145215906543689,0.0122777079260303,0.20165167086246,-0.0212917307578303,-0.0221890990773909,0.1992930065132535,10.67425570105388,-1.1873891212632626,0.1177177160805362,-1.051592519498546
1.78,-0.4465667371380801,0.740612261975888,1.4222432559953913,0.0316369555169164,0.1369961147214221,0.0116328192752026,0.1391522976596166,-0.8583568338400732,0.0417181139966909,-0.4448654617736506,0.7354267451969231,1.4185168185606147,0.2452272301643041,-1.1852159071397357,0.014893291241522,0.2717955316393692,0.0427447454247734,-0.1527019360585579,0.220743780165301,10.670908131826764,-1.1846126239996742,0.1144455601761484,-1.055300202549957
1.8,-0.443761575232895,0.723393792943075,1.423127674805914,0.0347888971021388,0.139135933516166,0.0120013075523397,0.1414513935326938,-0.8632431715843608,0.0464888308590494,-0.4396091222550993,0.6976944202838844,1.4243291616952258,0.1961975487906744,-0.954347819472016,0.045528819613761,0.3602841856286584,0.1149547936538555,-0.2443168872143797,0.2385358431179287,10.690775063559158,-1.1811783924740598,0.1115664200852076,-1.0593910256736347
1.82,-0.4410482740650716,0.706853868506986,1.4240598657896153,0.0345503019412248,0.1417113765331949,0.0121500189843594,0.1441960459212338,-0.8762187094232357,0.0514311517462254,-0.4396091222550993,0.6976944202838844,1.4243291616952258,0.1961975487906744,-0.954347819472016,0.045528819613761,0.7076797204488188,0.1372326194270023,-0.648776891943742,0.2471160443587989,10.718279921012254,-1.1772875189681915,0.1117045491082876,-1.0632773308280208
1.84,-0.438125365454,0.6892393374531319,1.425143857331995,0.0304727999708678,0.1449098832740662,0.0120567075536801,0.1480888218272845,-0.8838085773303747,0.0567138776571766,-0.4396091222550993,0.6976944202838844,1.4243291616952258,0.1961975487906744,-0.954347819472016,0.045528819613761,0.5016647091254844,0.1946387953025333,-0.3794933953569501,0.264136295547562,10.77768075586755,-1.1726632332574634,0.1157217445992861,-1.0671203770864413
1.86,-0.4351128861174871,0.6715340242492328,1.4263260927059356,0.0256967842087466,0.1483156980341789,0.0119169488963008,0.1530727932554491,-0.8863141972230165,0.0611862139901506,-0.4376471467671926,0.6881509420891643,1.4247844498913635,0.2076065990168859,-0.9735460165984045,0.0462909607371751,0.3574908898084055,0.2491985714082295,-0.1252809946320932,0.2236168166486959,10.70647277619264,-1.1696266434982794,0.120574616450825,-1.0716639443847502
1.88,-0.4319902138235551,0.6538095443199714,1.427587158772058,0.021824977060747,0.1516310317508661,0.0118345064159887,0.1590196951136613,-0.8863343319847039,0.0646761682045993,-0.4337231957913791,0.6690639856997239,1.4256950262836388,0.230424699469309,-1.0119424108511816,0.0478152429840032,0.3447674126813066,0.2973450929106128,-0.0010067380843692,0.1744977107224359,10.70647277619264,-1.1676470214717871,0.1244529380050308,-1.07582051384824
1.9,-0.428905217576022,0.6369820471086362,1.4288435210971533,0.0193832178292846,0.1545084618449537,0.011836261131585,0.1654565681429588,-0.8853517075977269,0.0673808044801101,-0.4297992448155656,0.6499770293102836,1.426605602675914,0.2532427999217321,-1.0503388051039586,0.0493395252308312,0.3525405737783548,0.3218436514648759,0.0491312193488524,0.1352318137755388,10.657045726105023,-1.1661904617705128,0.1273184267985687,-1.0797544460927535
1.92,-0.4255190068335579,0.6192941904393057,1.4302188711840933,0.0182027804329511,0.1571442723521763,0.0119303366475704,0.1728633596372624,-0.8836656329593314,0.0699940427579178,-0.4247343888171309,0.6289702532082044,1.4275923931805306,0.2760609003741552,-1.0887351993567358,0.0508638074776593,0.4016603733968758,0.3703395747151769,0.0843037319197714,0.1306619138903869,10.627485389309186,-1.165266031492171,0.1287917997961014,-1.083128043492316
1.94,-0.4219780012189118,0.6016484388797094,1.4316464633565504,0.0187995945893093,0.1593088513025248,0.0121449034422455,0.1808658546009378,-0.8812973454758934,0.0726233007856365,-0.4196695328186963,0.6079634771061252,1.4285791836851471,0.2988790008265783,-1.1271315936095128,0.0523880897244874,0.437497740063259,0.4001247481837736,0.118414374171899,0.1314629013859355,10.629198917288704,-1.1650804971198494,0.128588698911406,-1.0864087037916508
1.96,-0.4182691825813147,0.584040308573663,1.4331293123085769,0.0211048092279574,0.1608840977091607,0.0124729193262434,0.1895702214862835,-0.8798068862477684,0.0755262634817273,-0.4140342243089511,0.5859967911477266,1.4296040812459343,0.3216971012790014,-1.16552798786229,0.0539123719713155,0.4647974397527936,0.4352183442672852,0.0745229614062537,0.1451481348045388,10.629198917288704,-1.1654397444106397,0.1267099328019752,-1.0897190282645384
1.98,-0.414579934281535,0.5673201557197561,1.434596284177426,0.0242869576833848,0.1617288354313679,0.0128428920863651,0.1982701724692635,-0.8805605570404023,0.0787415132453366,-0.4078284632878953,0.5630701953330086,1.4306670858628925,0.3445152017314245,-1.203924382115067,0.0554366542181436,0.465282166572912,0.4349975491489979,-0.0376835396316943,0.1607624881804666,10.65173677988514,-1.166574792825258,0.123718161447779,-1.092308550928348
2.0,-0.4105169044293806,0.5496807536278454,1.4362115941802034,0.0276088624676432,0.1619379283210288,0.013213525168298,0.2075174476351755,-0.8833573965322189,0.0826474669940205,-0.4046664256580718,0.523292127867736,1.4385333598396928,0.2617492458149247,-0.9002929168371647,0.0942169298013373,0.5210347488986127,0.4623637582956016,-0.1398419745908319,0.1952976874341934,10.685584250060856,-1.168031992721192,0.1206935348756519,-1.0940388415745943
2.02,-0.4062413751630729,0.5316717868441058,1.4379337930831455,0.0207544886428754,0.1609028530383186,0.012847050853047,0.2195781045511201,-0.9126008128363328,0.0898040269512123,-0.4046664256580718,0.523292127867736,1.4385333598396928,0.2617492458149247,-0.9002929168371647,0.0942169298013373,1.621614313578229,0.60303284579723,-1.4621708152056934,0.3578279978595909,10.722813399602272,-1.165012315763869,0.1267813707779917,-1.094569302056503
2.04,-0.4019640896232559,0.5142624846927851,1.4397148923745828,0.0053281934464468,0.158262903720079,0.011896734972303,0.2298985514222353,-0.9174305722638384,0.0973349183355721,-0.4046664256580718,0.523292127867736,1.4385333598396928,0.2617492458149247,-0.9002929168371647,0.0942169298013373,0.6829211608782467,0.5160223435557595,-0.2414879713752871,0.3765445692179909,10.934850155237656,-1.169386687828278,0.1432046658272264,-1.089615526391858
2.06,-0.3972728925648257,0.495948634110455,1.4417242642451698,-0.0119333672367421,0.154287031833526,0.0109187288249593,0.2384638440482311,-0.9131949670496896,0.103092377373491,-0.4020489331999226,0.5142891986993644,1.4394755291377062,0.2744450604840569,-0.9042393887965172,0.0973120131125375,0.5577923535518777,0.4282646312997878,0.2117802607074503,0.2878729518959434,10.934850155237656,-1.1781108219618306,0.1609937032316335,-1.084290980646744
2.08,-0.3924400095782027,0.477804514960118,1.4438225628361676,-0.0275592623794095,0.1498171428676772,0.0101781598692062,0.2441792146193769,-0.9015948719970688,0.1063431806215707,-0.396813948283624,0.4962833403626211,1.441359867733733,0.2998366898223214,-0.9121323327152222,0.1035021797349378,0.666699684552719,0.2857685285572911,0.5800047526310304,0.1625401624039825,10.774148167571184,-1.1881039175657857,0.177212212353,-1.0782490864719283
2.1,-0.3875260590297305,0.459944337369408,1.4459623565232087,-0.0400316503945448,0.1458276891971498,0.0097476852684212,0.2468200293860817,-0.8857306955976346,0.1074946063988901,-0.3915789633673255,0.4782774820258778,1.4432442063297597,0.3252283191605858,-0.9200252766339272,0.109692346357338,0.8061820154051584,0.1320407383352401,0.7932088199717136,0.0575712888659728,10.632211718417238,-1.1974254452767388,0.1897526277778654,-1.0732283085896903
2.12,-0.3828351232530785,0.4432925172423911,1.4480057880546764,-0.0488337278048959,0.1434392081301903,0.0095628476691081,0.2467898794228647,-0.8685972022552984,0.1075686128872376,-0.3850743969841138,0.4598769764931993,1.4454380532569064,0.3506199484988503,-0.9279182205526322,0.1158825129797383,0.8566839850441947,-0.0015074981608492,0.8566746671168135,0.0037003244173765,10.533032927420209,-1.205022676219092,0.1997990548096573,-1.0699213274359942
2.14,-0.3779106116272691,0.4261218841364328,1.450156887835255,-0.0552883238573504,0.1431416615911915,0.0094962949388716,0.245943366401175,-0.8498259222597725,0.1075386334242136,-0.3785698306009021,0.4414764709605207,1.4476319001840532,0.3760115778371148,-0.9358111644713372,0.1220726796021386,0.9395190734286916,-0.0423256510844863,0.9385639997762928,-0.0014989731512038,10.48896138204691,-1.2070426560948302,0.206889525330795,-1.070476858287783
2.16,-0.37298929229699,0.4093298192403025,1.4523095339356054,-0.0593715131151182,0.1447300496388894,0.0095120340896222,0.2464425265277911,-0.8307265154099662,0.1077493142670975,-0.3714304734842338,0.4228786418298746,1.44998050127676,0.4014032071753792,-0.9437041083900422,0.1282628462245389,0.955354501303035,0.0249580063308066,0.9549703424903132,0.0105340421441973,10.488525159197708,-1.206913420253817,0.2117105543296448,-1.073927081270941
2.18,-0.3680402860568198,0.3929226707041306,1.454472920086946,-0.0614796100882304,0.1474680583791387,0.0096102631663631,0.2486130004426072,-0.8114251204137035,0.108582748762712,-0.3636563256341089,0.4040834891012608,1.4524838565350269,0.4267948365136437,-0.9515970523087472,0.1344530128469392,0.972046062276799,0.1085236957408017,0.9650697498131356,0.041671724780725,10.510761186910711,-1.205833097836517,0.2145535739936109,-1.0790901028014717
2.2,-0.3632817341168424,0.377696061573375,1.4565506518377318,-0.0618474287877698,0.1505218937741603,0.0098012087611728,0.2522739570848635,-0.7926228631998042,0.1100816790365674,-0.3556096360346895,0.3523514146834455,1.4599020575250816,0.3087185514768193,-0.7847835596952863,0.1032249095955939,0.9606954145825676,0.1830478321128176,0.9401128606949638,0.0749465136927689,10.553412888815728,-1.204744420778013,0.2159547905263784,-1.085700722607656
2.22,-0.3581733564011048,0.3619157324075646,1.4586854860288492,-0.0646654398081798,0.1530071901391784,0.0098904751715354,0.2582417067584926,-0.7849108223847765,0.1027768983615693,-0.3556096360346895,0.3523514146834455,1.4599020575250816,0.3087185514768193,-0.7847835596952863,0.1032249095955939,0.6091991267426009,0.2983874836814532,0.3856020407513871,-0.3652390337499041,10.607817601876375,-1.207397562040636,0.2200062726327243,-1.0915807994482076
2.24,-0.3529525091779604,0.3463717347764376,1.4606611790748596,-0.0707211581556065,0.1541724044908893,0.0098527793834963,0.26345409741727,-0.7694002512322925,0.0952466264015351,-0.3556096360346895,0.3523514146834455,1.4599020575250816,0.3087185514768193,-0.7847835596952863,0.1032249095955939,0.9006273225480909,0.2606195329388716,0.7755285576241999,-0.3765135980017126,10.089580196002316,-1.2108972190351222,0.2267475924369301,-1.0895691350422876
2.26,-0.3476344604937646,0.3311927013561911,1.4624944313729067,-0.0767309929351024,0.1546512407612314,0.0098867276177084,0.2680423736488494,-0.7494057218462857,0.0884542788985238,-0.3525224505199212,0.3445035790864926,1.4609343066210376,0.3207396616836617,-0.7794552475516029,0.1021533417621703,1.0804738182237783,0.2294138115789684,0.9997264693003384,-0.3396173751505651,10.089580196002316,-1.2151792382409723,0.2333413600423377,-1.0885790291240949
2.28,-0.3425028468343284,0.3171672942893631,1.4641165120492938,-0.0813524166129276,0.1548512979754693,0.0100355394261885,0.2718934672441506,-0.7282665987823839,0.0826468938109843,-0.3463480794903849,0.3288079078925869,1.4629988048129494,0.3447818820973465,-0.7687986232642361,0.1000102060953231,1.1129006776724653,0.1925546797650584,1.0569561531950933,-0.2903692543769723,10.141324861571777,-1.2200495165546996,0.2392957239115407,-1.0882241491570488
2.3000000000000003,-0.3370262042443573,0.3028467194132284,1.4657122808752765,-0.0848622955383763,0.155091219159512,0.010305630455446,0.2755790975005071,-0.7051362234811286,0.0772855970990718,-0.3401737084608485,0.3131122366986811,1.4650633030048614,0.3688241025110314,-0.7581419989768692,0.0978670704284759,1.2013967229818954,0.1842815128178271,1.156518765062764,-0.2680648355956251,10.189738419635432,-1.2247039809928435,0.2439434344181054,-1.0886681416953154
2.32,-0.3314775144078965,0.2889954753902728,1.467210101411236,-0.0870236634260243,0.1555546410903979,0.0106701587928308,0.2791414980559852,-0.6814020957266007,0.0728179821597395,-0.3327972264106278,0.2979493967191438,1.4670206444134308,0.3928663229247162,-0.7474853746895023,0.0957239347616286,1.220613678884587,0.1781200277739036,1.186706387726394,-0.223380746966615,10.239913631483432,-1.2288446502384194,0.2473216001596589,-1.0901261341763688
2.34,-0.3258578179959486,0.2756263513585214,1.468625218792294,-0.0877749639238307,0.1563399850653103,0.0111216461336554,0.2827131208469265,-0.6569594428108143,0.0689255792917069,-0.3254207443604072,0.2827865567396064,1.4689779858220005,0.4169085433384011,-0.7368287504021355,0.0935807990947814,1.2503505218632107,0.1785811395470654,1.22213264578932,-0.194620143401631,10.295856302287577,-1.2327061154058112,0.2492645020634673,-1.0920985042673628
2.36,-0.3204483256247644,0.2633865737622983,1.469902870424012,-0.0868600898464921,0.157304428860797,0.0116583224265803,0.2865599698900719,-0.6329369123144507,0.0657765568702746,-0.3174432067998444,0.2678901323672532,1.4708817488388988,0.440950763752086,-0.7261721261147686,0.0914376634279342,1.2265771084813126,0.192342452157268,1.2011265248181802,-0.1574511210716153,10.330862106305176,-1.2366691376324408,0.2496518369570831,-1.0948437873624473
2.38,-0.3146704858382718,0.2509944843556656,1.4711905316432787,-0.0838926736816362,0.1583831696342842,0.0123694790185036,0.2910550534089953,-0.6079186230427669,0.0632197015037713,-0.3088646137289396,0.2532601236020841,1.4727319334641258,0.4649929841657708,-0.7155155018274018,0.089294527761087,1.277358684247462,0.2247541759461707,1.250914463584191,-0.127842768325162,10.416934514644709,-1.2408203066429262,0.2480419917642708,-1.0983905936108045
2.4,-0.3087971340671843,0.2390771407910451,1.4724386821379465,-0.0794909584766427,0.1593868295680851,0.0131965143887574,0.2960756881861747,-0.5854524226939295,0.0617895901474799,-0.300117733167822,0.2205985532035272,1.474351516718467,0.316668858688131,-0.5618160806126045,0.0741787521218834,1.1532369120992865,0.2510317388589728,1.1233100174418698,-0.0715055678145708,10.416934514644709,-1.244462387852818,0.245151665732457,-1.1021089646832702
2.42,-0.3030129301394271,0.228090410097318,1.4736067203162129,-0.0769187660947822,0.1568690491639739,0.0141464197698968,0.3119413094822869,-0.5710656790643915,0.0611899960077505,-0.300117733167822,0.2205985532035272,1.474351516718467,0.316668858688131,-0.5618160806126045,0.0741787521218834,1.0712794272575383,0.7932810648056066,0.7193371814768978,-0.0299797069864726,10.471462358958888,-1.2421661189192426,0.2437275319694555,-1.1072642587317671
2.44,-0.29664182635349,0.2168499675687575,1.4748373980278795,-0.0765439282368474,0.1481595133803674,0.0154524170782164,0.3234171856769719,-0.5535755279895993,0.0620479793362448,-0.300117733167822,0.2205985532035272,1.474351516718467,0.316668858688131,-0.5618160806126045,0.0741787521218834,1.0468252653222134,0.5737938097342521,0.8745075537396119,0.0428991664247171,10.54786681092719,-1.2635300025629022,0.2451411968193127,-1.096582072027669
2.46,-0.29011653030908,0.2059738942831399,1.4760962485602014,-0.0775383381306929,0.1362579194038667,0.0169221456980071,0.3279414238842904,-0.5348420687460801,0.0638470919447552,-0.2969510445809407,0.2149803923974012,1.475093304239686,0.3217916197439581,-0.552595572126572,0.0763705622455058,0.9677913421332832,0.2262119103659227,0.9366729621759606,0.0899556304255196,10.595716735486349,-1.2838750193121142,0.2476897371585713,-1.082939980411764
2.48,-0.2838974304490489,0.196000047475245,1.477327540196243,-0.079186642171336,0.1242682104644375,0.0183493798855781,0.3261877370860222,-0.5159877917891004,0.0656947521922346,-0.2906176674071781,0.2037440707851491,1.476576879282124,0.3320371418556124,-0.534154555154507,0.0807541824927507,0.9512794349546198,-0.0876843399134075,0.942713847848986,0.0923830123739713,10.60538214166172,-1.3042203718430745,0.2512572895086557,-1.0694312943623567
2.5,-0.277441825117994,0.1858999701056134,1.4786602113589644,-0.0811601091922604,0.1126695080643612,0.0197886754949947,0.3192196412144764,-0.4949356393024003,0.0674617555589916,-0.2842842902334155,0.192507749172897,1.4780604543245617,0.3422826639672667,-0.515713538182442,0.0851378027399955,1.1122834455484505,-0.3484047935772894,1.0526076243350002,0.088350168337848,10.58097073468889,-1.3206957690853314,0.2548903723013929,-1.05713168828019
2.52,-0.2711728415545394,0.1762372608222802,1.4800236026746678,-0.0826741549611181,0.1033853418435307,0.0211019152720175,0.3081076886632259,-0.472574537973146,0.0687937956058232,-0.2774386369540702,0.1821934784092482,1.4797632103793614,0.352528186078921,-0.497272521210377,0.0895214229872403,1.2502686439769517,-0.5555976275625263,1.118055066462717,0.0666020023415793,10.566729619938087,-1.3335760000932544,0.2583471503838441,-1.0510128203434144
2.54,-0.2651611655449573,0.1670305818054941,1.4814111102447705,-0.0832904858376022,0.0972804113172781,0.0222312998875563,0.2936122254385137,-0.4493910735915271,0.0698936491939092,-0.2705929836747248,0.1718792076455993,1.4814659664341612,0.3627737081905752,-0.478831504238312,0.0939050432344852,1.3682115632715584,-0.724773161235609,1.1591732190809445,0.0549926794043018,10.566729619938087,-1.3431138777809413,0.2608686570976124,-1.049294000134387
2.56,-0.2597434586787527,0.1587230147047539,1.4827496855152564,-0.0825651023451685,0.0953403744406697,0.0230782173952211,0.2777759365152663,-0.4264836306900175,0.0709673303868467,-0.2634911923425881,0.1620259623062521,1.4832783129951423,0.3730192303022295,-0.4603904872662471,0.09828866348173,1.3934595243947367,-0.7918144461623727,1.145372145075482,0.053684059646876,10.594401111969091,-1.345001546007637,0.2617893599945409,-1.0522085465302984
2.58,-0.2543501745714566,0.1504493513370875,1.4841854229618292,-0.0800397129944564,0.0971206833452328,0.02377726609244,0.2628149162088377,-0.4023181319045912,0.0725882188118799,-0.2561332629576601,0.1526337423912065,1.4852002500623045,0.3832647524138838,-0.4419494702941821,0.1026722837289748,1.4234032628213729,-0.7480510153214298,1.2082749392713117,0.0810444212516602,10.594401111969091,-1.3408880179123617,0.2606789045967987,-1.059852273152146
2.6,-0.2492277470326399,0.1426397967819397,1.4856629143019813,-0.0760423673968773,0.1016652215461728,0.0243647828102537,0.2505680044922858,-0.3802710705402773,0.075134299053575,-0.2412094287610147,0.1303334447418579,1.4878148339024233,0.2780197435100419,-0.364693262408961,0.0834107561670049,1.2674208910144953,-0.612345585827595,1.1023530682156972,0.1273040120847529,10.65776493964404,-1.3340750189007071,0.2580379697691453,-1.0709648563569494
2.62,-0.2442899938633162,0.1352677175943285,1.4871528586028409,-0.070870017769301,0.1068136709516066,0.0250030964197922,0.243961023026216,-0.3586312002501566,0.0735482558802376,-0.2412094287610147,0.1303334447418579,1.4878148339024233,0.2780197435100419,-0.364693262408961,0.0834107561670049,1.134076411903017,-0.3303490733034875,1.0819935145060355,-0.0793021586668704,10.65776493964404,-1.3288105397446115,0.2547286874059433,-1.084387484738745
2.64,-0.239705629729082,0.1286303775052592,1.4885475372641006,-0.0654510540358776,0.110775515362894,0.0257265793466631,0.2389263366120739,-0.34122992955519,0.0733489517079314,-0.2412094287610147,0.1303334447418579,1.4878148339024233,0.2780197435100419,-0.364693262408961,0.0834107561670049,0.9058035262149148,-0.251734320707106,0.8700635347483304,-0.0099652086153069,10.384579961839336,-1.3255765432321378,0.2503551386138214,-1.0937850487434244
