t,x,y,z,roll,pitch,yaw,v_x,v_y,v_z,ref_x,ref_y,ref_z,ref_v_x,ref_v_y,ref_v_z,a_com,a_x,a_y,a_z,thrust,wind_x,wind_y,wind_z
0.0,0.0038503744167675,-1.040971707819298,2.530727471383116,0.0227738766799579,0.1364829804087753,0.026727111061048,0.0058415786030649,0.0019070447051981,0.0164795755757433,0.0040247299150673,-1.040829900800576,2.5312290085612434,0.0750775568755302,0.1039965679758061,-0.0833445490215382,0.8793993280075436,0.292078930153249,0.0953522352599068,0.8239787787871676,10.552704013728544,-1.2871954292525454,0.1533249340819153,-1.1780425971061106
0.02,0.0038625759342258,-1.0412267243881486,2.5308256772832545,0.0145192238800866,0.1388472751854517,0.0261875598831291,-0.0039146583183307,-0.0227003847322035,-0.0059250256165727,0.0040247299150673,-1.040829900800576,2.5312290085612434,0.0750775568755302,0.1039965679758061,-0.0833445490215382,1.7339808944808497,-0.487811846069786,-1.230371471870086,-1.1202300596158064,10.553400744654027,-1.2983293236729485,0.1630141500914116,-1.1659850108138723
0.04,0.0037009505244697,-1.0417202052219643,2.53040822381732,-0.001874433386789,0.1448503760442445,0.0250903689936882,-0.0112872516359523,-0.0244882170454589,-0.0347910701428087,0.0040247299150673,-1.040829900800576,2.5312290085612434,0.0750775568755302,0.1039965679758061,-0.0833445490215382,1.492313642635151,-0.3686296658810788,-0.0893916156627696,-1.4433022263117998,9.223364343389676,-1.2877282525615856,0.1796681382736122,-1.154864530337865
0.06,0.0034300453772135,-1.0421553196840294,2.529411630276856,-0.0189200552697823,0.1525762734306354,0.0238501688565343,-0.0150907859849523,-0.0185320434134078,-0.0633721713657527,0.0047755054838226,-1.039789935120818,2.530395563071028,0.0889293470056686,0.1239965682738293,-0.1033445493195614,1.4720922398030425,-0.1901767174500007,0.2978086816025583,-1.4290550611471995,8.917577583428283,-1.2766265800066554,0.1957073432745861,-1.1437633040601929
0.08,0.003115245903898,-1.0424277539518902,2.5278564459183137,-0.0353740296775872,0.1609503646930527,0.0225251913922689,-0.0159237235198728,-0.0086473591224435,-0.0906727076947998,0.0062770566213332,-1.0377100037613018,2.528728672090597,0.1166329272659454,0.1639965688698758,-0.1433445499156079,1.4523429797423344,-0.0416468767460259,0.4942342145482135,-1.365026816452356,8.949251695013572,-1.266535947012286,0.2117762313443666,-1.1339211789605144
0.1,0.0028247022658645,-1.0424727968832026,2.5258864702906934,-0.0502966574754662,0.168973800336671,0.0212085787424334,-0.0144310671808761,0.003707314236831,-0.1153561612431022,0.0077786077588438,-1.0356300724017855,2.5270617811101665,0.1443365075262222,0.2039965694659222,-0.1833445505116543,1.3821530810947786,0.0746328169498347,0.6177336679637309,-1.2341726774151165,9.018883021375586,-1.2589490207084977,0.2270073189237191,-1.1263500415551204
0.12,0.002570116219355,-1.0422366142257466,2.523313850788043,-0.0652590130558456,0.1771984557772724,0.0197844518024712,-0.0109104414920158,0.0195899819770418,-0.1405969694576061,0.0106653379093682,-1.0315501410124672,2.523394890099933,0.1720400877864989,0.2439965700619687,-0.2233445511077008,1.5014595724730355,0.1760312844430168,0.7941333870105399,-1.262040410725196,9.089893673737606,-1.253859006431347,0.241484874586111,-1.12057479088353
0.14,0.002403137691068,-1.0416508408488028,2.520237143785614,-0.0793970376481819,0.1850520636436272,0.0183510766197643,-0.0058006556771563,0.0384523714170255,-0.1658392932982793,0.0135520680598927,-1.027470209623149,2.5197279990897004,0.1997436680467758,0.2839965706580152,-0.2633445517037473,1.5961473610985657,0.255489290742975,0.9431194719991836,-1.2621161920336603,9.1402681324671,-1.2512812147686347,0.2552199018810195,-1.1162312362200149
0.16,0.0023522516777296,-1.040633473035134,2.516652797722359,-0.0918103079816973,0.1924798702830381,0.0169981308423532,0.0006135919915315,0.0621159693522435,-0.191327150418018,0.017131387716924,-1.0223902782189294,2.5150611080645664,0.2274472483070526,0.3239965712540616,-0.3033445522997937,1.7682896404090158,0.320712383434393,1.1831798967609015,-1.274392855986936,9.1510979282657,-1.2511777933278427,0.2669585175829236,-1.1146457142735169
0.18,0.0024345679648471,-1.039198782831408,2.512775068400488,-0.1011988417435588,0.199134878993718,0.0158710173810746,0.0078667974562696,0.0871800255800375,-0.2155498634371325,0.0214032968804623,-1.0163103467998085,2.5093942170245307,0.2551508285673293,0.363996571850108,-0.3433445528958401,1.7801374456134715,0.362660273236907,1.2532028113896971,-1.2111356509557247,9.168220369533628,-1.2510109091203991,0.276832162880376,-1.114289942330997
0.2,0.0026820073534549,-1.037164319599807,2.5081958314026296,-0.1087144119160906,0.2057256192177788,0.0148649697048115,0.0166345595309009,0.1146110246169875,-0.2410698448971131,0.0028279078376606,-1.0348397815524062,2.501997575228631,0.070558120915418,0.1871800270701536,-0.3155498649272487,1.9239301011732757,0.4383881037315612,1.3715499518474985,-1.275999072999029,9.19203055921389,-1.2520425185420772,0.2843353100521993,-1.1146210931592897
0.22,0.0031434780369744,-1.034426264844465,2.503230340379305,-0.1098460750813565,0.2118723386093048,0.0143538379135621,0.0293967842349483,0.156156454334203,-0.253295241996224,0.0028279078376606,-1.0348397815524062,2.501997575228631,0.070558120915418,0.1871800270701536,-0.3155498649272487,2.257408605024601,0.6381112352023744,2.077271485860778,-0.6112698549555429,9.207053596051992,-1.2509569288347195,0.2857366366554012,-1.1184295676274112
0.24,0.0038751175632298,-1.03094691390708,2.49804153967316,-0.1041245964769698,0.2175710946123757,0.014413469102265,0.0432327890086718,0.1883248099204942,-0.2650197635815652,0.0028279078376606,-1.0348397815524062,2.501997575228631,0.070558120915418,0.1871800270701536,-0.3155498649272487,1.8464171627977943,0.6918002386861716,1.6084177793145609,-0.5862260792670604,10.131397612673029,-1.2567831608247575,0.2814272102907699,-1.1288860833831544
0.26,0.0048302280948085,-1.027119857903648,2.492873778828671,-0.0968623781364799,0.2226189794522596,0.0146873539727024,0.0567091571575242,0.21256974069767,-0.2783501272447177,0.0035334890468147,-1.0329679812817048,2.498842076579358,0.0830963856072477,0.2071800273681768,-0.3355498652252719,1.5387720447367674,0.673818407442623,1.2122465388587895,-0.6665181831576272,9.988545340655037,-1.260799408736198,0.2751980694651089,-1.1424058018678958
0.28,0.006115592982479,-1.0226374769809052,2.4871376459028167,-0.0892675816950924,0.2275920986436519,0.0150567516872712,0.0711849945385083,0.2342957637678017,-0.2946905944544588,0.0049446514651231,-1.0292243807403016,2.492531079280814,0.1081729149909071,0.2471800279642233,-0.3755498658213183,1.5399519594432247,0.7237918690492017,1.0863011535065843,-0.8170233604870514,9.836656377580766,-1.2641016078697989,0.2687687172552966,-1.154958030092201
0.3,0.0076936288756604,-1.017745612592261,2.4810522886756785,-0.0824442090349294,0.2322520486018156,0.0154464836753957,0.085958967524693,0.2538133920552431,-0.3131330068442853,0.0063558138834315,-1.0254807801988983,2.486220081982269,0.1332494443745664,0.2871800285602697,-0.4155498664173648,1.532425093209841,0.7386986493092363,0.9758814143720708,-0.9221206194913262,9.590912176867278,-1.2670108319826274,0.2628182813091946,-1.1651855185921225
0.32,0.0094693813986588,-1.01275275398962,2.474911979770953,-0.0768814008161542,0.2364132737193496,0.015810758210789,0.1002946784433455,0.2709054038243671,-0.3323152426788101,0.0090208027709228,-1.019737179627693,2.4779090846539216,0.1583259737582258,0.3271800291563161,-0.4555498670134112,1.4710605404523387,0.7167855459326258,0.8546005884561975,-0.9591117917262388,9.590912176867278,-1.2681261948741422,0.2578488164880896,-1.1732452343603998
0.34,0.011638189542458,-1.007157422000012,2.468045177484632,-0.0720075976839057,0.2405299709199946,0.0161779291878363,0.1159006453523284,0.2878256508143126,-0.3534210789108246,0.0116857916584141,-1.0139935790564878,2.4695980873255743,0.1834025031418852,0.3671800297523627,-0.4955498676094577,1.561487499483785,0.7802983454491458,0.8460123494972771,-1.0552918116007282,9.507612152404365,-1.2676141344378542,0.2535451824172443,-1.1813989870445354
0.36,0.0141251100937477,-1.0012227356322074,2.4607501282686943,-0.0678109773939442,0.2443890387098033,0.016544292345606,0.1320824512462293,0.3047520056987531,-0.3750554261658297,0.0149776937804969,-1.0072499784703812,2.4602870899823257,0.2084790325255446,0.4071800303484091,-0.5355498682055041,1.5940493348796112,0.8090902946950425,0.8463177442220249,-1.0817173627502534,9.465600231013012,-1.2672900948143038,0.2499384666492692,-1.1889595619241689
0.38,0.0169416251448703,-0.994953196510396,2.4530183837239403,-0.0639078518936088,0.2480025938353885,0.0169314966710217,0.1488281715827638,0.3212665332286271,-0.3970593590565787,0.0188965091371712,-0.9995063778693736,2.449976092624176,0.2335555619092039,0.4471800309444555,-0.5755498688015506,1.6103740495494954,0.8372860168267229,0.825726376493699,-1.1001966445374516,9.451395183871682,-1.2668892492669068,0.2467496902473731,-1.1955170817095682
0.4,0.0199370814339668,-0.9886967407388478,2.4452612106689307,-0.0603424826684227,0.251075407870034,0.0173326917795001,0.1656570109006054,0.3363895136579135,-0.4183885277679788,0.0243830337240085,-0.9788898698489644,2.433165415771112,0.1499064177441054,0.4212665347187432,-0.4970593605466948,1.554708821427406,0.8414419658920799,0.7561490214643196,-1.0664584355700029,9.426659731811014,-1.2660368854897972,0.2434715877973684,-1.2016419479023643
0.42,0.023632693376806,-0.9818018124331208,2.436837127884666,-0.0569700702088619,0.2494191552593081,0.0180343526614943,0.2030678478078498,0.3524441111057069,-0.4218315305524974,0.0243830337240085,-0.9788898698489644,2.433165415771112,0.1499064177441054,0.4212665347187432,-0.4970593605466948,2.042776961323322,1.870541845362221,0.8027298723896709,-0.1721501392259294,9.426659731811014,-1.259902910676474,0.2384624507410818,-1.186201465563944
0.44,0.0280472459730758,-0.9746000950117092,2.428353657689036,-0.0544067658659785,0.2390793687613237,0.0191680946054297,0.2352062184785725,0.3670948949346045,-0.4264798918493793,0.0243830337240085,-0.9788898698489644,2.433165415771112,0.1499064177441054,0.4212665347187432,-0.4970593605466948,1.7812408588651103,1.606918533536135,0.7325391914448809,-0.2324180648440948,10.784261018424331,-1.286193340653056,0.2392874549399612,-1.1931302438736775
0.46,0.032749890208034,-0.9674889508237676,2.4201697129450976,-0.0527123435682955,0.2240478748946004,0.0204566380848154,0.2573174644637964,0.3807745834630574,-0.4345723852302194,0.0258820979014495,-0.9746772045017772,2.4281948221656444,0.1501220669763737,0.4412665350167664,-0.517059360844718,1.3615519879658535,1.1055622992611966,0.683984426422643,-0.4046246690420058,10.4670997581743,-1.3172270269743316,0.240479228117164,-1.1890492675649065
0.48,0.0380615999658679,-0.9597299849553534,2.4113587884605723,-0.0516285903264651,0.2054410418896379,0.0218896147977705,0.2718686758471639,0.3944127738480651,-0.4461584603780357,0.0288802262563317,-0.9662518738074024,2.4182536349547106,0.1505533654409104,0.4812665356128129,-0.5570593614407645,1.1532292996538114,0.7275605691683756,0.6819095192503871,-0.5793037573908144,10.168557595787206,-1.3482226199726586,0.2417804658834882,-1.1754631256498975
0.5,0.0435776099285216,-0.95170508273274,2.4022836355569828,-0.0514036824854806,0.1861866920217862,0.0232868412011356,0.2783947834694766,0.407425954821889,-0.4608588092772431,0.0318783546112138,-0.9578265431130274,2.4083124477437767,0.1509846639054471,0.5212665362088593,-0.597059362036811,1.0344481832285384,0.3263053811156352,0.6506590486911934,-0.735017444960373,9.91023704950021,-1.3751724690820373,0.2433043685855966,-1.157121073684328
0.52,0.0488700612517761,-0.943845033535793,2.3933596052849846,-0.0520933121985103,0.1688715605624959,0.0245101643445033,0.2781344424623918,0.4193842105873734,-0.4777233533921059,0.0348980478893227,-0.9474012123888502,2.3963712605030407,0.1514159623699837,0.5612665368049058,-0.6370593626328575,1.033780086133969,-0.0130170503542415,0.5979127882742186,-0.8432272057431384,9.686461105727176,-1.3986819576588967,0.2453215712193155,-1.1349888308953002
0.54,0.0543816548586841,-0.9353279146982412,2.383602305387058,-0.0538724633515469,0.1527506978908002,0.0256437762018646,0.2727855061784318,0.4317956642447861,-0.4971844366652974,0.0379177411674317,-0.936975881664673,2.3844300732623043,0.1518472608345204,0.6012665374009523,-0.6770593632289039,1.184682513826027,-0.2674468141980024,0.6205726828706348,-0.9730541636595758,9.497937615349656,-1.416619272100917,0.2480625985773246,-1.1137848398664003
0.56,0.0597431027230946,-0.9265445628301338,2.37344088924275,-0.0562914067123228,0.1394416364807851,0.0266249567162799,0.2635240998981086,0.446058888072441,-0.5180328532446961,0.040948216907154,-0.9255505509255948,2.371488886006667,0.1522785592990571,0.6412665379969986,-0.7170593638249503,1.3452413111735149,-0.463070314016159,0.713161191382744,-1.042420828969931,9.384218323936238,-1.4284269735084096,0.2508766590303288,-1.0948383314521577
0.58,0.0648873267741452,-0.9174587363527532,2.362848695566219,-0.0583780362931592,0.1292837851977625,0.027490250483425,0.2515059947099878,0.4616531794623134,-0.5401198176191585,0.0439894751084898,-0.9131252201716152,2.3575476987361283,0.1527098577635938,0.6812665385930451,-0.7570593644209967,1.4794008682096245,-0.6009052594060371,0.7797145694936197,-1.1043482187231224,9.305735336795353,-1.4360578532337238,0.2532802149081007,-1.078080569333402
0.6,0.0695321332133055,-0.908532001046112,2.3523672712449226,-0.0597293217499624,0.1226419384973297,0.0282028159302204,0.2380726031096888,0.4770627962771531,-0.562064016325234,0.0774626265096446,-0.8943760773796374,2.335842704685261,0.1888275458541109,0.5616531809524294,-0.6401198191092746,1.4995500634514487,-0.6716695800149497,0.7704808407419855,-1.0972099353037723,9.239625353257908,-1.4401931790475435,0.2549923112600297,-1.0660042486976653
0.62,0.0742405014336217,-0.8987566700865177,2.341143218990113,-0.0589999478607203,0.1166844267767256,0.0290485905528104,0.2337390006585398,0.499345090667314,-0.5577817012086731,0.0774626265096446,-0.8943760773796374,2.335842704685261,0.1888275458541109,0.5616531809524294,-0.6401198191092746,1.1550097145175102,-0.2166801225574513,1.114114719508047,0.2141157558280426,9.18597046506693,-1.431916177163448,0.2518892126916749,-1.0363097416576474
0.64,0.0788522556118689,-0.8885607878793355,2.329998145106768,-0.0555340952183807,0.1092810401283483,0.0301491553207573,0.2272115044656458,0.5186343754655715,-0.5570538882556865,0.0774626265096446,-0.8943760773796374,2.335842704685261,0.1888275458541109,0.5616531809524294,-0.6401198191092746,1.0188405496826598,-0.3263748096447,0.9644642399128712,0.0363906476493314,10.847897720014773,-1.4447261729582446,0.2514194629425891,-1.0427640758038477
0.66,0.083074261651149,-0.8785551586060822,2.319361880608557,-0.0512594580761956,0.1017279552513245,0.0312520270641977,0.2173356244048697,0.5334009505409834,-0.5625479560735113,0.0793509019681857,-0.8887595455701132,2.329441506494168,0.1762918560829355,0.5816531812504526,-0.6601198194072978,0.929743953488633,-0.4937940030388055,0.7383287537705951,-0.2747033908912399,10.436560019146782,-1.4558342791023189,0.2490983160035027,-1.0431568484309175
0.68,0.0872821781970583,-0.8677487957854069,2.307999878153291,-0.0468934736302162,0.094012963104751,0.0323438604164616,0.2037696307173583,0.5464174540566644,-0.573584579880901,0.083127452885268,-0.8775264819510645,2.3166391101119825,0.1512204765405848,0.6216531818464991,-0.7001198200033443,1.0900374002404425,-0.678299684375569,0.6508251757840533,-0.5518311903694839,10.063841601813692,-1.463568130420417,0.2461138767573263,-1.0382874686620431
0.7000000000000001,0.0911892764089261,-0.8566987897917322,2.296368389752288,-0.043092806169524,0.0871293633343129,0.0333138659057656,0.1875064677665893,0.5579607819761103,-0.5891783178126198,0.0869040038023502,-0.8662934183320159,2.303836713729797,0.126149096998234,0.6616531824425456,-0.7401198205993907,1.2658036491713989,-0.8131581475384522,0.577166395972295,-0.7796868965859405,9.517495002683972,-1.4681160697074818,0.2431896428380539,-1.03133911213307
0.72,0.0947455954908537,-0.84543003368261,2.2843830325912364,-0.0399913077968796,0.0815963401449338,0.0341430281761079,0.1688949812985628,0.5684671442741526,-0.6085437038063997,0.0894269857423149,-0.853060354683165,2.2890343173178094,0.1010777174558832,0.701653183038592,-0.7801198211954372,1.4420378392879845,-0.9305743234013244,0.5253181149021124,-0.9682692996889952,9.517495002683972,-1.46986407025129,0.240719556089647,-1.0240476464477783
0.74,0.0977600538212792,-0.8345370157881902,2.2726224612231616,-0.0377010911480275,0.078138069592816,0.0347909505540391,0.1493282643669978,0.577783893393753,-0.628426496104593,0.0919499676822795,-0.8398272910343141,2.2742319209058217,0.0760063379135324,0.7416531836346385,-0.8201198217914837,1.470530223431895,-0.9783358465782488,0.4658374559800227,-0.9941396149096672,9.33136892445873,-1.4685291649109875,0.2384378885214314,-1.0161784029235
0.76,0.1005151036081003,-0.8228764249121734,2.2598228775111564,-0.0357174629166927,0.0770714131277312,0.0353317159483201,0.1273926314213713,0.587773048006358,-0.650517886682319,0.0938461651336854,-0.825594227370562,2.2584295244789327,0.0509349583711817,0.7816531842306849,-0.86011982238753,1.6347666043333395,-1.096781647281324,0.4994577306302483,-1.104569528886301,9.254105053129024,-1.46204691575288,0.2362090054867145,-1.010167261079914
0.78,0.1028390751943571,-0.8110164468545537,2.246571983807552,-0.0338849990017238,0.078636625225008,0.0357589170616235,0.106416147117691,0.597680824590708,-0.6734804867363413,0.0951155780965326,-0.8103611636919088,2.2416271280371425,0.0258635788288309,0.8216531848267313,-0.9001198229835765,1.6320676547166533,-1.0488242151840168,0.4953888292175024,-1.1481300027011143,9.187690328844836,-1.4522450255659225,0.2340292948385351,-1.0068409815027175
0.8,0.1047588342770682,-0.7989604707073313,2.2328524693879244,-0.032081525615436,0.0822438922119689,0.0361100933043073,0.0869658862593938,0.6073562792958787,-0.6972943962770967,0.1081598825502416,-0.7811324056250183,2.212897959470735,0.066229339604454,0.6976808260808242,-0.7123249641216238,1.6116989163789974,-0.9725130429148584,0.4837727352585308,-1.1906954770377676,9.133618367822235,-1.4400711595231903,0.23173726087983,-1.0057854131063837
0.8200000000000001,0.1062449537550149,-0.787291120313336,2.219797061040997,-0.0295081401660349,0.0880203453108411,0.0364290183510866,0.0710751533235774,0.6198444108402997,-0.6757657968931691,0.1081598825502416,-0.7811324056250183,2.212897959470735,0.066229339604454,0.6976808260808242,-0.7123249641216238,1.4764394790693698,-0.7945366467908207,0.6244065772210539,1.0764299691963797,11.871110670720554,-1.419786871006617,0.2262353741348316,-0.9764662058380846
0.84,0.1075237375323573,-0.7747863957907674,2.2064888947876726,-0.0262490089286196,0.0965168747103511,0.0367430669969525,0.0580941190364349,0.6298984147095762,-0.6566402661891216,0.1081598825502416,-0.7811324056250183,2.212897959470735,0.066229339604454,0.6976808260808242,-0.7123249641216238,1.2603334575409548,-0.6490517143571225,0.5027001934638231,0.9562765352023715,11.435587571604628,-1.4122003123823204,0.2246111316360741,-1.0013158275606833
0.86,0.1085801490578809,-0.7620993231403969,2.193492425769494,-0.023347325203613,0.1061374456580187,0.0370197873405538,0.0485504997926041,0.6383678413632344,-0.6442578413748786,0.1088221759462862,-0.77415559736421,2.205774709829519,0.0581919781018066,0.7176808263788473,-0.7200938595986803,0.8890111084701023,-0.477180962191542,0.423471332682912,0.6191212407121505,11.435587571604628,-1.4032000488262113,0.2230693087626747,-1.025619533006152
0.88,0.1094788128233261,-0.7492521582385779,2.1806842083177105,-0.0210827365477829,0.1158469816653717,0.0372644881038463,0.0420570820010438,0.6460351550510456,-0.6374205886644989,0.1101467627383752,-0.7602019808425936,2.1915282105470864,0.0421172550965118,0.7576808269748938,-0.7356316505527933,0.6076598522788934,-0.3246708895780142,0.3833656843905575,0.3418626355189857,11.037055572104691,-1.394023622078154,0.2219065851256811,-1.046310665474873
0.9,0.1102380655050386,-0.736911578065059,2.1685968631657064,-0.0196319108251949,0.1244534919341635,0.037468387962765,0.0383182684557153,0.6527322084899841,-0.6352817304677814,0.1114713495304643,-0.7462483643209771,2.177281711264654,0.026042532091217,0.7976808275709403,-0.7511694415069063,0.3981330364224907,-0.1869406772664276,0.334852671946928,0.1069429098358776,10.508117100446723,-1.3846921109253167,0.2211741709143938,-1.0646935827464268
0.92,0.1109822024764503,-0.7237899939292218,2.1558842739420103,-0.0190174195956387,0.1324032922402189,0.0376410113478004,0.0364014212947357,0.6591574583097812,-0.6362487362379157,0.1119922001722887,-0.7302947477695583,2.162258322434516,0.0099678090859222,0.8376808281669867,-0.7667072324610194,0.3387227422422016,-0.095842358048976,0.3212624909898542,-0.0483502885067155,10.508117100446723,-1.3763368878364397,0.2212111213543553,-1.0795918663411903
0.94,0.1117093845696555,-0.710544846232789,2.143139242386189,-0.0196491888753874,0.1388826824000412,0.0377466013010831,0.0363974881679753,0.6652154435056505,-0.6382187064740569,0.112513050814113,-0.7143411312181394,2.147234933604378,-0.0061069139193725,0.8776808287630332,-0.7822450234151324,0.3185120988052889,-0.0001966563380244,0.3028992597934654,-0.0984985118070602,10.314053056617013,-1.3692801142571542,0.2221817677763556,-1.0891018489003117
0.96,0.1124118810063353,-0.6978397551768379,2.1309910430192014,-0.0212636879644014,0.1435754500663012,0.0377924468614179,0.0374977622905747,0.6719087663103173,-0.6404561563500712,0.112632033380805,-0.6973875146518195,2.131823100000387,-0.0221816369246673,0.9176808293590796,-0.7977828143692454,0.357132171821618,0.0550137061299711,0.3346661402333362,-0.1118724938007187,10.314053056617013,-1.3640281566565904,0.224337628441549,-1.09714839959093
0.98,0.1131804911598785,-0.6843183411283469,2.11815280982971,-0.023664016700085,0.1470328894582116,0.0378100874230213,0.0392581513557567,0.6800654078180774,-0.6432808212650334,0.1123491478723646,-0.6794338980705983,2.1160228216225434,-0.0382563599299621,0.957680829955126,-0.8133206053233584,0.4404784393950137,0.0880194532590989,0.4078320753880093,-0.1412332457481069,10.306911022860731,-1.3607471643077618,0.2272986588589342,-1.1036948511334277
1.0,0.1139872931948929,-0.6706137420738653,2.105252838100222,-0.0260926032090152,0.1490830648552399,0.0378485380248619,0.0412595505702011,0.6899781321528561,-0.6465987212910093,0.1151433987276663,-0.650315070737443,2.0859887687664584,0.008181051391734,0.7800654093081936,-0.6296304840308939,0.5321563753617492,0.100069960722221,0.4956362167389316,-0.1658950012987936,10.273458681285774,-1.359421193095804,0.2302457826383547,-1.1089423209924465
1.02,0.1148349763007755,-0.6573300865054156,2.09322551937752,-0.0259732415927027,0.1498466337499724,0.03807803243478,0.0477632569771652,0.7068220983502417,-0.6192856608201774,0.1151433987276663,-0.650315070737443,2.0859887687664584,0.008181051391734,0.7800654093081936,-0.6296304840308939,1.6370863344444992,0.325185320348207,0.8421983098692798,1.365653023541591,10.273458681285774,-1.3513858472166096,0.228701950317673,-1.0894255472764796
1.04,0.1158621739035861,-0.6430359088180728,2.081124276364946,-0.0225337516713792,0.1494431668985899,0.0385708591805731,0.0544789635409147,0.7211468361659636,-0.5925570565334445,0.1151433987276663,-0.650315070737443,2.0859887687664584,0.008181051391734,0.7800654093081936,-0.6296304840308939,1.5529947804615465,0.3357853281874743,0.7162368907860983,1.336430214336648,12.361737407209148,-1.3604317727422195,0.2276235435959889,-1.1092746667127895
1.06,0.1170185254304208,-0.6285056148545245,2.069509841023942,-0.0178008463289165,0.14759170341022,0.0391652317630244,0.0607042315908414,0.7309202488874006,-0.5704206351908493,0.1152252092415836,-0.642514416644361,2.0796924639261496,0.0019656313989295,0.8000654096062167,-0.626900416584066,1.2492945092870296,0.311263402496336,0.4886706360718473,1.1068210671297596,12.09164676405635,-1.3693073899317114,0.2250420282373948,-1.1254187491014938
1.08,0.1182265948090015,-0.6145500743656417,2.058844296527261,-0.0135631359146541,0.1441491620098162,0.0397134157011728,0.0659821135541117,0.7376727328663255,-0.5533564267166955,0.1153888302694183,-0.6269131084581973,2.0670998542455314,-0.0104652085866795,0.8400654102022632,-0.6214402816904103,0.9547765298136957,0.2638940981635116,0.3376241989462458,0.8532104237076898,11.79988661144762,-1.3789290973038186,0.2220713900441907,-1.1363257721512972
1.1,0.1195930144795076,-0.5997380728077266,2.047939220036089,-0.0099083109919451,0.138542981160461,0.0402252343201343,0.0699772572977627,0.7432766089295694,-0.5381550226669827,0.115552451297253,-0.6113118002720334,2.0545072445649137,-0.0228960485722885,0.8800654107983097,-0.6159801467967545,0.8343369905908177,0.1997571871825518,0.2801938031621931,0.7600702024856409,11.56029031885646,-1.390930173437028,0.2197358188503508,-1.1421872717864088
1.12,0.1210056028962451,-0.5848252196606318,2.037310527982009,-0.0072599198777213,0.1314084023051609,0.0406455503871719,0.0706876447967681,0.7479593679549467,-0.5254448625675011,0.1150945303258072,-0.5937104920560672,2.0421876416289786,-0.0353268885578976,0.9200654113943562,-0.6105200119030987,0.6781980762339066,0.0355193749502685,0.2341379512688646,0.635508004974078,11.386793803288128,-1.403238747927016,0.218265637726114,-1.1437460468607212
1.14,0.1223301379993792,-0.5705778735016108,2.027442763134646,-0.0056716682307442,0.1240090635268871,0.0409561215086741,0.0684389862750912,0.7517186327787628,-0.5138874523671548,0.1146366093543615,-0.5761091838401009,2.0298680386930434,-0.0477577285435066,0.9600654119904026,-0.605059877009443,0.6179851691217192,-0.1124329260838434,0.1879632411908083,0.5778705100173143,11.210134268344518,-1.4152840876078032,0.2173903264590448,-1.141212273782315
1.16,0.1236474202120286,-0.5555011160741004,2.0172906836522366,-0.0048245271282226,0.1162674367072145,0.041203845035552,0.063167378480846,0.7557821726547166,-0.5019343927980545,0.1138679173832755,-0.5575078756092336,2.01768493912945,-0.0601885685291157,1.000065412586449,-0.5995997421157871,0.6840647595847072,-0.263580389712259,0.2031769937976879,0.5976529784550155,11.210134268344518,-1.4262337045153466,0.2172390967753301,-1.1376755314945788
1.18,0.1248306215452526,-0.5403438074591899,2.00737371369563,-0.0046684713722467,0.1091589861414169,0.0413862410994856,0.0552551341700037,0.7597658196083952,-0.4903770819175139,0.1127884544125492,-0.5379065673634651,2.0056383429381976,-0.0726194085147247,1.0400654131824951,-0.5941396072221314,0.7280873709168958,-0.3956122155421165,0.1991823476839294,0.5778655440270286,11.19565729387432,-1.435583155336602,0.2176646586865087,-1.134017643941589
1.2,0.1258291410596772,-0.5251070135605296,1.9976827684661784,-0.0051510368709364,0.1032021535381281,0.0415112409022523,0.0448823293006025,0.7637534757804874,-0.4792941667023666,0.1275933782537527,-0.5023555164787701,1.9828548595997544,0.0074866009401758,0.8098558233670641,-0.4836685162837699,0.784741187066862,-0.5186402434700598,0.199382808604609,0.5541457607573685,11.171055409793553,-1.4426976843716404,0.2185869585557056,-1.1313034713121173
1.22,0.1265557583856499,-0.5103546532594968,1.9887277741481943,0.0003441295410979,0.0993418567494555,0.0420185332767948,0.0322000719180899,0.7847601294384352,-0.4638620417645373,0.1275933782537527,-0.5023555164787701,1.9828548595997544,0.0074866009401758,0.8098558233670641,-0.4836685162837699,1.4493702342034969,-0.6341128691256283,1.0503326828973925,0.7716062468914625,11.148739602425849,-1.445331917895174,0.2132860769397654,-1.1348953473318255
1.24,0.1270521074839162,-0.4945749317666775,1.9796053889995644,0.0119134359426255,0.0978629366452996,0.0429047886333174,0.018330444764446,0.7912077533826049,-0.4493154313416331,0.1275933782537527,-0.5023555164787701,1.9828548595997544,0.0074866009401758,0.8098558233670641,-0.4836685162837699,1.0553936311896528,-0.6934813576821961,0.3223811972084822,0.7273305211452114,11.521197681999183,-1.4478460585994504,0.2018155332563242,-1.1439549371550986
1.26,0.1272823268964389,-0.4787579276252273,1.9707400811976123,0.0240190795668276,0.098610390268873,0.0438157829194086,0.0056118853927014,0.789984122372889,-0.4380976793122276,0.1276682442631545,-0.4942569582450994,1.9780181744369167,-0.0020671057057897,0.8198738241187978,-0.4823268031570211,0.850142614409135,-0.6359279685872278,-0.0611815504857948,0.5608876014702724,11.359189354024238,-1.4461321271767325,0.1899153645806492,-1.1519978691135084
1.28,0.1272789197708538,-0.4638012277805768,1.962495389234856,0.0342299917954361,0.1006704846010169,0.0446081782738038,-0.0051524531611529,0.7847175145790594,-0.4303141926820522,0.127817976281958,-0.4780598417777582,1.9683448041112408,-0.0211745189977208,0.8399098256222655,-0.4796433769035235,0.7144767425853422,-0.5382169276927232,-0.2633303896914796,0.3891743315087737,11.151746546997856,-1.4415019739028427,0.1784569455266345,-1.1583376750565255
1.3,0.1270708679275463,-0.4481911830645996,1.953957132077688,0.0430840514795201,0.1036053459622793,0.0453313999288957,-0.0149374248211103,0.7767855877054453,-0.4239941865831218,0.1279677083007615,-0.4618627253104169,1.958671433785566,-0.040281932289652,0.859945827125733,-0.4769599506500259,0.7046339677539107,-0.4892485829978694,-0.3965963436807052,0.3160003049465176,10.990404658407895,-1.435241857650374,0.1688771082426515,-1.1627582641687435
1.32,0.1266827319027891,-0.4327600782804059,1.9455279036637363,0.0498195508023575,0.1067934029895505,0.0459138348375791,-0.0232924800022192,0.7671910743573871,-0.4192216821072651,0.1271620696549685,-0.4446638087679022,1.9491322347725653,-0.0593893455815831,0.8799818286292005,-0.4742765243965283,0.6794086260077808,-0.4177527590554422,-0.4797256674029082,0.2386252237928349,10.885924055010946,-1.42838320757465,0.1614588221031345,-1.1656172105766691
1.34,0.1261721875417524,-0.4182876140923935,1.9376020016612936,0.0543866816057232,0.1096924082096852,0.0463259422055245,-0.0299939499722524,0.7571462891481306,-0.4152999465563792,0.1263564310091754,-0.4274648922253875,1.939593035759565,-0.0784967588735143,0.9000178301326681,-0.4715930981430307,0.6347980375490245,-0.3350734985016642,-0.5022392604628223,0.1960867775442937,10.809141435676793,-1.421721373085786,0.1563011907604567,-1.1667813010226813
1.36,0.1255064712979198,-0.4032579480766458,1.9293374826448977,0.0576373569534044,0.1123929230733235,0.0466201250994626,-0.0361770015713019,0.746587977641679,-0.4113508269439259,0.1250731070310841,-0.4097650756452862,1.930120922402902,-0.0976041721654454,0.9200538316361356,-0.4689096718895331,0.6428522665769357,-0.3091525799524715,-0.527915575322585,0.1974559806226655,10.770607318000655,-1.415345499864167,0.1525175536218112,-1.1670772195407355
1.38,0.1247248570846205,-0.3884415347490999,1.921150437977189,0.0596026956425442,0.1146517028720144,0.04678353393224,-0.0416479866436707,0.7357820118474421,-0.4075425165088829,0.1233120977206945,-0.3915643590275982,1.9207158947025764,-0.1167115854573766,0.9400898331396031,-0.4662262456360355,0.6348302977527868,-0.2735492536184398,-0.5402982897118436,0.1904155217521491,10.770607318000655,-1.4100826766196182,0.1501947036923647,-1.1665808070071282
1.4,0.1238868816962786,-0.3745716092110472,1.9134424762497584,0.0602535922281867,0.1163458497994303,0.0468107560670992,-0.0462960183060888,0.7249552140843833,-0.4039958114863428,0.122642457752437,-0.3516524341567278,1.9007733121517452,-0.0651618923476921,0.7284180172416028,-0.4119988554472086,0.6152293569351317,-0.2324015831209069,-0.5413398881529363,0.177335251127006,10.761854794367537,-1.4053261603940457,0.1490884118420371,-1.1650695742988535
1.42,0.1228599306210264,-0.3600039025069781,1.9054269905280403,0.0657828022460148,0.1191336446836796,0.0472234832438475,-0.0558024566471284,0.7294788668283331,-0.3978156418767267,0.122642457752437,-0.3516524341567278,1.9007733121517452,-0.0651618923476921,0.7284180172416028,-0.4119988554472086,0.6103898354401343,-0.4753219170519792,0.2261826371974862,0.3090084804808046,10.761854794367537,-1.4011589890749152,0.1428316374248923,-1.1729759712990269
1.44,0.1216689313451121,-0.3454876092769938,1.8975183099421968,0.0765096670180091,0.1238907487214475,0.0481324591684525,-0.0624560484588077,0.721153908356329,-0.393491880962144,0.122642457752437,-0.3516524341567278,1.9007733121517452,-0.0651618923476921,0.7284180172416028,-0.4119988554472086,0.5750437505171061,-0.332679590583966,-0.4162479236002048,0.2161880457291348,10.882018531533504,-1.393085427511014,0.1310059257215236,-1.1782148850832792
1.46,0.1203758784903333,-0.331218850882772,1.8896721006960848,0.0874869390858251,0.1294957405539232,0.0491475195374916,-0.0662796212131396,0.7060624367493638,-0.3914360723399798,0.12199083882896,-0.3443682539843117,1.8966533235972731,-0.0698646734884964,0.726945218320435,-0.4128901232348737,0.7851728678489711,-0.1911786377165929,-0.7545735803482612,0.10279043110821,10.779173500866818,-1.3842462299234473,0.1195648222299428,-1.1812178455288993
1.48,0.1191014223088131,-0.3179829632825326,1.88223871224074,0.0965005694647018,0.1348313825046528,0.0500361949043511,-0.0675786741570762,0.6882647274082087,-0.391099905859198,0.1206876009820062,-0.3297998936394797,1.888413346488329,-0.079270235770105,0.7239996204780993,-0.414672658810204,0.892411065941855,-0.064952647196833,-0.889885467057755,0.0168083240390887,10.672559849263962,-1.374662574688677,0.1091901251615013,-1.181659778545108
1.5,0.1177544994962239,-0.3044348170375184,1.8744122214232857,0.1040957065471941,0.139887300964462,0.0507968683786242,-0.0669539345722643,0.667738030677771,-0.3915680316511531,0.1193843631350524,-0.3152315332946476,1.880173369379385,-0.0886757980517136,0.7210540226357636,-0.4164551943855342,1.0270768227952602,0.031236979240596,-1.0263348365218803,-0.0234062895977549,10.602913699384771,-1.365913572325724,0.1010204736256864,-1.1797335144983965
1.52,0.1164380040021088,-0.2913117962770938,1.8665715743989129,0.1096981220868874,0.1439758999557505,0.0513143825509306,-0.0647041229151016,0.645909120022724,-0.3924411576094388,0.1176108471740181,-0.3008104528419324,1.8718442654916745,-0.0980813603333222,0.7181084247934278,-0.4182377299608645,1.0980953303536105,0.1124905828581358,-1.0914455327523498,-0.0436562979142823,10.57002916399233,-1.3586556593591737,0.0950776716013928,-1.1756125138205604
1.54,0.1151804195536694,-0.2786351886983658,1.8587139804726691,0.1133453690353946,0.146836422133747,0.0515439481611475,-0.0612638821672016,0.6233383958285824,-0.3932043719577041,0.1158373312129838,-0.2863893723892171,1.863515161603964,-0.1074869226149307,0.7151628269510921,-0.4200202655361947,1.1422076685009168,0.1720120373950008,-1.1285362097070817,-0.0381607174132631,10.5586566444008,-1.3533043792235326,0.0913936601755699,-1.1699669540058444
1.56,0.1140553035604765,-0.2670146312459091,1.851238881889489,0.1151768377710544,0.14837767021556,0.0514917093704902,-0.0574522930777962,0.6013983557628843,-0.3935511710283067,0.1138286761949093,-0.2720419318825602,1.8551414943268696,-0.1168924848965393,0.7122172291087565,-0.421802801111525,1.113568407268145,0.1905794544702677,-1.0970020032849082,-0.0173399535301321,10.56980560062584,-1.3494460611488115,0.0892460486453786,-1.163327316316203
1.58,0.1129505537265256,-0.2552360158515372,1.843367860558564,0.1153718643514606,0.1488574300937518,0.0511575017361312,-0.0533143660116527,0.5778004371410339,-0.3934728150952658,0.1115848821197946,-0.2577681313219618,1.8467232636603923,-0.1262980471781479,0.7092716312664208,-0.4235853366868553,1.1979047784991474,0.2068963533071736,-1.1798959310925172,0.0039177966520448,10.59221155321029,-1.347193547407466,0.0889794619107989,-1.1546778202779353
1.6,0.1119299289892731,-0.2439391268418796,1.8355042106544932,0.1133156042707427,0.1482462272284201,0.0505163220753178,-0.0490630535258226,0.5534525308382527,-0.392826582386886,0.110284835425943,-0.2263459939944855,1.8236942198038009,-0.0655693966958259,0.5532285806572168,-0.3621116263557276,1.236236037226069,0.2125656242915066,-1.2173953151390582,0.0323116354189911,10.64088036808971,-1.345290888442574,0.0909334326575018,-1.1439838094757164
1.62,0.1109883197196252,-0.2330754779032277,1.8277799291679648,0.1107701588908079,0.1472099390071238,0.0497760418736875,-0.0453585490342445,0.5337023621622627,-0.3796811870167083,0.110284835425943,-0.2263459939944855,1.8236942198038009,-0.0655693966958259,0.5532285806572168,-0.3621116263557276,1.2006185236123792,0.1852252245789068,-0.9875084337995,0.6572697685088835,10.64088036808971,-1.3387986299419246,0.0924028843778372,-1.1371653088023013
1.64,0.1101654061736978,-0.2231344032673594,1.8206959974323007,0.1087272788324134,0.1463387847359071,0.0490975468876967,-0.0414913563090276,0.5138555726591051,-0.3666656230398359,0.110284835425943,-0.2263459939944855,1.8236942198038009,-0.0655693966958259,0.5532285806572168,-0.3621116263557276,1.2023468081139053,0.1933596362608435,-0.9923394751578828,0.6507781988436212,11.381529074139507,-1.3389806813999496,0.0938808393181127,-1.1348082502048185
1.66,0.1093807814849004,-0.2130781146159509,1.813506467282039,0.1063871754140533,0.1452325503443211,0.0483357943494224,-0.0372378459933349,0.4929972050733477,-0.3529490437942483,0.1096291414589847,-0.2208137081879133,1.8200731035402435,-0.0680204028326605,0.5483142093604534,-0.35583938860782,1.2662033748067123,0.2126755157846372,-1.042918379287869,0.6858289622793806,11.381588677718357,-1.339667653946436,0.095521227132053,-1.132595714400838
1.68,0.1086816248874559,-0.2034353078637245,1.8065912152991777,0.1036771904608019,0.1437066422906891,0.0474925418415311,-0.0329469716557138,0.4725417687837366,-0.3392379341266798,0.1083177535250682,-0.209749136574769,1.812830871013129,-0.0729224151063297,0.5384854667669265,-0.3432949131120047,1.2498309932703733,0.2145437168810542,-1.022771814480555,0.6855554833784222,11.379521525749624,-1.3407191664929383,0.0973859475495324,-1.130112148129862
1.7,0.1080970342537444,-0.1946477110130034,1.800276035944649,0.1007219031850506,0.1416317695130774,0.0465940371875049,-0.0288980573505714,0.453730694741897,-0.3261710581076496,0.1070063655911517,-0.1986845649616246,1.8055886384860145,-0.077824427379999,0.5286567241733997,-0.3307504376161894,1.162963308271873,0.2024457152571173,-0.9405537020919784,0.6533438009515113,11.36726364970218,-1.3425943894783263,0.0996889573816857,-1.127111142465391
1.72,0.1075613987086628,-0.1857735790601711,1.793898643046237,0.0973307414934295,0.1385902547059943,0.0455416421116932,-0.0249829635736784,0.434856392640835,-0.3122268499258534,0.1054498770435517,-0.1881114304781566,1.7989736297336905,-0.0827264396536682,0.5188279815798729,-0.3182059621203741,1.1895463220292135,0.1957546888446494,-0.9437151050531,0.6972104090898101,11.36726364970218,-1.3448847772803334,0.102113477152121,-1.1243044627882983
1.74,0.1070975035245792,-0.1772681582979829,1.7878051307700138,0.0937495034301153,0.1345470859216231,0.0443840907232139,-0.0217422633371214,0.4168009502545316,-0.2977774249441828,0.1038933884959517,-0.1775382959946886,1.792358620981367,-0.0876284519273375,0.508999238986346,-0.3056614866245589,1.167569077281156,0.162035011827852,-0.9027721193151704,0.7224712490835283,11.36952401106464,-1.3475779868399076,0.1044850455612727,-1.1210153970530652
1.76,0.1066857383385589,-0.1691162039970767,1.7820051024687649,0.0900090917972397,0.129545462261666,0.0431378919531167,-0.0197805721347302,0.3994772222161992,-0.282910352391059,0.10221434964151,-0.1672108800760588,1.7860572241164383,-0.0925304642010067,0.4991704963928192,-0.2931170111287436,1.1456326110707256,0.0980845601195592,-0.8661864019166216,0.7433536276561903,11.392647736935942,-1.3516118160199242,0.1070836277173025,-1.117156691407519
1.78,0.1063126344430224,-0.1616850479551519,1.7767737209809689,0.0863340740580159,0.1241965697734357,0.0419088445074607,-0.0198162157198978,0.3837895684732775,-0.2684809479331578,0.1004127604802266,-0.1571291827222672,1.7800694391389051,-0.0974324764746759,0.4893417537992923,-0.2805725356329283,1.0657291675569684,-0.0017821792583807,-0.7843826871460846,0.7214702228950598,11.407453733657348,-1.3568164575678632,0.1097878590099861,-1.11354947628401
1.8,0.1058955551106009,-0.1541749265068261,1.7715660181379829,0.0824370099423709,0.1185091794509943,0.0406299915998598,-0.0220721518217548,0.3681923770806997,-0.253025493648896,0.1053218236570275,-0.142495569531488,1.763349673584311,-0.0461848579457594,0.3644155201359371,-0.2518810562258567,1.103667402532654,-0.1127968050928462,-0.7798595696288879,0.7727727142130908,11.427587263488022,-1.360842410900679,0.1124272994322341,-1.109578745591345
1.82,0.1053969185002982,-0.1469428036692365,1.7666035773751074,0.0792143491830081,0.1134198976024997,0.0394685557105918,-0.0279003346617435,0.3556088767693036,-0.2443496053894016,0.1053218236570275,-0.142495569531488,1.763349673584311,-0.0461848579457594,0.3644155201359371,-0.2518810562258567,0.8178985762221341,-0.2914091419994392,-0.629175015569805,0.4337944129747181,11.427587263488022,-1.3700999326148122,0.1148659426983425,-1.1072237113048555
1.84,0.1047599246628585,-0.1399680026521718,1.7618019264161338,0.0767121063231108,0.1096340897699571,0.0384735527186588,-0.0355833425511582,0.3424951383386302,-0.23620184219168,0.1053218236570275,-0.142495569531488,1.763349673584311,-0.0461848579457594,0.3644155201359371,-0.2518810562258567,0.8622424122354979,-0.3841503944707352,-0.6556869215336714,0.4073881598860795,10.957051485984266,-1.3699878752157295,0.1162021018963778,-1.1006005458840873
1.86,0.1039983400350945,-0.1335861090489759,1.7573947273696937,0.0745430615269244,0.1077207847792869,0.0376784928096053,-0.0441994731769884,0.3300084604850112,-0.2281137026885479,0.1048599750775699,-0.1388514143301286,1.7608308630220524,-0.0514585863909317,0.3605407104684691,-0.2485610778843965,0.8596115858391425,-0.4308065312915086,-0.6243338926809477,0.4044069751566098,10.974533380768662,-1.366751700055771,0.1172231918503032,-1.0961226349731186
1.88,0.1030221614531482,-0.1271210264608598,1.7529249084915848,0.0723394980192317,0.1076023215394983,0.0369911017244614,-0.0527365883772122,0.3172372928897156,-0.2192769612330792,0.1039362779186547,-0.1315631039274099,1.7557932418975353,-0.0620060432812763,0.3527910911335329,-0.241921121201476,0.886105322802854,-0.4268557600111883,-0.6385583797647837,0.4418370727734322,10.996273965975888,-1.3594102646555866,0.118017406492342,-1.093862080580252
1.9,0.1018890909590177,-0.1209070658828564,1.748633871867589,0.0701609541673248,0.1088095152334387,0.036400959818718,-0.0599700300769474,0.3048982325572396,-0.2102670011193443,0.1030125807597395,-0.1242747935246912,1.7507556207730182,-0.0725535001716209,0.3450414717985968,-0.2352811645185555,0.8452136859443361,-0.3616720849867607,-0.6169530166238002,0.4504980056867433,11.009194466571898,-1.352148761375673,0.1188437747052185,-1.0938098025013894
1.92,0.1006918571051615,-0.1152274082704778,1.7447251831128627,0.0681046009410257,0.1106345121367709,0.0358868495466432,-0.0655851511229066,0.2936583457489065,-0.2016250624592433,0.1015615107563071,-0.1173739640887192,1.746049997482647,-0.0831009570619655,0.3372918524636606,-0.2286412078356351,0.7624758088455369,-0.2807560522979583,-0.5619943404166522,0.4320969330050536,11.009194466571898,-1.3445742210330685,0.1197736481778254,-1.09516328257036
1.94,0.0993290802362443,-0.1094733328187608,1.740786517777852,0.0659848394257516,0.1128028752465956,0.0353630010401789,-0.0703059332404718,0.2824076750602586,-0.1927081342673911,0.1001104407528747,-0.1104731346527473,1.741344374192276,-0.0936484139523102,0.3295422331287245,-0.2220012511527146,0.7556040350682558,-0.2360391058782635,-0.562533534432394,0.4458464095926068,11.01102106406779,-1.3377615087448924,0.120749070187376,-1.097342400243944
1.96,0.0978815178814739,-0.1039399924590609,1.7370231159737963,0.0638945816947073,0.1149111698402132,0.0348349035226429,-0.0741552302062402,0.271571528187638,-0.1840914771025948,0.0983956843271837,-0.1037660457001488,1.7368047498189778,-0.1041958708426548,0.3217926137937884,-0.2153612944697942,0.7184809441998349,-0.1924648482884171,-0.5418073436310317,0.4308328582398144,10.997901727405406,-1.3319065662761134,0.1217780964701638,-1.099688403178168
1.98,0.0963648545296066,-0.0986183568417422,1.733429033192094,0.061804507889722,0.1167784127767705,0.034290048015246,-0.0772962539812896,0.26122325246453,-0.1757477816700159,0.096417241479234,-0.0972526972309236,1.7324311243627528,-0.1147433277329994,0.3140429944588522,-0.2087213377868737,0.6829533188083389,-0.1570511887524717,-0.517413786155399,0.4171847716289451,10.98086271658758,-1.3270173752031094,0.1227981107158327,-1.1018160457864
2.0,0.0948710940557824,-0.0937495333642363,1.7301672377398207,0.0598356675340381,0.1182318356076045,0.0337536778027932,-0.0797840387030697,0.2518701500696018,-0.1680170118732168,0.0925000418305421,-0.0855571942185157,1.7246416441085932,-0.0637529657578442,0.2464284715917678,-0.1814266249112009,0.6193431982411642,-0.124389236089005,-0.4676551197464129,0.386538489839959,10.967102717004307,-1.3226212542814657,0.1238907400132398,-1.1038556278257854
2.02,0.0931693125634459,-0.0888054953726762,1.7268482316011933,0.0579874603641388,0.1217321285182989,0.0333207453750057,-0.0899101062095259,0.2430193167159318,-0.1645267849684911,0.0925000418305421,-0.0855571942185157,1.7246416441085932,-0.0637529657578442,0.2464284715917678,-0.1814266249112009,0.6947232867232374,-0.5063033753228086,-0.4425416676834978,0.1745113452362834,10.95648791194344,-1.3251048302035933,0.1255493281105543,-1.1094458452462113
2.04,0.0912998150318908,-0.0840350825190071,1.723584351359333,0.0564212750625416,0.1286004774231892,0.0330979440097482,-0.0959940518512565,0.2344971947765111,-0.1620442632915335,0.0925000418305421,-0.0855571942185157,1.7246416441085932,-0.0637529657578442,0.2464284715917678,-0.1814266249112009,0.5380610346383864,-0.3041972820865296,-0.4261060969710337,0.1241260838478808,10.67955338655338,-1.3105607663376602,0.1258827319361601,-1.1129149797147175
2.06,0.0893515079657353,-0.0794307859714264,1.7203665340831835,0.0550616877228525,0.1370338089293467,0.0329699949332963,-0.0981502271413538,0.226395492430807,-0.1598806171219631,0.0918625121729636,-0.083092909502598,1.7228273778594811,-0.0610443081131551,0.2434695154172154,-0.1825623935594379,0.4329204243481432,-0.1078087645048672,-0.405085117285206,0.1081823084785188,10.613285054894732,-1.296492959212739,0.1262967318814088,-1.119259359930609
2.08,0.0874920391645086,-0.0752025822573714,1.7173475241569522,0.0539794254552554,0.1455565367543872,0.0328838982951274,-0.0972082021033752,0.2191085949433678,-0.1580416907004201,0.0905874528578068,-0.0781643400707626,1.7191988453612572,-0.0556269928237769,0.2375516030681105,-0.1848339308559119,0.3787081216071149,0.047101251898933,-0.3643448743719607,0.091946321077152,10.613285054894732,-1.2838243815732175,0.1266658874158772,-1.1269355645657166
2.1,0.0855897619592895,-0.0708969747544287,1.7142048320936905,0.0531145061335357,0.1542543938123601,0.0327916968169937,-0.0928429643310204,0.2118570799092086,-0.156354686713733,0.0893123935426499,-0.0732357706389273,1.715570312863033,-0.0502096775343988,0.2316336907190056,-0.1871054681523858,0.4315256468361044,0.2182618886177392,-0.3625757517079581,0.0843501993343529,10.607754561973708,-1.2726422009572502,0.1268540409775927,-1.134687225070386
2.12,0.0838061808158874,-0.0667333258388513,1.711093115420226,0.0525715745535805,0.1618953761445196,0.0326624564866542,-0.0856192747580819,0.204880719677683,-0.1549267122467878,0.0883081999919619,-0.0686030968245472,1.7118282034999854,-0.0447923622450206,0.2257157783699007,-0.1893770054488598,0.5071745365365845,0.361184478646924,-0.3488180115762809,0.0713987233472601,10.607756652904754,-1.2645971479796454,0.1268399201602353,-1.141622689647413
2.14,0.0821910089381273,-0.0627074709396786,1.708006111525379,0.0523567551437524,0.1679458027326696,0.0324718484813731,-0.0763152617772601,0.1980504116363186,-0.1538626390035742,0.0873040064412739,-0.0639704230101671,1.7080860941369378,-0.0393750469556424,0.2197978660207958,-0.1916485427453338,0.5795472745043113,0.4652006490410885,-0.3415154020682195,0.0532036621606807,10.607756652904754,-1.259349980281695,0.1265867495351859,-1.1485126932092595
2.16,0.0808423031719564,-0.0590107927266564,1.7050905309513305,0.052388820131568,0.1720104583962513,0.0322201562291915,-0.0662343622137163,0.191428540713024,-0.153097832069333,0.0864352457728204,-0.0594856970045146,1.704287196341478,-0.0339577316662643,0.213879953671691,-0.1939200800418078,0.6042736138987349,0.5040449781771893,-0.3310935461647291,0.0382403467120595,10.602633656880244,-1.2571012606905578,0.1261201879801329,-1.1535994842015729
2.18,0.0796346650392507,-0.0552571990347111,1.7020357206459087,0.052563585343186,0.1745190855626056,0.0318739463306668,-0.0551614242966762,0.1842849772513982,-0.1524236674803667,0.0857019179866013,-0.0551489188075897,1.7004315101136067,-0.0285404163768861,0.2079620413225861,-0.1961916173382818,0.6597252286708424,0.5536468958520092,-0.357178173081292,0.0337082294483162,10.60135162946426,-1.257650581740281,0.1255354286215506,-1.156870047615778
2.2,0.0786506046510727,-0.0516499899357101,1.6989937454671438,0.0527392051487636,0.1753154078754709,0.031439373977433,-0.0439791864984001,0.1768289417661454,-0.1517951861910083,0.0768765938244169,-0.0460429501721412,1.6944145372718904,-0.0549342687544422,0.1789545036011513,-0.14851262210043,0.6727367539863099,0.559111889913801,-0.3728017742626377,0.0314240644679192,10.602041247422676,-1.2599098333484535,0.1249515254118276,-1.1580804433151632
2.22,0.0779814034154581,-0.048402677649227,1.696163214123549,0.0515520615095791,0.1730865226953155,0.0307777599446848,-0.0272611011923367,0.1659138127220845,-0.1461416294734332,0.0768765938244169,-0.0460429501721412,1.6944145372718904,-0.0549342687544422,0.1789545036011513,-0.14851262210043,1.0375417123038402,0.8359042653031711,-0.5457564522030458,0.2826778358787529,10.603643595856738,-1.2544303854905798,0.1248571295507433,-1.1513670214298182
2.24,0.0776004052380333,-0.0451883050489211,1.6933048776141943,0.0483077250761418,0.1662366723805387,0.0297299901791319,-0.0125207207804201,0.1565950443978954,-0.1399297996739495,0.0768765938244169,-0.0460429501721412,1.6944145372718904,-0.0549342687544422,0.1789545036011513,-0.14851262210043,0.9256147784387408,0.7370190205958292,-0.4659384162094576,0.3105914899741879,10.97631873384853,-1.272261970198182,0.1282061238389011,-1.1507789154331003
2.26,0.0774575773683155,-0.0421292635942417,1.690571540295185,0.0443976257998356,0.1565537181330241,0.0285436107752322,-0.0030438944282728,0.1499193642073776,-0.133679188309207,0.0763272511368725,-0.0442534051361297,1.692929411050886,-0.0548888376459954,0.177888408871102,-0.1477304130244426,0.6584927603016487,0.4738413176073656,-0.3337840095258906,0.3125305682371251,10.93495339837591,-1.2896448566338965,0.1319665082368765,-1.1455436741649687
2.28,0.0774500523385988,-0.0391862858022062,1.68796181334786,0.0406303731500488,0.145746333868196,0.0273740563168384,0.0013980653747322,0.1447456917835324,-0.127596469732109,0.0752285657617837,-0.0406743150641067,1.6899591586088774,-0.0547979754291018,0.1757562194110032,-0.1461659948724679,0.4568844452619863,0.222097990150255,-0.2586836211922572,0.304135928854897,10.865168107064164,-1.305027998658758,0.1352408121429998,-1.1385574774124214
2.3000000000000003,0.0774803298762913,-0.0364763782484097,1.685591536826098,0.0374629838782311,0.1357061877902201,0.0263526043930223,0.001385512275132,0.1407218138543754,-0.122192653270391,0.0741298803866948,-0.0370952249920837,1.6869889061668688,-0.0547071132122082,0.1736240299509045,-0.1446015767204933,0.3368715761273156,-0.0006276549800109,-0.2011938964578491,0.2701908230859001,10.865168107064164,-1.3186649880046668,0.138097489013032,-1.1300030943324204
2.32,0.0774750062665562,-0.0337003239659337,1.6832035580260591,0.0346134711777777,0.1262867697704137,0.025400878206298,-0.0020873993981915,0.1370721081339462,-0.1169053473847788,0.0730357381224507,-0.0336227443930656,1.684096874632459,-0.0546162509953147,0.1714918404908057,-0.1430371585685186,0.3651611660091688,-0.17364558366618,-0.1824852860214595,0.26436529428061,10.829661835091429,-1.3288709501634968,0.1403107896034483,-1.1214140679804818
2.34,0.0773691352460695,-0.0309922966234418,1.6809179908273206,0.0322428687771582,0.1186745458382665,0.0245831764531947,-0.0084322496451002,0.1338809934144977,-0.1119262851617601,0.0719415958582065,-0.0301502637940475,1.681204843098049,-0.0545253887784211,0.169359651030707,-0.1414727404165439,0.4336801771728523,-0.3172425123454359,-0.1595557359724261,0.2489531111509353,10.796838568231578,-1.335627187549184,0.1419052262111659,-1.1143824788388768
2.36,0.0771075107564793,-0.0283445003850859,1.6787282914732593,0.0303043808434297,0.1135316810012091,0.0239035956054544,-0.0174380163751349,0.1310041471075277,-0.1072904137309949,0.0708497251493847,-0.0267310879315319,1.6783519220174383,-0.0544345265615275,0.1672274615706082,-0.1399083222645692,0.526477404530128,-0.4502883365017343,-0.143842315348501,0.2317935715382621,10.77801734586228,-1.3395768767564902,0.1431460367774764,-1.1091511696114844
2.38,0.076672222566312,-0.0258797191662368,1.6767307118001435,0.0288068832320721,0.1116183252560014,0.0233905806654653,-0.0276963324077859,0.1285669522149081,-0.1032143773627661,0.0697601259959852,-0.0233652168055187,1.6755381113906276,-0.0543436643446339,0.1650952721105095,-0.1383439041125946,0.5652146478230167,-0.5129158016325497,-0.1218597446309782,0.2038018184114372,10.765070288602146,-1.3374478437301138,0.1438450427953185,-1.106463371984283
2.4,0.0760142247876086,-0.0233313691196343,1.6747086327710143,0.0276097608419364,0.1125948084739103,0.0229761995640464,-0.0372290781418979,0.1264067676078673,-0.0992249618523494,0.0752874059459227,-0.0194513715554914,1.6715699929320051,-0.0341665316164925,0.1280421817464347,-0.0909594956902049,0.5278614280340997,-0.4766372867055987,-0.1080092303520394,0.1994707755208366,10.743457721646337,-1.3304743248779691,0.144071633051941,-1.1068788770505784
2.42,0.0752003495147557,-0.0208284732112654,1.6728086280459256,0.0267060434758994,0.1154655922693265,0.0226444490229369,-0.0434028338487896,0.124027065372816,-0.0907643936628867,0.0752874059459227,-0.0194513715554914,1.6715699929320051,-0.0341665316164925,0.1280421817464347,-0.0909594956902049,0.5370275978579563,-0.3086877853445843,-0.1189851117525682,0.4230284094731362,10.716269157674104,-1.3185130456992196,0.1437793099490509,-1.1092766317635023
2.44,0.0743326523799126,-0.0184908458642365,1.6711617882959888,0.0260794363549051,0.1189832462089094,0.0223746136500226,-0.0474698965607964,0.1221617554331214,-0.0830540315151926,0.0752874059459227,-0.0194513715554914,1.6715699929320051,-0.0341665316164925,0.1280421817464347,-0.0909594956902049,0.4457299202519164,-0.2033531356003388,-0.0932654969847263,0.3855181073847011,11.004719336375274,-1.311500883427495,0.143776002388387,-1.117714334979878
2.46,0.073353573777127,-0.0160659041917952,1.6695787069139136,0.0257524300795095,0.1229301894288225,0.022128774073883,-0.0500861379966256,0.120430689308997,-0.0757076343703915,0.0749457406297578,-0.0181709497380271,1.6706603979751031,-0.0354605714582339,0.12793722765274,-0.0885085193556927,0.399408500741356,-0.1308120717914602,-0.0865533062062218,0.3673198572400566,10.956782810396362,-1.3050915952542852,0.1435210579680633,-1.1263135173333676
2.48,0.0723380468781649,-0.0136745473078835,1.6681346301097106,0.0257919890040311,0.1266689566108891,0.0219127196999179,-0.0512493904457765,0.1187813635618466,-0.06910999329503,0.0742624099974279,-0.0156101061030984,1.6688412080612989,-0.0380486511417165,0.1277273194653506,-0.0836065666866682,0.3449720982918996,-0.0581626224575471,-0.0824662873575195,0.3298820537680761,10.917917376731566,-1.2999685308380646,0.143005976527752,-1.1341535891934988
