t,x,y,z,roll,pitch,yaw,v_x,v_y,v_z,ref_x,ref_y,ref_z,ref_v_x,ref_v_y,ref_v_z,a_com,a_x,a_y,a_z,thrust,wind_x,wind_y,wind_z
0.0,0.7023090965605211,-2.46385826748163,2.8792608805978723,0.0208716868786188,0.1366122549094319,0.026377775164753,0.0044477959678557,-0.0036049647055745,0.0086605832983681,0.702442491288304,-2.463888855838793,2.8795326206685865,-0.0618216619748777,0.0983587788983786,-0.0912608450186885,0.5190962400366753,0.2223897983927882,-0.1802482352787291,0.4330291649184065,10.54981060956743,-1.2852975860949325,0.1547734387251805,-1.169913164104009
0.02,0.7024642271653473,-2.4641853759250387,2.879208350146836,0.0113259026125641,0.1337944265036645,0.0256666692225123,0.010906265747579,-0.0245285749164406,-0.0148599357993475,0.7025314863589139,-2.4640385157169087,2.879693909762791,-0.0644188443615052,0.0963950367845415,-0.0913394181917479,1.6068012593176104,0.3229234889861662,-1.046180510543302,-1.1760259548857823,10.54981060956743,-1.2876053798590958,0.1638493715378035,-1.1532305171832948
0.04,0.7027133982287199,-2.464671054588952,2.878702738795314,-0.0042862481563827,0.1257563353946763,0.0245881339278658,0.0142293750621816,-0.0248866268926987,-0.036884015404425,0.7025314863589139,-2.4640385157169087,2.879693909762791,-0.0644188443615052,0.0963950367845415,-0.0913394181917479,1.1138125281945908,0.1661554657301268,-0.0179025988129041,-1.1012039802538742,9.162496324713176,-1.3036218266075932,0.1811130415388712,-1.1285190562422078
0.06,0.7029777612652957,-2.4651074153629056,2.8777182316681618,-0.0211331151371284,0.1137630935554185,0.0236596434174152,0.0113758234845233,-0.0183320916808516,-0.0604158179343837,0.7025314863589139,-2.4640385157169087,2.879693909762791,-0.0644188443615052,0.0963950367845415,-0.0913394181917479,1.2296853446702052,-0.1426775788829113,0.3277267605923511,-1.1765901264979388,9.165932826966127,-1.3238294025072324,0.1984283436690462,-1.0997175931506078
0.08,0.7031152889552145,-2.4653639713678785,2.876344777851792,-0.0365168493779034,0.1011680689936024,0.0230933917576473,0.0028521610519074,-0.0087057870156853,-0.0829693064333766,0.7018872979152989,-2.4630745653490638,2.878780515580873,-0.0781921724273773,0.1163950370825647,-0.1113394184897711,1.298054704400006,-0.4261831216307954,0.4813152332583181,-1.1276744249496435,9.165932826966127,-1.340731660038185,0.2134554484761892,-1.0697153768383203
0.1,0.7030310779448256,-2.4654063994666395,2.8744321415383527,-0.0519193062856124,0.0884547690853618,0.0227902303142326,-0.0110950603848685,0.0042831915373271,-0.1071144000710704,0.7005989210280688,-2.461146664613372,2.8769537272170385,-0.1057388285591217,0.1563950376786112,-0.1513394190858176,1.5380377892221035,-0.6973610718388031,0.6494489276506228,-1.2072546818846916,9.135002615714257,-1.3541549232288763,0.2277034759000317,-1.038596440453437
0.12,0.7026247392945536,-2.465160390022419,2.872034782178168,-0.0665367949096704,0.077496381224695,0.0226849834385988,-0.0289497232409142,0.0199769972381705,-0.1314120660490622,0.6993105441408387,-2.459218763877681,2.8751269388532035,-0.1332854846908661,0.1963950382746576,-0.1913394196818641,1.6996037001731747,-0.8927331428022822,0.7846902850421711,-1.214883298899587,9.09443817433612,-1.3626666068824145,0.2398459709155109,-1.0104736778764882
0.14,0.7018776862559052,-2.4646000996525284,2.869296481310015,-0.0793510619393806,0.0694461766644944,0.0226786605254815,-0.0486892280255871,0.0381982176796066,-0.1555908414334884,0.6966448344470214,-2.455290863112188,2.8713001504595663,-0.1608321408226105,0.2363950388707041,-0.2313394202779105,1.807120708897214,-0.9869752392336484,0.911061022071804,-1.2089387692213085,9.09443817433612,-1.3679213561036794,0.2510837798625078,-0.9842856529866864
0.16,0.7006655592178271,-2.4636063471217384,2.8659064985102383,-0.09126558463232,0.0638820903078063,0.0226809879009522,-0.0715598680324902,0.0601399656969086,-0.1821548447841951,0.6939791247532041,-2.4513629623466957,2.867473362065929,-0.1883787969543549,0.2763950394667506,-0.271339420873957,2.0676996604901845,-1.1435320003451537,1.0970874008651006,-1.328200167535336,9.039409035872724,-1.3706088509032353,0.2600804593830705,-0.9630944118662568
0.18,0.6990685311787389,-2.4622263798294286,2.862187562680459,-0.1006300294963973,0.0620394839905394,0.0225779900456537,-0.0952158477175524,0.0837426383405874,-0.2079424968455935,0.6906247486560931,-2.446435061566301,2.8626465736573907,-0.2159254530860993,0.316395040062797,-0.3113394214700034,2.110506177214652,-1.182798984253107,1.1801336321839375,-1.2893826030699218,8.99019461198941,-1.3674647300755916,0.2672391404902046,-0.9456016950152708
0.2,0.6969112000089642,-2.460275249985929,2.857739342015021,-0.1082517238990822,0.0637586318099749,0.0222857744841832,-0.1188357821882363,0.1098118395103713,-0.2354746295346075,0.6865817061556886,-2.4405071607710056,2.856819785233951,-0.2434721092178436,0.3563950406588434,-0.3513394220660498,2.2335637915870827,-1.1809967235341987,1.3034600584891989,-1.3766066344507013,8.975948174523637,-1.360088654931769,0.272141506697644,-0.9357761873884292
0.22,0.6943046269747865,-2.4577921215465905,2.852738993793356,-0.1138100431340804,0.0682497871736463,0.021838701841016,-0.1402597889400248,0.1368615984378657,-0.2631253470320062,0.6909694108995524,-2.4547846580104107,2.8459656105382907,-0.1469117398590442,0.2098118410004875,-0.3354746310247237,2.2109046233709337,-1.0712003375894217,1.3524879463747197,-1.3825358748699337,8.946752057544472,-1.3517858110101335,0.2758591293149834,-0.9310174843091228
0.24,0.69142885375795,-2.454805960351238,2.8476124735127737,-0.1140147280676348,0.0753560796710596,0.0214428738373314,-0.1608319961593465,0.1749890512479508,-0.274097620878834,0.6909694108995524,-2.4547846580104107,2.8459656105382907,-0.1469117398590442,0.2098118410004875,-0.3354746310247237,2.2345632464923426,-1.0286103609660868,1.9063726405042545,-0.5486136923413876,8.933617376614166,-1.3358443760945835,0.2760889463992115,-0.9406001337608648
0.26,0.6880276181150465,-2.4509603626118004,2.84200575303556,-0.1082632723820946,0.0857376055359593,0.0211524621937518,-0.1776159760315305,0.2062806838066097,-0.2861324390599728,0.6909694108995524,-2.4547846580104107,2.8459656105382907,-0.1469117398590442,0.2098118410004875,-0.3354746310247237,1.874636696262148,-0.8391989936091998,1.5645816279329414,-0.6017409090569414,10.001025512766772,-1.3222579667981325,0.2714753645651382,-0.955833797412342
0.28,0.6843362486646688,-2.4465653663354474,2.8361258022882434,-0.1009437092102759,0.0974157059561098,0.0209114802312129,-0.1902595677466003,0.2313417377598259,-0.3013995192498891,0.689500293500962,-2.4526865396004056,2.8426108642280434,-0.1525269313932057,0.2298118412985107,-0.3554746313227469,1.597654980141777,-0.6321795857534881,1.25305269766081,-0.7633540094958147,9.748056565909792,-1.3103313253280129,0.2658556905995149,-0.9718596888751294
0.3,0.6806268741922022,-2.4419616792366954,2.830227292020183,-0.0940899678039742,0.1088498053180093,0.0207266691536174,-0.1992696393936039,0.2519316189809541,-0.3188768614408384,0.6865620587037812,-2.448490302780396,2.835901371607549,-0.1637573144615289,0.2698118418945571,-0.3954746319187933,1.4235361690556407,-0.450503582350184,1.0294940610564116,-0.8738671095474632,9.363236739114654,-1.298329663224961,0.2598257177134004,-0.987788070077792
0.32,0.6765648079806079,-2.436718115657751,2.823628571415021,-0.0876608776919789,0.1207554422080949,0.0205741710381827,-0.2061631387276223,0.2713813154937535,-0.3402210055086612,0.6836238239066003,-2.4442940659603862,2.8291918789870545,-0.174987697529852,0.3098118424906036,-0.4354746325148398,1.484405195268539,-0.3446749667009183,0.9724848256399716,-1.0672072033911433,9.363236739114654,-1.2878755402468456,0.2545964562451021,-1.0012073531473031
0.34,0.6726001097424259,-2.4313911885790658,2.8169392918105323,-0.0824957570434467,0.1317007877102485,0.0204640512076155,-0.2105916953683334,0.2885273047869701,-0.3628698195721795,0.6801240699560033,-2.4380978291105744,2.820482386336758,-0.1862180805981751,0.34981184308665,-0.4754746331108862,1.4375029054291564,-0.221427832035552,0.8572994646608295,-1.1324407031759132,9.097186120054175,-1.2776604673830665,0.2498413876567734,-1.0133875983224947
0.36,0.6683578437433529,-2.4254413079359747,2.809419094252197,-0.0780170841426511,0.1427038901851359,0.0203822369726997,-0.2131624000107037,0.3056621586475281,-0.388040264818821,0.6766243160054062,-2.431901592260762,2.811772893686461,-0.1974484636664983,0.3898118436826965,-0.5154746337069327,1.527876838209778,-0.1285352321185151,0.856742693027901,-1.2585222623320762,9.097186120054175,-1.2683063380127475,0.2458842789770564,-1.0235718097076505
0.38,0.664084910338896,-2.419146603043547,2.8013854012807986,-0.0741660021730821,0.1531129781607481,0.0203505768531897,-0.2137806399471369,0.3229078512732891,-0.4141139725564742,0.672843802478101,-2.424705355396049,2.8020634010212637,-0.2086788467348214,0.4298118442787429,-0.555474634302979,1.563357260793084,-0.0309119968216614,0.8622846312880489,-1.303685386882658,9.003650097088212,-1.2600894762122203,0.2427163752544186,-1.0327408444321402
0.4,0.659818751513143,-2.412509924280001,2.7928222572454477,-0.0705554589033393,0.1629095785953432,0.0203881121049648,-0.2126006186070841,0.3398091733372572,-0.4409373598563458,0.6687825293740879,-2.4165091185164345,2.791353908341164,-0.2199092298031446,0.4698118448747893,-0.5954746348990255,1.5863017084652182,0.0590010670026369,0.8450661031984052,-1.34116936499358,9.003650097088212,-1.2520030211365454,0.2396913693190927,-1.0423756162561624
0.42,0.6558032812299108,-2.405896973201884,2.7841829290232702,-0.0672200328214606,0.1716559117555794,0.0204903293367181,-0.2099729348862509,0.3553501396337348,-0.4671356750354108,0.6491887205827888,-2.395519465613138,2.77077538925263,-0.2232429906788272,0.4398091748273733,-0.5409373613464619,1.5287070299656962,0.1313841860416623,0.7770483148238805,-1.3099157589532533,8.975702123998417,-1.245133063449943,0.2367872341319435,-1.0509987131692278
0.44,0.6516857790982559,-2.3986168436065767,2.7747464885391646,-0.0640218797976918,0.1801922669373751,0.0206521472984084,-0.2015515251891546,0.3719439810045006,-0.4741327194893651,0.6491887205827888,-2.395519465613138,2.77077538925263,-0.2232429906788272,0.4398091748273733,-0.5409373613464619,0.9940250799339744,0.4210704848548144,0.8296920685382903,-0.3498522226977107,8.947154006195888,-1.2337070141561122,0.2336243864381,-1.056882365549343
0.46,0.6477513794598354,-2.3910213680923635,2.765168494493377,-0.061635180465843,0.1880330050868001,0.0208266099449054,-0.192183710850375,0.3870569315963085,-0.4834857747079336,0.6491887205827888,-2.395519465613138,2.77077538925263,-0.2232429906788272,0.4398091748273733,-0.5409373613464619,1.0045357920425997,0.4683907169389781,0.7556475295903919,-0.4676527609284275,10.19094556580876,-1.2327580442902328,0.2325677659593938,-1.067040896228363
0.48,0.6441951970207767,-2.383524530949213,2.755853225880338,-0.0600313589603643,0.1948427141159494,0.0210009841228838,-0.1825275987110063,0.4014038284035623,-0.4966157806955669,0.6469562906760005,-2.3911213738648645,2.7653660156391653,-0.2253714650931758,0.4598091751253966,-0.560937361644485,1.0856691564207563,0.482805606968438,0.7173448403626936,-0.6565002993816654,9.702283613230977,-1.2305277815566038,0.2319819717007822,-1.0766608306847176
0.5,0.6406630095141663,-2.375342996010243,2.7457421376670657,-0.0588920100881898,0.2010679112865348,0.0212140319090426,-0.1711583390357017,0.4160099193054854,-0.5139639731327811,0.642491430862424,-2.382325190368317,2.754547268412236,-0.229628413921873,0.499809175721443,-0.6009373622405315,1.268421989952832,0.5684629837652305,0.7303045450961526,-0.8674096218607069,9.702283613230977,-1.2283316501693249,0.2318163921562304,-1.084266863842838
0.52,0.6373680894120849,-2.3668733497966645,2.7352537534000616,-0.0583827987851336,0.2060060333530496,0.0214660859098481,-0.1589195975273306,0.4302463935791434,-0.5341138535122442,0.6380265710488474,-2.3735290068717694,2.743728521185307,-0.2338853627505702,0.5398091763174895,-0.640937362836578,1.3770272988941816,0.6119370754185546,0.7118237136828992,-1.007494018973154,9.520040652867465,-1.2268383677285295,0.2322030782975775,-1.0899386401662994
0.54,0.6343234761243408,-2.3581221363142704,2.7243380506442425,-0.0585787100372965,0.2095011858256082,0.0217571459220073,-0.1462538513765671,0.4442276060233664,-0.556435491076208,0.633348863793836,-2.36273282334542,2.7309097739285755,-0.2381423115792674,0.579809176913536,-0.6809373634326245,1.4612930323031044,0.6332873075381759,0.6990606222111506,-1.116081878198194,9.387189118686363,-1.2265766856841125,0.2333251333635637,-1.0943519135364843
0.56,0.6316680851867628,-2.34954938404572,2.7135479221969594,-0.059464959408262,0.211521199349569,0.0220634129429086,-0.1340065825145465,0.4575369049375068,-0.5782432197788742,0.6286711565388247,-2.351936639819069,2.718091026671844,-0.2423992604079646,0.6198091775095824,-0.7209373640286709,1.4166069173677336,0.6123634431010285,0.66546494570702,-1.090386435133306,9.2883350379052,-1.2274176594558168,0.2352775888706255,-1.0977542400565805
0.58,0.6291224764435887,-2.3402408618520347,2.701737275456221,-0.060859949584006,0.2124110680590651,0.0224305516886879,-0.1212986504468551,0.4726167831324031,-0.6016822367473107,0.6238870255630958,-2.3401404562778185,2.704272279400211,-0.2466562092366618,0.6598091781056288,-0.7609373646247173,1.531569277127729,0.6353966033845678,0.7539939097448128,-1.1719508484218266,9.263728856735725,-1.2296314592199382,0.2377752213867893,-1.0998520736412325
0.6,0.6268299462420623,-2.3306173059190467,2.689454620310116,-0.062150785947064,0.2121191008953681,0.0228824011751527,-0.108684967253252,0.4888781677782866,-0.625391182694342,0.6189964708666496,-2.3273442727216667,2.689453532113677,-0.250913158065359,0.6998091787016752,-0.8009373652207638,1.569754560615462,0.6306841596801567,0.8130692322941779,-1.1854472973515662,9.242375944275407,-1.2324284705100843,0.2400543261252715,-1.100594586182699
0.62,0.6248844439750364,-2.321163660664856,2.677344315946248,-0.0628036180048403,0.2106984866519563,0.0234286159964503,-0.0968191441642383,0.5052876190557903,-0.6481699456224237,0.6213956978793997,-2.306173397530132,2.658185061175399,-0.1584268761611423,0.5888781692684028,-0.7253911841844581,1.523925760447573,0.5932911544506827,0.8204725638751853,-1.1389381464040838,9.222372651031948,-1.2359340872174738,0.241860544873538,-1.100247972449394
0.64,0.6231675046663018,-2.310823800098009,2.664342038506972,-0.0615107868139038,0.2064829180806566,0.0243149290252757,-0.0754284915066793,0.5275584433708146,-0.6496539766707051,0.6213956978793997,-2.306173397530132,2.658185061175399,-0.1584268761611423,0.5888781692684028,-0.7253911841844581,1.5457619358582326,1.0695326328779522,1.1135412157512126,-0.0742015524140715,9.222372651031948,-1.2412570631188882,0.2405721547032014,-1.0864598790858728
0.66,0.6218616763534213,-2.3000630754099367,2.651312638179482,-0.0578565227722845,0.1981482152981221,0.0255975048704606,-0.0570283452274696,0.5468635450317503,-0.6531991407420878,0.6213956978793997,-2.306173397530132,2.658185061175399,-0.1584268761611423,0.5888781692684028,-0.7253911841844581,1.3451956377497645,0.9200073139604832,0.9652550830467844,-0.1772582035691361,10.32512633337501,-1.2585367978938895,0.2397121251074787,-1.088056088960926
0.68,0.6209114275079558,-2.2895152749165133,2.638826697782463,-0.053645472050332,0.1875936933172426,0.0269715175949299,-0.0444612110054301,0.5622572090686682,-0.6608307726196658,0.6198114291177883,-2.300284615837448,2.6509311493335543,-0.1683752579427204,0.6088781695664259,-0.7453911844824813,1.0643537477633078,0.6283567111019746,0.7696832018458943,-0.3815815938788991,10.32512633337501,-1.2773776386303248,0.2376665489181878,-1.0846334721434272
0.7000000000000001,0.6201151310118164,-2.2781207956989578,2.6254896952973485,-0.0493045997466247,0.1749029063326615,0.0284286265045873,-0.036372907650906,0.5763012242866533,-0.672593248521323,0.6166428915945655,-2.28850705245208,2.636423325649865,-0.1882720215058765,0.6488781701624724,-0.7853911850785278,1.0012627701243932,0.4044151677262061,0.7022007608992575,-0.5881237950828566,10.029488696142836,-1.296075952477663,0.2354159458213983,-1.0776913958631915
0.72,0.6194280475923493,-2.2664608136650903,2.6118817533578347,-0.0453933018204345,0.1616227121094998,0.0298135284727336,-0.0331823999110053,0.5889673746781389,-0.6877110743495661,0.6134743540713427,-2.276729489066712,2.621915501966176,-0.2081687850690327,0.6888781707585189,-0.8253911856745743,0.9989486512719166,0.1595253869950373,0.6333075195742777,-0.7558912914121585,9.77795351263012,-1.3135251284532168,0.2332834182570001,-1.06817376322277
0.74,0.61875698075057,-2.25455970374692,2.5979390253042447,-0.0420232021046109,0.1486040599285666,0.0310836796598822,-0.0343805155091022,0.6005615181137921,-0.705750390232502,0.6093109783699621,-2.262951925651542,2.6054076782526847,-0.2280655486321888,0.7288781713545653,-0.8653911862706207,1.073867497083841,-0.0599057799048466,0.5797071717826618,-0.9019657941467918,9.573481744796482,-1.3277738899683111,0.2313634623814421,-1.0566895771187923
0.76,0.6180621928931082,-2.243047028930947,2.5843465911718604,-0.0393532615398195,0.1370628393900404,0.0321674841196233,-0.0388663826390721,0.6108000430639587,-0.7241012515878592,0.6051476026685814,-2.249174362236372,2.588899854539193,-0.2479623121953449,0.7688781719506118,-0.9053911868666672,1.0743655215364012,-0.2242933564984974,0.5119262475083319,-0.917543067767862,9.408143024675155,-1.339835572398164,0.2294733545449934,-1.0424749240711502
0.78,0.6172072365966749,-2.230717138461628,2.5696514543261704,-0.0368697724865483,0.1262344746141795,0.0331899684681592,-0.0465628378828687,0.6215833120296317,-0.7444785860472409,0.6004868078781218,-2.2343967988063,2.5713920308108005,-0.2678590757585011,0.8088781725466582,-0.9453911874627136,1.2152675349231896,-0.3848227621898268,0.5391634482836472,-1.0188667229690862,9.257165512023676,-1.3489259890516754,0.2276945095739881,-1.028699245658789
0.8,0.6161714856101153,-2.218174537222637,2.5545385931113764,-0.034461105436461,0.1170890244815199,0.034106475525347,-0.0567097254492145,0.6320392970349292,-0.7658116824600262,0.5953285939985834,-2.218619235361327,2.5528842070675064,-0.2877558393216572,0.8488781731427046,-0.98539118805876,1.2916926417227332,-0.5073443783172916,0.5227992502648771,-1.0666548206392623,9.257165512023676,-1.3549397913918724,0.2257899505192192,-1.0159145916845802
0.8200000000000001,0.614910931357176,-2.2054278594378536,2.5389878433032216,-0.0320298525958737,0.1098606086452914,0.0349240791988911,-0.0688065484968949,0.6419877175897577,-0.7881706445729326,0.6133359993376545,-2.18657257237089,2.516248008988375,-0.1382021196581226,0.7320392985250453,-0.8307946853014988,1.3649426601042731,-0.6048411523840215,0.4974210277414237,-1.1179481056453222,9.198068501680154,-1.3580350148633735,0.2238367217818085,-1.0053294390665397
0.84,0.6135278138711454,-2.19311414110707,2.5241497580221357,-0.0292805735463726,0.1044867135271099,0.0356536033236448,-0.0763019180669263,0.6532864111866851,-0.7726073124842401,0.6133359993376545,-2.18657257237089,2.516248008988375,-0.1382021196581226,0.7320392985250453,-0.8307946853014988,1.0320590434799817,-0.3747684785015657,0.5649346798463684,0.7781666044346269,11.419227734073502,-1.3546658778581138,0.2194853273586696,-0.9726377844545736
0.86,0.6119052948216012,-2.1799501065888207,2.5088298464224708,-0.0263447219033992,0.1000798129056464,0.0363566059321656,-0.0857116767047138,0.6625310462737181,-0.7606465254904262,0.6133359993376545,-2.18657257237089,2.516248008988375,-0.1382021196581226,0.7320392985250453,-0.8307946853014988,0.8903191296175856,-0.4704879318893781,0.4622317543516496,0.5980393496906933,11.419227734073502,-1.3609768585278954,0.2182135809377448,-0.9764569713616762
0.88,0.6100763500929313,-2.1666144004505954,2.493677245721131,-0.023939331111605,0.0970130834761598,0.0369610456083804,-0.0968110557129523,0.6706423965394808,-0.755482596343136,0.6119539781410732,-2.17925217938564,2.50794006213536,-0.1545005984999042,0.7520392988230685,-0.8437912858697934,0.7342621836589575,-0.5549689504119256,0.4055675132881353,0.2581964573645123,10.587338756487044,-1.36519793215104,0.217279002426048,-0.982156525387838
0.9,0.6080118485888811,-2.1531245944174517,2.4785692685576115,-0.0221633548990598,0.0954032958591719,0.0374668812552424,-0.109059293961495,0.6780119986296471,-0.7557806686842751,0.6091899357479108,-2.1646113934151394,2.49132416842933,-0.1870975561834675,0.792039299419115,-0.8697844870063823,0.7148762520202334,-0.6124119124271306,0.3684801045083175,-0.0149036170569549,10.587338756487044,-1.3654835246194674,0.2164646225367737,-0.9861854695701964
0.92,0.6058231958875934,-2.1401803656703207,2.4641659571608434,-0.0212024818201371,0.0950627511029336,0.0378564981325476,-0.1205932572448629,0.6842854864743273,-0.760316040075734,0.6064258933547484,-2.1499706074446383,2.4747082747233,-0.2196945138670307,0.8320393000151615,-0.8957776881429714,0.6945476089115362,-0.576698164168396,0.313674392234009,-0.2267685695729437,10.287576843279568,-1.3625461044543452,0.2158906668142564,-0.988894795354693
0.94,0.6032882415157562,-2.1264330582220063,2.4488793178534745,-0.0212290339343248,0.0954849651359997,0.0381661664984649,-0.1322242555868907,0.6902125255327469,-0.7682459387177948,0.6020320030774078,-2.133329821444335,2.4567927209604408,-0.2522914715505939,0.8720393006112079,-0.9217708892795604,0.7636969407193596,-0.5815499171013899,0.2963519529209812,-0.396494932103042,10.054619019188069,-1.3588506339620816,0.2161645273689978,-0.9910604126794836
0.96,0.6005270049056536,-2.112571423752118,2.433419367803057,-0.0226459598890988,0.0963420407943388,0.0383597043984756,-0.1432555906862297,0.6958579818386094,-0.7773372006654419,0.5976381128000672,-2.116689035444032,2.4388771671975813,-0.2848884292341572,0.9120393012072544,-0.9477640904161496,0.7684604329047248,-0.5515667549669506,0.282272815293122,-0.4545630973823544,9.825653945167687,-1.3546402715742931,0.2174099480789766,-0.9911622597091496
0.98,0.5977015400084603,-2.0992861910092517,2.4185590589678907,-0.0250987227171928,0.0974192927918294,0.0384521035885969,-0.1535460238462804,0.7025007873763306,-0.7864524189292048,0.5924292985806375,-2.099048249428828,2.4203117834063077,-0.3174853869177205,0.9520393018033008,-0.9737572915527386,0.7633922386779437,-0.5145216580025369,0.3321402768860615,-0.4557609131881468,9.825653945167687,-1.3500126085488784,0.2197599903777605,-0.9913840374933856
1.0,0.5945191859763532,-2.085143684562365,2.4027231600452845,-0.0280342526824763,0.0987895280058839,0.0385100466628557,-0.1640847809621529,0.7114866283824346,-0.7966893713686656,0.5864055604191187,-2.0804074633987217,2.4010965695866187,-0.3500823446012837,0.9920393023993472,-0.9997504926893276,0.8611125585283769,-0.5269378557936244,0.4492920503052,-0.5118476219730383,9.799771677544411,-1.345460011392562,0.2225079446450416,-0.9925499068047564
1.02,0.5911291854767622,-2.070806454337649,2.3866760164456133,-0.0306578647586265,0.1003547155149977,0.0385750266207403,-0.1743193163789151,0.7217401148192186,-0.807536922298303,0.5863149469282456,-2.0495693531432435,2.362888691476851,-0.2163200639197068,0.8114866298725507,-0.8573957446727942,0.9049158254740474,-0.5117267708381085,0.5126743218392016,-0.5423775464818703,9.765947839938235,-1.3410435402801384,0.2250210678579108,-0.9943162208155194
1.04,0.5876778105248118,-2.056932421725161,2.371427953751638,-0.0309657226985419,0.1039996298005997,0.0387129066396366,-0.1880015595011208,0.737710538588824,-0.7958065824709969,0.5863149469282456,-2.0495693531432435,2.362888691476851,-0.2163200639197068,0.8114866298725507,-0.8573957446727942,1.2040131692593778,-0.6841121561102864,0.7985211884802668,0.5865169913653046,11.272328867747092,-1.3358685986182692,0.2247695539020673,-0.9868983180114146
1.06,0.5838022030854969,-2.042028781089823,2.355625510430227,-0.0282330566739418,0.1114122466555068,0.0389595767581695,-0.1982835912574124,0.751534156871143,-0.7854418736813845,0.5863149469282456,-2.0495693531432435,2.362888691476851,-0.2163200639197068,0.8114866298725507,-0.8573957446727942,1.0052857650266935,-0.514101587814579,0.691180914115952,0.5182354394806188,11.272328867747092,-1.327557151924326,0.2231020433873325,-1.0052385346649484
1.08,0.579761223770624,-2.0268843070157123,2.3399702721188564,-0.0241048820986973,0.1206007018285037,0.0392704772708158,-0.2048991789590192,0.7619048792441927,-0.7808538446301344,0.5841517462890485,-2.041454486844518,2.354314734030124,-0.2267671205112175,0.8314866301705739,-0.8695370193336199,0.6564447687194251,-0.3307793850803403,0.5185361186524851,0.2294014525625054,10.586178373987424,-1.3175734289900172,0.2199981843862324,-1.0246027307122392
1.1,0.5756185297249349,-2.0115610544970006,2.324348498890477,-0.0199840531383894,0.1304894420558784,0.0395907542117838,-0.2086869645130148,0.769913639410437,-0.781560848997651,0.5798253450106544,-2.025224754247067,2.3371668191366672,-0.2476612336942391,0.8714866307666204,-0.8938195686552715,0.4443743185062752,-0.1893892776997793,0.400438008312215,-0.0353502183758291,10.586178373987424,-1.3072804534490774,0.2168917838586302,-1.04284394620802
1.12,0.5716401054422109,-1.996868989436305,2.3094557333653585,-0.0165534093735554,0.1398556695159794,0.0398852198323057,-0.2096896308745944,0.7763203681730922,-0.786085146280125,0.5754989437322603,-2.008995021649616,2.320018904243212,-0.2685553468772607,0.9114866313626668,-0.9181021179769228,0.3953504115688997,-0.0501333180789792,0.3203364381327622,-0.2262148641237027,10.315532383268874,-1.296355406379425,0.2138989491055663,-1.059927625410443
1.14,0.5674593671492484,-1.981280599072284,2.293653870294575,-0.0136259337502451,0.1490404033665598,0.0401762999202833,-0.2081573614052591,0.7822840375998575,-0.7940225920698549,0.570127836794715,-1.9907652890223624,2.301656861883673,-0.2894494600602822,0.9514866319587132,-0.9423846672985744,0.5022853980141484,0.076613473466762,0.2981834713382647,-0.396872289486494,10.107924503137838,-1.28624318015434,0.2114585574738526,-1.0745426266628444
1.16,0.5633344201547594,-1.9655774371655077,2.2776736096577914,-0.0114290909118191,0.1569961911288567,0.0404421346230576,-0.2043196325296445,0.787849723757142,-0.8036768766387178,0.5647567298571698,-1.9725355563951088,2.283294819524135,-0.3103435732433038,0.9914866325547598,-0.9666672166202258,0.5893009330144876,0.1918864437807338,0.2782843078642238,-0.4827142284431429,9.880263090266451,-1.2781252272007508,0.2097161707207609,-1.0852834955473198
1.18,0.559304326791401,-1.9497572439144488,2.2614880515175666,-0.0096454517854516,0.1634106958817905,0.0406977211120703,-0.1989000942026373,0.7938669051406073,-0.8144072819354891,0.5588632700900491,-1.9533058237529548,2.264325713431555,-0.3312376864263253,1.031486633150806,-0.9909497659418772,0.6721597007266907,0.2709769163503572,0.3008590691732649,-0.5365202648385636,9.842324924122297,-1.27189318128696,0.2083204909462074,-1.0943692916655157
1.2,0.5555867462402438,-1.934616306770777,2.245904760153444,-0.0080423824808685,0.1680215535195345,0.0409451396628046,-0.1927541238706591,0.7995546578262939,-0.8254078232704091,0.5524474574933528,-1.933076091095899,2.2447495436059337,-0.3521317996093468,1.0714866337468525,-1.0152323152635288,0.691258619469542,0.3072985165989111,0.2843876342843277,-0.5500270667460005,9.842324924122297,-1.267782491077703,0.2070427570890366,-1.101451949323635
1.22,0.5518052848223352,-1.9185649934940316,2.229266614536671,-0.0063942071702106,0.1713566851773874,0.0412083167758772,-0.1857689647264647,0.8052266135199613,-0.8378654365363564,0.5459490400467109,-1.8946385738794624,2.2046343689899235,-0.2274251473587038,0.89955465931641,-0.8390980592949676,0.7683678447601677,0.3492579572097171,0.2835977846833704,-0.6228806632973649,9.808250857534404,-1.265614794412561,0.2058043212522362,-1.1066028765946132
1.24,0.5481970848254265,-1.902373028699126,2.212691737757849,-0.0038968490684717,0.1739902370362934,0.0415266447559021,-0.1750568306110201,0.8131670734349083,-0.817370643252934,0.5459490400467109,-1.8946385738794624,2.2046343689899235,-0.2274251473587038,0.89955465931641,-0.8390980592949676,1.2225355543892884,0.5356067057722305,0.3970229957473536,1.0247396641711204,9.76613505453588,-1.264303981284412,0.2027478000717354,-1.0888789186048315
1.26,0.5449869382303147,-1.886873315814953,2.19734929735962,-0.0009679583442932,0.1762672512126874,0.0418602175408118,-0.1634422742928822,0.8179488476768947,-0.798852612754513,0.5459490400467109,-1.8946385738794624,2.2046343689899235,-0.2274251473587038,0.89955465931641,-0.8390980592949676,1.1187948168777089,0.5807278159068979,0.2390887120993168,0.9259015249210468,11.62780123054381,-1.2667517412961808,0.2009144649499448,-1.1025711761487489
1.28,0.5418525367911541,-1.87047889062746,2.181532391750914,0.0016802513682823,0.1777624051247019,0.0421709274904878,-0.150711596820888,0.8213405656646173,-0.7840227170838264,0.5436747885731238,-1.885643027286298,2.1962433883969736,-0.2343593520563128,0.9195546596144332,-0.8418361064998793,0.9918413499744194,0.6365338735997108,0.1695858993861321,0.74149478353433,11.62780123054381,-1.270501683518533,0.1993544804502014,-1.115780937184354
1.3,0.5389740731967685,-1.854025776646145,2.16596826631117,0.0035263064214244,0.1778543832828794,0.0424090432619417,-0.1379010063561454,0.8239307819364391,-0.7732837037626604,0.5391262856259498,-1.86765193409997,2.1794614272110744,-0.2482277614515307,0.9595546602104796,-0.8473122009097027,0.8457937921005677,0.6405295232371266,0.1295108135910883,0.5369506660583001,11.341713565000646,-1.2750329834758525,0.1984588592519038,-1.1249519181365235
1.32,0.5363527284146029,-1.8375293271126236,2.15058274055927,0.0043228858452125,0.1760583606259108,0.0425515880236881,-0.1250463136836139,0.8257613288383336,-0.7657755787288888,0.5345777826787756,-1.8496608409136417,2.162679466025175,-0.2620961708467486,0.999554660806526,-0.8527882953195262,0.7499432765016628,0.6427346336265766,0.0915273450947273,0.3754062516885814,11.110572343164677,-1.2810931683904938,0.1983652875426869,-1.1301800833821802
1.34,0.534099475198991,-1.8218300308658808,2.1360849398356936,0.0037984785521372,0.1721089133568667,0.0425766054680811,-0.1129921622646573,0.8268988904260907,-0.7606510614056212,0.5293358592618407,-1.8296697476975112,2.145623700118785,-0.2759645802419665,1.0395546614025726,-0.8582643897293496,0.6573760160546314,0.6027075709478309,0.0568780793878509,0.2562258661633787,10.939676141165364,-1.2895236102600205,0.1995689713665065,-1.1306416294188282
1.36,0.531957786315592,-1.8052841486781568,2.120929163705697,0.0015560281752256,0.1654741232433622,0.0424758288654024,-0.1023162981456186,0.8278146620931692,-0.7551351342673758,0.5240939358449057,-1.8096786544813803,2.1285679342123944,-0.2898329896371844,1.0795546619986192,-0.863740484139173,0.6025739884628961,0.5337932059519317,0.0457885833539284,0.2757963569122723,10.817662329724044,-1.3018531991327424,0.2025625528395538,-1.1253345250330655
1.38,0.5299952425443211,-1.7886961290762318,2.1058896537555483,-0.0019768973500556,0.1571096816512182,0.0423027338221716,-0.0948950889470365,0.8312688303618763,-0.7490387198871373,0.5185053021930903,-1.7886875612503488,2.111375265945758,-0.3037013990324023,1.1195546625946655,-0.8692165785489964,0.5103231640177663,0.3710604599291095,0.1727084134353518,0.3048207190119223,10.817662329724044,-1.314642388039143,0.206741997371163,-1.117778261338925
1.4,0.5281462692164921,-1.772014375341824,2.090977362592415,-0.0055550340828538,0.1478253977081964,0.0421607531052703,-0.0907547096470535,0.8367389536156972,-0.7424635488534947,0.5125699583063944,-1.766696468004416,2.0940456953188766,-0.3175698084276202,1.159554663190712,-0.8746926729588198,0.4751259393081272,0.2070189649991484,0.2735061626910451,0.328758551682129,10.831242618915894,-1.3274191642215594,0.2107526498817454,-1.1099806798135374
1.42,0.5264353078634212,-1.7560540099109172,2.076934196243468,-0.0085551464416759,0.1387825673701167,0.0420852289293547,-0.0898162764849277,0.8429489668037018,-0.7360734178220117,0.5236085337341394,-1.730177427661039,2.0538541851497403,-0.1706292251805007,0.9367389551058132,-0.7262496400619527,0.4479918950005983,0.0469216581062893,0.3105006594002313,0.3195065515741502,10.838072050019036,-1.340470112241965,0.2145066269986354,-1.101667653343527
1.44,0.5246818603378565,-1.7390540325001205,2.062464144609394,-0.0091713504523055,0.1284491059645104,0.0422088643064558,-0.085891584736494,0.8560399635652379,-0.7102920334923797,0.5236085337341394,-1.730177427661039,2.0538541851497403,-0.1706292251805007,0.9367389551058132,-0.7262496400619527,1.4589869597455034,0.1962345874216869,0.6545498380768067,1.289069216481603,10.838072050019036,-1.345814500647583,0.2142175524015409,-1.0772342818501128
1.46,0.5229713816005724,-1.721825667239633,2.0485195562092016,-0.0065588726509327,0.1167776211065504,0.0425430665584665,-0.0859094545217493,0.8658084960461497,-0.6855370630755341,0.5236085337341394,-1.730177427661039,2.0538541851497403,-0.1706292251805007,0.9367389551058132,-0.7262496400619527,1.3306324685076971,-0.0008934892627675,0.4884266240455903,1.23774852084228,12.140070084829858,-1.3654464576048793,0.2133571292395066,-1.0787586401710076
1.48,0.5213028520455089,-1.705316676562291,2.035697641623351,-0.0028525415881516,0.1052049413127618,0.0428928800118249,-0.0901013212811922,0.871255756526562,-0.6653529324121275,0.5219022414823344,-1.720810038109981,2.0465916887491207,-0.1866041282871902,0.9567389554038364,-0.7230068583036443,1.066118572565752,-0.2095933379721436,0.2723630240206109,1.0092065331703317,11.679857293391253,-1.3848937205285832,0.2107879212130535,-1.0770263969524736
1.5,0.5194179792496617,-1.6878596855100143,2.0225873881232475,0.0007510893022418,0.0931567209665672,0.043173900597424,-0.0985569332370302,0.8742187196106697,-0.6468494193494961,0.5184896569787244,-1.7020752590078647,2.032066695947882,-0.2185539345005691,0.9967389559998828,-0.7165212947870274,1.0279305903664693,-0.4227805977918997,0.1481481542053853,0.9251756531315658,11.500466201116067,-1.4013839135725856,0.2080258664558388,-1.071884899300105
1.52,0.5173223481163725,-1.6703595704342684,2.0098204330670915,0.0034661696297849,0.0818139195699256,0.0433371176533715,-0.1108853721570381,0.8758037131871284,-0.6308666616598926,0.5150770724751144,-1.6833404799057483,2.0175417031466427,-0.250503740713948,1.0367389565959293,-0.7100357312704106,1.012362526724448,-0.6164219460003971,0.0792496788229346,0.7991378844801778,11.500466201116067,-1.414780164537492,0.2057847056863693,-1.0653591663526267
1.54,0.514943294094005,-1.6528391151664985,1.997350616868215,0.0050620424243303,0.0716912128431325,0.0433873874576595,-0.1265536142773916,0.8764235407460809,-0.6168973076839895,0.5100669976608354,-1.66260570077383,2.0033409885212343,-0.2824535469273269,1.0767389571919757,-0.7035501677537939,1.050024818574465,-0.7834121060176759,0.0309913779476256,0.6984676987951521,11.242354706795595,-1.424355883918594,0.2043777240951648,-1.0582420818563814
1.56,0.5123676463730351,-1.6361917140618405,1.985757330150508,0.0053234633314057,0.063516734895072,0.0433352954271189,-0.1438320694898662,0.876124262071766,-0.6041393111057397,0.5050569228465565,-1.6418709216419114,1.9891402738958264,-0.3144033531407059,1.1167389577880222,-0.697064604237177,1.0740124055906248,-0.8639227606237295,-0.0149639337157447,0.6378998289124915,11.242354706795595,-1.4296866160089448,0.2037589719050621,-1.0503318520303293
1.58,0.5092773349888652,-1.6186708243818833,1.9738139336980312,0.0042013467927585,0.0567607317303158,0.0431884332780531,-0.164437407874003,0.8760887880887279,-0.5908796809778083,0.499248102876943,-1.6201361424950915,1.9751016983583332,-0.3463531593540848,1.1567389583840686,-0.6905790407205602,1.2251520512346592,-1.030266919206836,-0.0017736991519023,0.6629815063965705,11.218852266808426,-1.431937302482888,0.2043721032273575,-1.0442841052250496
1.6,0.5057453893055691,-1.6011459915380004,1.962133407140354,0.0017752089369606,0.0526659567058035,0.0429668506930737,-0.1877483109214367,0.8766044130614898,-0.5778392504028891,0.4926405377519951,-1.5974013633333708,1.961225261908756,-0.3783029655674637,1.196738958980115,-0.6840934772039433,1.3357740261536375,-1.165545152371687,0.0257812486380959,0.6520215287459608,11.221854229765086,-1.4310533595508557,0.2060333212367331,-1.0413166334500044
1.62,0.5019434830092038,-1.5844691926240488,1.951277300016148,-0.0012158809807393,0.051922482232138,0.0427187174645847,-0.2108460564077477,0.8790227329515411,-0.5655438514541884,0.4963579737594973,-1.557315770884926,1.9332414446202093,-0.2365582974829735,0.976604414551606,-0.560735013993821,1.3138977823148286,-1.1548872743155525,0.1209159945025628,0.6147699474350343,11.231275936945169,-1.4239373069507644,0.2081702403553861,-1.0412776931413177
1.64,0.4974238687553876,-1.5667856940227118,1.9401620608509544,-0.0022804894236968,0.0559347343385863,0.0425916523935921,-0.2391978919209999,0.8885374364498567,-0.5462789926390685,0.4963579737594973,-1.557315770884926,1.9332414446202093,-0.2365582974829735,0.976604414551606,-0.560735013993821,1.778686976956503,-1.4175917756626064,0.4757351749157812,0.9632429407559928,11.222223880845377,-1.4092876095560616,0.2081031378488153,-1.0476985045068985
1.66,0.4923982717303863,-1.548946464652301,1.9294331049392133,-0.0006322104381405,0.0648809395506698,0.0426410348583949,-0.2612051274768223,0.8947864967269559,-0.5276841082888704,0.4963579737594973,-1.557315770884926,1.9332414446202093,-0.2365582974829735,0.976604414551606,-0.560735013993821,1.47405808497623,-1.1003617777911188,0.3124530138549575,0.9297442175099092,11.729051631547009,-1.3933667879450105,0.2060024839276933,-1.0638461287093075
1.68,0.4869923427451869,-1.531004780009455,1.919049960256256,0.0021132270923803,0.0761650081058288,0.0427800680838286,-0.2777297628651998,0.8989241506558664,-0.511566718448471,0.4939923907846675,-1.5475497267394098,1.9276340944802712,-0.2463202947952808,0.9966044148496292,-0.5573141667120074,1.1725549134493198,-0.8262317694188781,0.2068826964455261,0.8058694920199672,11.567586937458143,-1.377488736013751,0.2030242025322403,-1.0842992558715612
1.7,0.4815935865198472,-1.5139078487984372,1.909463121947611,0.0046273535354953,0.0877374324134387,0.0429294352590967,-0.2893386087228418,0.9007045463791096,-0.4983985116444043,0.4892612248350081,-1.5280176384483777,1.9164193942003949,-0.2658442894198956,1.0366044154456755,-0.5504724721483801,0.8822369034342522,-0.5804422928820996,0.0890197861621588,0.6584103402033359,11.398192089618531,-1.361788478154219,0.2001393921346485,-1.1046792414656754
1.72,0.4757108253785435,-1.495886302056444,1.899624816552528,0.0064719595442999,0.1000598666132224,0.0430503439992532,-0.2979345031757636,0.9015367362752056,-0.4862203895194909,0.4845300588853486,-1.5084855501573455,1.9052046939205185,-0.2853682840445103,1.076604416041722,-0.5436307775847529,0.7464727053922349,-0.4297947226460902,0.0416094948048062,0.6089061062456685,11.265463325879864,-1.3460708553841263,0.1980329149985048,-1.1239986480781394
1.74,0.4696905771040474,-1.477855379132351,1.890013595423788,0.0071468642229059,0.1121108695855896,0.0430955731065576,-0.3033181826598626,0.901652800592082,-0.4755962040619241,0.4788226932044584,-1.486953461836511,1.894332078368824,-0.304892278669125,1.1166044166377684,-0.5367890830211256,0.5955476310714657,-0.2691839742049506,0.0058032158438137,0.5312092728783385,11.175913917138132,-1.3322834102150982,0.1972018803166282,-1.141341831896762
1.76,0.4635937050698846,-1.4598293294696143,1.8806046051175889,0.00620148141808,0.1236712697974297,0.0430157906915081,-0.3057926957399546,0.9012285825110748,-0.4658682121893288,0.4731153275235682,-1.4654213735156765,1.8834594628171284,-0.3244162732937398,1.156604417233815,-0.5299473884574983,0.5023370428235414,-0.1237256540045972,-0.0212109040503616,0.486399593629766,11.078177912198043,-1.3185801039479494,0.1979789277406269,-1.1580793792802315
1.78,0.4577904606013078,-1.4427013541006886,1.8718414410826976,0.0038428570265102,0.1337977969019402,0.0428093778768368,-0.3048086057047302,0.9019130792206616,-0.4570951344786658,0.4669198619770626,-1.4428892851799409,1.872757889629524,-0.3439402679183544,1.1966044178298614,-0.5231056938938712,0.4427297749762126,0.0492045017612213,0.0342248354793461,0.4386538855331495,11.078177912198043,-1.306009773353484,0.2004824123633553,-1.1733067405809496
1.8,0.4517335074129447,-1.4246330846855104,1.8627946107764908,0.000526725082833,0.1429614600606223,0.0424950453087108,-0.3008154255977859,0.9051157720114944,-0.4480885175315079,0.4602362965649417,-1.4193571968293042,1.8622273588060103,-0.3634642625429691,1.2366044184259075,-0.5162639993302439,0.5179813638341115,0.1996590053472108,0.1601346395416369,0.4503308473578937,11.069936573121597,-1.29639082070664,0.2041253862749541,-1.187646216001666
1.82,0.4457818729079341,-1.4064774694841673,1.853925940908944,-0.0026596424295462,0.1501553408327629,0.0421583541675557,-0.2945235298404916,0.9102814014404068,-0.4392616858298254,0.4366927361330554,-1.3793772960849358,1.8403901848999156,-0.2757307419261923,1.0051157735016103,-0.422955127551907,0.6003845382488919,0.3145947878647165,0.2582814714456261,0.441341585084129,11.081441731487756,-1.2904159447714432,0.207876445767189,-1.2011962084476682
1.84,0.4399240932448656,-1.3881258818609843,1.8452893959204997,-0.0026669069880804,0.156879098220008,0.0420266433877598,-0.2910927153848241,0.9233056458955315,-0.4248948334983534,0.4366927361330554,-1.3793772960849358,1.8403901848999156,-0.2757307419261923,1.0051157735016103,-0.422955127551907,0.9846419112682354,0.1715407227833754,0.6512122227562367,0.7183426165735973,11.097459196287671,-1.2860088783915076,0.2084509730051194,-1.2169180037051972
1.86,0.4344457833544517,-1.3704959471593243,1.837345004165398,0.0007216562701454,0.1639076789139017,0.042143957320651,-0.28547194713235,0.9312939574339206,-0.412135144701199,0.4366927361330554,-1.3793772960849358,1.8403901848999156,-0.2757307419261923,1.0051157735016103,-0.422955127551907,0.8034547516547,0.2810384126237047,0.3994155769194485,0.6379844398577195,11.487930742313438,-1.280876289673378,0.2050810048344411,-1.2365435357956844
1.88,0.4288188098626939,-1.3518268912721654,1.829232496530309,0.0052416126068265,0.1714576927903612,0.0423562965280947,-0.2772838074201065,0.9350776147069488,-0.399873595194078,0.4339354287137935,-1.3693261383499196,1.8361606336243963,-0.2707138051918735,1.0251157737996337,-0.4179284495559869,0.7610967261500642,0.4094069856121762,0.1891828636514048,0.6130774753560525,11.423000476116613,-1.2755754852706211,0.2003894339031194,-1.254642781489812
1.9,0.4233760527506947,-1.3331099317928905,1.8213517136621429,0.0092028894880767,0.1788774520428798,0.0425517099273884,-0.26720619243238,0.9365533936015604,-0.3889026024932664,0.4284208138752696,-1.3492238228798874,1.8277015310733584,-0.2606799317232361,1.0651157743956805,-0.4078750935641465,0.7484967067861608,0.5038807493863262,0.0737889447305795,0.5485496350405766,11.373561309783328,-1.2708080181598074,0.1962500109967448,-1.2714410943856405
1.92,0.4181526948296523,-1.3143774029584658,1.813679807430757,0.0120881921789235,0.1860175972869079,0.0426850969739906,-0.2554600638264309,0.9369337514311644,-0.3788788663488701,0.4229061990367458,-1.3291215074098552,1.81924242852232,-0.2506460582545986,1.1051157749917266,-0.3978217375723061,0.7723203603403719,0.5873064302974518,0.0190178914801997,0.5011868072198167,11.321688332443957,-1.266696104601622,0.1934062505218956,-1.2860964995818556
1.94,0.4134230132807328,-1.2965801345829724,1.80657245528448,0.013751136246851,0.1924742959973058,0.04273947311887,-0.242853596362831,0.9367082012104564,-0.3698016039096364,0.4178932778716538,-1.3070191919100207,1.811285993770874,-0.2406121847859611,1.145115775587773,-0.3877683815804658,0.7768052976833836,0.6303233731799973,-0.0112775110354013,0.453863121961684,11.29300324037922,-1.2629088607487575,0.1916921984591884,-1.300452964577138
1.96,0.4087187598523346,-1.2778558435931222,1.799277952388087,0.0142081402162851,0.1988955576146109,0.0427007213319878,-0.228081833539053,0.9358761337671182,-0.3601452864211122,0.4128803567065618,-1.284916876410186,1.803329559019428,-0.2305783113173236,1.1851157761838196,-0.3777150255886254,0.8833767324751514,0.7385881411888964,-0.041603372166904,0.4828158744262123,11.29300324037922,-1.259635266099153,0.1915363611980841,-1.313711400649325
1.98,0.4043359966229801,-1.2591424745306488,1.7921782034595246,0.0133108749788512,0.2045720524865314,0.0425489169421259,-0.2108504870937213,0.9356057263749776,-0.3503263882087391,0.4081182823781858,-1.2618145608954503,1.7956244581677778,-0.2205444378486862,1.225115776779866,-0.3676616695967851,0.991719696514234,0.8615673222665862,-0.0135203696070229,0.4909449106186542,11.32842052983142,-1.2570466936857074,0.1929882635769467,-1.325783973952556
2.0,0.4003213831823023,-1.240426608562842,1.7852786727961028,0.0112941911578004,0.2088411256409868,0.0422885349457438,-0.1914995021345942,0.9360898621176236,-0.3401102281187345,0.4036070548865257,-1.2377122453658136,1.7881706912159236,-0.2105105643800487,1.2651157773759123,-0.3576083136049447,1.0943776008424526,0.9675492479563536,0.0242067871322859,0.5108080045002322,11.419293962185291,-1.2569009781193137,0.1957307248087098,-1.336317774044126
2.02,0.3968794053414388,-1.2226240515940132,1.7789199688839477,0.0086803954475337,0.2111829017931847,0.0419635737731948,-0.1718990879220848,0.9380724608027994,-0.3297557029748245,0.3907464080755726,-1.1936221154569608,1.768273161390166,-0.2054793170812457,1.0360898636077396,-0.3113607528631259,1.1127927994513047,0.9800207106254732,0.0991299342587959,0.5177262571954999,11.480636470605532,-1.259970468038752,0.1996961648477766,-1.3467512164172453
2.04,0.393740734582933,-1.203767387440635,1.7724102689092276,0.0076985975471626,0.2089759904259868,0.0417026128970852,-0.1431222225933917,0.9469159485655306,-0.3218689353407634,0.3907464080755726,-1.1936221154569608,1.768273161390166,-0.2054793170812457,1.0360898636077396,-0.3113607528631259,1.5560497723956244,1.4388432664346555,0.4421743881365625,0.3943383817030521,11.480636470605532,-1.2662360793352996,0.2012495140392266,-1.3527286968038346
2.06,0.3911518778159588,-1.184766240368138,1.766066938622877,0.0090969390474498,0.1997043180197034,0.0415422725251185,-0.1182442356351577,0.952592894493194,-0.3126575031657694,0.3907464080755726,-1.1936221154569608,1.768273161390166,-0.2054793170812457,1.0360898636077396,-0.3113607528631259,1.3564590234081793,1.2438993479116978,0.2838472963831717,0.4605716087497019,11.372883334556718,-1.2918672830192135,0.2009189261385272,-1.3564975608465362
2.08,0.3889895775043838,-1.1656736183689678,1.7599250608902617,0.0115258652248212,0.1859594416521298,0.0413793922091461,-0.1000486083512634,0.956242868710617,-0.3018628110024448,0.3886916149047601,-1.1832612168208834,1.7651595538615348,-0.208275280070576,1.0560898639057628,-0.3056108578120042,1.0734623222814976,0.9097813641947166,0.1824987108711484,0.5397346081662313,11.456322030324372,-1.318402243863396,0.1989789400743994,-1.353462231589733
2.1,0.3872070991523461,-1.1474944833234553,1.7543008265852518,0.0138695094347037,0.1708366371849898,0.0411569151397304,-0.0890903000061349,0.9572394242598772,-0.2906364522565592,0.3845820285631352,-1.1625394195487286,1.7589323388042724,-0.2138672060492366,1.0960898645018091,-0.2941110677097608,0.785984693618446,0.5479154172564227,0.0498277774630018,0.5613179372942756,11.456322030324372,-1.346574487341183,0.1964894446229711,-1.345015240059242
2.12,0.3854893294952244,-1.1283561915928988,1.7486181760740205,0.0155797434174534,0.1545214952161936,0.0408199534046238,-0.0838184444833347,0.9566751986061433,-0.2781662642437603,0.3804724422215103,-1.141817622276574,1.7527051237470097,-0.2194591320278971,1.1360898650978557,-0.2826112776075173,0.6775256458543952,0.263592776140012,-0.0282112826866964,0.6235094006399489,11.470986706957774,-1.372347619697457,0.1945885494647788,-1.3330176454134413
2.14,0.3838151494966544,-1.109241891713476,1.7431885638430875,0.0160770264917211,0.1391806473648099,0.0403880180493756,-0.0842506436373611,0.9549051738489608,-0.2653977341999238,0.3760832595809524,-1.1190958249746168,1.7470528981948594,-0.2250510580065577,1.176089865693902,-0.2711114875052739,0.6448936796676928,-0.0216099577013233,-0.0885012378591176,0.6384265021918245,11.48140385142142,-1.394565781437282,0.193928105051854,-1.3202342705113974
2.16,0.3821689904261088,-1.0911266646498792,1.7382678872953974,0.0149462364857819,0.1264739939502623,0.0398978993455135,-0.0891144678722901,0.9523197767113654,-0.2531957767198387,0.3716940769403944,-1.0963740276726597,1.741400672642709,-0.2306429839852183,1.2160898662899486,-0.2596116974030305,0.6693818620435817,-0.2431912117464491,-0.1292698568797712,0.6100978740042534,11.483061979819468,-1.411249918480894,0.1950392514552172,-1.3086084910993796
2.18,0.3803004988822906,-1.0721016438569688,1.7333414655736237,0.0120684333941365,0.1156061457321728,0.0393301296012211,-0.097593635174239,0.9506506428807836,-0.2400732953457507,0.3671650961503699,-1.0726522303558017,1.7360359418431146,-0.2362349099638789,1.256089866885995,-0.248111907300787,0.7856236428661583,-0.4239583650974446,-0.0834566915290935,0.6561240687043973,11.481700649087545,-1.4234443569253774,0.1980324865400024,-1.2983601788536192
2.2,0.3782315114776896,-1.0530810397534065,1.7286812360599326,0.008415595029193,0.107665008008834,0.0387838611533555,-0.109002604234353,0.9516703938071503,-0.226598792648956,0.362496317210879,-1.047930433024042,1.7309587057960765,-0.2418268359425395,1.2960898674820414,-0.2366121171985437,0.8842605525132212,-0.5704484530057001,0.0509875463183484,0.6737251348397394,11.494754258705145,-1.4315662128286444,0.2019537781790079,-1.2924559247381524
2.22,0.3759038635164664,-1.03401974722179,1.7242935959681676,0.0049659156635378,0.1033147872233484,0.038313285348768,-0.1231660099255061,0.9543799259503116,-0.2128558440795546,0.3727813812659719,-1.005497520063049,1.7173512964274849,-0.1618060684682283,1.0516703952972666,-0.1834234231478421,0.9960073551287408,-0.7081702845576542,0.1354766071580526,0.6871474284700654,11.523797922096492,-1.434858400916034,0.2054795180131205,-1.2916535424175115
2.24,0.3734585835247588,-1.015782686706384,1.7203951882180903,0.0043326373022979,0.1017480090386291,0.0380775174330273,-0.1333750973505732,0.9640279853388608,-0.1982214465525008,0.3727813812659719,-1.005497520063049,1.7173512964274849,-0.1618060684682283,1.0516703952972666,-0.1834234231478421,1.0142436923608105,-0.5104543712533549,0.4824029694274589,0.7317198763526946,11.560015341849976,-1.429026179723685,0.2055435703953447,-1.2953121507608716
2.26,0.3706857905135994,-0.9964372514861252,1.7165931518485833,0.0067129214528093,0.1011582717323976,0.0380440821776479,-0.1432911607038834,0.9698277440340346,-0.1827679569734055,0.3727813812659719,-1.005497520063049,1.7173512964274849,-0.1618060684682283,1.0516703952972666,-0.1834234231478421,0.9627770426224248,-0.4958031676655108,0.2899879347586953,0.7726744789547629,11.63987567652748,-1.4272995556429866,0.2023933036854093,-1.3034410759486836
2.28,0.3677204553018217,-0.977015266215756,1.7130928694751042,0.0101309261846647,0.1013026606260724,0.0380819915893843,-0.1526600557974464,0.97193027026158,-0.1680528110336299,0.3711633205812896,-0.9949808161100764,1.7155170621960063,-0.1723667613150033,1.0716703955952898,-0.1747883492476193,0.8785390313477788,-0.4684447546781489,0.1051263113772682,0.7357572969887773,11.641679607716467,-1.425333313598778,0.1982005731383656,-1.311311812376947
2.3000000000000003,0.364735463813546,-0.9585533968436958,1.7100322449607404,0.0128693672511599,0.1018556338869954,0.0380824163759703,-0.1610357842606608,0.9715781054176538,-0.1548638293855551,0.367927199211925,-0.973947408204131,1.7118485937330497,-0.1934881470085535,1.1116703961913363,-0.1575182014471737,0.7813867228844691,-0.4187864231607219,-0.0176082421963097,0.6594490824037402,11.59994684283538,-1.4224570190329702,0.1942925361519384,-1.318678098296844
2.32,0.3614277441515405,-0.9391390262645476,1.7070767384193384,0.0146327935906043,0.1026318785699822,0.0380045667275682,-0.1692595268270837,0.9700887378227212,-0.1414032019686516,0.3646910778425605,-0.9529140002981856,1.7081801252700928,-0.2146095327021036,1.1516703967873827,-0.1402480536467282,0.7922068039475662,-0.4111871283211457,-0.0744683797466339,0.6730313708451771,11.55690244854759,-1.4190693518127413,0.1916971185666453,-1.3252175499995626
2.34,0.3579609589979719,-0.9197631501435042,1.7043871430712814,0.0148909230321754,0.103409817765215,0.0378204046479785,-0.1769884507926079,0.9677447281758468,-0.1282450731033353,0.3603988871885184,-0.929880592362438,1.7053751641971582,-0.2357309183956537,1.191670397383429,-0.1229779058462826,0.7719569322924763,-0.3864461982762079,-0.1172004823437211,0.6579064432658155,11.539743148223351,-1.4159760548832845,0.1909151735211526,-1.330740178541764
2.36,0.3543443168948651,-0.9004398608558624,1.701961184351636,0.0132224607338271,0.1040543299909064,0.0375005259145651,-0.1842857401017373,0.9649225919008212,-0.1150038733814562,0.3561066965344763,-0.9068471844266904,1.7025702031242236,-0.2568523040892038,1.2316703979794756,-0.105707758045837,0.7689997634762951,-0.36486446545647,-0.1411068137512794,0.6620599860939519,11.530677417840709,-1.41271008097772,0.1923513392151641,-1.3356187237100217
2.38,0.3507740283291438,-0.8821200033672226,1.6999059940155274,0.0099964153050202,0.1045262394614797,0.0370835808762046,-0.1911785531146458,0.9641046739144348,-0.1020024061714549,0.3512864712380955,-0.8828137764760415,1.7001969957463003,-0.2779736897827539,1.271670398575522,-0.0884376102453915,0.7369158884772978,-0.3446406506454252,-0.0408958993193209,0.6500733605000648,11.546047312757764,-1.409069727265971,0.1959938184321008,-1.341160831048862
2.4,0.3468749014740195,-0.862819656198633,1.6980159271209645,0.0061778752232545,0.104933864606014,0.0366199572344339,-0.198361635771174,0.9660782030756092,-0.0876739117930899,0.3459382112993759,-0.8577803685104916,1.698255542063388,-0.299095075476304,1.3116703991715684,-0.071167462444946,0.8074609045510538,-0.3591541328264114,0.0986764580587329,0.7164247189182529,11.576590123701862,-1.4054862795934506,0.2002989483717444,-1.3483419289054313
2.42,0.3428327288031457,-0.8434599980083011,1.696417837588257,0.0027337954174722,0.1052928035979693,0.0361888388119729,-0.2054817141821832,0.9697542816277168,-0.0728483890548211,0.3369568196854609,-0.8145157460448526,1.6936322315313097,-0.205181371983666,1.066078204565725,-0.0780560290123592,0.842622683297674,-0.3560039205504586,0.1838039276053804,0.7412761369134386,11.670197298800304,-1.4024565647950171,0.2042699336173872,-1.3561464228410465
2.44,0.3385378662864961,-0.8239312946157159,1.6949760047821252,0.0027837308112709,0.1084926326165512,0.0360127430185643,-0.222647574673151,0.9815136902753848,-0.0720818494431265,0.3369568196854609,-0.8145157460448526,1.6936322315313097,-0.205181371983666,1.066078204565725,-0.0780560290123592,1.041078816798361,-0.85829302454839,0.587970432383389,0.0383269805847297,11.670197298800304,-1.411092589051761,0.2054541897906252,-1.368521058479905
2.46,0.3341875576120638,-0.8052188192052214,1.6936137753346654,0.0062030528455009,0.1152141928352965,0.0361031065294782,-0.2339044788546721,0.9871972735918976,-0.0713259030104583,0.3369568196854609,-0.8145157460448526,1.6936322315313097,-0.205181371983666,1.066078204565725,-0.0780560290123592,0.6316495588472144,-0.562845209076053,0.2841791658256376,0.0377973216334114,10.824831751187958,-1.3938422970191393,0.1999729705853026,-1.3778394534559797
2.48,0.3294255482391002,-0.7854557579267409,1.6921955103146264,0.0104356141550127,0.1241267999816444,0.0362840196607631,-0.2412680521325996,0.988791438733473,-0.0705659785453289,0.3349050059656242,-0.8038549639991953,1.692851671241186,-0.2065453192261644,1.0860782048637485,-0.076132452456213,0.3786193969896595,-0.3681786638963777,0.0797082570787754,0.037996223256468,10.839795441573187,-1.3766691165522855,0.1938279070136217,-1.3897244767125945
2.5,0.324555467781504,-0.7656859013563713,1.6907901971145975,0.013881924176409,0.1337740476393441,0.036451894174177,-0.2450243555490527,0.9883186001637946,-0.0700343196446514,0.3308013785259509,-0.7825333999078807,1.691290550660939,-0.2092732137111612,1.126078205459795,-0.0722852993439207,0.191154733502089,-0.1878151708226513,-0.0236419284839195,0.0265829450338782,10.834983067004032,-1.3611767178540497,0.1890498869531277,-1.4014867332960708
2.52,0.3196427343057699,-0.7459366767062869,1.6893950163428315,0.0160799808751387,0.1435183869653134,0.0365597535982815,-0.2457700260426824,0.9870098939136682,-0.0695438929263284,0.3266977510862776,-0.7612118358165663,1.6897294300806918,-0.212001108196158,1.1660782060558414,-0.0684381462316284,0.0792031391460393,-0.0372835246814848,-0.0654353125063178,0.0245213359161465,10.8331496706669,-1.3459684294059242,0.1856769588221776,-1.4135548678757164
2.54,0.3149885788404178,-0.7272044345885679,1.6880803192818037,0.0169079918925606,0.1525135578548203,0.0365827850527918,-0.2438928156333956,0.985113305549058,-0.0689010070342734,0.3224577289223544,-0.7378902716954494,1.6883606671560591,-0.2147290026811548,1.2060782066518878,-0.0645909931193361,0.1372431110813265,0.093860520464338,-0.0948294182305076,0.0321442946027497,10.84767901051964,-1.3321536896958786,0.1841441277131203,-1.424633863771851
2.56,0.3101627682128454,-0.707529776238189,1.6867076043947582,0.0161047597382515,0.1611476636041408,0.0364762561079552,-0.2386173129372053,0.9826416663419746,-0.0684306501163175,0.3182177067584312,-0.7145687075743327,1.6869919042314268,-0.2174568971661516,1.2460782072479344,-0.0607438400070439,0.2922377657737471,0.2637751348095157,-0.1235819603541743,0.0235178458977976,10.878165797414113,-1.3200415022231538,0.1849281046429905,-1.434514563191046
2.58,0.3054718594475878,-0.6878937756263068,1.6853450701671506,0.0135893532756924,0.1682458086610969,0.0362137248931402,-0.2306831550166111,0.9812715155027676,-0.0678475273597607,0.3139094872323831,-0.6902471434383146,1.6857193201346017,-0.2201847916511484,1.2860782078439807,-0.0568966868947516,0.4036341393524643,0.3967078960297104,-0.0685075419603498,0.0291561378278383,10.886995900514194,-1.3112156242101525,0.1881139115569885,-1.4430290265943464
2.6,0.3009612098926018,-0.6682579407231716,1.6840004235065078,0.0101947596864202,0.1733804630827277,0.0358480737398267,-0.2209107178135517,0.9825800120190936,-0.0666574626036506,0.3095330703442102,-0.6649255792873955,1.6845429148655835,-0.2229126861361452,1.326078208440027,-0.0530495337824593,0.4965605354453556,0.4886218601529671,0.065424825816307,0.0595032378055047,10.914716115110425,-1.3063678880380114,0.1923822985518553,-1.449842667718418
2.62,0.2968668448912374,-0.649558299476373,1.6827522620699318,0.0071681821445628,0.1763576765170677,0.0354868686768493,-0.2107240688669637,0.9856561607430904,-0.0647905426862871,0.2899156740019242,-0.6191289401222169,1.680667550376325,-0.2187421741767529,1.0495409800962765,-0.0588393364839774,0.5401756605749117,0.5093324473294011,0.1538074361998265,0.0933459958681756,10.96653690346102,-1.305260950000255,0.1967631162728506,-1.455295053101671
2.64,0.2927603417168552,-0.6296311549038409,1.681453027921706,0.0100508535309009,0.1775054949095189,0.0355141519804509,-0.2005387931554114,1.0047355937988165,-0.0653456105123779,0.2899156740019242,-0.6191289401222169,1.680667550376325,-0.2187421741767529,1.0495409800962765,-0.0588393364839774,1.0817494018253817,0.5092637855776141,0.9539716527863008,-0.0277533913045378,11.026107908580345,-1.3079416066264031,0.1932338136114219,-1.466702001603856
