t,x,y,z,roll,pitch,yaw,v_x,v_y,v_z,ref_x,ref_y,ref_z,ref_v_x,ref_v_y,ref_v_z,a_com,a_x,a_y,a_z,thrust,wind_x,wind_y,wind_z
0.0,0.8425911650587533,-1.3108112751628052,1.991412619099602,0.0121406583233879,0.1362828492730825,0.0258830961872177,0.0028777318416495,-0.0037836006964834,0.0014635430146177,0.842623417110094,-1.3109333522522144,1.9914262529881184,-0.0970878043602337,0.0934870785157117,-0.0405852984720132,0.2486912389817434,0.1438865920824758,-0.1891800348241719,0.0731771507308865,10.54604201991424,-1.2851112036224694,0.1641250787564305,-1.1632265664142525
0.02,0.8428289807766243,-1.311115218083578,1.9913665169245744,0.0028361182047641,0.1305497906428667,0.0252072020646833,0.0201750610078622,-0.0223378531962133,-0.0062504180551937,0.842623417110094,-1.3109333522522144,1.9914262529881184,-0.0970878043602337,0.0934870785157117,-0.0405852984720132,1.3256725439325243,0.8648664583106358,-0.9277126249864934,-0.3856980534905745,10.545246061579746,-1.2752645198319446,0.1723349937497003,-1.1421839138288463
0.04,0.8433478901335925,-1.3115616841449167,1.9911327939094223,-0.0131995234604427,0.1146123015653932,0.0242415880515938,0.0293186992269358,-0.0205972136462345,-0.0167099428669664,0.842623417110094,-1.3109333522522144,1.9914262529881184,-0.0970878043602337,0.0934870785157117,-0.0405852984720132,0.700067148944199,0.4571819109536821,0.0870319774989398,-0.5229762405886358,9.894430364181062,-1.3102935895924996,0.1905179529209807,-1.123628687711979
0.06,0.8439255758453488,-1.3118904687044446,1.990693240699736,-0.0295609537580844,0.0928539700818379,0.0237054313060124,0.0268882201927406,-0.0119835473637816,-0.0266290268508001,0.8416525390664917,-1.309998481467057,1.9910204000033984,-0.117087804658257,0.1134870788137349,-0.0489807058208845,0.6680020625706787,-0.1215239517097637,0.4306833141226408,-0.4959541991916821,9.894430364181062,-1.3433476396165065,0.2072931090403388,-1.0944181660755123
0.08,0.8443244892640568,-1.3120070000525934,1.9901011865672964,-0.0444741788231876,0.0705091527666713,0.0236946651821802,0.0146341145404749,-0.0004066422016622,-0.0351873295033508,0.839710782979287,-1.308128739896743,1.9902086940339585,-0.1570878052543034,0.1534870794097813,-0.0657715205186269,0.9452941113249542,-0.6127052826132843,0.5788452581059725,-0.4279151326275345,9.871717941490717,-1.3732289411647272,0.2233748973006075,-1.0593533518705585
0.1,0.8444018926370377,-1.3118610797533172,1.989307693057645,-0.0594115612949435,0.0480539326655147,0.024105093049684,-0.0067661970602109,0.014730318567136,-0.0437156193196519,0.8377690268920823,-1.3062589983264288,1.989396988064518,-0.1970878058503499,0.1934870800058278,-0.0825623352163694,1.378253101858845,-1.0700155800342916,0.7568480384399121,-0.4264144908150563,9.902937207054492,-1.3956919990743994,0.2377873395901201,-1.0243113695515156
0.12,0.8439734466924502,-1.3113619432134542,1.9883450255996016,-0.0729466451920507,0.0286680374066547,0.0248008563289279,-0.0352326364112688,0.0343889619927186,-0.0521228846743584,0.8338272707750753,-1.3023892567263122,1.9877457413601904,-0.2370878064463963,0.2334870806018742,-0.0993531499141119,1.78008605227817,-1.4233219675528987,0.98293217127913,-0.4203632677353248,9.945222749899584,-1.410515789761303,0.2502610790617342,-0.9938805263253404
0.14,0.8429863726818142,-1.3104899399018748,1.98727411707643,-0.083814289066847,0.0143168300109136,0.0255600882448519,-0.0670366180357163,0.0560633768756669,-0.0601579219740832,0.8298855146580684,-1.2985195151261957,1.9860944946558632,-0.2770878070424428,0.2734870811979207,-0.1161439646118543,1.965855622937714,-1.5901990812223703,1.0837207441474186,-0.4017518649862404,9.996373402247627,-1.4170397357906517,0.2597046250755623,-0.9698567215848164
0.16,0.8412604872173844,-1.3091034108597084,1.985980921869244,-0.0929563600936136,0.004065463293127,0.026282610045635,-0.1038687651005882,0.0811182116418644,-0.0686969711235063,0.8249437585261602,-1.2936497735111778,1.984023477584092,-0.3170878076384892,0.3134870817939671,-0.1329347793095968,2.2678553541540487,-1.8416073532435968,1.2527417383098716,-0.426952457471157,10.036980753903665,-1.4182043508732625,0.2672690677590756,-0.9507950489459508
0.18,0.8387653418919997,-1.3071984251999391,1.9845175800601655,-0.0996588190942256,-0.0003861099152838,0.0267250525640513,-0.1435421410840158,0.107720952470385,-0.0771216803258283,0.819002002379351,-1.2877800318812591,1.9815326901448775,-0.3570878082345357,0.3534870823900136,-0.1497255940073392,2.425210458215708,-1.9836687991713813,1.3301370414260314,-0.4212354601160962,10.123639741861552,-1.4113817796033283,0.2723022412113706,-0.9393498376069204
0.2,0.8354829857144452,-1.3047506148864778,1.9828911598985457,-0.1040188614116216,0.0010723712858311,0.0267693927367121,-0.1818883991059784,0.1351486741961122,-0.084951389200584,0.8315882348377989,-1.30181237757642,1.9806614960438744,-0.2435421425741319,0.2077209539605011,-0.1328981460100038,2.38957096798478,-1.917312901098128,1.3713860862863614,-0.3914854437377872,10.123639741861552,-1.3967024648150983,0.2748992227940086,-0.936384870206967
0.22,0.8316391123645405,-1.3018097373545796,1.981168090590414,-0.1028519584992398,0.0080265276803496,0.0266085267140682,-0.2197092251516326,0.1710944873705524,-0.0956840752525396,0.8315882348377989,-1.30181237757642,1.9806614960438744,-0.2435421425741319,0.2077209539605011,-0.1328981460100038,2.66350657847753,-1.8910413022827088,1.7972906587220074,-0.5366343025977812,10.135261679109137,-1.3845122345928416,0.2744634328493421,-0.9477575808939988
0.24,0.8268939361329459,-1.2980812997965028,1.979148389584404,-0.0963355216625099,0.0202052589461837,0.0263569143868142,-0.251986954660666,0.198898926002538,-0.1055544446066093,0.8315882348377989,-1.30181237757642,1.9806614960438744,-0.2435421425741319,0.2077209539605011,-0.1328981460100038,2.1865285391940006,-1.6138864754516702,1.3902219315992836,-0.4935184677034819,10.03009044829696,-1.358621233714673,0.2674033480153858,-0.9581556130882236
0.26,0.8215752522664895,-1.2938668267614637,1.9769315272535364,-0.0888497846683672,0.0346634977464277,0.0260495401090353,-0.2776582835313038,0.2209890963549551,-0.115662979183418,0.8291528134120576,-1.2997351680368148,1.9793325145837743,-0.2635421428721552,0.2277209542585243,-0.1440534391468388,1.7671836516571933,-1.2835664435318888,1.1045085176208502,-0.5054267288404357,9.96162996369094,-1.334880305376627,0.2601683455366115,-0.974518459814438
0.28,0.8158089387620207,-1.28924673878281,1.974500446509112,-0.0819982107407714,0.0494617460877192,0.0257738095964749,-0.2973164482072803,0.2400473906483471,-0.1269608012394604,0.824281970560575,-1.2955807489576048,1.9766745516635744,-0.3035421434682016,0.2677209548545708,-0.1663640254205091,1.4809648907142832,-0.9829082337988264,0.9529147146696004,-0.5648911028021188,9.871951443785292,-1.3139713748277435,0.2539648910782968,-0.9906872463544146
0.3,0.8100157563407091,-1.2845221228112744,1.971968031849446,-0.0765386059552977,0.062519384192402,0.0256043782603195,-0.3113562384110461,0.2565369493817683,-0.1390907252290328,0.8194111277090923,-1.2914263298783948,1.9740165887433745,-0.3435421440642481,0.3077209554506173,-0.1886746116941793,1.2411248045437566,-0.7019895101882917,0.82447793667106,-0.6064961994786219,9.78046095585796,-1.2952565251077843,0.2486714549214101,-1.007155891281284
0.32,0.8036684672675042,-1.2792210162766573,1.96903840757978,-0.0719739737846262,0.0743276178596925,0.0255548975175282,-0.3224946021662735,0.2728658796640991,-0.1533390471560663,0.8125402848278074,-1.2852719107693824,1.9702430965094904,-0.3835421446602945,0.3477209560466637,-0.2109851979678494,1.2183100888580929,-0.5569181877613683,0.8164465141165395,-0.7124160963516742,9.696236865934225,-1.2806885515106077,0.244539247206573,-1.0198231174803047
0.34,0.7971290701127827,-1.27360032559069,1.9658080373217908,-0.0685531363285835,0.0836108173416786,0.0256475759851495,-0.3309750605103403,0.2886212760510855,-0.1690236593057414,0.8056694419465223,-1.27911749166037,1.9664696042756071,-0.423542145256341,0.3877209566427102,-0.2332957842415197,1.189703479151689,-0.4240229172033399,0.7877698193493238,-0.7842306074837532,9.61986664914457,-1.2707475163395472,0.241675822456532,-1.0281831688650849
0.36,0.7907704856507274,-1.267963468202763,1.962438830167632,-0.0659007103865537,0.0901234299747603,0.0258726252239919,-0.3380142628470167,0.3039413150492128,-0.184854945891085,0.7977985990503362,-1.2719630725364566,1.9621383473848817,-0.4635421458523874,0.4277209572387566,-0.2556063705151899,1.1563775328456658,-0.3519601168338188,0.7660019499063614,-0.7915643292671831,9.55680454594767,-1.2642980600685332,0.2394188875729448,-1.034104454932421
0.38,0.7839371476515589,-1.261717301000438,1.95855984027132,-0.0633820364901932,0.0948987404790592,0.0262389400513423,-0.3450073602349903,0.3198277673616254,-0.2022423534767917,0.7889277561392489,-1.2638086533976418,1.9572493258373147,-0.5035421464484339,0.467720957834803,-0.2779169567888601,1.2284184147754116,-0.3496548693986828,0.7943226156206323,-0.8693703792853321,9.516162277828698,-1.2606254463264346,0.2375210247009663,-1.0376561958259456
0.4,0.776964651238498,-1.2551561909753797,1.954328218283649,-0.0609954913234241,0.0979432633790294,0.026710972847923,-0.3519608751071325,0.3354198169912979,-0.2200593310908569,0.7666867796398094,-1.2457259126323563,1.9484477225974803,-0.4062471951098587,0.4198277688517415,-0.2366606532709887,1.2338031366787945,-0.3476757436071093,0.7796024814836239,-0.89084888070326,9.481176875547137,-1.2586979425726743,0.2358228070722544,-1.038861080668428
0.42,0.769804582044561,-1.2482629662915623,1.949924826813384,-0.0581979199452428,0.1017359290720476,0.027170358437278,-0.3630871220656073,0.3527195007057558,-0.2193811661748282,0.7666867796398094,-1.2457259126323563,1.9484477225974803,-0.4062471951098587,0.4198277688517415,-0.2366606532709887,1.0289950627366775,-0.5563123479237403,0.8649841857228974,0.0339082458014325,9.461395220460872,-1.2501158074048433,0.2335012195881645,-1.0444209446490085
0.44,0.7628254879148776,-1.2414211963927773,1.945750124717206,-0.0556035317071654,0.1071760837518805,0.0275021840984684,-0.3707140274145128,0.3667466756690696,-0.2201719649857312,0.7666867796398094,-1.2457259126323563,1.9484477225974803,-0.4062471951098587,0.4198277688517415,-0.2366606532709887,0.7993070208185106,-0.3813452674452766,0.7013587481656869,-0.0395399405451482,10.5592756547494,-1.2422160495684966,0.2316231694220505,-1.0552223881370877
0.46,0.7553523843223052,-1.2339398036545697,1.941312218838944,-0.0534716026728051,0.113564843198966,0.0277816988724158,-0.3759765431242329,0.3807556429513161,-0.2237198892005473,0.7626243076887108,-1.241527634943839,1.9460811160647704,-0.4184951620848324,0.4398277691497648,-0.2435443132298282,0.7689814727029884,-0.2631257854860014,0.7004483641123271,-0.1773962107408058,10.3974560996503,-1.2353054326071098,0.2303200570956923,-1.065351562928781
0.48,0.7477994254664628,-1.226182706307436,1.9367775276315071,-0.0519817438378074,0.119725993034547,0.0280348495371446,-0.378927669104914,0.3943049649581917,-0.2296790503730549,0.7544993637865136,-1.2331310795668045,1.9413479029993508,-0.4429910960347797,0.4798277697458112,-0.257311633147507,0.7546603098079568,-0.1475562990340573,0.6774661003437793,-0.2979580586253805,10.239875262331225,-1.2299640762042952,0.2296224933817341,-1.0733668244692316
0.5,0.740206962791613,-1.2181598391318385,1.9321033841306452,-0.0512237680897261,0.1250472796057498,0.0282826819708346,-0.3801191555114331,0.4073500503389501,-0.237518563308118,0.7463744198843164,-1.2247345241897696,1.936614689933931,-0.4674870299847271,0.5198277703418577,-0.2710789530651858,0.7633018005795882,-0.059574320325953,0.652254269037919,-0.3919756467531524,10.115733586862008,-1.2259739172804245,0.2295552157792627,-1.079669533284189
0.52,0.7329849572827599,-1.210300623544689,1.92750301733978,-0.0513482550194285,0.1289709671131533,0.0285154273258422,-0.380093118876272,0.4193831163682812,-0.2463397615464753,0.7370246792846219,-1.2143379687829323,1.9311931108726272,-0.4919829639346745,0.5598277709379041,-0.2848462729828647,0.746004179500711,0.001301831758052,0.6016533014665537,-0.4410599119178696,10.022057082087484,-1.223916617870351,0.2303715455636522,-1.0835582209085943
0.54,0.7253908990855401,-1.2017816536993062,1.9224760835127568,-0.052507229044019,0.1317856849110323,0.0287522308658136,-0.3793677418400457,0.4319777012559713,-0.2558987884986658,0.7276749386849273,-1.2039414133760953,1.9257715318113235,-0.5164788978846219,0.5998277715339506,-0.2986135929005435,0.7913986615647953,0.0362688518113191,0.6297292443845054,-0.4779513476095218,9.95424509696022,-1.223314049405852,0.2322118215184406,-1.0852664984877525
0.56,0.7178125492174451,-1.1929953764785697,1.917258358533587,-0.0544079524743683,0.1333273367060185,0.0290003539891494,-0.3786129556176177,0.4460004899520017,-0.2653888148251161,0.717712799736484,-1.192544857954357,1.9200057697520776,-0.5409748318345692,0.639827772129997,-0.3123809128182224,0.8474504480083281,0.0377393111213958,0.7011394348015232,-0.4745013163225148,9.945903782492678,-1.2244719730428084,0.2347264250242254,-1.0856893016945866
0.58,0.7106244191461975,-1.184374364675748,1.912127256667155,-0.0562900796755528,0.1338545999373408,0.0292802887264779,-0.3781596091840569,0.4607357791458613,-0.2742458801015779,0.7071382624392921,-1.1801483025177175,1.91389582469489,-0.5654707657845165,0.6798277727260434,-0.3261482327359012,0.8599155131857458,0.0226673216780409,0.7367644596929762,-0.4428532638230925,9.95649220715768,-1.2268710740203483,0.2375236319531047,-1.085315061275212
0.6,0.7030623349715072,-1.1749849791352642,1.90654478982656,-0.0577692126456885,0.133676919210543,0.0296513403207154,-0.3781485020582875,0.4773387602675062,-0.283521425680392,0.6917164386869946,-1.1613375757184548,1.898414962662076,-0.4155635168109242,0.5607357806359774,-0.2738962332890403,0.9509138384714472,0.0005553562884702,0.8301490560822494,-0.4637772789407052,9.97027867138786,-1.230324267177677,0.2398809657276558,-1.084539937267106
0.62,0.6954657867040807,-1.1651913240527267,1.900930173107369,-0.0565671386534416,0.1345154122719475,0.0301493744994292,-0.3812063818123078,0.5007033118274035,-0.2766504717951992,0.6917164386869946,-1.1613375757184548,1.898414962662076,-0.4155635168109242,0.5607357806359774,-0.2738962332890403,1.2272559894716215,-0.1528939877010138,1.1682275779948597,0.343547694259641,9.975333015594517,-1.2271312772313898,0.2396311505679889,-1.0913478382160973
0.64,0.687829506650388,-1.154962775963145,1.8954762497532456,-0.0518878778587253,0.1374523645738776,0.0307702984256444,-0.3819682706502921,0.5200701270430699,-0.269155668742345,0.6917164386869946,-1.1613375757184548,1.898414962662076,-0.4155635168109242,0.5607357806359774,-0.2738962332890403,1.0390212690319265,-0.038094441899214,0.9683407607833204,0.3747401526427107,11.05111275823674,-1.2254493656812515,0.2365926133612693,-1.103534773016015
0.66,0.6805833040301825,-1.14493696932773,1.890415226822804,-0.0466462849517686,0.1410674207720508,0.0313780934134669,-0.3806212775203569,0.5341965293369351,-0.2639773113732271,0.6875608035188854,-1.155730217912095,1.8956760003291857,-0.4230442983362977,0.5807357809340006,-0.2738263039265327,0.7552897081625527,0.0673496564967568,0.7063201146932596,0.2589178684558935,10.827641646010306,-1.2239585473391168,0.2324135558359835,-1.116536128923166
0.68,0.6730023102355616,-1.1341217922700113,1.8851758456006105,-0.0415591802862499,0.1449096991052602,0.0319936648768714,-0.3774627651272575,0.5466100749115406,-0.2603364775010995,0.6792495331826669,-1.1445155022993754,1.890198075663405,-0.4380058613870446,0.620735781530047,-0.2736864452015177,0.6658227721297205,0.1579256196549694,0.620677278730275,0.1820416936063829,10.827641646010306,-1.2229389369724393,0.2284966149887829,-1.1280869548095165
0.7000000000000001,0.6654991645790521,-1.1230734068434782,1.879991727107928,-0.0373352908865555,0.148203351022648,0.0325759923979568,-0.3729961838692837,0.557704391090806,-0.2583390818961629,0.6709382628464484,-1.1333007866866558,1.884720150997624,-0.4529674244377915,0.6607357821260935,-0.2735465864765026,0.6062668323894508,0.2233290628986944,0.5547158089632742,0.0998697802468279,10.724395910304338,-1.223077613665296,0.2253643005154483,-1.1377758290239557
0.72,0.6580955411382681,-1.1118130070915246,1.8748335458572605,-0.0340653259036225,0.1505593403979815,0.0331253568140724,-0.3676834721509479,0.5679804475051031,-0.2575936092713037,0.6618789143576926,-1.120086071044134,1.879249219268094,-0.4679289874885384,0.70073578272214,-0.2734067277514875,0.5796075626369372,0.2656355859167875,0.5138028207148537,0.0372736312429594,10.583967738813952,-1.2247564812336045,0.2232801756865138,-1.1452680224397236
0.74,0.6511654609595207,-1.1009295772068113,1.8699454822832136,-0.0317700826600144,0.1517814209411182,0.0336195178182916,-0.3621854358691698,0.5773102762616376,-0.2569874286482103,0.6528195658689367,-1.106871355401612,1.873778287538564,-0.4828905505392853,0.7407357833181865,-0.2732668690264724,0.5423134760676235,0.274901814088907,0.4664914378267215,0.030309031154671,10.588818338601412,-1.2274413045741823,0.2218968883069942,-1.1514147430993185
0.76,0.6439816422243054,-1.0892763678562771,1.8648136481684887,-0.0298668519247422,0.1520465129611077,0.0341271935835157,-0.3565848096911759,0.5875194898643115,-0.256221430789194,0.6433861783039123,-1.092656639744189,1.8683108522771597,-0.4978521135900323,0.7807357839142328,-0.2731270103014573,0.5834848084797696,0.2800313088996919,0.5104606801336953,0.038299892950816,10.588818338601412,-1.231542061532511,0.2210910483058727,-1.156431428289558
0.78,0.6369064536853658,-1.0774180314117885,1.8596989993214028,-0.0281426601877011,0.151417383163379,0.0346377070455731,-0.3512912017340696,0.5977518187215746,-0.255274982790134,0.6335787516626191,-1.077441924071865,1.86284691348388,-0.5128136766407791,0.8207357845102793,-0.2729871515764423,0.577967565832295,0.2646803978553158,0.5116164428631553,0.0473223999530009,10.618448784328391,-1.2360251313222934,0.2204233990999658,-1.1607429668146847
0.8,0.6302800088740662,-1.0659647837090365,1.8548592337462688,-0.0265317420978596,0.150058120263883,0.0351300487110302,-0.3465815307727682,0.6072711544528906,-0.2542220417679264,0.6193418935986623,-1.0475304404757095,1.846935250181896,-0.3805843700702226,0.6977518202116907,-0.255715649795157,0.5336371382444336,0.2354835480650713,0.4759667865658012,0.0526470511103799,10.618448784328391,-1.2409545206856194,0.219796934974659,-1.164201431894747
0.8200000000000001,0.623353559259672,-1.053694148423363,1.849795735629146,-0.0240617730861133,0.1492081684327416,0.0356732972743262,-0.3463003454110439,0.6188027809807086,-0.2521356342789319,0.6193418935986623,-1.0475304404757095,1.846935250181896,-0.3805843700702226,0.6977518202116907,-0.255715649795157,0.5861112773929046,0.0140592680862167,0.5765813263909014,0.1043203744497262,10.629358361698904,-1.2484362396024904,0.2186131894200451,-1.1699406168585131
0.84,0.616440253895448,-1.0412308322288986,1.8447736299053477,-0.0213174295663201,0.1500216388422394,0.0361815612183544,-0.3448630972799285,0.6270280625528075,-0.2502199439240907,0.6193418935986623,-1.0475304404757095,1.846935250181896,-0.3805843700702226,0.6977518202116907,-0.255715649795157,0.4283421782475313,0.0718624065557699,0.4112640786049448,0.0957845177420591,10.701241233808105,-1.2479474160499129,0.2164092896565963,-1.175384640785747
0.86,0.6095709424019663,-1.0286153902844437,1.839783664599087,-0.0192533308529952,0.1516263229708727,0.0366147796683421,-0.3420577735921468,0.634310758873935,-0.2488950109627714,0.6155360498979601,-1.0405529222735923,1.8443780936839445,-0.3864430037374533,0.7177518205097139,-0.2558037831961616,0.3957996780284886,0.1402661843890817,0.3641348160563717,0.0662466480659637,10.650858415015136,-1.2474161215315536,0.2150257781234068,-1.1813101030567068
0.88,0.6031087506954096,-1.0165017492637598,1.8350636383542775,-0.018069645387952,0.1533171977439325,0.036960041278579,-0.3382951993573582,0.640582402807227,-0.2480309557422538,0.6079243624965557,-1.0265978858693587,1.8392637806880412,-0.3981602710719145,0.7577518211057603,-0.2559800499981707,0.3682291199864496,0.1881287117394325,0.3135821966646024,0.0432027610258789,10.650858415015136,-1.247208899774729,0.214430203289199,-1.187022890283966
0.9,0.5963929217648496,-1.0036281109703806,1.8301105857304405,-0.0179318171875163,0.1548580223005571,0.0372411215264126,-0.3334801755184642,0.6465588023472333,-0.2473367415370295,0.6003126750951512,-1.012642849465125,1.8341494676921384,-0.4098775384063757,0.7977518217018068,-0.25615631680018,0.3853042284793905,0.2407511919446964,0.2988199770003141,0.0347107102612154,10.634034102313308,-1.2477233868616022,0.2150698602853742,-1.191833301279617
0.92,0.5897801884344137,-0.990637343653323,1.8251709195207309,-0.0192119012715627,0.1558788147663647,0.0374234786905199,-0.3280700656404129,0.6523600301333613,-0.2466692046018286,0.5921151243270236,-0.9966878130310888,1.8290263413561345,-0.4215948057408369,0.8377518222978533,-0.2563325836021892,0.3980236747951995,0.2705054939025675,0.2900613893064008,0.0333768467600428,10.63419964627883,-1.2491328117058849,0.2172783233655519,-1.1957123033871375
0.94,0.5832797294876741,-0.9775261968770314,1.8202470660879932,-0.022008725753202,0.1562070908585027,0.0375066511294252,-0.3223647313608659,0.6588834812943823,-0.2457618824279917,0.5839175735588962,-0.9807327765970528,1.823903215020131,-0.4333120730752981,0.8777518228938997,-0.2565088504041983,0.4356876398830259,0.2852667139773474,0.3261725580510521,0.045366108691848,10.63419964627883,-1.251283993752183,0.2209853194307164,-1.1991260504596546
0.96,0.5772078686727307,-0.9649180074726424,1.8155898135029376,-0.0251153235262099,0.1558813561288819,0.0375658113359892,-0.3171608174139751,0.6679696080891467,-0.2445257880593855,0.5754270911074071,-0.9637777401481152,1.8187756820140768,-0.4450293404097593,0.917751823489946,-0.2566851172062075,0.527177270434909,0.2601956973445424,0.4543063397382196,0.0618047184303097,10.68522779027171,-1.2549484008441278,0.2255991843203551,-1.2031389007081124
0.98,0.5709193405356936,-0.9514427359994434,1.8107168873009063,-0.0279311533231391,0.1549628402506264,0.0376741835107491,-0.312032281488666,0.678997957830412,-0.2428134884644137,0.5666436769725566,-0.9458227036842768,1.8136437423379728,-0.4567466077442205,0.9577518240859926,-0.2568613840082167,0.6141220331819057,0.2564267962654548,0.5514174870632604,0.0856149797485911,10.68522779027171,-1.2594753105900311,0.2297871177931556,-1.2070712603099882
1.0,0.5647293257958889,-0.9377366613029452,1.8058821575997253,-0.0299713296583643,0.1535148756766877,0.0378518574839544,-0.3072915621421535,0.690901021750405,-0.240728619669751,0.5553177264612603,-0.9174928381079228,1.7985762128776857,-0.341165659085402,0.7789979593205281,-0.2287768972996459,0.6490455078359236,0.2370359673256244,0.5951531959996537,0.1042434397331329,10.717616640072263,-1.264704071127602,0.233185754631571,-1.2111010880884692
1.02,0.5586145153997819,-0.9237229357409298,1.8011294955614994,-0.0290801007026582,0.1521510436728174,0.0382279020452137,-0.3044704582535777,0.7092710277190875,-0.2344198148409986,0.5553177264612603,-0.9174928381079228,1.7985762128776857,-0.341165659085402,0.7789979593205281,-0.2287768972996459,0.9813469885912626,0.1410551944287907,0.9185002984341216,0.3154402414376214,10.745051028380658,-1.2689671037631167,0.2336776421044659,-1.2200189701493325
1.04,0.5528591711117762,-0.910105113846656,1.7967398116929227,-0.0248109443246778,0.1514322376396378,0.0387927909549987,-0.3014476613719993,0.7225010288793551,-0.227981231894797,0.5553177264612603,-0.9174928381079228,1.7985762128776857,-0.341165659085402,0.7789979593205281,-0.2287768972996459,0.7510419130166446,0.151139844078918,0.6615000580133812,0.3219291473100794,11.05293838806756,-1.2732169895823495,0.2299339535746626,-1.2284842049934364
1.06,0.5468671936164091,-0.8955562512014712,1.792245518284043,-0.0195457538536404,0.1509134829472473,0.0394150456372051,-0.2979196666998799,0.7315820264832836,-0.2218340131324673,0.5519060698704062,-0.9097028585147175,1.7962884439046891,-0.3469923346047491,0.7989979596185512,-0.2259695790666924,0.5759764804247597,0.1763997336059725,0.4540498801964276,0.3073609381164841,10.996918329003163,-1.276978329616569,0.2250783894248337,-1.236719206483946
1.08,0.5409473451646871,-0.8808544250643304,1.787865521047611,-0.0149001040936157,0.1503944425701989,0.0399732747430205,-0.2942804258284268,0.738242434563022,-0.216520889667609,0.5450827566886982,-0.8941228993283069,1.7917129059586965,-0.3586456856434435,0.8389979602145977,-0.2203549426007853,0.4632342573200031,0.1819620435726532,0.3330204039869167,0.2656561732429147,10.996918329003163,-1.2804583108589065,0.2207481791009524,-1.2438235190751743
1.1,0.5351003192295911,-0.8660350285759056,1.7835843033365,-0.011348965583669,0.1497093398113218,0.0404379972489835,-0.2906796444649311,0.743635975090821,-0.2118788909697556,0.5382594435069902,-0.8785429401418964,1.7871373680127034,-0.3702990366821379,0.8789979608106442,-0.2147403061348782,0.3987607608691615,0.1800390681747837,0.2696770263899528,0.2320999348926683,10.951729550428354,-1.2836905168087354,0.2176593033064784,-1.249306097481173
1.12,0.5296108649754638,-0.8518628585612807,1.7795996537607863,-0.0090130550620403,0.148831965902222,0.0407930084524277,-0.2874159430310913,0.7481659512562187,-0.2077995150869382,0.5308534627733474,-0.8609629809256835,1.782842561890006,-0.3819523877208323,0.9189979614066908,-0.2091256696689711,0.3457373956546772,0.1631850716919902,0.2264988082698815,0.2039687941408741,10.905692074679791,-1.2871397543165168,0.215546670563009,-1.2539925898279791
1.14,0.5238971580105055,-0.8368561557768691,1.77548958979131,-0.007633213919433,0.1476417722782372,0.0410783728177715,-0.2841908145079085,0.7523905556887774,-0.2034208111840936,0.5234474820397047,-0.8433830217094707,1.7785477557673084,-0.3936057387595267,0.9589979620027372,-0.203511033203064,0.3443173843688009,0.1612564261591398,0.2112302216279393,0.2189351951422294,10.905692074679791,-1.2905331779349174,0.2146086356237207,-1.2574110425685412
1.16,0.5182433778303258,-0.8217609199155474,1.7714691336994264,-0.00724386194239,0.1462040913663939,0.041283624475665,-0.2814138918537588,0.7569641436152027,-0.1988380586331703,0.5157501675300945,-0.8248030624783566,1.7743933155562583,-0.405259089798221,0.9989979625987836,-0.1978963967371569,0.3522450386125623,0.1388461327074847,0.228679396321263,0.2291376275461623,10.916495134406432,-1.2942073837925676,0.2148024882853081,-1.2606558105128924
1.18,0.5126400115388159,-0.8065713292641438,1.7675437931388802,-0.0075980164255527,0.1446064748137037,0.041428131945397,-0.2791312304372467,0.7618002413657787,-0.1939318314597308,0.5077615192445171,-0.8052231032323414,1.7703792412568562,-0.4169124408369154,1.0389979631948298,-0.1922817602712498,0.3628686045697397,0.1141330708256088,0.2418048875288014,0.2453113586719749,10.93283195328695,-1.297716912058004,0.21576116989024,-1.2635096392126084
1.2,0.5073537896420597,-0.79204754405726,1.7639086172913423,-0.0084611731202429,0.1430361839828219,0.0415221781162959,-0.2774846816919056,0.7667912925510102,-0.1889695269956581,0.4986834500169536,-0.7684813171958549,1.7578472015658937,-0.3064633370424188,0.8618002428558948,-0.1717825834110677,0.3614075964148402,0.0823274372670546,0.2495525592615732,0.2481152232036362,10.977143705091294,-1.3013949924426842,0.2174132796278904,-1.2665730548766387
1.22,0.5017928865721114,-0.7766041033892892,1.7601888355404784,-0.0081901723797065,0.1421470129825864,0.041689735303103,-0.2786132035596576,0.7769175993463021,-0.1832585981421811,0.4986834500169536,-0.7684813171958549,1.7578472015658937,-0.3064633370424188,0.8618002428558948,-0.1717825834110677,0.5840170358984526,-0.0564260933876015,0.5063153397645959,0.2855464426738494,10.977143705091294,-1.305574251538309,0.2179687157046837,-1.2738957423169128
1.24,0.4962177522638145,-0.7609856396983313,1.7565878124744043,-0.0061453659947793,0.1424807007934481,0.0419591495607506,-0.2787159939103987,0.7843322840498622,-0.1771272726003818,0.4986834500169536,-0.7684813171958549,1.7578472015658937,-0.3064633370424188,0.8618002428558948,-0.1717825834110677,0.4810958012936042,-0.0051395175370561,0.3707342351780052,0.3065662770899646,11.023497111626966,-1.3049208404866992,0.2159759104776153,-1.2802287835915556
1.26,0.4906521893757637,-0.7452411852646907,1.7531092768533538,-0.0036448893907902,0.1434107831242148,0.0422443799658499,-0.2777703947848726,0.7896680730357295,-0.1710537861506982,0.4956188166465294,-0.759863314767296,1.756129375731783,-0.3119297583634532,0.881800243153918,-0.167352733801335,0.4069767790132163,0.0472799562763082,0.2667894492933642,0.3036743224841806,11.047784821054847,-1.3043503228232614,0.2135830160495563,-1.2866279669564211
1.28,0.4853914095991093,-0.7302032247314615,1.749915658647366,-0.001703414797862,0.1444397112192997,0.0424738261652298,-0.2760365000170292,0.7932082886836633,-0.1654369443674331,0.489489549905681,-0.742627309910178,1.7526937240635616,-0.3228626010055221,0.9218002437499644,-0.1584930345818698,0.3431050477552859,0.0866947383921679,0.1770107823966915,0.2808420891632551,11.047784821054847,-1.3036895359834808,0.2115434868151399,-1.2932816006089256
1.3,0.4798964557833613,-0.714310662922581,1.7466689031123592,-0.0005591424535058,0.1453691593879265,0.042642021268793,-0.2735485565074528,0.7959635510309877,-0.1595430320974335,0.4833602831648326,-0.7253913050530602,1.7492580723953404,-0.333795443647591,0.961800244346011,-0.1496333353624045,0.3482798277099853,0.1243971754788214,0.1377631173662186,0.2946956134999803,11.052972995229538,-1.303446264513063,0.2105630635172998,-1.2989683938569974
1.32,0.4744565738936867,-0.6983710972167275,1.7435408227462934,-0.0007673801886328,0.1459325255807624,0.0427057666054592,-0.2705943950807641,0.797995155509381,-0.1535615003716773,0.4766843742918808,-0.7061553001661399,1.7462654056880924,-0.3447282862896598,1.001800244942057,-0.1407736361429393,0.3486875688843504,0.1477080713344319,0.1015802239196672,0.2990765862878122,11.052972995229538,-1.3038335206883678,0.2111867976232451,-1.3037210991823238
1.34,0.4690791749536201,-0.6823945820362841,1.7405357869212492,-0.0026973125659576,0.145997253804405,0.04264197155908,-0.2673826280434584,0.79981472700714,-0.1472487620009424,0.470008465418929,-0.6869192952792197,1.7432727389808442,-0.3556611289317287,1.041800245538104,-0.131913936923474,0.3656396917551758,0.1605883518652873,0.0909785748879454,0.3156369185367408,11.0662000585653,-1.3047988948520126,0.2136897782322585,-1.3073325469331545
1.36,0.4640285595537026,-0.667163370172502,1.7378030169044292,-0.005761664923548,0.1456027355448237,0.042493529083635,-0.2645079804008422,0.8037228434619081,-0.1407379267241503,0.4630592354799254,-0.6666832903773983,1.740501564754083,-0.3665939715737976,1.0818002461341505,-0.1230542377040088,0.4059801389684884,0.1437323821308095,0.1954058227384092,0.3255417638396055,11.091998352319024,-1.3065048970415096,0.2180018150778454,-1.312091118780431
1.38,0.4587675029294946,-0.6510223286351898,1.7350664398742583,-0.0090607496346276,0.1447948926410249,0.0423346267999157,-0.2618140517392086,0.8101918448596197,-0.1332394695939469,0.4558366844748702,-0.6454472854606758,1.737951883007808,-0.3775268142158664,1.1218002467301966,-0.1141945384845435,0.5131571154409328,0.1346964330816796,0.323450069885578,0.3749228565101709,11.12961880871535,-1.3090619331031847,0.2225165906514656,-1.3168110703945803
1.4,0.4535560985538148,-0.6347361697335896,1.7324859256410283,-0.0118085057392042,0.1436870068161672,0.0422183517879683,-0.2595221351241677,0.8180034945410345,-0.1251705091450001,0.4456768003425342,-0.6105127363922088,1.728404466394561,-0.294181262574427,0.8887325276522833,-0.1183779827417779,0.5731118460695876,0.1145958307520456,0.3905824840707395,0.4034480224473405,11.220565119602725,-1.3120996978479036,0.2264211407296815,-1.321640615556295
1.42,0.448359835950387,-0.6181355996449258,1.730004843983589,-0.0088931441379289,0.142683819202881,0.0424909321824893,-0.2600811070023028,0.8390184842782167,-0.1232976788033453,0.4456768003425342,-0.6105127363922088,1.728404466394561,-0.294181262574427,0.8887325276522833,-0.1183779827417779,1.0552840099980685,-0.0279485939067541,1.0507494868591094,0.0936415170827396,11.220565119602725,-1.32022424341652,0.2246208931316499,-1.334284572929329
1.44,0.4434188569258889,-0.6020942155545738,1.7276850688468532,-0.0011403455017743,0.1419921595030184,0.0430725366401651,-0.2599684604216965,0.8477308102104124,-0.1209604555408764,0.4456768003425342,-0.6105127363922088,1.728404466394561,-0.294181262574427,0.8887325276522833,-0.1183779827417779,0.4510541125506961,0.0056323290303139,0.4356162966097865,0.1168611631234467,10.891814502948364,-1.3227328762170845,0.2149817435324843,-1.3374424815650794
1.46,0.4382227821247395,-0.5851070300943482,1.7252887636101693,0.0074578993139362,0.1413696942710783,0.0436850951451029,-0.2596588882513173,0.8504492081028117,-0.1188252288732763,0.4427349877167899,-0.601625411115686,1.7272206865671431,-0.3006547047414707,0.904440664210816,-0.1154056853713441,0.1735274830689971,0.0154786085189595,0.1359198946199624,0.1067613333800031,10.891814502948364,-1.324664468330042,0.2045878232601621,-1.3408877835656428
1.48,0.4330334459058767,-0.5681065429809908,1.722928906334745,0.0147853863227134,0.1407780871893273,0.044179160179859,-0.2593259533508635,0.8497817584855866,-0.1172731481028862,0.4368513624653014,-0.5838507605626403,1.7248531269123075,-0.3136015890755581,0.9358569373278814,-0.1094610906304764,0.0861000777770991,0.0166467450226914,-0.0333724808612545,0.0776040385195075,10.866605036735564,-1.3259410219565904,0.1960168146001386,-1.342931304840719
1.5,0.4281097289586681,-0.5519868604143409,1.7207129607924057,0.020135623633473,0.1401933468758014,0.0445104827854613,-0.2590179329921107,0.8474489977026572,-0.1160610266003981,0.4309677372138129,-0.5660761100095947,1.722485567257472,-0.3265484734096455,0.9672732104449469,-0.1035164958896088,0.1323431897433054,0.0154010179376412,-0.116638039146466,0.0606060751244003,10.83798291793846,-1.3267889552417078,0.1889455844588613,-1.343885154766525
1.52,0.4229329670982744,-0.5350744714924448,1.7184058651304668,0.024093766250889,0.1395111102723806,0.0447176378715955,-0.2587132991455365,0.8442012657247119,-0.1147020919021572,0.4244367677456199,-0.5467306458006957,1.72041523733968,-0.3394953577437328,0.9986894835620124,-0.0975719011487412,0.1766866456125831,0.0152316923287099,-0.1623865988972683,0.067946734912045,10.82695568757481,-1.3273235698617754,0.1839272649147528,-1.343912174392582
1.54,0.4177613268587754,-0.5182311898273415,1.7161266743690642,0.0265064457797405,0.1387320903300528,0.0447939196199281,-0.258510490262945,0.840578937308151,-0.1132757171100421,0.417905798277427,-0.5273851815917967,1.7183449074218875,-0.3524422420778202,1.0301057566790777,-0.0916273064078736,0.1949162618142973,0.0101404441295749,-0.1811164208280424,0.0713187396057593,10.83579742222173,-1.3279603027849955,0.1807887309448501,-1.3433803302760234
1.56,0.4125908445353332,-0.5014576061391935,1.713879158954586,0.0277095916568546,0.1378941938021962,0.0447669013856497,-0.2585822759242077,0.83711511012317,-0.1115424765467166,0.4110511567008819,-0.5072543105549712,1.7164231923726174,-0.3653891264119076,1.0615220297961432,-0.085682711667006,0.1936967655830462,-0.0035892830631351,-0.173191359249053,0.0866620281662719,10.840132304399958,-1.3285929119027766,0.17917331416879,-1.342438955180849
1.58,0.4076754733850302,-0.4855882140169824,1.7117801384408713,0.0278738595831614,0.1371141249639051,0.0446601323658335,-0.2588424876497498,0.833631626202014,-0.1094904518230051,0.4038728430159847,-0.486338032690219,1.7146500921918686,-0.378336010745995,1.0929383029132085,-0.0797381169261384,0.2025658895136652,-0.0130105862771068,-0.1741741960577969,0.1026012361855767,10.858011245238233,-1.3290004670295066,0.1786968417277882,-1.3412746068644923
1.6,0.4024945939860759,-0.468955200786417,1.7096174745256774,0.0269703746507495,0.1363500481520877,0.0444634787792369,-0.2592491848819755,0.829944296156417,-0.1068595136452498,0.3947333490025427,-0.4439066327068817,1.706305615849721,-0.2852319766001215,0.8416085670350462,-0.0903190872175783,0.2273963566057806,-0.0203348616112875,-0.1843665022798535,0.1315469088877648,10.88306384348016,-1.3291344300397745,0.179551047575419,-1.3401351346039496
1.62,0.3972702373036312,-0.4521406641639794,1.7074935239607745,0.0330822278803335,0.1362868064217605,0.0447614509080047,-0.2629599855019053,0.8479613140710364,-0.1058320068961534,0.3947333490025427,-0.4439066327068817,1.706305615849721,-0.2852319766001215,0.8416085670350462,-0.0903190872175783,0.9211931744971116,-0.1855400309964894,0.9008508957309702,0.0513753374548182,10.797679938243164,-1.3326860394330655,0.1729007557423613,-1.3523739272932536
1.64,0.3922514247340896,-0.4360030348627504,1.7054907166680595,0.04601565586815,0.1372238530299903,0.0455506661996723,-0.2649806286029382,0.8487151226065015,-0.1050634474669505,0.3947333490025427,-0.4439066327068817,1.706305615849721,-0.2852319766001215,0.8416085670350462,-0.0903190872175783,0.1144760831583222,-0.1010321550516418,0.0376904267732569,0.0384279714601469,10.797679938243164,-1.3309276511689518,0.1557863111009407,-1.3543031345141474
1.66,0.3869414634816695,-0.4191124122422334,1.7033876289326522,0.0602923713717451,0.1387285154014021,0.0464311540188808,-0.2658142510410279,0.8401056733854443,-0.1053525126283278,0.3918810292365415,-0.4354905470365312,1.7054024249775452,-0.2905098743901959,0.8432039552016526,-0.0864848142964929,0.432727110679385,-0.0416811219044854,-0.4304724610528609,-0.0144532580688673,10.78913101697708,-1.327946168258547,0.1376208023810949,-1.35599684402751
1.68,0.3816266912723169,-0.4024550409891992,1.7012671269510726,0.0728519256290117,0.1403745190104772,0.0471822053348534,-0.2655710150794593,0.8262471933883134,-0.1067152654001876,0.386176389704539,-0.4186583756958303,1.7035960432331936,-0.3010656699703446,0.8463947315348654,-0.0788162684543222,0.6963722544032895,0.0121617980784305,-0.6929239998565428,-0.068137638592991,10.699456411423853,-1.3242411423875091,0.1215672725919292,-1.355664481404561
1.7,0.3763273344084152,-0.3861115937451148,1.6991132937820477,0.0828164513528024,0.1418445736700347,0.0477188659405059,-0.2643916016840768,0.8093490611164866,-0.1085654212297186,0.3804717501725366,-0.4018262043551294,1.701789661488842,-0.3116214655504933,0.8495855078680783,-0.0711477226121515,0.8519990710483626,0.0589706697691233,-0.8449066135913397,-0.0925077914765475,10.692266362256303,-1.320530658646492,0.1093457310150887,-1.353403810396324
1.72,0.3713223233000839,-0.3709151216969815,1.697034291764157,0.0898863756401178,0.142878577114055,0.0480085302778919,-0.2625560646822248,0.7916595327660596,-0.1101399054369336,0.3742393208615268,-0.3848344941977678,1.700366707036599,-0.322177261130642,0.8527762842012911,-0.0634791767699808,0.8927032119698279,0.0917768500926008,-0.8844764175213515,-0.0787242103607505,10.692266362256303,-1.3167715490714382,0.0996226927187445,-1.3492406889746436
1.74,0.366096900736293,-0.3552880132182273,1.6948193497254584,0.0951148676562387,0.1434594938492326,0.0480857959897957,-0.2601169187467192,0.772329494446552,-0.1112022805890755,0.3680068915505169,-0.3678427840404062,1.698943752584356,-0.3327330567107907,0.855967060534504,-0.0558106309278101,0.9756132113858128,0.1219572967752796,-0.9665019159753818,-0.0531187576070929,10.71541616389004,-1.313329845503738,0.0927721183084986,-1.3431460827915018
1.76,0.3609226535912912,-0.3400525671758539,1.692592081912928,0.0984157787887789,0.1435003273194949,0.0479478239791396,-0.2574799238172271,0.7525159514927996,-0.1113922794846346,0.3615105673500033,-0.3507713044747144,1.6977125117781673,-0.3432888522909394,0.8591578368677169,-0.0481420850856394,0.9994577607616428,0.1318497464746049,-0.9906771476876186,-0.0094999447779568,10.754356448483122,-1.3107545504430829,0.0883101931723208,-1.3363600571226946
1.78,0.3558023469490158,-0.3252191765422972,1.6903722055536357,0.0999846236191084,0.1430573058869433,0.0476133367541588,-0.2547662538252877,0.732196711010437,-0.1105371681098177,0.354750348259986,-0.3336200555006922,1.6966729846180328,-0.3538446478710881,0.8623486132009297,-0.0404735392434686,1.0258737179455557,0.1356834995969696,-1.0159620241181275,0.0427555687408431,10.85905938009455,-1.3088304679477762,0.0860307444812314,-1.3292387714916971
1.8,0.3509879366057004,-0.3115091367515548,1.688288960957392,0.0998440150195333,0.1422603363241175,0.0471215833375626,-0.2522199124581651,0.712255771100797,-0.1087537742313308,0.3430640342577514,-0.2886093409917754,1.6848453471481448,-0.2681802167333769,0.7015490029073763,-0.1050325920861497,1.0090904723606562,0.1273170683561281,-0.9970469954820038,0.0891696939243492,10.85905938009455,-1.3072738897723746,0.0856677286857365,-1.321228156099988
1.82,0.3459062944315187,-0.2973511116574395,1.6860389389413943,0.1018886457589477,0.1423575949202128,0.0468307960028087,-0.2559905233286669,0.7034945237848006,-0.1170077012476529,0.3430640342577514,-0.2886093409917754,1.6848453471481448,-0.2681802167333769,0.7015490029073763,-0.1050325920861497,0.6306827095687102,-0.1885305435250867,-0.4380623657998184,-0.4126963508161073,10.915802271199937,-1.3164433751120712,0.0833833436663887,-1.3224424942446422
1.84,0.3407631701996872,-0.283438368813663,1.68361291231421,0.1072764331280254,0.1442889557411853,0.046939441367577,-0.2578470451275534,0.687669661912914,-0.1251587688264726,0.3430640342577514,-0.2886093409917754,1.6848453471481448,-0.2681802167333769,0.7015490029073763,-0.1050325920861497,0.8948642762013089,-0.0928260899443284,-0.7912430935943293,-0.4075533789409863,10.29302882792308,-1.3083641602278582,0.0768702331457217,-1.3123954640652662
1.86,0.3358655473555469,-0.2705626004264662,1.6811693417937543,0.1125255736199677,0.1470000777136049,0.047131063360555,-0.2574603801925726,0.6685559019574195,-0.1316410966891837,0.3403822320904176,-0.2815938509627016,1.6837950212272834,-0.2708630093149947,0.6954194612867641,-0.1039316768814161,1.0093387735640205,0.0193332467490425,-0.9556879977747236,-0.3241163931355553,10.29302882792308,-1.2993668859088945,0.0699320672906233,-1.3035587243748024
1.88,0.3307393193205234,-0.257423975710021,1.6784764282599676,0.117172784409304,0.1501219470616949,0.0472882659546216,-0.2550567971633531,0.6464458200312542,-0.1372258753002785,0.3350186277557501,-0.267562870904554,1.6816943693855604,-0.2762285944782304,0.6831603780455399,-0.1017298464719489,1.146541196703195,0.1201791514609723,-1.1055040963082683,-0.2792389305547385,10.381636948050982,-1.2908167697200723,0.0641650467839426,-1.2956194226638955
1.9,0.3256805036588386,-0.2447420631069113,1.6756858988160606,0.1205921603358416,0.1529961548599369,0.0473148089984234,-0.2508806247070223,0.623068082804099,-0.1414553666576975,0.3296550234210825,-0.2535318908464065,1.6795937175438374,-0.281594179641466,0.6709012948043156,-0.0995280160624816,1.2060758800645752,0.208808622816542,-1.1688868613577597,-0.2114745678709478,10.541935981926144,-1.283330280463211,0.0599408252608498,-1.2875709410536047
1.92,0.3207215200486579,-0.2325370921610491,1.6728263671393162,0.122673826641372,0.1552217687717453,0.0471501406622612,-0.2452754962070917,0.5989525686014379,-0.1442365975744107,0.3240231398282532,-0.2401138649503202,1.6776031572225878,-0.2869597648047017,0.6586422115630913,-0.0973261856530144,1.2457033516969092,0.2802564249965292,-1.2057757101330555,-0.13906154583566,10.541935981926144,-1.2775179543922095,0.0573818907981834,-1.2799402395423405
1.94,0.3161231748493996,-0.2213948428464412,1.670066650091504,0.1233903209314424,0.1565340739899121,0.0467868761371419,-0.2391216389133159,0.5753423547982223,-0.1460790284150059,0.3183912562354239,-0.2266958390542339,1.675612596901338,-0.2923253499679373,0.6463831283218671,-0.0951243552435472,1.2234241975170417,0.3076928646887925,-1.1805106901607798,-0.0921215420297605,10.667011202391222,-1.27342292455756,0.0562476207380863,-1.2713426309294644
1.96,0.3114127654324228,-0.2101576906883901,1.6671324359951356,0.1224811750968186,0.1570264788288893,0.0461575382468933,-0.2323084741907679,0.549789970337082,-0.1471640254664617,0.3126252330135137,-0.2135842902391782,1.673677082340325,-0.297690935131173,0.6341240450806427,-0.09292252483408,1.3233676584647247,0.3406582361273988,-1.2776192230570138,-0.0542498525727921,10.667011202391222,-1.2708258957662495,0.0570596761195967,-1.2617848480558709
1.98,0.3068406943322315,-0.1994354778928762,1.6641878730776234,0.1194655029297571,0.1566441914257962,0.0452570357477677,-0.2253068765339109,0.5241350619558678,-0.1471212979815295,0.3067250701625226,-0.2007792185051531,1.6717966135395488,-0.3030565202944087,0.6218649618394184,-0.0907206944246128,1.3296602192242275,0.3500798828428492,-1.2827454190607102,0.0021363742466126,10.7152472271664,-1.2689543360254991,0.0600988033039549,-1.252166157759395
2.0,0.3024097916877204,-0.1892015690068386,1.661260476540314,0.114879153702484,0.1553491111623973,0.0441305265360845,-0.218240838667512,0.5010278008483894,-0.1455445750972136,0.2955753505055359,-0.1732287247950828,1.656831808178547,-0.238586511061773,0.4947153808985338,-0.1270682484320691,1.210744050235734,0.3533018933199433,-1.1553630553739205,0.0788361442157922,10.769520739840118,-1.2683480260119078,0.064452697381846,-1.2437781863792483
2.02,0.2983147855400176,-0.1798742211276188,1.6584866242497094,0.1103140742212944,0.1534742964214382,0.0429733849831155,-0.2132381298299334,0.4819990791042062,-0.1464919812438707,0.2955753505055359,-0.1732287247950828,1.656831808178547,-0.238586511061773,0.4947153808985338,-0.1270682484320691,0.9849072612914616,0.250135441878932,-0.9514360872091564,-0.0473703073328557,10.63153227523526,-1.2728872883667883,0.0695061429361437,-1.2358148828349125
2.04,0.2941049807010351,-0.1704353396896506,1.655564973942372,0.1057971406197263,0.1510595357464347,0.0417335174886867,-0.2080644283332011,0.4629508783123372,-0.1454908493412638,0.2955753505055359,-0.1732287247950828,1.656831808178547,-0.238586511061773,0.4947153808985338,-0.1270682484320691,0.9881844535195178,0.2586850748366134,-0.9524100395934516,0.0500565951303488,10.75160021577176,-1.2730353823102605,0.0738055987585473,-1.2255591037436957
2.06,0.2899961403428674,-0.1613704255605305,1.652685242433961,0.1016006379556404,0.1481416688800492,0.0404724096317717,-0.2031670378537782,0.4445602329853633,-0.1424338987648128,0.2931894853949182,-0.1682815709860974,1.6555611256942262,-0.2412424379673454,0.4888314446870671,-0.123057638522177,0.9637754093632914,0.2448695239711446,-0.9195322663486938,0.1528475288225486,10.75160021577176,-1.2740924839709311,0.0776097639433545,-1.2160580177084996
2.08,0.2859795251911406,-0.1526665959004777,1.6498841878550377,0.0976865817340994,0.1447562688298829,0.0391957362937626,-0.1988482170305165,0.426810642259857,-0.1377445622175816,0.2884177551736827,-0.1583872633681267,1.653019760725585,-0.2465542917784902,0.4770635722641335,-0.1150364187023928,0.9429873560653091,0.2159410411630882,-0.8874795362753152,0.2344668273615596,10.85440141779236,-1.2758244968431531,0.080818322104978,-1.2077755684789788
2.1,0.2822359368680433,-0.1447207496096823,1.6473233557908131,0.0942085844801783,0.1412079859677709,0.0379804919677989,-0.1955458717245908,0.41053704591379,-0.1320349809662402,0.2836460249524473,-0.1484929557501561,1.6504783957569436,-0.251866145589635,0.4652956998411999,-0.1070151988826086,0.8779731496748128,0.1651172652962856,-0.8136798173033505,0.2854790625670705,10.993381458276415,-1.2784215018044656,0.0838298707907752,-1.1999581115639155
2.12,0.2783519726140497,-0.1366840313231838,1.6447547658933277,0.0907968990342922,0.1373110181324798,0.0367186163989953,-0.1931582948688973,0.3940464638820367,-0.125070288865731,0.2786087020406546,-0.1391870417533321,1.6483380917792914,-0.2571779994007799,0.4535278274182663,-0.0989939790628245,0.902976681651754,0.1193788427846717,-0.8245291015876677,0.3482346050254617,10.993381458276415,-1.2812396194671898,0.086473997724751,-1.193051806989479
2.14,0.2745020117273216,-0.1289713508919343,1.6423322493004195,0.0876190860669305,0.1335219003089176,0.0354985589975474,-0.1920906872082864,0.3781078593821916,-0.1174961247669596,0.2735713791288618,-0.1298811277565081,1.6461977878016392,-0.2624898532119247,0.4417599549953327,-0.0909727592430403,0.8839497459055482,0.0533803830305476,-0.7969302249922539,0.3787082049385659,11.063693656305986,-1.283962828182012,0.0888233308570903,-1.1868774824734802
2.16,0.2706574762287483,-0.1215735543927477,1.6400659932143526,0.084581585518563,0.1302406213251117,0.0343477870296919,-0.1925150112714336,0.3625737887657414,-0.1094901187301001,0.2684012598717905,-0.1208694105702574,1.6442580143194816,-0.2678017070230695,0.4299920825723992,-0.0829515394232561,0.8740473864294465,-0.021216203157362,-0.776703530822509,0.4003003018429783,11.08129194693447,-1.285844111937534,0.0908902478965582,-1.1817975317616092
2.18,0.266984212186088,-0.1148283884864847,1.6380644737155623,0.0817673253741811,0.128014536508372,0.0333473580564015,-0.1941754809947605,0.3483173282798712,-0.1015833944414914,0.2630983442694406,-0.1121518901945801,1.6425187713328189,-0.2731135608342143,0.4182242101494656,-0.074930319603472,0.8193291680749216,-0.0830234861663462,-0.7128230242935102,0.3953362144304306,11.08129194693447,-1.2862746324973424,0.0929499647120129,-1.1777102473962515
2.2,0.2630756028830163,-0.1080140298295509,1.6361226118656431,0.0788922804019373,0.1269510843052056,0.0324153303676703,-0.1964722752729503,0.333958174296121,-0.0930062412514103,0.25727543813635,-0.0974125220724912,1.6329853039934878,-0.1945132053940478,0.3186752250399773,-0.1071076064703227,0.8441387977274452,-0.1148397139094883,-0.7179576991875103,0.4288576595040595,11.095543052622816,-1.2834906628959204,0.0948051254968599,-1.174960044463641
2.22,0.2590637799178694,-0.1014456576903483,1.6342457764329172,0.0770110868473839,0.1284316438704276,0.0317586085065491,-0.2043297402175214,0.3233440696458919,-0.0956979771913077,0.25727543813635,-0.0974125220724912,1.6329853039934878,-0.1945132053940478,0.3186752250399773,-0.1071076064703227,0.6738776136126512,-0.3928732472285534,-0.5307052325114525,-0.1345867969948712,10.3653065845092,-1.290105997965087,0.0966321593127058,-1.1767252857634762
2.24,0.2549179448822756,-0.0950944503996506,1.632296882230627,0.0764673826231659,0.1330276430294305,0.0314364433289583,-0.2093723837833204,0.3121944412490915,-0.0990007036401918,0.25727543813635,-0.0974125220724912,1.6329853039934878,-0.1945132053940478,0.3186752250399773,-0.1071076064703227,0.633739831308145,-0.2521321782899502,-0.5574814198400196,-0.1651363224442058,10.3653065845092,-1.2773504932050646,0.0961424697795087,-1.1728503440275888
2.26,0.2509209336860772,-0.0892724429086825,1.6303910940427917,0.0767610153128288,0.1389357939794426,0.0313067798948534,-0.2108316570544668,0.3011760047835952,-0.1014537913321649,0.2553303060824095,-0.0942257698220914,1.6319142279287846,-0.1945807502739052,0.3127468043919985,-0.1082124488760889,0.5691068876945988,-0.0729636635573224,-0.5509218232748192,-0.1226543845986576,10.391331187553988,-1.2640590390823112,0.094872240892727,-1.1717002591023984
2.28,0.246717491747174,-0.0833743504553024,1.62833937140556,0.0776981697736732,0.1456642630573746,0.0312586462408766,-0.2091876358139913,0.2891841071010657,-0.1035786978783521,0.2514400419745285,-0.0878522653212918,1.629772075799378,-0.1947158400336201,0.3008899630960409,-0.1104221336876214,0.6144583869095992,0.0822010620237734,-0.5995948841264725,-0.1062453273093573,10.427426180965083,-1.252272981825952,0.0930636722690178,-1.172192398950782
2.3000000000000003,0.2425776544853295,-0.0777229797226965,1.62624886829995,0.0790451887577027,0.1520501107213317,0.0312205053066948,-0.2047265507264539,0.2765346606919057,-0.1053586141750495,0.2475497778666476,-0.0814787608204923,1.6276299236699716,-0.194850929793335,0.2890331218000834,-0.1126318184991539,0.6765313677866468,0.2230542543768712,-0.6324723204579996,-0.0889958148348711,10.456602126942016,-1.2423346434473193,0.0908999052448377,-1.1732663707967916
2.32,0.2385525084980515,-0.0723338674833201,1.6241259842321634,0.0804669850129212,0.1574488252636635,0.03111733842021,-0.198013443136859,0.2630477940812097,-0.1068451272846525,0.2436527592707809,-0.0756980983844906,1.6253772872999883,-0.1949860195530499,0.2771762805041258,-0.1148415033106864,0.7569199193263538,0.3356553794797448,-0.6743433305348018,-0.074325655480148,10.483956735632091,-1.235240866958703,0.0888423203694158,-1.1737882808961126
2.34,0.2348676149922298,-0.0674719929654117,1.6220802084370929,0.0815688644942906,0.1613469898332493,0.0309078184369488,-0.1902712763408577,0.2494687014571845,-0.1084189758359405,0.2397557406749142,-0.069917435948489,1.6231246509300057,-0.1951211093127648,0.2653194392081682,-0.1170511881222189,0.7855092336366133,0.3871083398000657,-0.678954631201259,-0.0786924275644029,10.509689895021438,-1.230773609798357,0.08702952749784,-1.1733842583500866
2.36,0.2311555382097117,-0.0626413744750418,1.619893747640706,0.0820966130598486,0.1640556240621716,0.0305314384475043,-0.1813997074035024,0.234371584236344,-0.1101294932328251,0.2358553448350546,-0.0644331945448862,1.620816772439734,-0.1952561990724797,0.2534625979122107,-0.1192608729337514,0.8797067033322697,0.4435784468677678,-0.7548558610420253,-0.085525869844226,10.507534452685832,-1.2286498707425084,0.0859457652772198,-1.1711806519136
2.38,0.2276249499114907,-0.0581201328692711,1.617674379065367,0.0815710318331228,0.1653765120486166,0.0299681127395002,-0.1721970698142665,0.2186196590709138,-0.1116896379307966,0.2319515717512022,-0.0592453741736824,1.618453651829174,-0.1953912888321946,0.2416057566162531,-0.1214705577452839,0.9154858498288456,0.4601318794617948,-0.787596258271507,-0.0780072348985749,10.521065140953397,-1.2283104298466423,0.0859815862046251,-1.167204295397475
2.4,0.2242792712932376,-0.0539173595251733,1.6154271790684192,0.079647510621561,0.1653996326621128,0.0292036708054641,-0.1629660048093073,0.2026618798080027,-0.1129135363468106,0.2190150964207774,-0.0471891499157254,1.6120898971688271,-0.1695412544811385,0.1949438541131664,-0.0839686370954971,0.9237981482205662,0.4615532502479563,-0.7978889631455557,-0.0611949208007042,10.521065140953397,-1.2291570414967534,0.0873473167697151,-1.1619569235466538
2.42,0.2213026711703924,-0.0502422199185801,1.6133523501820417,0.0757666860854858,0.1637662561291963,0.0282120024680731,-0.1509852226500431,0.1860156997584136,-0.1053337575845865,0.2190150964207774,-0.0471891499157254,1.6120898971688271,-0.1695412544811385,0.1949438541131664,-0.0839686370954971,1.0932606019098885,0.5990391079632104,-0.8323090024794588,0.3789889381112077,10.535414481663793,-1.2234123473474177,0.0902950949981811,-1.154221558426309
2.44,0.2184120929921359,-0.0466662366142066,1.611342623258924,0.0705800805692091,0.1596752725352123,0.0269390026400206,-0.1388970121591975,0.1726813530384875,-0.0960108150556534,0.2190150964207774,-0.0471891499157254,1.6120898971688271,-0.1695412544811385,0.1949438541131664,-0.0839686370954971,1.0134679234144284,0.6044105245422828,-0.6667173359963002,0.4661471264466539,11.110599479371558,-1.2304491527902173,0.0948752794719286,-1.1530335502910982
2.46,0.2157408029591568,-0.0433321609866623,1.609525257418072,0.0654700311421628,0.1534531929514281,0.025565008649532,-0.1292834917055378,0.1614685680106846,-0.0861496828297547,0.217319683875966,-0.0452397113745938,1.611250210797872,-0.1690100914145129,0.1902086931216169,-0.0784244369284372,0.8879586876219414,0.4806760226829826,-0.560639251390145,0.4930566112949376,11.13691992791246,-1.2415566271719742,0.0994371936063379,-1.1514685117961512
2.48,0.2132252328548973,-0.0402067500251448,1.6079092422164032,0.0608509762073737,0.1461516951009266,0.0242067886286115,-0.1230600960507344,0.1516124706598046,-0.0759270855449455,0.2139288587863432,-0.0413408342923305,1.6095708380559623,-0.1679477652812617,0.1807383711385179,-0.0673360365943174,0.7752012701770399,0.3111697827401692,-0.4928048675440014,0.5111298642404601,11.148558588371998,-1.251765172665037,0.1031965255418451,-1.1490564469180389
2.5,0.2109198614787744,-0.0374106489805798,1.6065649714902772,0.0570214727187321,0.1391007881018871,0.0229962742532713,-0.1200894168573873,0.1431573084070915,-0.0660802043306476,0.2105380336967205,-0.0374419572100671,1.6078914653140524,-0.1668854391480105,0.1712680491554189,-0.0562476362601976,0.6657247427390366,0.1485339596673567,-0.4227581126356572,0.4923440607148922,11.154000327896938,-1.261298920828432,0.1064894732184534,-1.1460003355310815
2.52,0.2085269001490224,-0.0346336204670286,1.6053528196208395,0.0535797019831284,0.1322406844878399,0.0218399323588862,-0.1195168560312226,0.1349663555085734,-0.0556534162644142,0.2072003249137602,-0.0340165962269587,1.6067665125888484,-0.1658231130147593,0.16179772717232,-0.0451592359260778,0.6635839145570576,0.0286280413082352,-0.4095476449259033,0.5213394033116704,11.150920925658284,-1.268769225441707,0.109100460004978,-1.143127573200192
2.54,0.2061191270441301,-0.0320141722937981,1.6043512797012938,0.05071216129267,0.1265396068453048,0.0208238957829149,-0.1213976238176464,0.1273241894725807,-0.0450256161882054,0.2038626161308,-0.0305912352438504,1.6056415598636444,-0.1647607868815081,0.152327405189221,-0.034070835591958,0.6612301483749686,-0.0940383893211924,-0.3821083017996357,0.5313900038104381,11.165469477341505,-1.2743162313655014,0.1110499995252851,-1.1414371905529863
2.56,0.2036488930514857,-0.0295449230448331,1.603562868366173,0.0482801450883607,0.1226921305043768,0.0199621918332846,-0.1255974988855625,0.1199675284642993,-0.0343539912865252,0.2005514655011711,-0.0274026323103195,1.6047938171467937,-0.1636984607482569,0.142857083206122,-0.0229824352578382,0.6812543391036717,-0.2099937533958019,-0.3678330504140701,0.5335812450840114,11.17581497136689,-1.2774910160605562,0.1126701192981458,-1.1413570524948329
2.58,0.20120850891341,-0.0273322608399592,1.6030109500671987,0.0462696776215665,0.1213898363593325,0.0192990448167799,-0.1308390491863555,0.1133106845463979,-0.0242894628706247,0.1972668730248734,-0.024450787426366,1.6042232844382955,-0.1626361346150057,0.133386761223023,-0.0118940349237184,0.6578034522893471,-0.2620775150396534,-0.3328421958950681,0.5032264207950262,11.17021153769292,-1.2750647106188953,0.1138258876109048,-1.1433087676622706
2.6,0.1985436867149883,-0.0251359272385826,1.6026355328756696,0.0444122689270268,0.1222599830539825,0.0187387450100256,-0.1351189749486536,0.1066858989408391,-0.0137989081954713,0.1946665564540923,-0.0216667266126393,1.6017964769236674,-0.1371316940745182,0.10863996027367,-0.0209545338681758,0.6562341164607041,-0.2139962881149038,-0.3312392802779402,0.524527733757669,11.17021153769292,-1.2692293508699293,0.1147090611448309,-1.147784298411368
2.62,0.1957985057200707,-0.0231018100612412,1.6023670056518369,0.0415661489813344,0.1246151128109628,0.018187822328131,-0.1390595900206565,0.097750831204738,-0.0140730657118713,0.1946665564540923,-0.0216667266126393,1.6017964769236674,-0.1371316940745182,0.10863996027367,-0.0209545338681758,0.4884645456381931,-0.1970307536001428,-0.4467533868050578,-0.0137078758200018,10.465677481794046,-1.2689166111918917,0.1172283223552273,-1.1519609066825094
2.64,0.1929909331849774,-0.021211877298895,1.6020774078558002,0.0377277668862697,0.1277120103235482,0.0176074434999623,-0.1413448228332025,0.0919074681568271,-0.0148102183512997,0.1946665564540923,-0.0216667266126393,1.6017964769236674,-0.1371316940745182,0.10863996027367,-0.0209545338681758,0.3158740838175997,-0.1142616406273014,-0.2921681523955423,-0.0368576319714195,10.465677481794046,-1.2615404453642318,0.1202441095054202,-1.1513397933214684
