t,x,y,z,roll,pitch,yaw,v_x,v_y,v_z,ref_x,ref_y,ref_z,ref_v_x,ref_v_y,ref_v_z,a_com,a_x,a_y,a_z,thrust,wind_x,wind_y,wind_z
0.0,-1.159514617659711,0.7743470531327811,2.6027919415652514,0.022195975338627,0.1365839660516788,0.0265015969446884,0.0059373885136483,0.0036794345582762,0.0232830162910483,-1.1593313412150854,0.7745329091504173,2.6035223995641004,0.0486308175663872,-0.0945778559787939,-0.076505662966415,1.2154111121754907,0.2968694256824185,0.1839717279138128,1.1641508145524189,10.55597562627372,-1.2873709658168524,0.1537122063301509,-1.1834958469566923
0.02,-1.1595084185959057,0.774633237135459,2.603049207175518,0.0305954704260375,0.1389274872481861,0.0271392502813778,-0.0050259552365462,0.0211285842153991,0.0013701584623587,-1.1593313412150854,0.7745329091504173,2.6035223995641004,0.0486308175663872,-0.0945778559787939,-0.076505662966415,1.504028813023513,-0.5481671875097299,0.8724574828561464,-1.09564289143448,10.556676851865632,-1.3099446667774213,0.1466574559537678,-1.19883114917802
0.04,-1.159694608186265,0.7750651643089733,2.60278565875399,0.0451890488514515,0.1448838150527651,0.0283556748361133,-0.0125195821807303,0.0204934333216453,-0.0266905820477943,-1.1593313412150854,0.7745329091504173,2.6035223995641004,0.0486308175663872,-0.0945778559787939,-0.076505662966415,1.4525520811786634,-0.3746813472092057,-0.0317575446876931,-1.4030370255076556,9.234322594389596,-1.2982317235747325,0.1304897873036733,-1.184624676683573
0.06,-1.1599878794396548,0.7754101578451252,2.601958428460258,0.0601852546001302,0.1525579440501637,0.0297592642445461,-0.0160626133155793,0.013698486600307,-0.0545802767185916,-1.1588450330394215,0.7735871305906293,2.6027573429344364,0.0571734193305893,-0.1145778562768171,-0.0965056632644383,1.4461668639878944,-0.1771515567424494,-0.3397473360669138,-1.3944847335398631,8.99539712239266,-1.2846409089777289,0.1151692791171556,-1.1716273560798924
0.08,-1.1603009048586448,0.7755792132553578,2.6006667338063347,0.0739314657319907,0.1604605540477933,0.0311850526668275,-0.0164595495328993,0.0041724037560918,-0.0800110111441596,-1.1578724166880938,0.7716955734710534,2.601227229675108,0.0742586228589936,-0.1545778568728635,-0.1365056638604847,1.3579636097289578,-0.019846810866002,-0.4763041422107601,-1.2715367212783997,9.081087074400784,-1.2716645870527887,0.1001386550452442,-1.1623449313948628
0.1,-1.1606119438865494,0.7755338613767868,2.59879195805027,0.0877443987475571,0.1688648648807996,0.0327410772291114,-0.0143665688087982,-0.0085004407847579,-0.106112688183774,-1.156899800336766,0.7698040163514775,2.59969711641578,0.0913438263873978,-0.19457785746891,-0.1765056644565312,1.4545438299930522,0.1046490362050576,-0.6336422270424875,-1.3050838519807249,9.081087074400784,-1.2602741763370562,0.0863007155843108,-1.153990752041753
0.12,-1.160857060597153,0.7752082340908738,2.596403108707517,0.100885211770219,0.1770555558117061,0.0343201286444622,-0.0100263338187791,-0.0237056647276593,-0.1314496154922683,-1.155072923809018,0.7659124592020994,2.596167003126649,0.108429029915802,-0.2345778580649564,-0.2165056650525776,1.4933154056982507,0.2170117495009536,-0.7602611971450736,-1.2668463654247133,9.17104531823952,-1.250066488741617,0.0735812941814451,-1.1453036248987123
0.14,-1.1609955260538936,0.7745536904688097,2.593508373926298,0.1133776645882341,0.1848818051869916,0.0358940723066847,-0.0038494789046131,-0.041246508660048,-0.1567909364281396,-1.1532460472812702,0.7620209020527212,2.5926368898375185,0.1255142334442063,-0.2745778586610029,-0.2565056656486241,1.5716371156105815,0.3088427457082984,-0.8770421966194308,-1.2670660467935648,9.17104531823952,-1.242635900981327,0.0623569421062781,-1.1395088367539823
0.16,-1.1609969774919775,0.7735858741145578,2.590288683565708,0.1246693973934653,0.1919214118758615,0.0373641294880823,0.0035368622038204,-0.0599651806672175,-0.180881992802892,-1.150992040665312,0.7571293448884419,2.588106776533486,0.1425994369726105,-0.3145778592570493,-0.2965056662446705,1.5694949139242402,0.3693170554216792,-0.9359336003584764,-1.2045528187376169,9.176072300437228,-1.2360503377184204,0.0513898734582121,-1.1336191994072722
0.18,-1.1608318725717166,0.7721591626988734,2.5864033577103127,0.1358937811494826,0.1988977499035078,0.0388620856442846,0.0127426160638379,-0.0819129871005288,-0.2064050605772414,-1.148310903961144,0.7512377877092613,2.582576663214554,0.1596846405010147,-0.3545778598530957,-0.336505666840717,1.744906229557453,0.4602876930008755,-1.0973903216655652,-1.2761533887174714,9.188040793786058,-1.2307671012034294,0.0413145462118983,-1.1278644371309108
0.2,-1.1604671631581418,0.7702475796472672,2.5820064009511,0.1456059961190825,0.2054415548444387,0.040233306792791,0.023402439652454,-0.107756521471565,-0.2319709847570388,-1.1601947417685248,0.7680635133438469,2.5760831046814507,0.0602733789150761,-0.1819129885906449,-0.3064050620673575,1.8941598314915855,0.5329911794308043,-1.2921767185518087,-1.2782962089898695,9.193599906087002,-1.2259416515154231,0.0333774549180365,-1.1210780655238684
0.22,-1.1598523839778931,0.7677896000632716,2.5774843408490278,0.1488644874146116,0.2106041268742617,0.0409691180322424,0.0406359702085242,-0.1469520456844892,-0.2423829266378179,-1.1601947417685248,0.7680635133438469,2.5760831046814507,0.0602733789150761,-0.1819129885906449,-0.3064050620673575,2.203231846334869,0.8616765278035109,-1.959776210646213,-0.5205970940389576,10.204734795551303,-1.2097955973592027,0.0306885120281261,-1.1071408793418682
0.24,-1.1588485952263397,0.7644925957659754,2.572520195051629,0.1460091409785343,0.2144473621875615,0.0410335262638566,0.0587463579879559,-0.1798713164209436,-0.2535048372332479,-1.1601947417685248,0.7680635133438469,2.5760831046814507,0.0602733789150761,-0.1819129885906449,-0.3064050620673575,1.9591844136235024,0.9055193889715848,-1.6459635368227186,-0.556095529771497,10.204734795551303,-1.2092945472349264,0.0342430652488764,-1.1055097458450218
0.26,-1.1574845507822853,0.7606046977233083,2.567315247524975,0.1405439313006452,0.2168510456193783,0.0406668183279187,0.0766507316606619,-0.2067863792007336,-0.2664537413154043,-1.159592007979374,0.7662443834579404,2.573019054060777,0.0697795314853238,-0.2019129888886681,-0.3264050623653807,1.7411643503564025,0.8952186836353032,-1.3457531389895,-0.6474452041078188,10.054003984391784,-1.210717663203847,0.0399037821055294,-1.1033169556439102
0.28,-1.155768667437919,0.7562222109094413,2.561828841863631,0.1346429968855794,0.2179024291368443,0.0400513743298223,0.093903840864871,-0.2300025373167088,-0.2814776269860551,-1.1583865404010725,0.7626061236861276,2.56689095281943,0.0887918366258191,-0.2419129894847146,-0.3664050629614271,1.6297061970820927,0.862655460210452,-1.160807905798758,-0.7511942835325441,9.901387808825348,-1.214027490471752,0.0462670555343919,-1.0990663855880685
0.3,-1.1538273207911085,0.7516521072166338,2.55632100408666,0.1294346892290566,0.2178534327761525,0.0393374577992991,0.1095034898811305,-0.2499489488843388,-0.2975182135160854,-1.157181072822771,0.7589678639143147,2.5607628515780827,0.1078041417663144,-0.2819129900807611,-0.4064050635574736,1.498756818235666,0.7799824508129743,-0.9973205783815012,-0.8020293265015133,9.762797094274902,-1.217445731613097,0.0519353045018914,-1.094226632364532
0.32,-1.1514738269380809,0.7464486399585862,2.5501770970596738,0.1246948337720249,0.2168978939549064,0.0385117888284891,0.1249329554953432,-0.2694090194646875,-0.3161008135355806,-1.1550249899874447,0.7533296041126994,2.5526347503069333,0.1268164469068097,-0.3219129906768075,-0.44640506415352,1.5508673215469402,0.7714732807106384,-0.9730035290174356,-0.9291300009747622,9.639825479601312,-1.2222329329344377,0.0567905838560962,-1.0881851271006202
0.34,-1.1488207599511602,0.7408657965509292,2.5436517928990563,0.1207881561402646,0.2151963095720193,0.0376462390414399,0.1395180701902702,-0.2879848970510432,-0.3355164421496249,-1.1528689071521183,0.7476913443110842,2.544506649035784,0.145828752047305,-0.361912991272854,-0.4864050647495666,1.5286885173621343,0.7292557347463465,-0.9287938793177823,-0.9707814307022112,9.523736161711897,-1.2275078788896148,0.0607973531274266,-1.080170623173024
0.36,-1.145881867241302,0.7349091590235706,2.536730649421435,0.1173553353204149,0.2128052141491405,0.036727765613828,0.153549802897034,-0.3066811196120725,-0.3555779822195759,-1.15023751668828,0.7410530844945679,2.5353785477497333,0.1648410571878003,-0.4019129918689004,-0.5264050653456129,1.540213987392546,0.7015866353381917,-0.934811128051466,-1.0030770034975516,9.467955614241871,-1.2325362328536105,0.0640707338886664,-1.0712947621340132
0.38,-1.1428370068806104,0.7289069908460742,2.529779199864754,0.1142061963259402,0.2098799692860984,0.0357865433430079,0.166167657747842,-0.3240897937698352,-0.3751012725323238,-1.1471308185959288,0.7334148246631503,2.5252504464487813,0.1838533623282956,-0.4419129924649468,-0.5664050659416594,1.4520942304160651,0.6308927425403995,-0.8704337078881352,-0.9761645156373956,9.42552683170561,-1.2379410366404104,0.0673309473168007,-1.0602221713971514
0.4,-1.139384158500054,0.7222388730310978,2.52205507083965,0.1109569060212711,0.2061928144398591,0.0347350041596874,0.1783244712978804,-0.3417155503481682,-0.3962800761820102,-1.1345286239932184,0.7127025011575825,2.511024136238138,0.220024131163932,-0.4240897952599513,-0.4751012740224399,1.5058196561017991,0.6078406775019224,-0.8812878289166493,-1.0589401824843192,9.382259672602231,-1.243759482456579,0.0704038724633494,-1.0487210089860788
0.42,-1.1356785491949204,0.7152059802355,2.5141388893471497,0.10800259209016,0.2029186052141984,0.0337562525991591,0.1916171572753221,-0.3608330197827971,-0.3930574987429462,-1.1345286239932184,0.7127025011575825,2.511024136238138,0.220024131163932,-0.4240897952599513,-0.4751012740224399,1.1753277664439052,0.6646342988720827,-0.9558734717314444,0.1611288719531978,9.323963435396765,-1.2438481989075334,0.0733587322458119,-1.0270970602579013
0.44,-1.131936288946668,0.7081840457540614,2.506678060912101,0.1058874075350872,0.2017104657857673,0.0330840890576024,0.2017452435553005,-0.3775658466283056,-0.3926217405060092,-1.1345286239932184,0.7127025011575825,2.511024136238138,0.220024131163932,-0.4240897952599513,-0.4751012740224399,0.9782069197995862,0.506404313998919,-0.8366413422754293,0.0217879118468516,10.820271806145684,-1.247546801476768,0.0748198449163709,-1.0281882474743234
0.46,-1.1277911799511988,0.7004526856808202,2.498780819105502,0.1043522448313428,0.2024057614572699,0.0326305998835482,0.2124019058180526,-0.3946910619968028,-0.3973707630867411,-1.132328382681579,0.708461603204983,2.506273123497913,0.23079542584715,-0.4440897955579745,-0.4951012743204632,1.0360871916398733,0.5328331131376068,-0.8562607684248602,-0.2374511290365949,10.46291509485036,-1.2474387562828717,0.0756192980414657,-1.0302219362535638
0.48,-1.1234267052918965,0.6923853181618813,2.4907415002927324,0.1033877683528624,0.2043113612880564,0.0323368147026942,0.2236304583604525,-0.4111798765533632,-0.4064962573737165,-1.1279279000583005,0.6999798072997839,2.4967710980174647,0.252338015213586,-0.484089796154021,-0.5351012749165096,1.0968546435828352,0.5614276271199938,-0.8244407278280186,-0.4562747143487672,9.91652120031813,-1.2460863698543052,0.0760489985513727,-1.0316206803826924
0.5,-1.1188314781137791,0.6839949178166577,2.482480538725352,0.1030059053691892,0.2067863490621786,0.0321350855844796,0.2354415860542148,-0.4270735998268729,-0.419132092338472,-1.1235274174350218,0.6914980113945849,2.487269072537016,0.273880604580022,-0.5240897967500675,-0.5751012755125561,1.1744972351497889,0.5905563846881137,-0.7946861636754843,-0.6317917482377755,9.91652120031813,-1.244544766438868,0.0760718135128354,-1.0322320501073745
0.52,-1.1142417057916727,0.6757337138449488,2.474374141518392,0.1032355551169938,0.2092594884080443,0.0319906712109537,0.2471610245750856,-0.4417831101479284,-0.4335376972448435,-1.1180498053434214,0.6810162154595836,2.475767047026765,0.295423193946458,-0.564089797346114,-0.6151012761086025,1.1845214074133328,0.5859719260435409,-0.7354755160527748,-0.7202802453185775,9.739907783578929,-1.2430318008988397,0.0756101072759918,-1.0318375987912376
0.54,-1.1091640512831462,0.6667383559341057,2.465533753603541,0.1042057921305523,0.2117395115890353,0.0318704436792295,0.2600349615646228,-0.4570431879127477,-0.4497875765036693,-1.1125721932518209,0.6705344195245823,2.4642650215165136,0.3169657833128941,-0.6040897979421604,-0.655101276704649,1.2871157707499776,0.6436968494768588,-0.7630038882409651,-0.8124939629412908,9.60590584566853,-1.2415218710153255,0.0745160300492858,-1.03002919213692
0.56,-1.103819525428894,0.6574249117727105,2.456359683107936,0.105617315933267,0.2138347908795483,0.0317343142362906,0.2737861173704768,-0.4735290360761155,-0.466818364863683,-1.1065560164260595,0.6590526235746798,2.4517629959913614,0.3385083726793301,-0.6440897985382068,-0.6951012773006954,1.3701507470220835,0.6875577902927033,-0.8242924081683894,-0.8515394180006852,9.548736746450231,-1.2405621046342343,0.0730342919115267,-1.0274199328701257
0.58,-1.098193065863967,0.6477687634848325,2.446837111951932,0.1067950592145531,0.2152529508249907,0.0315022922336564,0.2881056899370015,-0.4911396533115766,-0.4845528177903175,-1.1000012748661374,0.646570827609876,2.438260970451308,0.360050962045766,-0.6840897991342533,-0.7351012778967418,1.4402211796360482,0.7159786283262332,-0.8805308617730573,-0.8867226463317224,9.517585144942132,-1.2404890780437925,0.0718247827763474,-1.0241046469739683
0.6,-1.092580666415441,0.6382601449217384,2.4374556441163056,0.1072147527403588,0.2158641817083452,0.0311460210781472,0.3018731490176201,-0.5087331927337048,-0.5020435083903004,-1.0837877813671168,0.6232117808192537,2.422609471062416,0.3443804728032411,-0.5808603197201154,-0.5845528192804337,1.4186259343100394,0.6883729540309275,-0.8796769711064051,-0.8745345299991464,9.48730221040205,-1.2412918372033923,0.071214740885211,-1.0193782393584887
0.62,-1.0863318115088223,0.627794654202853,2.427482732343253,0.1044890927349125,0.2158078910816899,0.0304667928848334,0.3225340102510274,-0.5362219179084242,-0.4928236540975676,-1.0837877813671168,0.6232117808192537,2.422609471062416,0.3443804728032411,-0.5808603197201154,-0.5845528192804337,1.780103165420892,1.033043061670366,-1.3744362587359726,0.4609927146366405,9.4527509821919,-1.2366714899460052,0.0735440380750382,-1.0051024138174791
0.64,-1.0796725978358968,0.6168386521136622,2.417706445625305,0.0984039654480738,0.2151967822057649,0.0294975919867216,0.3421764129633837,-0.5572865424770922,-0.485638223346864,-1.0837877813671168,0.6232117808192537,2.422609471062416,0.3443804728032411,-0.5808603197201154,-0.5845528192804337,1.4842277517336004,0.9821201356178172,-1.053231228433399,0.3592715375351801,10.858448308593324,-1.238525930255536,0.0781573297188276,-1.0087032346082685
0.66,-1.07263706559143,0.6055133396406369,2.408002185491642,0.0916270650925387,0.2139899586018545,0.0284360174026349,0.3603212233961411,-0.5739431382681123,-0.4850790455914772,-1.0803439766390843,0.6174031776220525,2.416763942869612,0.3556354293764889,-0.5988044530018232,-0.6045528195784569,1.2318573463963338,0.9072405216378672,-0.832829789551004,0.0279588877693387,10.858448308593324,-1.2416205652922332,0.0832871855348406,-1.0105334701025364
0.68,-1.0652533515067435,0.5938875235403245,2.398252068608506,0.0851037760835994,0.2119877025414385,0.0273415481286508,0.3770590072727004,-0.5877468098087526,-0.489920991616469,-1.0734563671830195,0.6057859712276502,2.405072886484003,0.3781453425229848,-0.6346927195652388,-0.6445528201745033,1.111462098329524,0.8368891938279666,-0.6901835770320164,-0.2420973012495914,10.46352377436233,-1.2462540830966111,0.0886216209665035,-1.0101356900543794
0.7000000000000001,-1.0579428734206846,0.582607636454232,2.388856976390982,0.0794936693338364,0.209244071918525,0.0262971204273303,0.3915404464991438,-0.5989608580472786,-0.498761222253032,-1.0665687577269547,0.5941687648332479,2.3933818300983947,0.4006552556694806,-0.6705809861286542,-0.6845528207705498,1.0168783576131275,0.7240719613221702,-0.5607024119263004,-0.4420115318281487,10.143114894941393,-1.2519360197099387,0.0934909648906903,-1.0067267245588578
0.72,-1.0499683001331772,0.570520162696556,2.378750083015571,0.0743735321542301,0.2055163840025101,0.0252167978388795,0.4049948838096661,-0.6092375225895525,-0.5116033718221711,-1.058555652613565,0.5807571451106748,2.3796907736829835,0.4231651688159764,-0.7064692526920697,-0.7245528213665963,1.062488262303803,0.672721865526113,-0.5138332271136969,-0.6421074784569519,9.881917221923686,-1.2585774289707357,0.0976874699409797,-1.0006027640303436
0.74,-1.0417438189606212,0.5582392656039342,2.3683620619552928,0.0701332788212426,0.2011460697799044,0.0241824939931228,0.4166526021757598,-0.6184811077464629,-0.5265116081911825,-1.0505425475001755,0.5673455253881017,2.3659997172675724,0.4456750819624723,-0.7423575192554853,-0.7645528219626427,1.0530927970631627,0.5828859183046847,-0.4621792578455186,-0.7454118184505698,9.663069715455094,-1.2653899606780792,0.1010945694293579,-0.9919201931755934
0.76,-1.0333021385416092,0.5457729481811677,2.357660324706188,0.0664413671799083,0.1963425559698971,0.0231873032869471,0.4267879423339727,-0.6276485423578159,-0.5428697841061405,-1.0419666945581234,0.5530366990014433,2.3513086608372604,0.4681849951089681,-0.7782457858189008,-0.8045528225586891,1.0657824552187334,0.5067670079106468,-0.4583717305676471,-0.8179087957479014,9.548650692209776,-1.2718154879551566,0.103835463580643,-0.982525740550703
0.78,-1.0251120439366648,0.5337643724370885,2.3471775537591757,0.0631846455952455,0.1915875229229261,0.0222752206727633,0.4346861618499729,-0.6358949685206506,-0.559719063777055,-1.032828093787409,0.5378306659506994,2.335617604392047,0.4906949082554639,-0.8141340523823163,-0.8445528231547356,1.0176979431672075,0.3949109758000085,-0.4123213081417387,-0.842463983545727,9.456143802412043,-1.278534243002885,0.106462604012572,-0.9717164102382124
0.8,-1.0163484850572124,0.5209615598759036,2.3357828376486585,0.0599690210157136,0.1867326703809911,0.0213690622962283,0.4410971202200185,-0.6438935518396118,-0.5789088629210629,-1.0033777358441662,0.5019696240110559,2.3191916005703224,0.4821509870629283,-0.6837597893288229,-0.6597190652671712,1.0878029618457887,0.3205479185022841,-0.3999291659480597,-0.9594899572003934,9.363662548598768,-1.2841618913775368,0.1088156394377382,-0.9609423999350494
0.8200000000000001,-1.0074123644011603,0.507870556858053,2.3243048611215498,0.0531823842725477,0.1823896525127838,0.0202806548732363,0.4523099706049693,-0.6627721070661123,-0.5661475715640515,-1.0033777358441662,0.5019696240110559,2.3191916005703224,0.4821509870629283,-0.6837597893288229,-0.6597190652671712,1.2698212652710763,0.5606425192475395,-0.9439277613250252,0.6380645678505714,9.262353086877738,-1.2805789946079815,0.1134353485796107,-0.938901820722876
0.84,-0.9982766625016922,0.4944994729252185,2.3130804704930976,0.0427847860370735,0.1791223336886614,0.0190591998080255,0.460562115540653,-0.6725488943374914,-0.5570590282821408,-1.0033777358441662,0.5019696240110559,2.3191916005703224,0.4821509870629283,-0.6837597893288229,-0.6597190652671712,0.7846736333924016,0.4126072467841829,-0.4888393635689547,0.4544271640955333,11.307914279221222,-1.2862491354598262,0.1216616480222644,-0.940523647036353
0.86,-0.9894724647702317,0.4816774389220328,2.3025095488782896,0.032544515797462,0.1775106849524749,0.0179930601273114,0.4657943471267671,-0.6764566737433738,-0.5561004912322741,-0.998556225973537,0.4951320261177677,2.3125944099176508,0.4916439521055195,-0.6933327534904573,-0.6797190655651943,0.3300218952271783,0.2616115793057039,-0.1953889702941191,0.0479268524933351,10.797616594365536,-1.2902391812465046,0.1304227580472855,-0.9423553114604976
0.88,-0.980109055537071,0.468139597222787,2.291335973876406,0.0225400192506862,0.1774027520662685,0.0170173880923977,0.470386068168355,-0.6770510020277909,-0.5616086078291386,-0.9889132062322784,0.4814568303311912,2.299400028612307,0.5106298821907016,-0.7124786818137262,-0.7197190661612408,0.3597793652993207,0.2295860520793946,-0.0297164142208539,-0.2754058298432227,10.308575825967637,-1.2918315903679132,0.1385764503167204,-0.944056497878108
0.9,-0.9706574917887748,0.4546184024223462,2.279986804361128,0.0138053465424107,0.1784575507902561,0.0161824526115129,0.4746941406387571,-0.6751795982287662,-0.5730157778734101,-0.9792701864910198,0.4677816345446148,2.286205647306964,0.5296158122758838,-0.7316246101369951,-0.7597190667572873,0.6168167657582064,0.2154036235201051,0.0935701899512364,-0.5703585022135749,9.626584985984664,-1.2924742754208527,0.1457176516929476,-0.9450407767015636
0.92,-0.9611195466521588,0.4411535557977337,2.268364420239672,0.006435328070212,0.1802782019133221,0.0154695087156888,0.4790163249078418,-0.6715967559694744,-0.588650845705487,-0.968677870245502,0.4531491423418749,2.271011265971818,0.5486017423610661,-0.750770538460264,-0.7997190673533338,0.8306223293780033,0.2161092134542352,0.1791421129645865,-0.7817533916038455,9.626584985984664,-1.2924468110321274,0.1514395995953582,-0.9453966262416535
0.94,-0.9519743438337084,0.4284411474139377,2.257014845744343,0.0006977534159403,0.1824555278783244,0.0148943542333495,0.4835207554625458,-0.6669577188322008,-0.6052570437170574,-0.9580855539999844,0.438516650139135,2.2558168846366726,0.5675876724462482,-0.7699164667835329,-0.8397190679493802,0.891033630934657,0.2252215277352032,0.2319518568636824,-0.8303099005785186,9.406548861265946,-1.2916068686407838,0.1562972506393599,-0.9447853978753168
0.96,-0.9422474410152232,0.4151588839769067,2.244713500071528,-0.0042296672599423,0.1849308489691199,0.0143773601510141,0.4890016380552183,-0.6615972769412022,-0.6240607316912276,-0.9470185895023372,0.4234055097283133,2.239622503286625,0.5865736025314304,-0.7890623951068018,-0.8797190685454266,1.0153239540799108,0.2740441296336243,0.2680220945499301,-0.94018439870851,9.31732892580294,-1.2906411693500126,0.1601859327259071,-0.9441697025974768
0.98,-0.9324036684161292,0.4019901901949966,2.2320238441346265,-0.0082352155769502,0.1872939669424858,0.0139371747326858,0.4951408701249301,-0.6556249989353284,-0.6440048866891276,-0.9354769767525604,0.40781572110941,2.222428121921677,0.6055595326166126,-0.8082083234300707,-0.9197190691414732,1.0852736907866618,0.3069616034855865,0.2986139002936872,-0.9972077498950016,9.248389314863743,-1.2899902483328278,0.163308871246252,-0.943160238223712
1.0,-0.9224318684594672,0.3889472835661928,2.218923163419497,-0.0114132798769629,0.1893273326572412,0.0135714176309229,0.5017349803375187,-0.6491134013093997,-0.6650519251770124,-0.9076466249098828,0.3692089402482302,2.1998235998001703,0.5510260546811758,-0.6715582052402362,-0.7440048881792437,1.1498489273033563,0.3297055106294327,0.3255798812964394,-1.0523519243942403,9.192018108160482,-1.2898980307468857,0.1656426256700315,-0.941672858055984
1.02,-0.9127840624321288,0.3766053963378721,2.2063920669763437,-0.0163455864938751,0.1912410282493409,0.0131035867715292,0.5135869419468908,-0.6486517547731965,-0.653003202919264,-0.9076466249098828,0.3692089402482302,2.1998235998001703,0.5510260546811758,-0.6715582052402362,-0.7440048881792437,0.8453606028772288,0.5925980804686037,0.0230823268101587,0.6024361128874223,9.138181070496104,-1.2829454557649178,0.1687065988826163,-0.9292420528617384
1.04,-0.9023867656495764,0.3636944468985191,2.193415376504417,-0.0234342702224258,0.1935173279734906,0.0124865800313639,0.5255117076653035,-0.6420867676281202,-0.6457764482834004,-0.9076466249098828,0.3692089402482302,2.1998235998001703,0.5510260546811758,-0.6715582052402362,-0.7440048881792437,0.7705924282995239,0.5962382859206361,0.3282493572538125,0.3613377317931765,11.12598397333022,-1.2851085064995085,0.1752225189399178,-0.9392626873553592
1.06,-0.8917555473950798,0.3509575688956411,2.1805039133467115,-0.0303973824335194,0.1957930176104729,0.0118908211933774,0.5370075553047551,-0.6319037988285617,-0.6460302396539341,-0.9021363643630708,0.3624933581958279,2.192383550918378,0.562203091592425,-0.6747448465012178,-0.7640048884772669,0.7679709899827318,0.5747923819725775,0.5091484399779245,-0.0126895685266859,10.655865994569467,-1.2873669153008254,0.1816657199160435,-0.9471741482412293
1.08,-0.8809000869806315,0.3384479434942579,2.167517342241932,-0.0363453029869482,0.197745151109644,0.0113908264413758,0.5479643718124545,-0.6197703087034898,-0.6525794644350186,-0.8911158432694474,0.3490621940910232,2.177503453154793,0.5845571654149233,-0.6811181290231809,-0.8040048890733134,0.8805761690958126,0.5478408253849709,0.6066745062535961,-0.327461239054222,9.932737537229514,-1.28960860639739,0.18694867821938,-0.952347202581575
1.1,-0.8703894653119352,0.3267997944376242,2.1550150617838195,-0.0408482936100693,0.199192896050818,0.011027946945573,0.5578535556688876,-0.6072058561671729,-0.6630994373928863,-0.8800953221758239,0.3356310299862184,2.162623355391208,0.6069112392374216,-0.687491411545144,-0.8440048896693598,0.9569891011892016,0.4944591928216557,0.6282226268158442,-0.5259986478933887,9.696334462021696,-1.2921744795919063,0.191409117391324,-0.9553466235232289
1.12,-0.8591291841892257,0.314801150456246,2.141603892504433,-0.0444141940244416,0.200312828541479,0.0107651155352326,0.5676139862469252,-0.5935053328220559,-0.677599328431591,-0.8679570973910754,0.3218812017553156,2.145743257597821,0.62926531305992,-0.6938646940671072,-0.8840048902654063,1.1104246767938553,0.4880215289018774,0.6850261672558533,-0.7249945519352319,9.696334462021696,-1.2950253734253023,0.1947639609203475,-0.9564628177511758
1.14,-0.8476771489190001,0.3030823638475697,2.1278833176248604,-0.0468056360407773,0.2010833490259116,0.0106220514056344,0.5770823075154571,-0.5793636203198982,-0.6936965961496934,-0.8558188726063269,0.3081313735244127,2.1288631598044336,0.6516193868824183,-0.7002379765890703,-0.9240048908614528,1.171280461851556,0.473416063426596,0.7070856251078839,-0.8048633859051191,9.439234392102662,-1.2978907942668614,0.1969882708443857,-0.9566048133632072
1.16,-0.8366211865734599,0.2922136067874177,2.1145416130337997,-0.0480795893942244,0.2014395476166287,0.0105939305087106,0.586175694899337,-0.5656076421533093,-0.7098664487128709,-0.8431217959760161,0.2942222132304607,2.110983061996145,0.6739734607049166,-0.7066112591110334,-0.9640048914574992,1.15475187956967,0.454669369193994,0.6877989083294456,-0.8084926281588745,9.439234392102662,-1.300882357534641,0.1984151566284479,-0.9560056730750588
1.18,-0.8247990769520572,0.2810584592650854,2.1001554522946355,-0.0482563901192256,0.2013441234398055,0.0106886978512703,0.5954923739147667,-0.5507422530936043,-0.7279290632385892,-0.8298658675001427,0.2801537208734597,2.092102964172956,0.6963275345274149,-0.7129845416329965,-1.0040048920535456,1.259005900778108,0.4658339507714881,0.7432694529852513,-0.9031307262859168,9.392357590439133,-1.3045497826815224,0.1988658239353924,-0.9549619390853196
1.2,-0.8127932890136409,0.2702054585641854,2.0853983165221046,-0.0469318824066347,0.2007407376055923,0.0109307988805316,0.60456838125066,-0.5354610574696831,-0.7468946223425007,-0.7950244582563188,0.2535213466104051,2.063758999132706,0.6278364879501347,-0.5568883832456509,-0.7628145405132455,1.2995973231944744,0.4538003667946655,0.7640597811960581,-0.9482779551955756,9.33268063102605,-1.308505186752313,0.1980253333738285,-0.9531283323315132
1.22,-0.8004103978364809,0.2596362263931665,2.0707555986232733,-0.0453295520102343,0.1966476176960041,0.0113666333700019,0.6326784642458944,-0.5218715238176779,-0.7163973272048955,-0.7950244582563188,0.2535213466104051,2.063758999132706,0.6278364879501347,-0.5568883832456509,-0.7628145405132455,2.182279313921653,1.405504149761716,0.6794766826002607,1.524864756880262,9.283636091328844,-1.297228509104088,0.1949021113600464,-0.9347014932647992
1.24,-0.7881571493437085,0.2498591202699819,2.0573976983332942,-0.0440486474940358,0.1874469537718979,0.0120096542259985,0.6548024684528059,-0.5080656134657383,-0.6912359078510909,-0.7950244582563188,0.2535213466104051,2.063758999132706,0.6278364879501347,-0.5568883832456509,-0.7628145405132455,1.811885583233142,1.106200210345576,0.6902955175969783,1.258070967690228,12.442813194441442,-1.3153410414893292,0.1958409990997123,-0.9374972459292
1.26,-0.7748812482581625,0.2398560491273467,2.0437891574954232,-0.0421908629656656,0.1741373735838305,0.0128751019510158,0.67080627160095,-0.4931414807001928,-0.6711579878788723,-0.7887460933768174,0.2479524627779486,2.056130853727573,0.6343053107572083,-0.5581176092760602,-0.7697916359681768,1.4849026267898762,0.8001901574072046,0.746206638277272,1.003895998610932,11.930961434535677,-1.336902764820023,0.1963809375007734,-0.9354261514932444
1.28,-0.7613625453274302,0.2301442545379217,2.030515685528285,-0.0394825306204184,0.1588252170664577,0.0138578624561116,0.6795754045392247,-0.4791429212800879,-0.6573789679734867,-0.7761893636178148,0.2368146951130356,2.0408745629173084,0.6472429563713554,-0.560576061336879,-0.7837458268780393,1.075544917565457,0.4384566469137374,0.6999279710052458,0.6889509952692774,11.451934727104344,-1.3573412144379795,0.1958052200230355,-0.926649116143758
1.3,-0.7477421074707746,0.2206978144217502,2.017453996728741,-0.0361661796098449,0.1429787602473848,0.0148587613475317,0.6815525175949463,-0.4665225492977593,-0.6493772764826562,-0.7636326338588121,0.2256769274481226,2.025618272107044,0.6601806019855027,-0.5630345133976976,-0.7977000177879018,0.7536740537557991,0.0988556527860784,0.6310185991164313,0.400084574541526,11.025572713595466,-1.3775045627415463,0.1943456324145885,-0.9129411275464704
1.32,-0.734824032317369,0.2119444388725445,2.0051502634660667,-0.0326790555648324,0.1285359169841634,0.0157597457000009,0.677880289792836,-0.4557510226465585,-0.6461005417759055,-0.750429021819102,0.2144162371801686,2.009664271751286,0.6731182475996499,-0.5654929654585162,-0.8116542086977643,0.5921318133797293,-0.1836113901055147,0.5385763325600423,0.1638367353375358,10.673697781509873,-1.3952521355919274,0.1922940751127722,-0.8969085051883736
1.34,-0.7213494641423902,0.2029380135943924,1.9922484943198204,-0.0288470432196358,0.1148491816188747,0.0166146989626723,0.6695051818602182,-0.4456362866433223,-0.6442946259816107,-0.737225409779392,0.2031555469122146,1.9937102713955277,0.686055893213797,-0.567951417519335,-0.8256083996076269,0.6627813537552217,-0.4187553966308877,0.5057368001618073,0.0902957897147394,10.287243522184326,-1.4092714670535418,0.1897999803157735,-0.8797730688800349
1.36,-0.7080829038342475,0.1941212564204272,1.9793664164301463,-0.0250079143921496,0.1033321384268501,0.0173562146260453,0.6575291245741339,-0.4366868880443424,-0.6439771055861637,-0.7236983565993282,0.1918333953427402,1.977407416267023,0.6989935388279442,-0.5704098695801536,-0.8395625905174894,0.7476939591245213,-0.5988028643042154,0.4474699299489931,0.0158760197723484,10.199347459030832,-1.4195417736928244,0.1873179438333345,-0.8650175661272109
1.38,-0.6957276536606077,0.1859009888905524,1.9671223878049344,-0.0214674287159482,0.0946522780771372,0.0179577625360923,0.6436737299689731,-0.4291410365680219,-0.6448687292030602,-0.7098478622789108,0.1804497824717454,1.960755706365772,0.7119311844420914,-0.5728683216409723,-0.8535167814273519,0.7901057315980186,-0.6927697302580416,0.3772925738160265,-0.0445811808448215,10.199347459030832,-1.4272743163190786,0.1847180312205438,-0.8518280051196352
1.4,-0.6830276425623831,0.1773931750123403,1.9542051326996663,-0.0179260396814957,0.0880742496588599,0.018493447561578,0.626935148822756,-0.4221168012422702,-0.6468498110684207,-0.6635439671621591,0.1644439370621513,1.9348789513447813,0.6355186094322881,-0.4159439805502058,-0.6438270637626349,0.913023365058764,-0.8369290573108534,0.3512117662875846,-0.099054093268025,10.12229960382956,-1.4327168489209483,0.1822500559503824,-0.8413063930059603
1.42,-0.6705884496414685,0.1689219489165334,1.941525204774852,-0.0178706555751568,0.082461701141483,0.0187549932752982,0.6180447566516619,-0.4243226324217114,-0.6196048406315906,-0.6635439671621591,0.1644439370621513,1.9348789513447813,0.6355186094322881,-0.4159439805502058,-0.6438270637626349,1.4371788147720084,-0.4445196085547054,-0.1102915589720587,1.3622485218415026,10.061726065556286,-1.4222861602455104,0.1807471107519672,-0.8227480504301172
1.44,-0.6589488354562866,0.1608739352833832,1.9299966401908375,-0.0223364708786257,0.0761705511538539,0.0187344186775078,0.6072828483443666,-0.4216248581575557,-0.5954692555812723,-0.6635439671621591,0.1644439370621513,1.9348789513447813,0.6355186094322881,-0.4159439805502058,-0.6438270637626349,1.328178378566036,-0.5380954153647644,0.1348887132077869,1.206779252515916,11.62031648966149,-1.4298332595418737,0.1849037180325467,-0.8215258453853641
1.46,-0.6469549030037985,0.1525237876271514,1.918305356179248,-0.0284586659883837,0.0695122228586501,0.0186719829317169,0.5924515609683473,-0.4132648296017948,-0.5751595663936836,-0.6571887810678363,0.1602844972566492,1.9284406807071552,0.6338875853249512,-0.4133045693466426,-0.6436187306745498,1.3250855043917595,-0.7415643688009677,0.418001427788045,1.0154844593794343,11.30267157176695,-1.4375669369673187,0.1901385681078297,-0.8181509824407213
1.48,-0.6352923563107075,0.1443747846600453,1.9069692003595249,-0.0343638866483597,0.0636674575506223,0.0186621661053664,0.5743453488277537,-0.4020318063357782,-0.5596602269470659,-0.6444784088791905,0.1519656176456451,1.9155641394319023,0.6306255371102771,-0.4080257469395162,-0.6432020644983797,1.317426708641252,-0.90531060702968,0.5616511633008275,0.7749669723308872,11.30267157176695,-1.4446575425495023,0.1951572347287982,-0.8139058323374948
1.5,-0.6240267903823209,0.1364701972075228,1.8958986341648525,-0.0394020722754127,0.0596434376730259,0.0186979946117096,0.5530555789264587,-0.3891513704107441,-0.5481481050489039,-0.6317680366905447,0.143646738034641,1.9026875981566496,0.6273634888956031,-0.4027469245323898,-0.6427853983222096,1.3708472586936284,-1.064488495064747,0.6440217962517064,0.5756060949080988,10.836755472199911,-1.4497186884136413,0.1992397233085673,-0.8104276231468214
1.52,-0.6137421111246022,0.1292096885993633,1.8855688183712709,-0.0432291058118532,0.0584308305625299,0.0187238705671891,0.5308990579996633,-0.3759560072715741,-0.5397529646486816,-0.6192207669126326,0.1355917995439932,1.8898318901902056,0.6241014406809291,-0.3974681021252634,-0.6423687321460395,1.356011993211652,-1.1078260463397716,0.6597681569585012,0.4197570200111133,10.692043984188786,-1.4507210440997342,0.2026136092093446,-0.8096025344323777
1.54,-0.6033620303595632,0.1218438017013585,1.8748624752778045,-0.0462788122667941,0.0598722633659842,0.0187157283459559,0.508582354769602,-0.3614651946971216,-0.5313177377817792,-0.6066734971347206,0.1275368610533454,1.8769761822237612,0.6208393924662551,-0.3921892797181369,-0.6419520659698694,1.3956825789041811,-1.1158351615030648,0.7245406287226225,0.4217613433451228,10.692043984188786,-1.448078506969401,0.205130114466414,-0.8120641054849327
1.56,-0.5934122558514,0.1147744784832666,1.8643237135950388,-0.0483484319968082,0.0634489301606139,0.0186825882864915,0.4878156861984995,-0.3463709792404826,-0.5229734156229625,-0.5942077785621754,0.1196138931228758,1.8641308909117211,0.6175773442515812,-0.3869104573110105,-0.6415353997936992,1.3497384710413096,-1.0383334285551242,0.7547107728319485,0.4172161079408321,10.669746678898264,-1.4434637735569942,0.2069072875147624,-0.8180329633477392
1.58,-0.5843276361359858,0.1083456478067951,1.854465912847496,-0.0492954086497457,0.0683085175287315,0.0186542787858514,0.469797532864475,-0.3312840460513123,-0.5151031430154333,-0.581823611194997,0.1118228957525843,1.8512960162540857,0.6143152960369072,-0.3816316349038841,-0.6411187336175291,1.2391636227106295,-0.9009076667012228,0.7543466594585185,0.393513630376463,10.66232896504698,-1.4373957836610136,0.2080791463191127,-0.8270998180349566
1.6,-0.5751124879769682,0.1018937652773455,1.844250464812208,-0.0489548935447901,0.0744107248109549,0.0186746889577893,0.4529436102659955,-0.3148289479892663,-0.5068581403838079,-0.560837759492762,0.0917814455042295,1.8287107556967244,0.477043787342125,-0.3113083800945767,-0.5087722035399863,1.2478030970295333,-0.8426961299239782,0.822754903102299,0.4122501315812654,10.663997820865006,-1.430991106104137,0.2083279022672043,-0.8380720955417549
1.62,-0.5662019892047333,0.0957652875842028,1.834297933737296,-0.0473728666480388,0.0809916751136435,0.0187703338082985,0.4392372368869516,-0.2988853515470673,-0.4883131699770176,-0.560837759492762,0.0917814455042295,1.8287107556967244,0.477043787342125,-0.3113083800945767,-0.5087722035399863,1.4017657312352436,-0.6853186689521951,0.7971798221099474,0.927248520339516,10.663997820865006,-1.4217862651399655,0.2072566040751328,-0.8468708023063657
1.64,-0.5575438472018093,0.0899554093312299,1.8247218520478417,-0.0446808782400721,0.0876444737136094,0.0189580299054927,0.4274663922720603,-0.2832407570122747,-0.4703675909938687,-0.560837759492762,0.0917814455042295,1.8287107556967244,0.477043787342125,-0.3113083800945767,-0.5087722035399863,1.3279212383895482,-0.5885422307445654,0.7822297267396305,0.8972789491574429,11.34506459538079,-1.4175424617152674,0.20628453029636,-0.8620876885239952
1.66,-0.5495197792151875,0.0847090920246621,1.8159391591206315,-0.0414201341691794,0.0937913958889194,0.0192143921489882,0.4179157709087741,-0.2700330999845112,-0.455028423209432,-0.5560673216193408,0.0886683617032838,1.8236230336613248,0.478493038237655,-0.3073132469032295,-0.507506015644897,1.1190918649813708,-0.477531068164308,0.6603828513881776,0.766958389221839,11.14372166134035,-1.4130143242706257,0.2045853523807289,-0.8773591762291579
1.68,-0.5412526290895442,0.0794415693621919,1.8069960685546784,-0.0377970786955873,0.0998698729797601,0.0195369641039367,0.409450881881887,-0.257556942299817,-0.4401575240500909,-0.5465264458724983,0.0824421941013922,1.8134475895905249,0.4813915400287149,-0.2993229805205353,-0.5049736398547181,1.0588348532917655,-0.4232444513443567,0.6238078842347061,0.7435449579670544,11.14372166134035,-1.4084050002912805,0.2026011628496031,-0.8915251978674863
1.7,-0.5331393137098562,0.0744118983751687,1.798337290522594,-0.034212507557764,0.1053854289716025,0.0198997922975952,0.4024172881635772,-0.2461414701461984,-0.4265274901225185,-0.5369855701256558,0.0762160264995007,1.8032721455197247,0.4842900418197749,-0.291332714137841,-0.5024412640645394,0.9559841394488002,-0.3516796859154902,0.5707736076809341,0.6815016963786197,11.07538352211759,-1.4043690186647129,0.2006652749999266,-0.9039368184529404
1.72,-0.5251536473441453,0.0696006164197468,1.789939530245574,-0.030770971063487,0.1102303193006518,0.0202938035891457,0.3965836966289138,-0.2356406013175274,-0.4139863978834029,-0.5272997692892604,0.0703893722167439,1.7932233202384344,0.4871885436108349,-0.2833424477551468,-0.4999088882743606,0.8683001078259959,-0.2916795767331698,0.5250434414335494,0.6270546119557768,10.961683170814467,-1.4006631477738007,0.1986690502674692,-0.9157749512902956
1.74,-0.5176649814544351,0.0652163501704717,1.7821878805621607,-0.0276953335375552,0.1141460006210841,0.020689036423107,0.3920170377051573,-0.2264304606613931,-0.4026172294474602,-0.5176139684528649,0.064562717933987,1.7831744949571435,0.4900870454018948,-0.2753521813724525,-0.4973765124841818,0.7663860899646789,-0.228332946187823,0.4605070328067145,0.5684584217971383,10.961683170814467,-1.3975682019753914,0.1967665826145555,-0.9260951556807144
1.76,-0.5098674916787447,0.0607838292084693,1.7742573186656485,-0.0246694503978504,0.1175240619218653,0.021121053185642,0.3880047762488362,-0.217367413859948,-0.3910661181615693,-0.5078557050716929,0.0589358203107976,1.7731889790706072,0.4929855471929548,-0.2673619149897583,-0.494844136694003,0.7610276461109988,-0.2006130728160554,0.4531523400722534,0.5775555642945435,10.942862837558096,-1.3952112925108453,0.1950019759609686,-0.9351829449868084
1.78,-0.5021435737847461,0.0565260932717192,1.766551433829355,-0.0218419076683262,0.1201327236849769,0.021565106468307,0.3845723850176521,-0.2089139233976607,-0.380112968123091,-0.4980249791457444,0.0535086793471755,1.7632667725788254,0.4958840489840148,-0.2593716486070641,-0.4923117609038243,0.7127662771296603,-0.1716195615592053,0.422674523114365,0.5476575019239177,10.92796331178488,-1.3937211106233345,0.1934524836384141,-0.9427392236178924
1.8,-0.4944846782427671,0.052430940605954,1.759058269790137,-0.0192060364722694,0.1220251964532486,0.0220151639239059,0.3814599185774739,-0.2010677933015673,-0.3697627111491873,-0.4829149545338634,0.0460803971018362,1.7475457854232006,0.4052803238377758,-0.1982848897278313,-0.3534550105394251,0.6677893085620247,-0.1556233220089076,0.3923065048046709,0.5175128486951813,10.902200524818,-1.393031358221173,0.1919718515924772,-0.9497953267454572
1.82,-0.487246414341364,0.0486954910925969,1.752249278914598,-0.0164825635609906,0.1231381597900599,0.0224718793250107,0.3805572268490512,-0.1928481734314323,-0.3475050808265267,-0.4829149545338634,0.0460803971018362,1.7475457854232006,0.4052803238377758,-0.1982848897278313,-0.3534550105394251,1.1872016580454017,-0.0451345864211388,0.4109809935067474,1.1128815161330297,10.874642099433004,-1.3898838375175904,0.1898805129165031,-0.952360195700182
1.84,-0.4796475828515887,0.0449138717418101,1.7455361053444651,-0.0134836994773456,0.1236526613257881,0.0229705729841974,0.3793104308668588,-0.1858256808959005,-0.3251219875768978,-0.4829149545338634,0.0460803971018362,1.7475457854232006,0.4052803238377758,-0.1982848897278313,-0.3534550105394251,1.174598617671582,-0.0623397991096175,0.351124626776593,1.1191546624814477,11.617067240039432,-1.3915730282899028,0.1884723439121919,-0.9628086348077426
1.86,-0.4724568518158361,0.0414416294764598,1.739552186096379,-0.0108193599070361,0.1237040878291772,0.0234333629388598,0.3776280049328521,-0.1800435156575016,-0.3058922491328885,-0.4788621512954857,0.0440975482045579,1.7440112353178063,0.4094219116018005,-0.1961590829938655,-0.3481234190226919,1.0075301887444568,-0.0841212967003346,0.2891082619199417,0.9614869222004664,11.617067240039432,-1.3934418492553744,0.1870602893420764,-0.9730071348915762
1.88,-0.4649276436394228,0.0378978088265297,1.733632619598196,-0.0082943467229651,0.1234825668596516,0.0238985323069613,0.3753393223113426,-0.1746594870884056,-0.2871522988507576,-0.4707565448187302,0.0401318504100012,1.736942135107018,0.41770508712985,-0.1919074695259337,-0.3374602359892256,0.981595090084984,-0.1144341310754748,0.2692014284548016,0.936997514106544,11.499778913019329,-1.3950996855250462,0.1857634795546783,-0.981800896494815
1.9,-0.4574496508506255,0.0344553756337471,1.7280722439216325,-0.0060878345656713,0.123141907761934,0.024336447749214,0.3725441798256539,-0.1698527081157753,-0.26989350772111,-0.4626509383419747,0.0361661526154446,1.7298730348962297,0.4259882626578994,-0.187655856058002,-0.3267970529557593,0.906619844344674,-0.1397571242844342,0.240338948631516,0.8629395564823783,11.414943460546963,-1.396744842914765,0.1846796549633933,-0.9901382513421833
1.92,-0.4500326281984672,0.0311037512520461,1.7228425244411143,-0.0042101220556051,0.1228195797214532,0.0247453852988579,0.3692961332772136,-0.1655155187795404,-0.2539527540263164,-0.4541311730888167,0.0324130354942846,1.7233370938371142,0.4342714381859489,-0.1834042425900702,-0.3161338699222929,0.8418263569128432,-0.1624023274220148,0.2168594668117446,0.7970376847396793,11.334009351699024,-1.3981021324950986,0.1838523832619013,-0.9975921328260788
1.94,-0.4430492634627575,0.0279960129070891,1.7181644361134745,-0.0027301782962991,0.1226195617361432,0.0251071192580617,0.3659696318878928,-0.1618097259109046,-0.2392888312096563,-0.4456114078356587,0.0286599183731245,1.716801152777999,0.4425546137139984,-0.1791526291221385,-0.3054706868888266,0.7743209035202225,-0.1663250694660417,0.1852896434317921,0.7331961408330034,11.267793658023038,-1.3984389571494555,0.183141341846936,-1.0051712447458216
1.96,-0.4357670651549533,0.0247970252097295,1.7135375573683014,-0.0015348671345908,0.122547552097887,0.0254574186426347,0.3624339684993076,-0.158291757917732,-0.224197461567005,-0.4368845631942994,0.0250130915886628,1.7105317912947204,0.4508377892420478,-0.1749010156542067,-0.2948075038553602,0.7947113502547737,-0.1767831694292621,0.1758983996586277,0.7545684821325657,11.248355933842504,-1.3981945491194154,0.1826937503084177,-1.0126172980861592
1.98,-0.4285559841972445,0.0216643463509566,1.7092068552394055,-0.000798949927497,0.1226028227435953,0.0257712265434964,0.3588660836530959,-0.1551287937513099,-0.2096473942865168,-0.427950639164739,0.0214725551408993,1.7045290093872787,0.4591209647700973,-0.170649402186275,-0.2841443208218939,0.7655693999576908,-0.1783942423105838,0.158148208321103,0.7275033640244122,11.23640521699508,-1.3980333535702454,0.1826719254855493,-1.0204545415620356
2.0,-0.4217716355084028,0.0187449874610533,1.7053571552378024,-0.000584948213433,0.1227572820698142,0.0260321995173382,0.3554688448465823,-0.1523003870561854,-0.1963279137485705,-0.4106126800145897,0.0139079066633911,1.6987244855250798,0.3650774906700587,-0.1426430744654046,-0.2010442647506033,0.7016938038458052,-0.1698619403256801,0.1414203347562273,0.665974026897316,11.19128236333745,-1.3977679597472763,0.1831003917855476,-1.0287034779212931
2.02,-0.4146680174070664,0.0157267509443304,1.7015604569566305,-0.0010283626988049,0.121973085856952,0.0262585530219422,0.3550620203504941,-0.1496069094814711,-0.18413837192566,-0.4106126800145897,0.0139079066633911,1.6987244855250798,0.3650774906700587,-0.1426430744654046,-0.2010442647506033,0.6245103231104128,-0.0203412248044099,0.1346738787357151,0.6094770911455216,11.19128236333745,-1.3962204003005791,0.1839976883965528,-1.0361503015277105
2.04,-0.4075782183356366,0.0127645875036246,1.6979936361539756,-0.002253777243651,0.1191889508006408,0.0264333464804632,0.353754715983386,-0.1466756946305324,-0.1731961174141991,-0.4106126800145897,0.0139079066633911,1.6987244855250798,0.3650774906700587,-0.1426430744654046,-0.2010442647506033,0.5701622554243035,-0.0653652183554037,0.1465607425469361,0.5471127255730485,11.078010256710511,-1.4006741227949984,0.1858577692776301,-1.0406769396713829
2.06,-0.4005332321262142,0.0098670696406133,1.694633049848679,-0.0041460375852062,0.1148610803470612,0.0265719471696485,0.3506261495240347,-0.1431585679467442,-0.1634026127900175,-0.4069619051078891,0.012481475918737,1.6967140428775738,0.3663197720734512,-0.1401459306082235,-0.1993236388434206,0.5433020362198617,-0.1564283229675667,0.1758563341894073,0.4896752312090802,10.95165166775223,-1.4067124296310731,0.188410152846445,-1.042661592608968
2.08,-0.3939212220126836,0.0071903949367851,1.6916123716868543,-0.0062654678955004,0.1098920772612986,0.026696506092956,0.3453373760599062,-0.1386709041195139,-0.1550508624545579,-0.3996603552944879,0.0096286144294289,1.6926931575825617,0.3688043348802363,-0.1351516428938614,-0.1958823870290552,0.5428212989717458,-0.2644386732064241,0.2243831913615171,0.4175875167729756,10.95165166775223,-1.413510762529129,0.1913164284844279,-1.0434401302693892
2.1,-0.3870987392590327,0.0044765977978863,1.6885960762658143,-0.0083381633781934,0.1046098141370979,0.0268531464914334,0.3369884306725046,-0.1329600007037345,-0.1470553405629977,-0.3923588054810868,0.0067757529401208,1.6886722722875496,0.3712888976870214,-0.1301573551794992,-0.1924411352146899,0.6446853442273109,-0.4174472693700803,0.28554517078897,0.3997760945780124,10.895966507219782,-1.4196605703638936,0.1940148963681065,-1.0434028783637723
2.12,-0.3804746451244792,0.001883973608549,1.6857300560025337,-0.010020611433781,0.1002747069794235,0.0270406910509106,0.3257321596167016,-0.1266783123339352,-0.1399472452606055,-0.3849330275273463,0.0041726058365308,1.6848234495832557,0.3737734604938065,-0.1251630674651371,-0.1889998834003245,0.7360167553882017,-0.5628135527901507,0.3140844184899641,0.3554047651196101,10.816127840502304,-1.4242446831819884,0.1961802770943037,-1.0434997252493734
2.14,-0.3741033627362295,-0.0005782169673787,1.6829985821612234,-0.0112103729388063,0.0979440375908882,0.0272488267486252,0.3119388318391995,-0.1199155658557408,-0.1335606746940729,-0.377507249573606,0.0015694587329409,1.6809746268789618,0.3762580233005916,-0.1201687797507749,-0.1855586315859591,0.8318336893683154,-0.6896663888751015,0.3381373239097214,0.3193285283266317,10.816127840502304,-1.4258430242742652,0.1978650228471071,-1.0449050968770628
2.16,-0.3683127919626321,-0.0027863395009711,1.6805169887230154,-0.0116882077260167,0.0981493315495252,0.0274660327633909,0.2986342795450272,-0.1129334647589536,-0.1279818846145047,-0.3700193575496959,-0.00090883117779,1.6772118354700272,0.3787425861073767,-0.1151744920364128,-0.1821173797715937,0.8013796638080037,-0.6652276147086189,0.3491050548393555,0.2789395039784093,10.78935655942132,-1.4214866293607256,0.1985571784987884,-1.0482187348658076
2.18,-0.3624748758113547,-0.004964614206238,1.6780169328156318,-0.011322229004927,0.1003702795043351,0.0277302167656966,0.2861142457317553,-0.1053249257850058,-0.1223322900105455,-0.3624693514556162,-0.0032622638956619,1.6735350753564515,0.3812271489141619,-0.1101802043220506,-0.1786761279572283,0.7851099145862321,-0.626001690663594,0.3804269486973946,0.2824797301979604,10.757208410971543,-1.415408244089811,0.1984305401943407,-1.0543878537742084
2.2,-0.3568696340695584,-0.0069897057740819,1.6756280679956927,-0.0099294103525108,0.1039948220393559,0.0280492388443039,0.2753006757140313,-0.0976905751722152,-0.116849253860735,-0.3481691635247669,-0.0102308604954883,1.6719003183151044,0.3100581356178961,-0.0868491604226238,-0.136309254178796,0.7163802957008317,-0.540678500886202,0.3817175306395276,0.2741518074905247,10.744131832544554,-1.4088324446438958,0.1974438788286425,-1.0623274275510155
2.22,-0.3517525795291817,-0.0087906682901804,1.67344225459911,-0.0080905588866234,0.108927300804916,0.0283762114016907,0.2643037152978039,-0.0921865612336333,-0.1135196396213035,-0.3481691635247669,-0.0102308604954883,1.6719003183151044,0.3100581356178961,-0.0868491604226238,-0.136309254178796,0.6370118499988823,-0.5498480208113665,0.275200696929094,0.1664807119715748,10.73767143293844,-1.4033951559426507,0.196068995660672,-1.072221501646787
2.24,-0.3465655596477641,-0.0105793491468532,1.6712004131715332,-0.006076082230774,0.115704734773556,0.0287195079756851,0.255333246992913,-0.087024927174267,-0.1108850917003683,-0.3481691635247669,-0.0102308604954883,1.6719003183151044,0.3100581356178961,-0.0868491604226238,-0.136309254178796,0.5339770840578433,-0.448523415244545,0.2580817029683178,0.1317273960467581,10.627877036125028,-1.3931026236207844,0.1942447941697239,-1.0820947813918924
2.26,-0.3415263836556885,-0.0122730396781029,1.6690047001034105,-0.0042278801417817,0.1232466325394161,0.0290550016047698,0.2493199037328398,-0.0825864435217047,-0.1088581018063687,-0.345068582168588,-0.0110993520997145,1.6705372257733164,0.3148469135951243,-0.0831540073501474,-0.1391046470124461,0.3871986645376835,-0.3006671630036595,0.2219241826281109,0.1013494946999801,10.579951321218688,-1.3829500698386996,0.1926727820410924,-1.092378192175652
2.28,-0.336577504508643,-0.0138836383148362,1.6668441209522598,-0.0027230766564555,0.1307828263720704,0.0293737603682589,0.2460590081409584,-0.0786516891019673,-0.1073277550065147,-0.33886741945623,-0.012836335308167,1.6678110406897406,0.3244244695495806,-0.0757637012051947,-0.1446954326797464,0.2667287654744918,-0.1630447795940709,0.1967377209868732,0.0765173399927002,10.552775173182454,-1.373119955349822,0.1914038681327913,-1.103298770686846
2.3000000000000003,-0.3319133459090395,-0.0153449140093154,1.664816072329376,-0.0017283576071367,0.1374205446459053,0.0296513520484124,0.2451621077575657,-0.0753234830654726,-0.106250705971145,-0.3326662567438721,-0.0145733185166195,1.6650848556061646,0.3340020255040369,-0.0683733950602419,-0.1502862183470466,0.1805645337800348,-0.0448450191696328,0.1664103018247348,0.0538524517684872,10.53690147389625,-1.364863526812815,0.1906698328872898,-1.1135215234277454
2.32,-0.3270033407576603,-0.0168177840194439,1.6626996967574454,-0.001269963705906,0.14352128086735,0.0299039112128519,0.2459790518644768,-0.0721080668195778,-0.1054734803689688,-0.3259862162337913,-0.0159407864178243,1.6620791312392236,0.3435795814584932,-0.0609830889152891,-0.1558770040143468,0.1703700307041925,0.0408472053455538,0.1607708122947394,0.0388612801088088,10.527667796626702,-1.3585352794512269,0.190620121056215,-1.1226300091739805
2.34,-0.3220617166729465,-0.01822728177231,1.660594767276605,-0.0015067900702904,0.1485245258818065,0.0301055531097169,0.2481812698734533,-0.0689572420699416,-0.1050850554000654,-0.3193061757237107,-0.0173082543190292,1.6590734068722828,0.3531571374129496,-0.0535927827703363,-0.1614677896816471,0.1931860160470209,0.1101109004488259,0.1575412374818084,0.0194212484451693,10.520598994562532,-1.3541540273170836,0.1913444338614504,-1.1304121819913804
2.36,-0.3170638687583481,-0.0195700720945028,1.6584935672111505,-0.0023957692826318,0.1522961108777413,0.0302574746737503,0.2514357308556331,-0.0654393089660789,-0.1050654036133852,-0.3123866963147685,-0.0184909645666102,1.6559279128636593,0.3627346933674059,-0.0462024766253836,-0.1670585753489473,0.2396234327048551,0.1627230491089856,0.1758966551931376,0.0009825893340087,10.510880370601626,-1.3517803678871538,0.1927104307971934,-1.1365272982238357
2.38,-0.3122503031471547,-0.0207749425792306,1.6564945571840397,-0.0036868249131264,0.1547302656981401,0.0303676413691086,0.2550152866903422,-0.061548024426522,-0.1053628491216054,-0.305227778006965,-0.0194889171605674,1.6526426492133537,0.3723122493218622,-0.0388121704804308,-0.1726493610162475,0.2647819346743432,0.1789777917354573,0.1945642269778454,-0.0148722754110076,10.501237266752469,-1.351248850674566,0.1947084971760466,-1.1416599187364769
2.4,-0.3071095129428722,-0.0219563676413607,1.654381028888607,-0.0053114197436911,0.1561991217613126,0.0304645527441903,0.2588084285162694,-0.0567715815652971,-0.1059890888612505,-0.2994995388126376,-0.0238523438005567,1.6512264147279594,0.2589286105509577,-0.0393102821068189,-0.1042855936546525,0.3065718004385561,0.1896570912963607,0.2388221430612427,-0.0313119869822582,10.490396317963132,-1.352412962207834,0.1970482032131004,-1.1455702625651265
2.42,-0.3017999729599268,-0.0230306577262116,1.652345699583491,-0.006955472611102,0.1542978309978285,0.0305781668269939,0.2721189078864233,-0.0508699552258895,-0.0970285144656933,-0.2994995388126376,-0.0238523438005567,1.6512264147279594,0.2589286105509577,-0.0393102821068189,-0.1042855936546525,0.8548244673785352,0.6655239685076947,0.2950813169703796,0.448028719777864,10.477498941463637,-1.341824068902219,0.1981110651826041,-1.144646895258064
2.44,-0.2962435192339904,-0.0239809487980986,1.650498648954568,-0.0084127954281883,0.1468430643626465,0.0307503404799298,0.2819523187182763,-0.0444648654537118,-0.0881930239721424,-0.2994995388126376,-0.0238523438005567,1.6512264147279594,0.2589286105509577,-0.0393102821068189,-0.1042855936546525,0.7344845741050096,0.4916705415926509,0.320254488608886,0.4417745246775413,11.04419453301034,-1.3604702226658194,0.2013706595647849,-1.1491852490925114
2.46,-0.290844566013246,-0.0247597666513133,1.64889194662296,-0.0094351343036138,0.136797426630933,0.0309747046976917,0.2853568106332856,-0.0378918090524988,-0.0813354189629682,-0.296910252707128,-0.0242454466216249,1.6501835587914129,0.2597112753230808,-0.0348627336428782,-0.1040701425612619,0.5045353855646351,0.1702245957504622,0.3286528200606497,0.3428802504587117,11.04419453301034,-1.379977407565922,0.2040794293203651,-1.1486008297125745
2.48,-0.2851531062410021,-0.0254424059106868,1.647327965570208,-0.0099606335268695,0.1251515694336135,0.0312673857414992,0.2831603975620827,-0.0307567655173426,-0.0754731274449304,-0.2917316804961088,-0.0250316522637613,1.6480978469183198,0.261276604867327,-0.025967636714997,-0.1036392403744807,0.4746038834396083,-0.1098206535601442,0.3567521767578105,0.2931145759018885,10.930273085924457,-1.3977883366171129,0.2058427933801145,-1.1437508867081878
2.5,-0.2795632477505198,-0.0259809324554562,1.645864470184071,-0.0097819189456217,0.1140699293294272,0.0316031747102889,0.27577086469464,-0.023533739053929,-0.071151544730149,-0.2865531082850897,-0.0258178579058976,1.6460121350452268,0.2628419344115732,-0.0170725397871158,-0.1032083381876995,0.5600298752095432,-0.3694766433721352,0.3611513231706786,0.2160791357390723,10.836239545623355,-1.4120390943214345,0.2065415630016714,-1.1370010372130337
2.52,-0.2741648174041211,-0.0263773105605049,1.6444742915145203,-0.008848959623188,0.1047028415753547,0.0319645187836473,0.2644477844439343,-0.0165442528833011,-0.0680732568457555,-0.2812962695968582,-0.0261593087016399,1.6439479682814728,0.2644072639558194,-0.0081774428592345,-0.1027774360009184,0.6828999187152593,-0.5661540125352832,0.3494743085313957,0.1539143942196737,10.679034825518102,-1.4228130352990007,0.2061844110536126,-1.129173945047348
2.54,-0.2692757865067991,-0.026629472238671,1.6432050559466007,-0.0073150535092665,0.0981130267149457,0.0323166587426559,0.2507514386164932,-0.010411604035288,-0.0656789576731446,-0.2760394309086267,-0.0265007594973823,1.6418838015177188,0.2659725935000656,0.0007176540686466,-0.1023465338141372,0.7598222480387514,-0.6848172913720557,0.3066324424006524,0.1197149586305457,10.679034825518102,-1.429536379427138,0.2048956442137457,-1.122536769020473
2.56,-0.2644360003075119,-0.0267759400075446,1.6419149105923638,-0.0051275866194792,0.0944127437537436,0.0326859646806682,0.2338765949837944,-0.0047053962066336,-0.0634724733810249,-0.2707434589817891,-0.0266198328699275,1.6398304073086345,0.2675379230443118,0.0096127509965279,-0.101915631627356,0.8974822120008864,-0.8437421816349377,0.2853103914327209,0.1103242146059842,10.657261267720967,-1.4310927194986265,0.2027822827903616,-1.1183303728297858
2.58,-0.2599410228893608,-0.0268234348132355,1.640666287415692,-0.0027529080492757,0.0945470073184018,0.0330354826132291,0.2170129376059562,-0.0003728483943966,-0.0614898175177476,-0.2654083538163453,-0.0265165288192758,1.6377877856542191,0.269103252588558,0.0185078479244091,-0.1014847294405749,0.8761918097292193,-0.8431828688919119,0.2166273906118525,0.0991327931638631,10.649345848121811,-1.4251278979129425,0.2001857076789594,-1.1167520185145627
2.6,-0.2557601037799482,-0.0267941304664958,1.6394568590051524,-0.0005930096403554,0.0976487904045706,0.0333565542804549,0.2023457885750232,0.0031292266845927,-0.0595502082913149,-0.2490903760090629,-0.0268420772329553,1.6375917965398048,0.226529476658085,0.0155827077896567,-0.0646651958291731,0.7601839818519932,-0.7333574515466512,0.1751037539494672,0.0969804613216347,10.624318594869692,-1.4154358404791898,0.1976225108448784,-1.1189672554266354
2.62,-0.2520405214299764,-0.0266864695525053,1.6383674785247138,0.0017829492354371,0.1026551045224547,0.0336837521088103,0.1903265291982322,0.0076393529464974,-0.0552253806840345,-0.2490903760090629,-0.0268420772329553,1.6375917965398048,0.226529476658085,0.0155827077896567,-0.0646651958291731,0.6773255655473139,-0.6009629688395481,0.2255063130952367,0.2162413803640229,10.610941346795698,-1.4025291171410372,0.1947083667409983,-1.1256298835302032
2.64,-0.2483403000758287,-0.0265033580988256,1.637306328877497,0.0044575242030879,0.1093667265966072,0.0340495651489419,0.1806662520719763,0.0104212419251952,-0.051170678026008,-0.2490903760090629,-0.0268420772329553,1.6375917965398048,0.226529476658085,0.0155827077896567,-0.0646651958291731,0.5419881781249252,-0.4830138563127958,0.1390944489348899,0.2027351329013219,10.769478479260217,-1.3905362778639745,0.1918281302443149,-1.1355911545546251
