t,x,y,z,roll,pitch,yaw,v_x,v_y,v_z,ref_x,ref_y,ref_z,ref_v_x,ref_v_y,ref_v_z,a_com,a_x,a_y,a_z,thrust,wind_x,wind_y,wind_z
0.0,-1.3814600007354991,0.5222363967397058,2.8348659057032,0.022336376323386,0.13660934963856,0.0265208573120848,0.0064189088521515,0.0033726141649198,0.0295760106916421,-1.3812683201671565,0.5224121523537831,2.8357636219223146,0.0749993953450193,-0.0947855829614246,-0.070166913919366,1.5225942709646745,0.3209454426075756,0.1686307082459946,1.4788005345821085,10.559297746981429,-1.2872871437494535,0.1536152889662139,-1.1878562203263638
0.02,-1.3814555982827237,0.5225361257689995,2.835225923437767,0.0313351452896207,0.139181991496461,0.0272064684384636,-0.0050005599422089,0.0211657861601631,0.0064404543148418,-1.3812683201671565,0.5224121523537831,2.8357636219223146,0.0749993953450193,-0.0947855829614246,-0.070166913919366,1.5670475471900875,-0.5709734397180256,0.8896585997621642,-1.1567778188400144,9.238130706862648,-1.3098595904573491,0.1466052776181909,-1.2032305026257264
0.04,-1.3816288694754368,0.5229430547658604,2.835071148819579,0.0452499655497861,0.1449105234245037,0.0283695424584509,-0.0122186350546651,0.0203193914732211,-0.0215054987786627,-1.3812683201671565,0.5224121523537831,2.8357636219223146,0.0749993953450193,-0.0947855829614246,-0.070166913919366,1.4437739492381638,-0.3609037556228053,-0.0423197343471024,-1.3972976546752338,9.238130706862648,-1.2988479028771789,0.1304402385036333,-1.1890044671974556
0.06,-1.3819178698973076,0.5232849610973496,2.834336770658195,0.0602429162842062,0.1525956737499412,0.0297735372141406,-0.0159246384356077,0.013563091779645,-0.0504078568243374,-1.3805183262137062,0.5214642965241689,2.835061952783121,0.0887200612171163,-0.1147855832594478,-0.0901669142173892,1.4956005041532237,-0.1853001690471316,-0.3378149846788031,-1.4451179022837346,8.93670877504701,-1.2844030702324292,0.1142941709439529,-1.1745469271605136
0.08,-1.3822456172760396,0.5234552199828136,2.833040038737404,0.0746932040994699,0.1609312819827656,0.0312768051784013,-0.0163629560388475,0.0034921462735554,-0.0777654900927075,-1.3790183383068058,0.5195685848649404,2.8336586145047336,0.1161613929613104,-0.1547855838554943,-0.1301669148134356,1.457786132938029,-0.0219158801619916,-0.5035472753044803,-1.3678816634185034,9.058874563957945,-1.2711391250895698,0.0992881784542214,-1.16444033106505
0.1,-1.3825526414888327,0.5233945599586537,2.831213267502432,0.088469504119002,0.1693357367755563,0.0328350462167769,-0.0140749584395123,-0.0093421799874812,-0.1035711602341193,-1.3775183503999051,0.5176728732057119,2.832255276226346,0.1436027247055044,-0.1947855844515407,-0.1701669154094821,1.4455859322750872,0.1143998799667598,-0.6417163130518355,-1.2902835070705907,9.058874563957945,-1.2598580212758923,0.0861225119014927,-1.1560968927338997
0.12,-1.3827797845486645,0.5230748334617824,2.829010403804141,0.1009349533830755,0.1771072872490919,0.0343349259098371,-0.0097639960385512,-0.0239099150498778,-0.127041938049142,-1.3746462959057952,0.5137771615166811,2.8288519379181567,0.1710440564496984,-0.2347855850475872,-0.2101669160055285,1.3979276741956654,0.2155481200480586,-0.7283867531198283,-1.173538890751135,9.14082326474363,-1.2494804190660258,0.0733568030574875,-1.1475360979813187
0.14,-1.3829116262661023,0.5224154890022262,2.826209652449247,0.113424749232155,0.1849255023756799,0.0359077041155693,-0.0034555493470728,-0.0415200905714664,-0.1518277593163485,-1.3717742414116851,0.5098814498276503,2.825448599609967,0.1984853881938925,-0.2747855856436337,-0.2501669166015751,1.5526201382262586,0.3154223345739199,-0.8805087760794327,-1.239291063360325,9.205576835785903,-1.2416284437579357,0.0615361084698727,-1.1414033047710122
0.16,-1.382899410091369,0.5213801827549535,2.82291486999023,0.125293011705702,0.1923131198786627,0.0374523796752045,0.0045325964515389,-0.0613759831404782,-0.1764413854650019,-1.36821615362397,0.5049857381237183,2.8210452612868764,0.2259267199380865,-0.3147855862396801,-0.2901669171976215,1.6308721096377312,0.3994072899305855,-0.9927946284505912,-1.2306813074326683,9.231266002016127,-1.2352677327873818,0.0510856359172682,-1.1360040594464218
0.18,-1.3827248293156322,0.5200060130375457,2.8193314312658213,0.1359399753112958,0.1989151455532568,0.0388717958432116,0.013578992310297,-0.0824305660090588,-0.1995549904157678,-1.3639720325426503,0.4990900264048851,2.8156419229488843,0.2533680516822805,-0.3547855868357265,-0.3301669177936679,1.6273993606544106,0.4523197929379093,-1.0527291434290258,-1.1556802475382977,9.231266002016127,-1.2295438259123588,0.0409431469912825,-1.130208654209066
0.2,-1.3823408696496953,0.5180868929448641,2.8150829667213846,0.1458031991677322,0.2054388005504441,0.0402508345429123,0.0244838927726955,-0.1082036239841274,-0.2240462940194554,-1.3820458797001174,0.5158844847370927,2.809353681745033,0.0871017463238354,-0.1824305674991749,-0.2995549919058839,1.859429565544948,0.5452450231199237,-1.2886528987534334,-1.2245651801843795,9.261499511467264,-1.2245367159321603,0.0324065920084162,-1.1235405849690627
0.22,-1.3816910407015164,0.5154850773688245,2.810459534405381,0.1496202917780713,0.211529873390044,0.0411534577885775,0.0402264687785356,-0.148812975141977,-0.2361139801791306,-1.3820458797001174,0.5158844847370927,2.809353681745033,0.0871017463238354,-0.1824305674991749,-0.2995549919058839,2.259743984398233,0.7871288002920015,-2.0304675578924765,-0.6033843079837605,9.279615137968904,-1.2099093813086252,0.0297793670755012,-1.1102397929993613
0.24,-1.380769646562722,0.5123260313834702,2.805864618801571,0.1469533260945772,0.216922705133381,0.0414812435928984,0.0560548127341138,-0.1807525348387356,-0.2469033085925848,-1.3820458797001174,0.5158844847370927,2.809353681745033,0.0871017463238354,-0.1824305674991749,-0.2995549919058839,1.8621771892144627,0.7914171977789111,-1.5969779848379342,-0.5394664206727087,10.167974553697604,-1.2062500182977411,0.0332154981218309,-1.1100127004774385
0.26,-1.3794709782043366,0.5084182109320385,2.8007926720374368,0.1415363821374975,0.2222288086027915,0.041541608752434,0.0730622360177651,-0.2078599867988429,-0.2597736452574243,-1.3811748622368791,0.514060179062101,2.806358131825974,0.1018062971265431,-0.2024305677971981,-0.3195549922039072,1.7246100750496591,0.8503711641825639,-1.3553725980053624,-0.6435168332419722,10.050446249147171,-1.2041736962506489,0.039265530448488,-1.110980909544219
0.28,-1.3778285586326866,0.504011911791974,2.795444550580275,0.1357192787125274,0.2271892485346705,0.0414760956428741,0.0904109969387175,-0.2312708332958323,-0.274472758142587,-1.3794328273104024,0.5104115677121175,2.8003670319878564,0.1312153987319584,-0.2424305683932446,-0.3595549927999536,1.6318020397774389,0.8674380460476208,-1.1705423248494704,-0.7349556442581368,9.786113555364864,-1.2030343355688573,0.0457284805611165,-1.111129309441519
0.3,-1.3758356425129934,0.4991635571087566,2.7897826834332604,0.1303627303964963,0.2318354282257721,0.0413560565792512,0.1081162557503518,-0.2524357816312502,-0.2909843843332696,-1.3776907923839257,0.506762956362134,2.794375932149739,0.1606245003373738,-0.282430568989291,-0.3995549933960001,1.6078440744430884,0.8852629405817186,-1.0582474167708953,-0.8255813095341291,9.786113555364864,-1.2013761136930126,0.0511905356120911,-1.1120228304468522
0.32,-1.3736105416636,0.494180523775449,2.7840839398255914,0.125964973832402,0.2359803283830793,0.0412196274332064,0.1253009842190383,-0.2711399540270096,-0.3080744697297633,-1.3744783023771785,0.5011143449823482,2.786384832281819,0.1900336019427891,-0.3224305695853374,-0.4395549939920465,1.5307122332530485,0.8592364234343203,-0.9352086197879668,-0.8545042698246852,9.684309905026566,-1.200464382732468,0.0562185529137988,-1.11246998597326
0.34,-1.3709085097253455,0.4885623047685745,2.7777258746273734,0.1221525601589908,0.2400220541250046,0.0410603618297294,0.1440653781897038,-0.2897873277968493,-0.3268836584816149,-1.3712658123704309,0.4954657336025623,2.7783937324138988,0.2194427035482045,-0.3624305701813839,-0.479554994588093,1.6229699713035617,0.9382196985332756,-0.9323686884919856,-0.940459437592578,9.600556315367612,-1.2000658018286707,0.0603980666423084,-1.1119727483956294
0.36,-1.3678159930050255,0.4825689969836285,2.770984452008956,0.1188481115157894,0.2434114555075251,0.0408280023765351,0.1642119937717532,-0.3085507583517556,-0.346294448221958,-1.367318094823548,0.4888171222078753,2.7694026325310777,0.2488518051536198,-0.4024305707774304,-0.5195549951841394,1.6842885767761695,1.0073307791024693,-0.9381715277453184,-0.9705394870171552,9.535982703004263,-1.2001205197632945,0.0640026433187704,-1.1102731303680184
0.38,-1.3644959304370703,0.4765304459817416,2.7642171834945755,0.1158188066444111,0.2456804334613144,0.0404783535832721,0.1841731476081447,-0.326048194974145,-0.3650430519306994,-1.3626351497365297,0.4811685107982872,2.7594115326333557,0.2782609067590351,-0.4424305713734768,-0.5595549957801859,1.6248985290334728,0.9980576918195774,-0.8748718311194698,-0.9374301854370742,9.535982703004263,-1.2011409756173088,0.0672796718222117,-1.1068249751617352
0.4,-1.3605897153562825,0.4698222204709062,2.7567048735777075,0.1126796773107201,0.2469531626167351,0.0399644799883357,0.2053110494124926,-0.3437668135638908,-0.3851900936723765,-1.3552872730566632,0.4602280362330343,2.745965030898041,0.2663998561395244,-0.3981289487177936,-0.4650430534208156,1.707822903845723,1.0568950902173957,-0.8859309294872886,-1.0073520870838517,9.520311536201916,-1.2041290315113595,0.0706395758205482,-1.102003493376582
0.42,-1.3562119262333157,0.4626708529977102,2.7489966960863623,0.1072364374763438,0.2473661633146426,0.0391760769653551,0.2316215752382823,-0.3692322724870758,-0.3833349016782039,-1.3552872730566632,0.4602280362330343,2.745965030898041,0.2663998561395244,-0.3981289487177936,-0.4650430534208156,1.833149683422777,1.3155262912894858,-1.2732729461592485,0.0927595997086305,9.488611736789608,-1.2018337963564465,0.0762325914861852,-1.0867890428918845
0.44,-1.3513139063131818,0.4550807001201046,2.741335751177873,0.099732151771267,0.24732142930758,0.0381887179419661,0.2567766822541977,-0.3880991921290079,-0.3829273435775341,-1.3552872730566632,0.4602280362330343,2.745965030898041,0.2663998561395244,-0.3981289487177936,-0.4650430534208156,1.572343926565287,1.2577553507957666,-0.943345982096605,0.020377905033489,10.616136879557416,-1.2070109989375548,0.0828815527578797,-1.0894628067128165
0.46,-1.3462063504985955,0.4475594652697889,2.7340217312674744,0.0925942201734113,0.2468737748261083,0.0372131803645123,0.2795199594045318,-0.402568587547865,-0.3869512357475763,-1.352623274495268,0.4562467467458564,2.7413146003638325,0.2828451978458003,-0.4125450994665233,-0.4850430537188388,1.3627286666100142,1.137163857516707,-0.7234697709428584,-0.2011946085021115,10.616136879557416,-1.2117038761336576,0.0899153264491504,-1.089923416837305
0.48,-1.3403770874086791,0.4393725865422874,2.7262018202331784,0.0857007406253762,0.2459209826350735,0.0361940970134584,0.3021093982377641,-0.4153195510633968,-0.3949900517585528,-1.3472952773724771,0.4482841677715005,2.732013739295416,0.3157358812583523,-0.4413774009639827,-0.5250430543148853,1.357840546817903,1.129471941661614,-0.6375481757765894,-0.4019408005488223,10.325470902279449,-1.216771406904265,0.0963383194470695,-1.0892431458936376
0.5,-1.3341087394837778,0.4309497825622027,2.718184846468072,0.0796714641172351,0.2444570434322839,0.0352044238923851,0.32350516954216,-0.426340215766521,-0.4064288278588969,-1.341967280249687,0.4403215887971446,2.722712878227,0.3486265646709041,-0.4702097024614421,-0.5650430549109318,1.332366014729533,1.0697885652197952,-0.5510332351562092,-0.5719388050172081,10.084396325286434,-1.222501066739371,0.1019506179432905,-1.086855885710592
0.52,-1.327425239393429,0.422320889305683,2.709909428287434,0.0745395964925588,0.2424583165052787,0.0342497868039519,0.3436755301899429,-0.4360490817092897,-0.4206370915953114,-1.3349947489562688,0.4309173947479158,2.7114120171287808,0.381517248083456,-0.4990420039589015,-0.6050430555069782,1.3256887690553467,1.008518032389144,-0.4854432971384326,-0.7104131868207242,9.88609103608178,-1.228583796524534,0.1064838959261235,-1.0829727040979935
0.54,-1.320713270631756,0.4139539652484068,2.7017690299318997,0.0705065852212331,0.2401233055852406,0.0333838036132606,0.3617698073864615,-0.4443354479051454,-0.4355082923281255,-1.328022217662851,0.421513200698687,2.7001111560305624,0.4144079314960079,-0.5278743054563609,-0.6450430561030247,1.2421949758712616,0.9047138598259286,-0.4143183097927855,-0.743560036640703,9.723752679958125,-1.2351475417632165,0.1103737624702411,-1.0770839150160705
0.56,-1.3132844745341787,0.4049772242154325,2.6928836638840363,0.0668817259290365,0.2372257223215381,0.0324997821792745,0.3800609889359915,-0.4528903311130192,-0.4522725779558648,-1.3202274192841188,0.4113881991120217,2.6878102949174427,0.4472986149085597,-0.5567066069538203,-0.6850430566990711,1.3122448530920758,0.914559077476504,-0.4277441603936921,-0.8382142813869647,9.64205139110527,-1.2417500862955462,0.1135750389472451,-1.0702517707624215
0.58,-1.305498252182724,0.3958331918210436,2.6836522983231403,0.0636225953060844,0.2337712241612291,0.0316201575814617,0.3975358963446958,-0.4610430323368245,-0.4700375982404263,-1.3116103538200732,0.4005423899879199,2.6745094337894217,0.4801892983211116,-0.5855389084512798,-0.7250430572951175,1.3109489615335017,0.8737453704352138,-0.4076350611902618,-0.8882510142280781,9.567641582746546,-1.2488023774828976,0.1163877607597304,-1.0622946249246108
0.6,-1.297373489484826,0.3865316350480614,2.674054086088493,0.0606120704960879,0.2296884617872414,0.0307356189747252,0.4139362909630368,-0.4686666067382192,-0.4888457632383583,-1.2856214573654894,0.3727810402042024,2.660150418411119,0.4634456024008138,-0.5023424872046642,-0.5700375997305425,1.3046444926495722,0.8200197309170515,-0.3811787200697358,-0.9404082498965988,9.500451986568804,-1.2557481712584877,0.1187810229094151,-1.053855527959602
0.62,-1.289273352722809,0.3774632564027912,2.664856176222615,0.0553111546125712,0.224608984057641,0.0296768818730268,0.4374727808401507,-0.4836305970041156,-0.4782353072274346,-1.2856214573654894,0.3727810402042024,2.660150418411119,0.4634456024008138,-0.5023424872046642,-0.5700375997305425,1.4920364750677788,1.1768244938556938,-0.7481995132948199,0.5305228005461848,9.430786871277633,-1.2554618253988494,0.1230157306905316,-1.0317860539874968
0.64,-1.2803026378115712,0.3676914099112012,2.655370807582768,0.0475342403083837,0.2179658471990177,0.0283963644206098,0.4579269449856468,-0.4923114198277459,-0.4712051655718325,-1.2856214573654894,0.3727810402042024,2.660150418411119,0.4634456024008138,-0.5023424872046642,-0.5700375997305425,1.1652815190802517,1.0227082072748055,-0.4340411411815154,0.3515070827801059,11.268759595517622,-1.2675820439465706,0.1299113698711566,-1.0307551101582058
0.66,-1.2709707885258386,0.3577924996689976,2.6459471013446683,0.0396658946730236,0.2108434643708686,0.0271664621334825,0.4739940307406134,-0.4970213586270995,-0.4714322745395041,-1.2809870013414812,0.3677576153321558,2.654450042413813,0.4766275436120374,-0.5106023781782322,-0.5900376000285656,0.8372370432474684,0.8033542877483313,-0.2354969399676831,-0.0113554483835792,10.381582644548873,-1.2790147416902296,0.1365879376903079,-1.0272064374889898
0.68,-1.2618453328707369,0.3483272696173003,2.636934520438241,0.0328398825225031,0.2041492829748025,0.0261204610582567,0.4856361458064038,-0.4991318937631426,-0.4772047897766953,-1.271718089293465,0.3577107655880625,2.6430492904192024,0.5029914260344847,-0.5271221601253682,-0.6300376006246121,0.6582460290977468,0.5821057532895191,-0.1055267568021517,-0.2886257618595622,10.381582644548873,-1.2902895670183503,0.1429882219483654,-1.020760524134673
0.7000000000000001,-1.252034551603329,0.3383380817880067,2.6272820847392166,0.0265999943693307,0.1976677124635613,0.0251729258251975,0.4946554988890578,-0.499719706392201,-0.4879282839489196,-1.2624491772454487,0.3476639158439692,2.631648538424592,0.5293553084569318,-0.543641942072504,-0.6700376012206586,0.701226748238735,0.4509676541326973,-0.029390631452919,-0.5361747086112145,10.029335600954257,-1.3002295544513638,0.1484445380565091,-1.01279334015961
0.72,-1.242074240183091,0.3283502838030286,2.6173717261163936,0.021390315928738,0.1922089596329577,0.0243818019404155,0.5007557485481756,-0.4991160908318747,-0.5027142535801694,-1.25186207107631,0.3367910770025191,2.6182477864001785,0.555719190879379,-0.5601617240196399,-0.710037601816705,0.8003160244310931,0.3050124829558909,0.0301807780163143,-0.7392984815624892,9.743240901647368,-1.3088326941934014,0.1529192676207834,-1.0042000170699583
0.74,-1.2320204079545325,0.3183847653845907,2.6071401246505626,0.0172104179546737,0.1883851599138074,0.0237398038106349,0.5042752415129198,-0.4976521865257805,-0.5196717738561482,-1.2412749649071713,0.3259182381610691,2.6048470343757657,0.5820830733018262,-0.5766815059667759,-0.7500376024127515,0.8690329977286753,0.1759746482372093,0.0731952153047083,-0.8478760137989372,9.512636922442653,-1.3150801418575415,0.156241452373731,-0.996296101103002
0.76,-1.22191308083633,0.3084504988272961,2.5965547462829304,0.0138309446506921,0.1867391559409662,0.0232193867674558,0.5063378402548104,-0.4959388171180309,-0.5380074196312926,-1.2300287616774714,0.3146324047709406,2.590446282336451,0.6084469557242734,-0.5932012879139118,-0.7900376030087979,0.926533666804712,0.1031299370945315,0.0856684703874816,-0.916782288757223,9.40022243709518,-1.3179994277155078,0.158900653218134,-0.9900249837011784
0.78,-1.2122711972851814,0.299048193404987,2.586146671430038,0.011175373399144,0.1871439947552798,0.0228077110079525,0.5087276589765405,-0.4939295865767931,-0.5566717059311976,-1.2181234613872105,0.3029335768321337,2.575045530282236,0.6348108381467206,-0.6097210698610478,-0.8300376036048444,0.9461815681667504,0.1194909360865026,0.1004615270618874,-0.933214314995251,9.317740070555374,-1.3173574509085506,0.1609165157540942,-0.9864337584864266
0.8,-1.2020611419203358,0.2891959481450867,2.5747949643087447,0.0088633046455864,0.1889493054442491,0.0224348793337143,0.5123105073113348,-0.49143782161848,-0.5775775215412527,-1.1868348143363543,0.2743517140761474,2.558313086133478,0.5734679219021653,-0.5160398401492572,-0.6566717074213138,1.0678235120084676,0.1791424167397137,0.1245882479156551,-1.0452907805027556,9.243106354863812,-1.3159076641344272,0.1625347428395167,-0.9844650158421496
0.8200000000000001,-1.1916950564632132,0.2793454792251515,2.563358052613387,0.0053617429230249,0.191467643834955,0.0219934470041404,0.5242131049239918,-0.4926432158093068,-0.565089329619162,-1.1868348143363543,0.2743517140761474,2.558313086133478,0.5734679219021653,-0.5160398401492572,-0.6566717074213138,0.8646961063967485,0.5951298806328498,-0.0602697095413384,0.624409596104536,9.173459492368238,-1.3045402051614907,0.163945883848638,-0.9700616765120036
0.84,-1.181090889995946,0.2695165535337261,2.552131657738838,0.0008602213012495,0.1942756999942536,0.0214890755780737,0.5356995548814875,-0.4899895774207635,-0.5582899175351863,-1.1868348143363543,0.2743517140761474,2.558313086133478,0.5734679219021653,-0.5160398401492572,-0.6566717074213138,0.6804636911895421,0.5743224978747852,0.1326819194271633,0.339970604198786,11.158751255290554,-1.3059820745442716,0.1681942864720387,-0.9826432159212845
0.86,-1.1708061187057277,0.2602522691251756,2.541526282681431,-0.0032116194372535,0.1969697645580798,0.0210290358854899,0.5463847291376585,-0.4853813545748697,-0.5584018508716918,-1.1811001351173327,0.2691913156746548,2.551746369059265,0.5864159744872903,-0.5204618908637499,-0.6766717077193369,0.5818530651160525,0.5342587128085496,0.2304111422946897,-0.0055966668252749,10.70233228770303,-1.30664566624257,0.1722049429705757,-0.991776835277186
0.88,-1.1597638469258054,0.2506077843843545,2.530306105212102,-0.0068587992604402,0.1995827169684335,0.020596795386247,0.5572814947434839,-0.4793817052906995,-0.5638452881868908,-1.1696307766792893,0.2588705188716697,2.538612934910839,0.6123120796575402,-0.5293059922927356,-0.7166717083153834,0.6789077662058476,0.544838280291271,0.2999824642085119,-0.2721718657599514,10.317836919797628,-1.3076302670673463,0.1756305274537657,-0.9985278001423163
0.9,-1.1485075746719435,0.2410923006458572,2.518924851154991,-0.0096970008820487,0.2018487764177071,0.0202327340336914,0.5678198685852196,-0.4726474325626061,-0.5739846867274538,-1.158161418241246,0.2485497220686845,2.5254795007624127,0.6382081848277902,-0.5381500937217212,-0.7566717089114299,0.805008004880841,0.5269186920867863,0.3367136364046674,-0.5069699270281502,9.78543716641434,-1.308731921873595,0.1781814040678041,-1.0030935499896771
0.92,-1.1370441563191065,0.2317158016016161,2.5073041595768384,-0.0117482620325628,0.2037317949318772,0.0199387446236964,0.5780031816201451,-0.4655300273400062,-0.5875651627755609,-1.1453972545446902,0.2377867201942501,2.510346066584184,0.6641042899980402,-0.5469941951507068,-0.7966717095074763,0.920307898427458,0.5091656517462739,0.3558702611299952,-0.6790238024053541,9.78543716641434,-1.3099613902933682,0.1801196869998142,-1.0059620883050626
0.94,-1.1259661419750528,0.2229440395294316,2.495998554762043,-0.0129584383199354,0.2051933894077146,0.0197266225355469,0.5875971538327468,-0.4582906163183,-0.6018082335220051,-1.1326330908481343,0.2270237183198157,2.495212632405956,0.69000039516829,-0.5558382965796924,-0.8366717101035228,0.9318240700979844,0.479698610630086,0.3619705510853138,-0.7121535373222077,9.605576157857286,-1.3109604243948425,0.1812534998557385,-1.006945858377469
0.96,-1.1141061495920008,0.2138613956295057,2.483794139894285,-0.0133498854226678,0.2063449451140747,0.0195828374489608,0.5978772790770527,-0.4504171059927422,-0.6179259930946451,-1.1192215245223225,0.2160396139096566,2.4790791982128257,0.71589650033854,-0.5646823980086779,-0.8766717106995692,1.033749623369592,0.5140062622152941,0.393675516277886,-0.8058879786320028,9.53695065658576,-1.3122302282189913,0.1815644831004518,-1.0072328900192329
0.98,-1.1020391894778114,0.2049396515345706,2.471255542763217,-0.0126711724250871,0.2069668065540994,0.0195335307561878,0.608242469603375,-0.4422885919745133,-0.6351068237704605,-1.1051625555672542,0.2048344069637729,2.4619457640047946,0.7417926055087899,-0.5735264994376635,-0.9166717112956156,1.08246346070265,0.5182595263161172,0.4064257009114447,-0.8590415337907664,9.475968673736132,-1.313976428542665,0.1809731959846065,-1.006752103286354
1.0,-1.0903847586197035,0.1966142499803067,2.459016588578503,-0.010909533498251,0.2070176870646461,0.019581400155861,0.6179517920999162,-0.4346203968660381,-0.6523245103705649,-1.0716270659976428,0.182825221935845,2.439500201574694,0.6701040517037664,-0.4437243992985279,-0.7351068252605766,1.0600953865371063,0.4854661248270608,0.3834097554237636,-0.8608843300052238,9.422857165024652,-1.3164751027631874,0.1793069181506745,-1.0053911802023567
1.02,-1.0778477834335216,0.1879183395950317,2.4460822080708757,-0.0107139247993737,0.206357539577363,0.019531736288874,0.6354855620863565,-0.4347658972346571,-0.6386350439504455,-1.0716270659976428,0.182825221935845,2.439500201574694,0.6701040517037664,-0.4437243992985279,-0.7351068252605766,1.112267673676442,0.8766884993220148,-0.0072750184309494,0.6844733210059739,9.370010482258294,-1.3112880459155525,0.1779727996288677,-0.9911288990464702
1.04,-1.0649646228561072,0.1792395542294285,2.4334247671702878,-0.0140490667457148,0.2048890244440664,0.0192605197756025,0.6517464342564115,-0.4324826195814318,-0.6283141160765326,-1.0716270659976428,0.182825221935845,2.439500201574694,0.6701040517037664,-0.4437243992985279,-0.7351068252605766,0.9697304686755716,0.8130436085027504,0.1141638826612612,0.5160463936956405,11.395076332760254,-1.3165360536618549,0.1814385017426551,-0.998917109494612
1.06,-1.051777026368567,0.170654529012815,2.4208876496794685,-0.0188266425367234,0.2025871669953121,0.0189289767142031,0.6661004744730532,-0.4258674182701235,-0.6258700108372196,-1.0649260254806052,0.1783879779428597,2.4321491333220884,0.6824763681238447,-0.4440115607633308,-0.7551068255585998,0.7996452484554308,0.7177020108320831,0.3307600655654164,0.1222052619656521,10.490326369791546,-1.322784659992039,0.1863764877940339,-1.0035285025788334
1.08,-1.0390005167661394,0.1626477609825252,2.4089632890107224,-0.0232132417732268,0.1994965103899371,0.0186750942345507,0.677977075677331,-0.4173281717836836,-0.6294130023006583,-1.05152394444653,0.1695134899568891,2.4174469968168766,0.7072210009640012,-0.4445858836929367,-0.7951068261546462,0.7525376655550697,0.5938300602138902,0.4269623243219972,-0.1771495731719363,10.490326369791546,-1.3302942248578118,0.1911669883126706,-1.0043221804717255
1.1,-1.0253286985603445,0.1544075691815328,2.396289863570169,-0.0271728566006199,0.1953234896799438,0.0185130803223072,0.6883983368931764,-0.4072136808914299,-0.63792962928573,-1.0381218634124545,0.1606390019709186,2.402744860311665,0.7319656338041578,-0.4451602066225426,-0.8351068267506927,0.841781661924898,0.5210630607922706,0.5057245446126818,-0.4258313492535859,10.14205242931439,-1.3385417174858796,0.1952558734468103,-1.0016067055429565
1.12,-1.0114734178263698,0.146378486840297,2.383397740260559,-0.0302797221790266,0.1904243477148516,0.0184680154926279,0.6964624889887134,-0.3963893752893002,-0.6507944729232319,-1.0234825507363714,0.1517357978384677,2.3860427237766517,0.7567102666443144,-0.4457345295521484,-0.8751068273467392,0.9323362357615712,0.4032076047768507,0.5412152801064857,-0.6432421818750922,9.629196656073873,-1.3468943679347811,0.1983338038120069,-0.996385520416336
1.14,-0.9981841804405652,0.1389553023317906,2.370892378227963,-0.032448739196333,0.1854863364957333,0.0185193247494101,0.7018676518552075,-0.3857276744659108,-0.6648716477892243,-1.008843238060288,0.1428325937060169,2.3693405872416378,0.7814548994844709,-0.4463088524817543,-0.9151068279427856,0.923383049265738,0.2702581433247031,0.5330850411694732,-0.703858743299618,9.629196656073873,-1.3553952030418293,0.2006767992800293,-0.988341980602886
1.16,-0.9841043986263543,0.1313613458887072,2.3574242445734805,-0.0339803308069034,0.1804378732295435,0.0186476741843328,0.7056699872193776,-0.3743212269791794,-0.6812474832884646,-0.993585309563201,0.1339150315003259,2.3516384506917225,0.8061995323246275,-0.4468831754113601,-0.955106828538832,1.0157913008922648,0.1901167682085036,0.5703223743365682,-0.8187917749620188,9.415040110193331,-1.3630822221895178,0.2022432448558148,-0.979744740112571
1.18,-0.969968190354504,0.1240001504807286,2.343612607808806,-0.0346449814990889,0.1758563121154053,0.0188414241820477,0.7076109931475371,-0.3624482225631614,-0.6991350328090714,-0.97770876524511,0.1249831112213947,2.3329363141269064,0.830944165164784,-0.4474574983409659,-0.9951068291348784,1.0778452645534191,0.0970502964079744,0.5936502208008981,-0.8943774760303391,9.415040110193331,-1.3700661823679612,0.2029947426475827,-0.9711245286188918
1.2,-0.9558131618747956,0.1168817416322157,2.329426937424917,-0.0341475673934024,0.1721365530121551,0.0190994270165406,0.7077080847464972,-0.3501606247490009,-0.7184976389208504,-0.9345876406971272,0.1058777393525705,2.308655856168353,0.7403662078685015,-0.3441398233180185,-0.7991350342991875,1.1466309369856682,0.0048545799480048,0.6143798907080278,-0.968130305588949,9.23938543926215,-1.3757767671540435,0.2027356167534041,-0.9635148856067406
1.22,-0.9422708863580987,0.1102873811045551,2.315907923507786,-0.034747717231467,0.1682496764632374,0.0192904872990221,0.7175705834390889,-0.3437886802077491,-0.7036063469989315,-0.9345876406971272,0.1058777393525705,2.308655856168353,0.7403662078685015,-0.3441398233180185,-0.7991350342991875,0.9481839652751548,0.4931249346295852,0.3185972270625864,0.7445645960959424,9.23938543926215,-1.3700994521235632,0.2017737137056209,-0.9444566019320167
1.24,-0.92783441152039,0.1035013911650626,2.3019486251850103,-0.0376877714884235,0.1624382417228251,0.019415776787037,0.7250519414406921,-0.3346243995134362,-0.6935668956543585,-0.9345876406971272,0.1058777393525705,2.308655856168353,0.7403662078685015,-0.3441398233180185,-0.7991350342991875,0.7757985265073009,0.3740679000801605,0.4582140347156482,0.5019725672286535,11.3201364160941,-1.380986355078092,0.2055423411478715,-0.9458610787572952
1.26,-0.9132936334528816,0.0969344851566806,2.2881052283067023,-0.0412557148929788,0.1556708201732688,0.0195744684903686,0.7283161740457806,-0.3224643737295155,-0.6915714412371321,-0.927183978618442,0.1024363411193903,2.3006645058253605,0.7469172508126943,-0.3404781434689899,-0.8191350345972107,0.6373838715738088,0.1632116302544284,0.6080012891960335,0.0997727208613186,10.809295954056324,-1.391907570903609,0.2094892617440552,-0.9433387936640684
1.28,-0.8987297029634036,0.0906269640624977,2.274222987345188,-0.0444090371380741,0.1487045405275872,0.0198135639540224,0.7277310746332873,-0.3090184112517135,-0.6966797380007033,-0.912376654461072,0.09555354465303,2.284681805139377,0.7600193367010801,-0.3331547837709327,-0.8591350351932572,0.719775909748428,-0.0292549706246647,0.6722981238900999,-0.2554148381785581,10.341641246263862,-1.402784080440773,0.2130448945266216,-0.9369648126015876
1.3,-0.8849362678148479,0.0848896574989068,2.2608889244527304,-0.0467527159868314,0.1424765671667332,0.0201034637215472,0.724159125446688,-0.2957477144637679,-0.706606315014444,-0.897569330303702,0.0886707481866696,2.2686991044533933,0.7731214225894659,-0.3258314240728756,-0.8991350357893036,0.8476543302534398,-0.1785974593299655,0.6635348393972784,-0.4963288506870389,9.963626251818823,-1.4123536023740657,0.2157671597531336,-0.928532980315228
1.32,-0.8705176652460734,0.0791230565879499,2.246607398050822,-0.0485340308145671,0.1368207625125634,0.0204424762002392,0.7177312529488298,-0.2817294357938099,-0.7211831615701794,-0.8821069018519127,0.0821541197052121,2.250716403737607,0.7862235084778517,-0.3185080643748184,-0.93913503638535,1.0610303214644443,-0.3213936248929128,0.7009139334979042,-0.7288423277867662,9.429367368912608,-1.4204299540774552,0.2176888373528424,-0.9192307111937246
1.34,-0.8562533220712795,0.0736402550508604,2.2320101060051325,-0.0495728795720979,0.132670610045442,0.0207808001573458,0.7088946211089459,-0.2673205038498709,-0.7378635447261117,-0.8666444734001233,0.0756374912237546,2.232733703021821,0.7993255943662375,-0.3111847046767612,-0.9791350369813966,1.1873695341672552,-0.4418315919941962,0.720446597196947,-0.8340191577966172,9.324669619363704,-1.4261927788408166,0.2187516589215287,-0.9098446197821828
1.36,-0.8421857093814906,0.0684523006020059,2.217064750669857,-0.0495650699464556,0.1306821222141073,0.0210977790047723,0.6982633188571925,-0.252304061478828,-0.7558696734013569,-0.8508544928011244,0.0693039467347485,2.2137510022911338,0.8124276802546232,-0.303861344978704,-1.019135037577443,1.2871856887416004,-0.5315651125876675,0.7508221185521441,-0.9003064337622602,9.324669619363704,-1.4288504729460432,0.2188495469419222,-0.9031858892326726
1.38,-0.8290223165323651,0.0638066551860822,2.20252154605391,-0.0482227174307179,0.1310466583616751,0.0213873702560586,0.6881934890039536,-0.2376577119976097,-0.7740735814722595,-0.8347369600549158,0.0631534862381938,2.1937683015455454,0.825529766143009,-0.2965379852806469,-1.0591350381734894,1.2721038631466344,-0.5034914926619449,0.7323174740609159,-0.9101954035451276,9.253360390826856,-1.4278675005014227,0.2177213364913165,-0.899789636706903
1.4,-0.815359928293734,0.0592135637821427,2.1868297687380336,-0.0452373748249392,0.133208086562783,0.0217236540106965,0.6787962870380074,-0.2228406185079218,-0.7941636578556976,-0.7946126420821674,0.0519237695862017,2.163817866980297,0.6880639085062119,-0.2262602654918843,-0.8308452547343788,1.3336649067169335,-0.4698600982973089,0.7408546744843952,-1.0045038191719091,9.188607792978928,-1.4259116135472796,0.2153184413468982,-0.8986425685053056
1.42,-0.8017267841618239,0.0549297726686307,2.171146323856375,-0.0407954891263379,0.1339099295896899,0.0222312023526496,0.6853812773709301,-0.2067301322472026,-0.7709940873181687,-0.7946126420821674,0.0519237695862017,2.163817866980297,0.6880639085062119,-0.2262602654918843,-0.8308452547343788,1.448912406026532,0.3292495166461351,0.8055243130359574,1.1584785268764497,9.129944538663947,-1.4083206533155088,0.2099716583838657,-0.8882864175514855
1.44,-0.7879501870962874,0.0509407967928677,2.155952858374266,-0.0355383180730092,0.1299010081552731,0.0229745992355216,0.6912808138651072,-0.1933275561429459,-0.7497070040527554,-0.7946126420821674,0.0519237695862017,2.163817866980297,0.6880639085062119,-0.2262602654918843,-0.8308452547343788,1.2918721792665466,0.2949768247088535,0.6701288052128357,1.0643541632706643,11.90984401461992,-1.4191600007054035,0.2075992506918467,-0.8928859855715177
1.46,-0.7747996546579969,0.0473799903523678,2.1418443086603904,-0.0303183134537712,0.1228037854853176,0.0237774372494611,0.6921778184150927,-0.1824255069755681,-0.736407725035705,-0.7877320029971053,0.0496611669312829,2.1555094144329536,0.6880379924066635,-0.2239807761907392,-0.8421995893868026,0.861002490681612,0.0448502274992768,0.5451024583688915,0.6649639508525207,11.452473211328652,-1.4327317593872502,0.2047152590033345,-0.8915799258631233
1.48,-0.7609918321740912,0.0438357350864903,2.127205338175907,-0.0248136396867999,0.1134444744425452,0.0246240419043774,0.688081035581122,-0.1727816435569862,-0.728428024342305,-0.773970724826981,0.0451359616214452,2.138892509338266,0.6879861602075669,-0.2194217975884491,-0.8649082586916503,0.6585274375096799,-0.2048391416985373,0.4821931709290933,0.3989850346699963,10.988268898010574,-1.4456303980428449,0.2014840504300851,-0.8854186460071394
1.5,-0.7473164827841894,0.0404667535321028,2.1126664465461102,-0.0194607542302568,0.1034411672516457,0.0254105943874776,0.6793014130636659,-0.1647599270935838,-0.7260593490191911,-0.7602094466568569,0.0406107563116075,2.1222756042435784,0.6879343280084702,-0.2148628189861589,-0.887616927996498,0.606300934673891,-0.438981125872806,0.4010858231701233,0.1184337661556955,10.27928457204871,-1.4570526304851203,0.1980639665420722,-0.8755346246520467
1.52,-0.7338616320601293,0.037242099036027,2.09812030548735,-0.0143782157016333,0.0938355718809907,0.0261060319729739,0.6664560570993251,-0.1582099407999269,-0.7286207294232572,-0.7464507600966874,0.0363134999318843,2.1045232656836483,0.6878824958093736,-0.2103038403838688,-0.9103255973013458,0.7322331593694249,-0.6422677982170388,0.3274993146828442,-0.128069020203303,10.015726485570667,-1.4661783115612563,0.1947941133174423,-0.8639771442248836
1.54,-0.7213476776126099,0.0342871484161948,2.084234872180183,-0.0099004939271344,0.0857557903406408,0.0266740179878316,0.6513989566565768,-0.1532009776606521,-0.732848300587945,-0.732692073536518,0.0320162435521611,2.0867709271237187,0.6878306636102769,-0.2057448617815786,-0.9330342666061936,0.8210943055248366,-0.7528550221374164,0.2504481569637382,-0.211378558234393,10.015726485570667,-1.4729544582258989,0.1913939660118295,-0.8502792276362651
1.56,-0.7085071932427717,0.031268861543992,2.0695189302878645,-0.0056049057565979,0.0788015281902864,0.0271820371121126,0.6333394364450391,-0.148938642868654,-0.7385683348572812,-0.7189346827813261,0.0278329616374952,2.068450871831168,0.6877788314111801,-0.2011858831792885,-0.9557429359110412,0.9708663144228408,-0.9029760105768836,0.213116739599907,-0.2860017134668102,9.91275072337612,-1.477224967453172,0.1882311618194963,-0.8376404950523498
1.58,-0.6960516737989679,0.028325819308774,2.054675438734503,-0.0017520707719278,0.0739293029426321,0.0276129077704647,0.6129985180446904,-0.14560474095634,-0.7455378641029525,-0.7051785878311115,0.0237636541878865,2.049563099805995,0.6877269992120835,-0.1966269045769983,-0.9784516052158888,1.087936350662163,-1.0170459200174342,0.1666950956157015,-0.3484764622835645,9.836458952961038,-1.4790800941234294,0.1853702414346928,-0.8275882346534166
1.6,-0.6840269744473755,0.0254402024117408,2.039679603519618,0.0016393222340067,0.0719550726330122,0.0279850560877512,0.5906603152443087,-0.1430933939010727,-0.7536799564454904,-0.6654017478967335,0.021045582260957,2.0173985455293555,0.6005114883879226,-0.1291039419709779,-0.7459026564615484,1.1954035261130365,-1.116910140019084,0.125567352763363,-0.407104617126891,9.710621205371352,-1.477475193913916,0.182897782825735,-0.8220918500775531
1.62,-0.6729557300128346,0.0226982363981468,2.025645830524608,0.0031132357799477,0.0720142493858905,0.0282101522337848,0.5759054262138488,-0.1449065271404603,-0.723170664710659,-0.6654017478967335,0.021045582260957,2.0173985455293555,0.6005114883879226,-0.1291039419709779,-0.7459026564615484,1.6969171198131667,-0.7377444515229981,-0.0906566619693807,1.525464586741565,12.214270801650857,-1.4613954371924724,0.1803299112156499,-0.8118253374525995
1.64,-0.6615985535065376,0.0197922027627963,2.011494781883421,0.0023975388304829,0.0728113977128268,0.0282891254909802,0.5606432117185891,-0.1454074035121551,-0.6939114059713796,-0.6654017478967335,0.021045582260957,2.0173985455293555,0.6005114883879226,-0.1291039419709779,-0.7459026564615484,1.6502199023244897,-0.7631107247629831,-0.0250438185847398,1.462962936963974,12.214270801650857,-1.4619386996236712,0.1812790091269462,-0.8187306713172471
1.66,-0.6505471359964122,0.0168844139823202,1.9978712745317688,-0.000174415504156,0.0742476315666884,0.0282395126838345,0.5453445098457361,-0.145074045989045,-0.6701245017577454,-0.6593966330128542,0.0197545428412472,2.00993951896474,0.598014082456569,-0.1258037821739055,-0.7459756149332676,1.4141943097584364,-0.7649350936426491,0.0166678761555072,1.1893452106817082,11.851669714244052,-1.461492472577436,0.1835156920464336,-0.8255201592524387
1.68,-0.6398005928263226,0.0140091886303073,1.9846751129673823,-0.0038964796601674,0.0762388204534354,0.0281079972498373,0.5301693583058834,-0.1421538297747432,-0.650860440649454,-0.6473864032450958,0.0171724640018276,1.995021465835509,0.5930192705938618,-0.1192034625797607,-0.7461215318767059,1.2348248229807228,-0.7587575769926358,0.1460108107150873,0.9632030554145689,11.511421300751865,-1.4602116207639193,0.1864096249917715,-0.8320152837628614
1.7,-0.6298702234281967,0.011352472977886,1.972457442482628,-0.0075681535223228,0.0785740038689288,0.0279686723156296,0.5160186717439511,-0.1375632767780414,-0.6361629760742183,-0.6353761734773373,0.0145903851624081,1.980103412706278,0.5880244587311547,-0.1126031429856158,-0.7462674488201443,1.0456225082814157,-0.7075343280966151,0.2295276498350928,0.7348732287617843,11.244057431741568,-1.4576902506986664,0.1895307613370682,-0.8388216056516391
1.72,-0.6197017460448757,0.0086635445303409,1.9598719494870969,-0.0111862919810123,0.081391531811077,0.0278318372648669,0.5016885894663092,-0.1315268849727564,-0.6232789289584185,-0.6236156843027142,0.0123383223026958,1.965178063729875,0.5830296468684476,-0.106002823391471,-0.7464133657635826,1.0096880139343132,-0.7165041138820938,0.301819590264249,0.6442023557899912,10.8858287488938,-1.454429159365633,0.1924671812543174,-0.8457407996469363
1.74,-0.609811663391065,0.0061063711690799,1.947533587018504,-0.0143803006799058,0.0844585499528395,0.0277166413803228,0.4881552398536214,-0.1244979031452225,-0.6112253215628267,-0.6118551951280911,0.0100862594429834,1.950252714753472,0.5780348350057405,-0.0994025037973262,-0.746559282707021,0.9719151049835898,-0.6766674806343909,0.351449091376696,0.6026803697795902,10.856305261761918,-1.4504811675032396,0.1950673006719227,-0.8524107007891308
1.76,-0.6001836980601084,0.0036997657240828,1.9354302717380203,-0.0170142139423728,0.0876685246811439,0.0276337213159684,0.4754424901981146,-0.1166175796611947,-0.5997200023859509,-0.6002195762500356,0.0079992045731247,1.9353237178534832,0.5730400231430333,-0.0928021842031814,-0.7467051996504593,0.9435118856939406,-0.6356374827753419,0.3940161742013864,0.5752659588437903,10.833856412171372,-1.4467533132613082,0.1971982622605753,-0.8591030094877731
1.78,-0.5912646340736809,0.0015652147503915,1.9241394160920515,-0.0189576955605206,0.0907587443161284,0.0275897677599386,0.4641400204942294,-0.1085868927893711,-0.589376554909504,-0.5887088276685479,0.0060771576931197,1.9203910730299083,0.5680452112803261,-0.0862018646090366,-0.7468511165938977,0.8649055710575245,-0.5651234851942577,0.4015343435911797,0.5171723738223444,10.833856412171372,-1.4430115761129536,0.1990527330127778,-0.8663169564152772
1.8,-0.5820995799760839,-0.0005129028116195,1.9124603600653536,-0.020413514371518,0.0939602647006443,0.0275832231893623,0.4530545028394773,-0.0996958559769537,-0.5791095488603075,-0.5680576330489694,-0.0038641298890769,1.894670588346576,0.4836308939353295,-0.1037854923178924,-0.5863147083123839,0.8765709476246359,-0.5542758827376065,0.4445518406208721,0.5133503024598252,10.805238574571376,-1.4394679711063447,0.2004826469765795,-0.87355374014838
1.82,-0.5731757515147339,-0.0023367222511444,1.9010991383312572,-0.0189208975412959,0.0982211057994431,0.0277609234187471,0.4402297956207073,-0.0837360785382225,-0.5569141793781471,-0.5680576330489694,-0.0038641298890769,1.894670588346576,0.4836308939353295,-0.1037854923178924,-0.5863147083123839,1.509819556760525,-0.6412353609384996,0.7979888719365571,1.1097684741080194,10.77547283714739,-1.434413480643112,0.1995066356075257,-0.8781764620624067
1.84,-0.5644858307631202,-0.003878604795965,1.8901807750592496,-0.0134528826420687,0.10430225328905,0.0281974498285111,0.42979395353965,-0.0723098198906669,-0.5361019527720987,-0.5680576330489694,-0.0038641298890769,1.894670588346576,0.4836308939353295,-0.1037854923178924,-0.5863147083123839,1.2967410718056978,-0.521792104052865,0.5713129323777815,1.0406113303024211,11.62861836054799,-1.429752747245172,0.1959415150074591,-0.8945640960780298
1.86,-0.5563978832831883,-0.0051835537404589,1.880170889151712,-0.0071147668705473,0.1109425726858544,0.0287112034319228,0.4223579682554976,-0.0659062727272032,-0.5186300524355267,-0.5632213241096161,-0.0049019848122559,1.8888074412634523,0.4875290686235495,-0.1028252122235967,-0.5857023389929599,1.00195632987663,-0.3717992642076173,0.3201773581731855,0.8735950168285989,11.432437423627562,-1.4232649665582604,0.1910954236998043,-0.9118404165490293
1.88,-0.548010512491009,-0.0064569309178455,1.8699744517433436,-0.0005129108390096,0.118158598862216,0.0292839891424076,0.4170083154495714,-0.0618958621501381,-0.5020354179583925,-0.5535487062309095,-0.0069776946586137,1.8770811470972049,0.4953254179999896,-0.1009046520350052,-0.5844776003541118,0.8945446768751737,-0.2674826402963098,0.2005205288532572,0.8297317238567137,11.189601013843458,-1.4163485580367488,0.186097018149077,-0.9284731894483954
1.9,-0.5397053576363542,-0.0076716835846901,1.860090694802036,0.005504184518452,0.1250587281763135,0.0298522421617591,0.4139264087296607,-0.0597681753090556,-0.4871990294289793,-0.5438760883522029,-0.0090534045049716,1.865354852930957,0.5031217673764297,-0.0989840918464137,-0.5832528617152637,0.765087617400205,-0.1540953359955382,0.1063843420541242,0.7418194264706579,11.107003176071885,-1.4098027205469288,0.1814399114113557,-0.9439361326607724
1.92,-0.5318537300264101,-0.0088001629416708,1.8509624797712845,0.0105108756278924,0.130959323043456,0.0303650410632045,0.4127859350373031,-0.0590541289497221,-0.4744332393882705,-0.5338136530046743,-0.0110330863418998,1.853689795696652,0.5109181167528697,-0.0970635316578222,-0.5820281230764156,0.6418254003420589,-0.0570236846178795,0.0357023179666717,0.6382895020354412,11.107003176071885,-1.4043724241318594,0.1775175504526183,-0.95729494347633
1.94,-0.5235961239601417,-0.0099838214560019,1.8416092630817888,0.0149962611588411,0.1362450614158459,0.0308583855752263,0.4131062845896376,-0.059304845152122,-0.4615997144372312,-0.5237512176571457,-0.0130127681788281,1.8420247384623465,0.5187144661293097,-0.0951429714692308,-0.5808033844375675,0.6419985302140004,0.0160174776167282,-0.0125358101199946,0.6416762475519644,11.026509668108702,-1.399581911614856,0.1739606370558438,-0.9692478389873354
1.96,-0.5153179310190558,-0.0111814571406868,1.832505597183972,0.0186860892412741,0.140411263835487,0.0312889859499839,0.4147118020240494,-0.0603777753601302,-0.4494495693515066,-0.5134938735752062,-0.0149444360110416,1.830390299694012,0.5265108155057499,-0.0932224112806393,-0.5795786457987195,0.6151318782741075,0.0802758717205864,-0.0536465104004062,0.607507254286227,11.026509668108702,-1.3962407742517289,0.1711763415085677,-0.9792446930445824
1.98,-0.5069977684322505,-0.0124080337348116,1.823636719307933,0.0215957747785466,0.1433298573224062,0.0316436532525761,0.4171423864071787,-0.062085645582864,-0.4380583292410582,-0.5030416207588556,-0.0168280898385403,1.8187864793916493,0.5343071648821899,-0.0913018510920478,-0.5783539071598714,0.5886104662574035,0.1215292191564687,-0.0853935111366947,0.5695620055224226,11.001834787626647,-1.3942794560324616,0.1688868061246005,-0.988189672983867
2.0,-0.4990450240318195,-0.0136092088788548,1.815415171889862,0.0237029175560678,0.1449649196626379,0.0319067227533404,0.4197685528370248,-0.0641349640683779,-0.4279433581932512,-0.4861406491118916,-0.0155123160139548,1.80173380284588,0.4249612473403634,-0.0520542891066167,-0.4374143092615403,0.5324685335075989,0.1313083214923044,-0.1024659242756905,0.5057485523903504,10.938827899756689,-1.3936467683902498,0.1671828498200258,-0.9951285208590812
2.02,-0.4905619636682812,-0.0149578612487503,1.807052499109885,0.0240382935324538,0.1442396633224184,0.0319872708858471,0.4284737358986591,-0.0702524002993549,-0.4083936230201288,-0.4861406491118916,-0.0155123160139548,1.80173380284588,0.4249612473403634,-0.0520542891066167,-0.4374143092615403,1.112873963568936,0.4352591530817157,-0.305871811548853,0.977486758656118,10.938827899756689,-1.3892300865449363,0.1665607008848622,-0.9940037333620751
2.04,-0.4819063521632566,-0.016421250899182,1.7990767414386135,0.0215829385938321,0.1395101744784664,0.0317790103301088,0.4360873551206591,-0.0755080035138744,-0.3902964348895618,-0.4861406491118916,-0.0155123160139548,1.80173380284588,0.4249612473403634,-0.0520542891066167,-0.4374143092615403,1.016239121761224,0.3806809610999967,-0.2627801607259762,0.9048594065283494,11.575203504861747,-1.398350240395522,0.1693088141913719,-0.995676548272289
2.06,-0.4731447801734108,-0.0179613832278007,1.7914324397592034,0.0172184297899589,0.1318295826308519,0.0314006690066931,0.4391401218476966,-0.0776911299198077,-0.3749812933570841,-0.481891036638488,-0.016032858905021,1.7973596597532646,0.4265250195270003,-0.0500480178113673,-0.4372855052656367,0.7884145257315682,0.1526383363518735,-0.1091563202966605,0.7657570766238853,11.21339232547416,-1.409898217843626,0.1735609719471074,-0.9938971359359312
2.08,-0.4648112936567621,-0.0194350846907116,1.7844305804518343,0.0127268395841467,0.1232427600978145,0.0310382261404906,0.437592093268005,-0.077218776456491,-0.3627951867219204,-0.4733918116916807,-0.0170739446871533,1.7886113735680338,0.4296525639002742,-0.0460354752208683,-0.4370278972738295,0.6146558085657179,-0.0774014289845775,0.0236176731658349,0.6093053317581865,11.21339232547416,-1.4219525918146831,0.1782639432628981,-0.9886993699396592
2.1,-0.4561146897222823,-0.0209592881497548,1.777290007428428,0.008262868807026,0.1140540616694506,0.0307234020551669,0.4318482475088828,-0.0751803402331065,-0.3519871597612786,-0.4648925867448734,-0.0181150304692857,1.779863087382803,0.432780108273548,-0.0420229326303694,-0.4367702892820224,0.6204039674344292,-0.2871922879561089,0.1019218111692234,0.5404013480320907,11.051004083772568,-1.4332039385765163,0.1826588701004518,-0.9821252892209344
2.12,-0.4475738001216938,-0.022429904809258,1.770342134980854,0.0043244425531136,0.1056821219809314,0.0304977771243642,0.4224328094774478,-0.0720302213637181,-0.3433224753823103,-0.4562369845794025,-0.0189554891218931,1.7711276815971626,0.4359076526468218,-0.0380103900398705,-0.4365126812902152,0.6588825342999424,-0.470771901571751,0.1575059434694208,0.4332342189484112,10.92045604721443,-1.442222196930134,0.1863247850552199,-0.9760038089284924
2.14,-0.4392529057206467,-0.0238288845945689,1.7635541404008537,0.0009789719501403,0.0988327233619592,0.0303552478121143,0.4100768141900066,-0.0681007969001113,-0.3359014376773223,-0.4475813824139315,-0.0197959477745004,1.762392275811522,0.4390351970200957,-0.0339978474493716,-0.436255073298408,0.7469651879058945,-0.6177997643720595,0.1964712231803396,0.3710518852494043,10.801366605191106,-1.4492018229591197,0.1895562586516615,-0.9698788868564402
2.16,-0.4316022158020504,-0.0250788125072772,1.7572338375388226,-0.0016305746590443,0.0943775507475316,0.0302832145641649,0.3958390800109683,-0.0637687867220056,-0.3297613029440652,-0.4388475916391287,-0.0205360928623454,1.753663310225677,0.4421627413933696,-0.0299853048588726,-0.4359974653066009,0.8049544106325457,-0.7118867089519143,0.216600508905284,0.3070067366628515,10.7356274485237,-1.4536842668039982,0.1922045731067368,-0.9658746441049352
2.18,-0.4238611228979366,-0.0263021257092388,1.750700225643936,-0.0038170637433258,0.0925909330022743,0.0302532039362984,0.3791896767477459,-0.0588482884585783,-0.3239468981558667,-0.430035612254994,-0.0211759243854278,1.7449407848396268,0.4452902857666434,-0.0259727622683737,-0.4357398573147937,0.9154523952981084,-0.8324701631611198,0.2460249131713665,0.2907202394099251,10.691543001073114,-1.4532294377550503,0.1941132011120462,-0.9639870511765174
2.2,-0.4164471676863558,-0.0274218994880447,1.7442769611465354,-0.0054404077556869,0.0937449311519354,0.0302543464598739,0.3634313074108156,-0.0534681820594448,-0.3186632442188786,-0.4049016390605493,-0.0292445401321677,1.734502880736143,0.3844121914851434,-0.0325897602260038,-0.3073467661673413,0.8734826099456048,-0.7879184668465183,0.269005319956675,0.2641826968494049,10.654478824338184,-1.449229755624901,0.1953695886607835,-0.9652999450146346
2.22,-0.4093037879385143,-0.0284542966873539,1.7380984640794264,-0.0073220100352807,0.0966974980073619,0.0302256387277037,0.3519091228354595,-0.0496096299415352,-0.2994841560197019,-0.4049016390605493,-0.0292445401321677,1.734502880736143,0.3844121914851434,-0.0325897602260038,-0.3073467661673413,1.135216483745497,-0.5761092287678043,0.1929276058954758,0.9589544099588344,10.619445259643726,-1.438335058768946,0.1962810873257326,-0.9644678057421522
2.24,-0.4027159499608729,-0.0293463422716668,1.7325778842551705,-0.0094170914310095,0.1003190136693636,0.030166131639789,0.3422989332050395,-0.0444112422522886,-0.282650647797379,-0.4049016390605493,-0.0292445401321677,1.734502880736143,0.3844121914851434,-0.0325897602260038,-0.3073467661673413,1.0034266021630065,-0.4805094815209992,0.2599193844623326,0.8416754111161495,11.482358243868475,-1.433967602358012,0.1986886750890335,-0.9791432577837486
2.26,-0.3959638680761367,-0.0301679918485818,1.7270937239178743,-0.0115113553715054,0.1045575668222482,0.0301007621328543,0.3335766286106347,-0.0380042688097696,-0.2667490502190915,-0.4010575171456979,-0.0295704377344277,1.7314294130744692,0.3854566944326228,-0.0273380545794889,-0.3040267397696363,0.9617545316666224,-0.4361152297202381,0.3203486721259485,0.7950798789143704,11.35258583801442,-1.4294322395489514,0.2010513800457539,-0.993608458255451
2.28,-0.3893720541843621,-0.0308534442223959,1.721908206771989,-0.0133051566543727,0.1088640651989999,0.0300492811225534,0.3261696250003525,-0.0309098211933244,-0.2526204149099476,-0.393369273315995,-0.0302222329389478,1.7252824777511224,0.3875457003275818,-0.0168346432864591,-0.2973866869742261,0.8729450514837824,-0.370350180514109,0.3547223808222633,0.7064317654571994,11.252234192577816,-1.4254957647020774,0.2031378478864283,-1.0074840176273387
2.3000000000000003,-0.3832354776046264,-0.0313677655178304,1.7172304744133196,-0.0146438440667157,0.1127631055385941,0.0300238740595811,0.3202331145089541,-0.0236249633529389,-0.2405039574499017,-0.3856810294862921,-0.0308740281434679,1.7191355424277757,0.3896347062225408,-0.0063312319934293,-0.2907466341788159,0.7666809179023093,-0.2968255245699241,0.3642428920192739,0.605822873002293,11.101056080615308,-1.421826742526405,0.2050895548555342,-1.0224456755333804
2.32,-0.3768874056169822,-0.0317549689030934,1.712544924040471,-0.0155567795573803,0.1164832960617511,0.0300344187662181,0.3149577527755417,-0.0154915208240523,-0.2287511689956889,-0.3778883353618413,-0.0310006527833365,1.7133206097441993,0.3917237121174998,0.0041721792996003,-0.2841065813834058,0.7617584348704795,-0.2637680866706182,0.4066721264443281,0.5876394227106382,11.101056080615308,-1.4187339045144525,0.2066158240951594,-1.0366599748512042
2.34,-0.370635345372059,-0.0319744842043628,1.708089122106365,-0.0158015647567541,0.1196894186430925,0.0300984141877507,0.3105582394687848,-0.0069068622420687,-0.2174480342807938,-0.3700956412373904,-0.031127277423205,1.707505677060623,0.3938127180124587,0.0146755905926301,-0.2774665285879956,0.7429887864036407,-0.2199756653378431,0.4292329290991792,0.5651567357447553,11.057394425196437,-1.4161720975364518,0.2075335399026294,-1.0500634919329377
2.36,-0.3644635896572205,-0.0320168978361049,1.7038548588797648,-0.0151300345815043,0.1222993577205966,0.0302360543919936,0.3068386114040127,0.0021036725359867,-0.2065692073453785,-0.3622507219655657,-0.0309913167807479,1.701856745696932,0.3959017239074177,0.0251790018856599,-0.2708264757925855,0.7303667664562562,-0.1859814032386081,0.450526738902776,0.5439413467707668,11.043362181749217,-1.4145678771037156,0.2076473238643009,-1.0625423047923044
2.38,-0.3586649170200618,-0.0318904716425027,1.700029803331545,-0.0134844681752889,0.1242134305252406,0.0304464074251293,0.3037206149285468,0.0106159262461614,-0.1966321713723308,-0.3543535775463668,-0.030592770855965,1.696373815653126,0.3979907298023767,0.0356824131786897,-0.2641864229971753,0.672541911662473,-0.1558998237732922,0.4256126855087375,0.4968517986523854,11.043362181749217,-1.4134824148539449,0.2067409775737342,-1.075158509852908
2.4,-0.3526224324023165,-0.0315911344235393,1.696203874650554,-0.0107597766197633,0.1256707153721515,0.0307444763934993,0.3006905657668713,0.0185396546423366,-0.1865081457964624,-0.3434788862736345,-0.0313596753301946,1.6901981947629283,0.3050729079961586,0.0227358890799832,-0.1834549655638701,0.660421387220615,-0.1515024580837742,0.3961864198087594,0.5062012787934195,11.033300205372145,-1.4127850637228012,0.2047489211234547,-1.0864865936405903
2.42,-0.3466104961487632,-0.0311118827463784,1.6926005550028769,-0.0063687894660949,0.1258095367438503,0.0311678774659999,0.300650369726963,0.028152743112051,-0.1742179298283926,-0.3434788862736345,-0.0313596753301946,1.6901981947629283,0.3050729079961586,0.0227358890799832,-0.1834549655638701,0.7801642362188486,-0.0020098019954173,0.4806544234857183,0.6145107984034864,11.024984839118588,-1.4094568990550156,0.2007532973761058,-1.0974103110695834
2.44,-0.3409021440277819,-0.0305226642749907,1.6894004830618927,-0.0011676519671148,0.1240407235398163,0.0316392392714965,0.3000753202988568,0.0331956890099862,-0.1632708022958164,-0.3434788862736345,-0.0313596753301946,1.6901981947629283,0.3050729079961586,0.0227358890799832,-0.1834549655638701,0.6033274119181782,-0.0287524714053077,0.2521472948967606,0.5473563766288103,11.186203328262309,-1.4133276768632277,0.196299926984894,-1.1066663794533986
2.46,-0.3349186842323558,-0.0298272693918167,1.6862470900387196,0.004053289281173,0.1205776402286539,0.0320922040182891,0.2981265031232522,0.0360389715139787,-0.1526907000578684,-0.340428157193673,-0.0311323164393948,1.68836364510729,0.305343366609681,0.0251598816467476,-0.1808195244021779,0.5563737663362552,-0.0974408587802344,0.1421641251996265,0.5290051118974043,11.127811208718413,-1.4182881969277048,0.1916232517638846,-1.1126730472891218
2.48,-0.3289936569653418,-0.0290929110379741,1.6832948942460977,0.0085568418681262,0.1159497743738089,0.0324569431517466,0.2942704039375903,0.0373012450490074,-0.1430987370299185,-0.3343266990337498,-0.0306775986577951,1.6846945457960123,0.3058842838367256,0.0300078667802763,-0.1755486420787936,0.5207412748583823,-0.1928049592830938,0.0631136767514337,0.4795981513974937,11.075411152360177,-1.423793174961805,0.1876877465232321,-1.1154148819979446
2.5,-0.3231712619752375,-0.0283458044967117,1.6805242100709257,0.0121883974676807,0.1108342382677551,0.0327239381765713,0.2879867037642879,0.0374994257527423,-0.1344448771355141,-0.3282252408738266,-0.0302228808761955,1.681025446484735,0.3064252010637703,0.034855851913805,-0.1702777597554093,0.5348211255440308,-0.3141850086651188,0.0099090351867465,0.4326929947202185,11.021044713212175,-1.4294749161396407,0.1842396693223709,-1.1158873809855954
2.52,-0.317781589416463,-0.027639381013235,1.678045177309495,0.014864654881336,0.1062924095676638,0.032901936414921,0.2795349007891659,0.0370028973675615,-0.1269365946487588,-0.3220967368525512,-0.0295257638379194,1.6776198912896267,0.306966118290815,0.0397038370473337,-0.165006877432025,0.5658043386818611,-0.4225901487560995,-0.0248264192590406,0.375414124337764,10.973173142496307,-1.434007688260232,0.1814873388340233,-1.114985698120348
2.54,-0.3123065138938565,-0.0269100365626434,1.6755855028552158,0.016957872321538,0.1027385926655757,0.0330373716255717,0.2682653245971699,0.0360574465250208,-0.1194437935180411,-0.3159682328312758,-0.0288286467996433,1.6742143360945183,0.3075070355178597,0.0445518221808624,-0.1597359951086408,0.6783054135626292,-0.5634788095997989,-0.0472725421270386,0.374640056535884,10.93623535403458,-1.4359897561279336,0.1793329406722719,-1.114000276939516
2.56,-0.3070795759585836,-0.0262042307483159,1.6732706643959243,0.0183611851821917,0.1013794936500524,0.0331490689237208,0.2551734003596272,0.034673973282815,-0.1124142176128743,-0.3098262058793242,-0.0280103301330289,1.670940552957495,0.3080479527449045,0.0493998073143911,-0.1544651127852565,0.7462027470131011,-0.6545962118771342,-0.0691736621102865,0.3514787952583427,10.922128792890362,-1.4337472193068137,0.1777255410848767,-1.11380203409585
2.58,-0.3023515592091586,-0.0255634033197924,1.671199026202374,0.0189952448275165,0.102223889136076,0.0332387688933231,0.2434443715781401,0.0329417620816984,-0.1060052932927904,-0.3036706559966966,-0.0270708138380764,1.667798541878556,0.3085888699719492,0.0542477924479198,-0.1491942304618722,0.673878666272329,-0.5864514390743549,-0.0866105600558334,0.3204462160041929,10.900343660665383,-1.427414009162188,0.1766118646908608,-1.115244542498731
2.6,-0.297598926587328,-0.02492624118748,1.6691489174045084,0.0187978542767547,0.1047245062571051,0.0332985625095084,0.2326663606800926,0.0309371372347889,-0.099350200521425,-0.2901793406302516,-0.0239163152157075,1.6658987615377343,0.2483501085833143,0.0271999586405017,-0.105905027846555,0.6412376694540753,-0.538900544902375,-0.1002312423454736,0.3327546385682701,10.879899353251858,-1.4195476163664862,0.1764131395792371,-1.118704061618265
2.62,-0.2930477412551721,-0.0242648599179953,1.667222913997238,0.0196617504303377,0.1082869025517191,0.0334475444722247,0.2232032220406478,0.0348693308817969,-0.0936487805304594,-0.2901793406302516,-0.0239163152157075,1.6658987615377343,0.2483501085833143,0.0271999586405017,-0.105905027846555,0.5863431795891931,-0.4731569319722406,0.1966096823503993,0.2850709995482814,10.872804411964353,-1.4129908061532896,0.1754939753125893,-1.1280233290713628
2.64,-0.2888840082601729,-0.0235823876583309,1.6654913293500118,0.022557961881921,0.1122119475898928,0.0337444066465523,0.2157358896618297,0.036258288450807,-0.0889219016650257,-0.2901793406302516,-0.0239163152157075,1.6658987615377343,0.2483501085833143,0.0271999586405017,-0.105905027846555,0.4473076116967494,-0.3733666189409054,0.069447878450508,0.2363439432716864,10.777704151936632,-1.4056209921857687,0.1722180433847031,-1.1349553065582592
