t,x,y,z,roll,pitch,yaw,v_x,v_y,v_z,ref_x,ref_y,ref_z,ref_v_x,ref_v_y,ref_v_z,a_com,a_x,a_y,a_z,thrust,wind_x,wind_y,wind_z
0.0,0.0628180006357218,-1.813970616181206,2.23779530306606,0.0230181038094958,0.1364910705336238,0.026564099492242,0.0034082046092018,0.0025159563573579,0.0059977514840506,0.0629214733211326,-1.8138015285788491,2.2379853461127843,0.0748336717327521,0.1047290279318475,-0.0939025957828882,0.3671475109364988,0.1704102304600949,0.1257978178678997,0.2998875742025311,10.548285069682606,-1.286613897445945,0.1526326886163106,-1.1705027793551406
0.02,0.0627870810565003,-1.8142105236351151,2.237698448102271,0.0145950453346551,0.1388550073619432,0.0260150791835476,-0.0063822032058805,-0.0218600863263739,-0.0166020865380929,0.0629214733211326,-1.8138015285788491,2.2379853461127843,0.0748336717327521,0.1047290279318475,-0.0939025957828882,1.7326253350997998,-0.4895203907541237,-1.2188021341865976,-1.12999190110718,10.54898934407356,-1.2980542205486103,0.162517512458077,-1.1587499096041642
0.04,0.0625748302718438,-1.8146858414728704,2.2370596850363795,-0.0018381235231606,0.144860952044348,0.0249182438011075,-0.0138848842736833,-0.0235500053327699,-0.0462658909120587,0.0629214733211326,-1.8138015285788491,2.2379853461127843,0.0748336717327521,0.1047290279318475,-0.0939025957828882,1.5322265982796528,-0.3751340533901364,-0.0844959503197975,-1.4831902186982886,8.866022584835264,-1.2886038714449213,0.1783207699091053,-1.1491266647911955
0.06,0.0622510545230449,-1.8151021786400363,2.2358275124246747,-0.0188912046292573,0.1525941180929569,0.0236805631011119,-0.0177776711661106,-0.0175997698711015,-0.075441155765369,0.0636698100384601,-1.812754238299531,2.2370463201549557,0.0891294881542609,0.1247290282298707,-0.1139025960809114,1.5014619301700185,-0.1946393446213661,0.2975117730834186,-1.458763242665513,8.866022584835264,-1.2765339105862594,0.1950628529683424,-1.1368703047567177
0.08,0.0619008191030618,-1.8153484760658665,2.234130867581867,-0.0345424126100804,0.1605512037931515,0.0224261631034156,-0.0186654055480836,-0.0083124427568415,-0.1017089345953721,0.0651664834731152,-1.810659657740894,2.2351682682392977,0.1177211209972785,0.1647290288259172,-0.1539025966769579,1.393770714574465,-0.0443867190986518,0.4643663557130016,-1.3133889415001556,8.910334651485755,-1.2663627580397283,0.2109920035118569,-1.1266773691755374
0.1,0.0615390483391602,-1.815384480769716,2.231817038580725,-0.050271051079047,0.1690055184931958,0.0210443015513205,-0.01723317233317,0.0045690404629359,-0.1282611959059102,0.0666631569077702,-1.808565077182257,2.23329021632364,0.146312753840296,0.2047290294219636,-0.1939025972730043,1.4773341553507855,0.0716116607456828,0.6440741609888704,-1.3276130655269052,8.99004344925197,-1.2588790209872236,0.2260993186016394,-1.1188770327868969
0.12,0.061228775675314,-1.815131294404447,2.22898684659448,-0.0652344119953273,0.1772346925830669,0.0196228427991205,-0.0136826139798791,0.0204284442544659,-0.1534674008026627,0.0695894119845762,-1.8044704965938176,2.22941216437818,0.1749043866833136,0.2447290300180101,-0.2339025978690508,1.4995665361530233,0.1775279176645446,0.7929701895765002,-1.2603102448376258,9.054807420118776,-1.2535442234539471,0.2404154256938075,-1.112771924160054
0.14,0.0610069715538464,-1.8145281999491696,2.2256549502536025,-0.0793518986565364,0.1850886945739354,0.018193915675592,-0.0085158520702652,0.0393181848744391,-0.1785002052433752,0.0725156670613821,-1.8003759160053785,2.22553411243272,0.2034960195263312,0.2847290306140566,-0.2739025984650973,1.589149951615217,0.2583380954806937,0.944487030998662,-1.2516402220356242,9.132421405202876,-1.2514022230526087,0.2535517397579214,-1.1101008406243338
0.16,0.0609044738184578,-1.8135544878970813,2.2220240164362437,-0.0911023814655064,0.1921534016518504,0.0169155366089927,-0.0023901495644982,0.0618266885876009,-0.2024411973176118,0.0761567129592634,-1.795281335402038,2.220656060472358,0.2320876523693488,0.324729031210103,-0.3139025990611437,1.6713228832972686,0.3062851252883514,1.1254251856580877,-1.197049603711832,9.154625429047885,-1.2510288921470056,0.265826591923161,-1.1087518730359411
0.18,0.0609348350592389,-1.8120440740402997,2.2177084911846063,-0.101137108721821,0.1991653007706328,0.0157222646222527,0.0052537490315573,0.0877315715561106,-0.2278364102091271,0.0805125496782202,-1.7891867547837963,2.2147780084970963,0.2606792852123664,0.3647290318061494,-0.3539025996571901,1.853651116826161,0.3821949298027802,1.295244148425486,-1.269760644575764,9.175933350182277,-1.2507892034663064,0.275751177496458,-1.108657307099943
0.2,0.0611309260801457,-1.8099943288244895,2.212887292059523,-0.1086651430317391,0.2057510047260253,0.0147188053095386,0.0141160561701533,0.1153678265672947,-0.2529715931527765,0.0611975225108168,-1.807657495462494,2.20631667067415,0.0684553702063697,0.1877315730462267,-0.3214937175359208,1.9196878004461608,0.4431153569297965,1.381812750559204,-1.256759147182468,9.18823606000933,-1.2518110675673997,0.283229476957078,-1.1090129167821243
0.22,0.061545025646441,-1.807238867804755,2.2076964908846084,-0.1097806635585589,0.2118868235849568,0.0142128094258019,0.0271821761958929,0.1571352705121368,-0.2639004309143368,0.0611975225108168,-1.807657495462494,2.20631667067415,0.0684553702063697,0.1877315730462267,-0.3214937175359208,2.255372674876081,0.6533060012869837,2.088372197242109,-0.546441888078017,10.205102822235858,-1.2509440252571566,0.2844724786236108,-1.113034799313837
0.24,0.062194088217688,-1.8039260516459543,2.202583162279585,-0.1042974865182766,0.2172944444569077,0.0142751359758128,0.0406011269476784,0.1880997481066022,-0.2737444787801401,0.0611975225108168,-1.807657495462494,2.20631667067415,0.0684553702063697,0.1877315730462267,-0.3214937175359208,1.7576777224232685,0.6709475375892738,1.5482238797232692,-0.4922023932901642,10.205102822235858,-1.2564759577901097,0.2803034258483804,-1.1239674793467036
0.26,0.0631578274506717,-1.7998884665187067,2.1969800959628847,-0.0966466326669373,0.2225953240686745,0.0145669711910196,0.0551458200600288,0.2136669440146151,-0.2861562502941972,0.0618820762128805,-1.805780179732032,2.203101733498791,0.0810956944413321,0.2077315733442499,-0.3402251790012795,1.596309553664578,0.7272346556175188,1.2783597954006436,-0.6205885757028545,10.066896378625644,-1.260172717064988,0.2740276606847862,-1.1372596088047835
0.28,0.0644154146636856,-1.795382404387422,2.1911027536070997,-0.0890253971426419,0.2275448021199479,0.0149434600349768,0.0699799622295301,0.2355866739956297,-0.3009685836491566,0.0632511836170079,-1.8020255482711072,2.1966718591480725,0.1063763429112571,0.2477315739402964,-0.377688101931997,1.5165186742701242,0.741707108475063,1.0959864990507286,-0.7406166677479675,9.78557960776834,-1.2636070334146343,0.2676861039385398,-1.1503302603484125
0.3,0.0659731432827536,-1.790463894965015,2.1849081236011503,-0.0821349919409381,0.2321798996621829,0.0153430294389798,0.0851337223655359,0.2552317218718585,-0.3177834132108539,0.0646202910211353,-1.7982709168101827,2.190241984797354,0.131656991381182,0.2877315745363428,-0.4151510248627145,1.49858503721665,0.7576880068002924,0.9822523938114393,-0.8407414780848665,9.78557960776834,-1.266557936436067,0.2621378592265516,-1.1612657293578803
0.32,0.0677371246783437,-1.7854429232020952,2.178696125555989,-0.0764640410966551,0.2363165243268087,0.0157198096229823,0.0998605082291628,0.2724250934930551,-0.3353003728181132,0.0672534308487589,-1.7925162853194558,2.1819389643001,0.1569376398511069,0.3277315751323892,-0.4526139477934319,1.4312006528261891,0.7363392931813422,0.8596685810598304,-0.8758479803629676,9.681137612703424,-1.267743307916753,0.2569515318110904,-1.171268181682694
0.34,0.0699017217210423,-1.779816612558946,2.171788593472218,-0.0714649138961432,0.2404070052639104,0.0161009740557459,0.115893026181513,0.2893930362557587,-0.3545941859477335,0.0698865706763825,-1.786761653828729,2.1736359438028456,0.1822182883210319,0.3677315757284358,-0.4900768707241494,1.5142687497365892,0.8016258976175132,0.848397138135179,-0.9646906564810126,9.600331522958186,-1.2675180154882415,0.2526329657314632,-1.1802442233203938
0.36,0.0723930468075453,-1.773850248240166,2.164489552550198,-0.0671377574605919,0.2442399563969257,0.0164816579511709,0.132508907257121,0.3063429832911182,-0.374371361290982,0.0731517267157543,-1.780007022323101,2.164396350232324,0.2074989367909568,0.4077315763244822,-0.5275397936548669,1.5447692974825056,0.8307940537803995,0.8474973517679785,-0.9888587671624232,9.56259185512954,-1.2674766648989997,0.2489919166864463,-1.1885882275134312
0.38,0.075223281097269,-1.7675492099080097,2.1567909345501635,-0.0631083885013274,0.2478070286288961,0.0168841022581799,0.1497459097747313,0.3228212877549607,-0.3945154930718274,0.0770488989668742,-1.7722523908025718,2.1542201835885333,0.2327795852608817,0.4477315769205286,-0.5650027165855843,1.560796927053022,0.8618501258805158,0.8239152231921232,-1.0072065890422726,9.551382477393418,-1.2674984695042475,0.2457741494412212,-1.1958385285081428
0.4,0.0782430387238281,-1.761263779236709,2.149099828411785,-0.0594367216246914,0.25073280504269,0.0173047766554744,0.1672434742377126,0.3378866932439925,-0.4140696057678123,0.0827105765860056,-1.7514081455202617,2.137065159896572,0.1531964568868833,0.4228212892450768,-0.449606494165215,1.5128570058108708,0.8748782231490656,0.7532702744515896,-0.9777056347992448,9.541800305507422,-1.2669939945540418,0.2424542808491972,-1.2024768541673312
0.42,0.0820205461937901,-1.7543292972825053,2.140854788571395,-0.0557817373557214,0.2480183167488191,0.0180852502531697,0.2095203884191208,0.354827597335482,-0.4078936432779526,0.0827105765860056,-1.7514081455202617,2.137065159896572,0.1531964568868833,0.4228212892450768,-0.449606494165215,2.2980830146098685,2.113845709070409,0.8470452045744759,0.3087981244929844,9.529925343250396,-1.2595981887519547,0.236710315930992,-1.1827507983811714
0.44,0.0866043576774249,-1.747068369275436,2.1327685291628646,-0.0525910393824847,0.2354277556656987,0.0193677630903619,0.2452498940205559,0.3704553286794977,-0.4011547083205659,0.0827105765860056,-1.7514081455202617,2.137065159896572,0.1531964568868833,0.4228212892450768,-0.449606494165215,1.9787854872646005,1.7864752800717545,0.7813865672007841,0.3369467478693377,11.47840560921304,-1.2912299381314902,0.2376547776270059,-1.1930878222107772
0.46,0.0915220244900665,-1.739888502784702,2.1251778267331827,-0.0500964929536823,0.2176847555833841,0.0208126728260312,0.2695739147538133,0.3845964296390304,-0.3980110593682986,0.0842425411548744,-1.7471799326278108,2.13256909495492,0.1538865663093137,0.4428212895431,-0.4606246943838925,1.4155487007824237,1.21620103666287,0.7070550479766347,0.1571824476133604,11.163908764858206,-1.3283819369296814,0.2389118271055672,-1.1943123507237885
0.48,0.0970912096087366,-1.7320488504464435,2.1172245664201443,-0.0479944774198825,0.1959442135661633,0.0224013386304225,0.2850926471542084,0.3986542393927861,-0.3975371060383112,0.0873064702926121,-1.7387235068429092,2.123576965071616,0.1552667851541745,0.4828212901391465,-0.4826610948212476,1.0472317104476774,0.7759366200197515,0.7028904876877878,0.0236976664993726,10.853109040965135,-1.3654885155164702,0.2400107026396597,-1.1854058154973757
0.5,0.1028690728908388,-1.7239360822316194,2.109248286175502,-0.0464673717699597,0.1735636266886191,0.0239374219100287,0.2911884611800985,0.4119106762007887,-0.4002036639406496,0.0903703994303498,-1.7302670810580076,2.114584835188312,0.1566470039990353,0.522821290735193,-0.5046974952586026,0.741624225145941,0.3047907012945078,0.6628218404001268,-0.1333278951169192,10.353680641606845,-1.3995799039694496,0.2409718144151043,-1.1692768179896078
0.52,0.1086784988478601,-1.7155682902853089,2.1011837292029054,-0.0456778721226446,0.1525367223750657,0.0253322362353798,0.2890985817384854,0.4242724761299787,-0.406068517564407,0.0935033395103305,-1.7198106552433037,2.1044908852831394,0.1580272228438961,0.5628212913312395,-0.5267338956959576,0.6920588876640126,-0.1044939720806575,0.6180899964595005,-0.2932426811878719,10.353680641606845,-1.4271231828229538,0.2418883271599731,-1.14933767271141
0.54,0.114096263084092,-1.7073958560327032,2.0933993494694154,-0.0457756385900081,0.1350668926152656,0.0264785056665579,0.2811949371268653,0.4354552045688105,-0.4130338431817311,0.0966362795903112,-1.7093542294286,2.0943969353779672,0.1594074416887569,0.602821291927286,-0.5487702961333127,0.768174417757453,-0.3951822305810037,0.5591364219415917,-0.3482662808662051,10.15382884072551,-1.4496453657917885,0.2431179278854732,-1.1265947453084455
0.56,0.1195908316427683,-1.6985577708171231,2.0850505891790188,-0.0466332940285406,0.1200459713716001,0.0274912888712417,0.2685596032785226,0.4477809351953052,-0.4215247816488678,0.0998037251414134,-1.697897803598995,2.0837520754618613,0.1607876605336177,0.6428212925233323,-0.5708066965706677,0.9793765018988956,-0.631766692417135,0.6162865313247362,-0.4245469233568361,10.061230301705107,-1.4653233419162386,0.2446944064066266,-1.105790284606565
0.58,0.1247974809878927,-1.689465360636331,2.0765203765744755,-0.0478629012342736,0.1087922176277447,0.028322911982915,0.2527687330134832,0.4608371452095371,-0.4311109949553065,0.1030056761636371,-1.6854413777544883,2.072556305534821,0.1621678793784785,0.6828212931193788,-0.5928430970080227,1.1310522636239857,-0.7895435132519724,0.6528105007115925,-0.4793106653219331,9.988806573041984,-1.4748473901399095,0.2463875535271376,-1.089331232720702
0.6,0.1296594838108511,-1.6801031332077645,2.0677877265319253,-0.0490391742909862,0.10156792246929,0.0289827684369844,0.2342942437887472,0.4746555259642421,-0.4416605234883274,0.1374359176385668,-1.666423503375854,2.0549648268267102,0.192693200368496,0.5608371466996532,-0.4635697063708358,1.2684113597980635,-0.923724461236798,0.6909190377352492,-0.5274764266510468,9.928283609278878,-1.479854000914301,0.2478829070154856,-1.0785429643488722
0.62,0.1340269562645078,-1.6708842664516486,2.05952656482236,-0.0482409418889308,0.0962105160211854,0.0296749661351651,0.2262418326276097,0.4943212368988104,-0.4273836435937676,0.1374359176385668,-1.666423503375854,2.0549648268267102,0.192693200368496,0.5608371466996532,-0.4635697063708358,1.2800496197352078,-0.4026205580568737,0.9832855467284184,0.7138439947279918,9.88703311243262,-1.4666584119668882,0.2451293482317045,-1.0566354408682352
0.64,0.1384475084935014,-1.6608103230674254,2.051109738411056,-0.0448270010541338,0.0894376792022516,0.0306171096471817,0.2158010738260039,0.5115282307265522,-0.4153267003243474,0.1374359176385668,-1.666423503375854,2.0549648268267102,0.192693200368496,0.5608371466996532,-0.4635697063708358,1.1730941585645076,-0.5220379400802888,0.8603496913870856,0.6028471634710125,11.417071994530488,-1.479927092932303,0.2442075415379507,-1.0625681411254564
0.66,0.1426196080923262,-1.6504357333808368,2.0428800579080395,-0.0406203715756178,0.0823536689955006,0.0315899180741401,0.2017445867166659,0.5249216874683906,-0.4082126697365524,0.1393628496422518,-1.6608151319088575,2.0503291297630017,0.1806780938394986,0.5808371469976764,-0.4700614486539416,1.0338991059994265,-0.7028243554669008,0.6696728370919225,0.3557015293897458,10.835690854371023,-1.4901673753186044,0.2419994664692337,-1.0637124231045711
0.68,0.1462932451448078,-1.6403559114362696,2.0351559471910425,-0.0369343594485609,0.076102451559362,0.0324356416013457,0.1855901716780166,0.5355217988161362,-0.4051953252912595,0.1432167136496217,-1.6495983889748644,2.041057735635585,0.1566478807815038,0.6208371475937229,-0.4830449332201533,0.9777932467130788,-0.8077207519324642,0.5300055673872761,0.1508672222646445,10.835690854371023,-1.497708764460863,0.2394185243758742,-1.0618344264598432
0.7000000000000001,0.1498042726154513,-1.6295426264642026,2.0270567547388283,-0.0337774414979624,0.0706221502516285,0.0332029419089745,0.1661973526930386,0.5453500508960919,-0.4050142996593329,0.1470705776569917,-1.638381646040871,2.0317863415081683,0.1326176677235089,0.6608371481897694,-0.496028417786365,1.0870933002860117,-0.9696409492489012,0.4914126039977873,0.0090512815963339,10.611636348984575,-1.5026416322921303,0.2371771147839354,-1.0583247028047102
0.72,0.1528998471307061,-1.618542204040876,2.0189313831951816,-0.0314874791504811,0.067068283218102,0.0338225879556011,0.1442823509315654,0.554406853583579,-0.407515506764237,0.1497229310114618,-1.625164903077076,2.021865773152441,0.1085874546655141,0.7008371487858158,-0.5090119023525767,1.1922132926903957,-1.0957500880736604,0.4528401343743549,-0.1250603552452045,10.310898989173438,-1.50416439543637,0.2355152969176186,-1.0547937675688115
0.74,0.1555398611827928,-1.607366726895724,2.01074660595135,-0.0300529998022393,0.0662243052093558,0.034284858777067,0.1211363369651621,0.5628570452238397,-0.4108120819552564,0.152375284365932,-1.6119481601132806,2.0119452047967137,0.0845572416075192,0.7408371493818623,-0.5219953869187884,1.2429914614349855,-1.1573006983201637,0.4225095820130364,-0.1648287595509723,10.310898989173438,-1.4995360474536752,0.2339772664626581,-1.0506925844960748
0.76,0.1576267404234757,-1.596589222524769,2.0029063016805178,-0.0293273995297593,0.0678015974761746,0.0346020936393691,0.1000195343976215,0.5712147305426141,-0.4143013334444916,0.1544268823939523,-1.597731417134584,2.001700049326831,0.0605270285495244,0.7808371499779087,-0.5349788714850001,1.1488528305654273,-1.055840128377033,0.4178842659387172,-0.1744625744617589,10.267527756175696,-1.4916127245462925,0.2330282615844311,-1.0502106659600732
0.78,0.1594077432672799,-1.58507205159106,1.9945781347172995,-0.0290472066717625,0.0713493599331125,0.0348424511094517,0.0794807305046016,0.580074199315033,-0.418341438572996,0.1558777250955228,-1.5825146741409863,1.9911303067427928,0.0364968154915296,0.8208371505739551,-0.5479623560512118,1.1365024216150656,-1.0269401946509944,0.4429734386209472,-0.2020052564252222,10.23819598537375,-1.4819633836881647,0.2325606225654763,-1.0524930546403932
0.8,0.1607966687587702,-1.5733748343470526,1.986164438605153,-0.02914577406195,0.0762684589331651,0.0350114456283142,0.060750220225847,0.5891997853209086,-0.4228194795536735,0.1633817797925099,-1.5560683416253085,1.9736610627886495,0.0705841719590717,0.6800742008051491,-0.4349880528712205,1.0655528920210722,-0.9365255139377272,0.456279300293777,-0.223902049033875,10.208004262869508,-1.4719836587409425,0.2325272450781657,-1.0571889438945548
0.8200000000000001,0.16175536252737,-1.5620353658639614,1.978251524371908,-0.0278060127871776,0.083184825190908,0.035203879105089,0.0418413591870911,0.6032779041399882,-0.4098747520430947,0.1633817797925099,-1.5560683416253085,1.9736610627886495,0.0705841719590717,0.6800742008051491,-0.4349880528712205,1.344715978924771,-0.945443051937798,0.7039059409539805,0.6472363755289395,10.180661597756623,-1.4515220003453058,0.2299915545154724,-1.0577995158525344
0.84,0.1624256482154223,-1.549851869606941,1.9701790212248729,-0.0246235387863709,0.0930458226004199,0.0354720755898972,0.0267230126976022,0.6139845176698083,-0.3982760540047718,0.1633817797925099,-1.5560683416253085,1.9736610627886495,0.0705841719590717,0.6800742008051491,-0.4349880528712205,1.0928469358027268,-0.7559173244744423,0.5353306764910082,0.5799349019161459,11.327460792099371,-1.43921027873587,0.2276111086770618,-1.079612083034171
0.86,0.1628369732733985,-1.5374858153338686,1.9623013629055783,-0.0214884782240325,0.1040445560634539,0.0357341879606996,0.015595765048503,0.622190536477794,-0.3900894552555987,0.1640876215121006,-1.549267599617257,1.9693111822599376,0.0688048602499658,0.7000742011031723,-0.4383173757308654,0.8033909135678624,-0.5563623824549626,0.410300940399283,0.4093299374586551,10.912962541778144,-1.4270678022638394,0.2253024334027329,-1.1003875035795747
0.88,0.1630536048841822,-1.525598136641392,1.9549443708100525,-0.0191173047639954,0.1147709134693642,0.0359565755186295,0.0080792997920471,0.6289266349517606,-0.3847706200885858,0.1654993049512821,-1.535666115601154,1.9606114212025127,0.0652462368317538,0.7400742016992188,-0.4449760214501552,0.5704434243120371,-0.3758232628227941,0.3368049236983306,0.2659417583506462,10.912962541778144,-1.4140342486460142,0.2233540471455913,-1.1207500310318506
0.9,0.1631568252455862,-1.5129528359428115,1.9472894473083144,-0.01745564132293,0.1259101132264723,0.0361504928826952,0.0029525084117524,0.6353820357301371,-0.3811149824129151,0.1669109883904635,-1.522064631585051,1.9519116601450888,0.0616876134135419,0.7800742022952653,-0.4516346671694449,0.4508876686113478,-0.2563395690147336,0.3227700389188237,0.1827818837835365,10.77751580621316,-1.401475479706156,0.222210195651301,-1.1395170787623845
0.92,0.163184497562165,-1.500183806751506,1.9396897281439816,-0.0168399430542848,0.1366543669632436,0.0362834808559216,0.0003495063353898,0.6413029171263952,-0.3791328191813273,0.1681447406587344,-1.5064631475391457,1.9428789668017,0.05812898999533,0.8200742028913117,-0.4582933128887347,0.3382359656909736,-0.1301501038181326,0.2960440698129063,0.0991081615793865,10.68045529685969,-1.3896181368524312,0.2221167847670259,-1.1566667377779298
0.94,0.1631856976584267,-1.4873013106101465,1.9321226089475465,-0.0175672254443036,0.1468798536219616,0.0363243857716391,0.0001557949384857,0.646859877927078,-0.3777175614643877,0.1693784929270052,-1.4908616634932403,1.9338462734583108,0.054570366577118,0.8600742034873582,-0.4649519586080245,0.2868810374134758,-0.0096855698452021,0.2778480400341399,0.0707628858469811,10.606663610041323,-1.3786259012748363,0.2232660385641964,-1.1710348360636562
0.96,0.1632040652998017,-1.4749490906355358,1.9249575644135224,-0.019364043344432,0.1560621787402228,0.0362777397499331,0.0019912874252687,0.6531675853465347,-0.3766078924757843,0.1705232796098207,-1.474260179432434,1.92464711397194,0.0510117431589061,0.9000742040834045,-0.4716106043273143,0.3331199889783508,0.0917746243391498,0.3153853709728371,0.0554834494301714,10.601871939745251,-1.3682623230610744,0.2258311576377168,-1.1857320479639086
0.98,0.1632914740956294,-1.461803173274706,1.9174349646143212,-0.0219731019384703,0.1648358915907637,0.0361709171917178,0.0068149858406097,0.661338319636248,-0.375757750849427,0.171579100707181,-1.4566586953567262,1.9152814883425864,0.0474531197406941,0.940074204679451,-0.4782692500466041,0.4763184492021194,0.2411849207670495,0.4085367144856633,0.0425070813178662,10.609747575726033,-1.3584346727383732,0.2292501619496184,-1.1999952893717412
1.0,0.1635039508763014,-1.4484702502548434,1.9099258214949435,-0.024464056289046,0.1720811456588357,0.0360816847944777,0.0141726759028622,0.6714595656142618,-0.3752349230855768,0.1636322233876599,-1.4287362572928937,1.89864707707185,0.0069484790136623,0.7613383211263641,-0.3867418875724089,0.6261959998081306,0.3678845031126242,0.5060622989006891,0.0261413881925076,10.61639691979235,-1.3516148096699314,0.2326009677244976,-1.2131887106280566
1.02,0.1639134013926796,-1.4348525541860833,1.9025292930424167,-0.0241975554261262,0.1770303100409609,0.0362274919257878,0.0261975256184835,0.6887166709795274,-0.3644483579635953,0.1636322233876599,-1.4287362572928937,1.89864707707185,0.0069484790136623,0.7613383211263641,-0.3867418875724089,1.181899618624508,0.6012424857810649,0.8628552682632795,0.5393282560990725,10.626609347435078,-1.342082408616242,0.2328988787667976,-1.224477594078596
1.04,0.1645287021361302,-1.4216330574674043,1.8956947018550536,-0.0208818653042398,0.1793269219140816,0.0366366198084222,0.0377516572411138,0.7014701471200101,-0.3555450562924581,0.1636322233876599,-1.4287362572928937,1.89864707707185,0.0069484790136623,0.7613383211263641,-0.3867418875724089,0.9687851824143,0.5777065811315145,0.6376738070241361,0.4451650835568643,11.3234925821871,-1.3466949163489192,0.2308315665847821,-1.2407345172639643
1.06,0.1654078324403722,-1.4075042242679816,1.888662458463468,-0.0163764711209927,0.1795304797855755,0.0371775441218187,0.0494299283926909,0.7105663442521216,-0.3482453614471538,0.1637017081777965,-1.42112287408163,1.8947796581961256,0.0069751776482728,0.7813383214243873,-0.3889387149170052,0.8252399108600985,0.5839135575788541,0.4548098566055758,0.3649847422652147,11.205885036740256,-1.3528264449907097,0.227224723972464,-1.252372416977186
1.08,0.1665156666406781,-1.3932222520547255,1.8817524227959963,-0.0123000228228841,0.1774949553999191,0.0377072918746104,0.0605829211199899,0.7173042155690982,-0.3431107902644641,0.1638406777580697,-1.4058961076591028,1.8870448204446777,0.0070285749174938,0.8213383220204338,-0.393332369606198,0.700271336500051,0.5576496363649499,0.3368935658488281,0.2567285591344836,11.079071111142184,-1.3602664185097462,0.2240278466811536,-1.259684873247822
1.1,0.1677655454518072,-1.3795425841611226,1.875267728041504,-0.0092437631523743,0.1734544643543119,0.0381558897363019,0.0702109860968825,0.7225254123754231,-0.3397263337101799,0.163979647338343,-1.3906693412365754,1.8793099826932296,0.0070819721867148,0.8613383226164802,-0.3977260242953908,0.5731820772177916,0.48140324884463,0.2610598403162467,0.1692228277142105,10.961717084110203,-1.3702714252886694,0.221465715446034,-1.2632645748138878
1.12,0.1692533098589239,-1.365043146680195,1.868501131650067,-0.0069853062753343,0.1673426273674052,0.0385516309435304,0.0776424751005391,0.7273100921259674,-0.3371292090230839,0.1641212867820773,-1.3734425747842458,1.8713554622073216,0.0071353694559358,0.9013383232125268,-0.4021196789845836,0.4606116742090372,0.3715744501828301,0.2392339875272153,0.1298562343547971,10.86911998177402,-1.3828510193670027,0.2199837256289329,-1.2634596634282025
1.14,0.170855449121577,-1.350454429964996,1.8617818276932,-0.005749317949349,0.1603024971068818,0.0388594329743186,0.0819029698924113,0.731408802301487,-0.3349272351913473,0.1642629262258116,-1.3562158083319162,1.863400941721414,0.0071887667251569,0.9413383238085732,-0.4065133336737764,0.3154359274485487,0.2130247395936105,0.2049355087759774,0.1100986915868296,10.800694736331934,-1.3951305910594585,0.2194382547508218,-1.2603116624000856
1.16,0.1725113808195641,-1.335782286815203,1.8551036525119096,-0.0054816809607728,0.1531743180984802,0.0390858610391195,0.0832835643372932,0.7356574059194537,-0.3329801211167756,0.1644059006012764,-1.3379890418646856,1.855336579868276,0.0072421639943779,0.9813383244046197,-0.4109069883629691,0.2436592238313294,0.0690297222440947,0.2124301808983375,0.0973557037285882,10.746984353297194,-1.4057892057663384,0.2197944201762868,-1.2559000887266247
1.18,0.1740859481834676,-1.321763435755687,1.848793593878557,-0.0059348923099714,0.1468776878143631,0.0392432599627661,0.082296865208958,0.7398328716429878,-0.3313231101331818,0.1645502099084718,-1.3187622753825536,1.8471623766479088,0.0072955612635989,1.021338325000666,-0.4153006430521619,0.2299661636959664,-0.0493349564167577,0.2087732861767055,0.0828505491796888,10.746984353297194,-1.4154955347382676,0.2208887681257667,-1.2507160964173032
1.2,0.1757016025514021,-1.3069188183721197,1.8421835887544264,-0.0070613372214682,0.1411779934971878,0.0393580691363502,0.0791541677423701,0.7444506688791909,-0.3297680757841236,0.1782007914439155,-1.284771792173538,1.8322274383718973,0.0487447214861854,0.839832873133104,-0.3191690757942903,0.2899083066589036,-0.1571348733293932,0.2308898618101518,0.0777517174529118,10.727827573451576,-1.4235821406267812,0.222669536905272,-1.2460393447760811
1.22,0.1772985712389818,-1.291923183979715,1.8357340120993044,-0.0071084370924352,0.1354386831007847,0.0395487655113905,0.0806692468882262,0.7545176240960684,-0.314576381805545,0.1782007914439155,-1.284771792173538,1.8322274383718973,0.0487447214861854,0.839832873133104,-0.3191690757942903,0.9143667454796311,0.0757539572928005,0.5033477608438752,0.7595846989289279,10.712478547565295,-1.4184368420328053,0.2217464395799874,-1.2339844221927303
1.24,0.1789056891548177,-1.2767514988286215,1.829598690718596,-0.0053478315022464,0.1286067585650654,0.0398568021585424,0.0796190966099233,0.7620491816859399,-0.2997875022112727,0.1782007914439155,-1.284771792173538,1.8322274383718973,0.0487447214861854,0.839832873133104,-0.3191690757942903,0.8314717899460787,-0.0525075139151426,0.3765778794935781,0.7394439797136138,11.494281457767102,-1.431637148283574,0.2210694355483183,-1.2383655116742007
1.26,0.1803823809300798,-1.2622186475046884,1.824022354131116,-0.0030880656992338,0.1218872862762254,0.0401660045378441,0.0756899211798104,0.7673011079758207,-0.287927274097844,0.1786882386587774,-1.276373463442207,1.8290357476139545,0.0420342927416309,0.8598328734311271,-0.316738268926512,0.6776543370655682,-0.1964587715056476,0.2625963144940402,0.593011405671437,11.494281457767102,-1.4436040130736278,0.2193567196211356,-1.2405106493826048
1.28,0.1818288580214739,-1.246835520594613,1.818377665784921,-0.0009951373604151,0.1151679301856864,0.0404419416670747,0.0689764053078091,0.7708399159228707,-0.27724324202955,0.1796631330885011,-1.259576805979545,1.822652366098069,0.0286134352525219,0.8998328740271736,-0.3118766551909554,0.6552537643654784,-0.3356757936000612,0.1769403973524985,0.5342016034147024,11.351912207619534,-1.453387787514536,0.2176284173968901,-1.2399457527001985
1.3,0.1831149781023066,-1.2313948896682807,1.812929031626897,0.0002020751150346,0.1093031499955402,0.0406321556267382,0.0597935140377826,0.7731482236908455,-0.2682179060371455,0.1806380275182248,-1.2427801485168828,1.8162689845821829,0.0151925777634128,0.93983287462322,-0.3070150414553988,0.6540459972444849,-0.4591445635013256,0.1154153883987374,0.451266799620223,11.145716129999528,-1.4609693336303695,0.2167530681318734,-1.2384813478027732
1.32,0.1841913278932875,-1.2159202988421691,1.8076464128726932,-1.588759165421199e-05,0.104924463612836,0.0407122253579018,0.0482078654387595,0.7744404580874633,-0.2604863416479231,0.180941879073493,-1.2239834910244185,1.8101286837530748,0.0017717202743038,0.9798328752192664,-0.3021534277198422,0.6994179921558701,-0.5792824299511535,0.0646117198308926,0.38657821946112,11.145716129999528,-1.4659907128348937,0.217162150622822,-1.2365335683630552
1.34,0.1849809105190252,-1.2011998651934082,1.8027689157686773,-0.0018901083230977,0.1027723106437754,0.0406701099809173,0.0354856625944621,0.775272786807529,-0.2533177102629431,0.1812457306287613,-1.205186833531954,1.803988382923967,-0.0116491372148052,1.019832875815313,-0.2972918139842856,0.7313284013413827,-0.6361101422148726,0.0416164360032833,0.3584315692490014,11.0824063567552,-1.4664559776907349,0.219311062136195,-1.2349110981447184
1.36,0.1855500652242251,-1.185666885216204,1.7977834689383514,-0.0053167364506827,0.102854626359259,0.0405210083129278,0.0223582145569518,0.7784496580781615,-0.2455996611299935,0.1812140607468018,-1.1853901760245884,1.7979696224382478,-0.0250699947039142,1.0598328764113594,-0.292430200248729,0.7778024901386044,-0.6563724018755143,0.1588435635316243,0.3859024566474758,11.080520979569885,-1.4621040921040491,0.2229462643409971,-1.2355143422707655
1.38,0.1858695468915983,-1.1700381684942522,1.792954896268021,-0.0089156120625824,0.1047474733344011,0.0403469376623048,0.0105013900824251,0.7842827144238526,-0.2376576784082515,0.1808468694276146,-1.1645935185023215,1.7920724022959176,-0.0384908521930232,1.0998328770074055,-0.2875685865131724,0.7708500543299435,-0.5928412237263332,0.2916528172845545,0.397099136087102,11.083638702960345,-1.4567725108765222,0.2267307714758112,-1.2396379037855738
1.4,0.1859682295943968,-1.155067305244213,1.7885159690130676,-0.0118834097150872,0.1076363022640072,0.040195671294008,0.0006689997016546,0.7912041027829956,-0.2300111285626743,0.1863946163957195,-1.1308240327730597,1.7810720123476085,-0.003316322582179,0.8842827159139687,-0.2303404077903194,0.7124802487768447,-0.4916195190385249,0.346069417957151,0.3823274922788611,11.096464816298976,-1.450456316561495,0.2303266368618875,-1.246640475956384
1.42,0.1858449169888606,-1.1390858068067384,1.784014691966858,-0.0119856490827165,0.1125870330291875,0.040215392927148,-0.0120696096275472,0.8058151233093512,-0.2204390418177889,0.1863946163957195,-1.1308240327730597,1.7810720123476085,-0.003316322582179,0.8842827159139687,-0.2303404077903194,1.080947423692784,-0.6369304664600971,0.7305510263177828,0.4786043372442677,11.10678505271244,-1.4423617025613698,0.2307782367671994,-1.262375321187743
1.44,0.1855014936855106,-1.122856085402538,1.779701305292381,-0.0083782708986593,0.1198454689915248,0.0404729298160002,-0.0211763126101506,0.8158335360610014,-0.2114395585693018,0.1863946163957195,-1.1308240327730597,1.7810720123476085,-0.003316322582179,0.8842827159139687,-0.2303404077903194,0.8128519730178191,-0.4553351491301699,0.5009206375825082,0.4499741624243561,11.255829402449308,-1.4320815643606728,0.2269840682605438,-1.276693302577605
1.46,0.1850165925449984,-1.1064793402917366,1.7755517471459976,-0.0038770538722798,0.1280261797986902,0.0408084874980026,-0.0265546914534835,0.821295574821517,-0.2040038250210579,0.1863614531698978,-1.12198120561392,1.7787686082697052,-0.0060798651150998,0.904282716211992,-0.228876953666733,0.5339732198440903,-0.2689189421666432,0.2731019380257826,0.3717866774121961,11.191023711192427,-1.4204206155189465,0.2218781500074415,-1.2939212288081825
1.48,0.1844884829834873,-1.0908457130820366,1.7717335411897055,-0.0001961281627675,0.1356996597531452,0.0411091603191524,-0.0286210403369035,0.8243066073580354,-0.1983181207552031,0.1862951267182542,-1.1042955512956405,1.7741618001138988,-0.0116069501809415,0.9442827168080384,-0.2259500454195602,0.3378733033355215,-0.1033174441710032,0.1505516268259177,0.2842852132927398,11.03402758777247,-1.4093363059192232,0.2174168568943965,-1.3100385913953214
1.5,0.1839175201075088,-1.074338139319866,1.7678205772824394,0.0025974153263101,0.1429712318330003,0.0413661654349366,-0.0282389393264414,0.8265183950279616,-0.1933428715624209,0.1862288002666106,-1.0866098969773612,1.7695549919580924,-0.0171340352467831,0.9842827174040848,-0.2230231371723873,0.2729061670671524,0.0191050505231047,0.1105893834963123,0.2487624596391097,10.993877404909654,-1.3998522081075189,0.2142521347457819,-1.3240179068995674
1.52,0.1833777619415661,-1.0577933409225635,1.7639982470415372,0.0041201206964008,0.1489152001060749,0.0415364622173856,-0.025781381934941,0.8281333232587278,-0.1891614245936582,0.1858861195616749,-1.0669242426292795,1.7650945292146447,-0.0226611203126248,1.0242827180001313,-0.2200962289252145,0.2555977321672625,0.1228778695750247,0.0807464115383072,0.2090723484381357,10.993877404909654,-1.3929101855402883,0.2126624740420042,-1.3346094210608812
1.54,0.1829027632420024,-1.0412215358223116,1.76025612834692,0.0042119177872236,0.1532906040425322,0.0415970340714806,-0.0219295256530615,0.8292041822664472,-0.1852731329653491,0.1855434388567393,-1.047238588281198,1.760634066471197,-0.0281882053784665,1.0642827185961778,-0.2171693206780417,0.2788473938261128,0.1925928140939711,0.0535429503859707,0.1944145814154529,10.969665394643926,-1.3879341825396023,0.2126739338885576,-1.342906325157659
1.56,0.1825302471379091,-1.025451326973225,1.7567732210987508,0.0030229910772861,0.1559589285688643,0.0415518455650588,-0.0175884014191202,0.8308664611664629,-0.1815484543068938,0.1850625810251576,-1.026552933918215,1.7562467764339285,-0.0337152904443082,1.1042827191922242,-0.2142424124308688,0.2978328468482887,0.2170562116970678,0.0831139450007845,0.1862339329227635,10.970136198824548,-1.3852787163486844,0.2144248406208318,-1.3491832029334687
1.58,0.1822288053017353,-1.0088087108798516,1.7531857480228017,0.0006923956119131,0.1573265057338952,0.0414175141601053,-0.0128830809756704,0.8334415690533419,-0.1773823812828327,0.1844435460669298,-1.0048672795403308,1.7519326591028397,-0.0392423755101498,1.1442827197882706,-0.211315504183696,0.3395857238843465,0.2352660221724869,0.128755394343949,0.2083036512030567,10.984070497690482,-1.3846698920169067,0.2175841122695997,-1.3537509171160071
1.6,0.1820205842467128,-0.992093079501292,1.7496853361750462,-0.0021279485846563,0.1573795765335275,0.0412448356846977,-0.0083184086042039,0.8380920413958456,-0.1728702451565413,0.1815846512529518,-0.9671366324271844,1.7443166289586598,-0.0186942143976279,0.933441570543458,-0.1689360706360007,0.3963032276218738,0.228233618573326,0.2325236171251854,0.225606806314571,11.00702697120687,-1.3856052578730282,0.2212016119390267,-1.3572451071513731
1.62,0.1818897724981398,-0.9760503418590828,1.746469432877067,-0.0025403522132758,0.1568498037463073,0.0412384901584222,-0.005664471015927,0.8493533304996636,-0.1658801616034136,0.1815846512529518,-0.9671366324271844,1.7443166289586598,-0.0186942143976279,0.933441570543458,-0.1689360706360007,0.6758721866631758,0.1326968794138478,0.5630644551908981,0.3495041776563859,11.031933597293571,-1.3861372164181796,0.2221763189117873,-1.3632001549765744
1.64,0.1818059450775987,-0.958976550455006,1.7432272680929268,-0.0001454254172804,0.1562403948040381,0.0414212057133737,-0.0028788348670789,0.8572727553144537,-0.1587355460527109,0.1815846512529518,-0.9671366324271844,1.7443166289586598,-0.0186942143976279,0.933441570543458,-0.1689360706360007,0.5511864238128173,0.1392818074424018,0.3959712407395066,0.3572307775351335,11.225887456288548,-1.3879829783335655,0.2195271377106409,-1.3690227340457857
1.66,0.1817765389799242,-0.9417793901695716,1.740117661227072,0.0033033183916616,0.1555134924590935,0.0416639347139175,-0.0002397055628849,0.8618446216829513,-0.1525873070105697,0.1813977091089755,-0.95780221672175,1.7426272682523,-0.0198564410820194,0.9534415708414812,-0.1672468085066343,0.4051783832306599,0.1319564652096991,0.22859331842488,0.3074119521070617,11.142943178865607,-1.3902772748418024,0.2157046011300259,-1.3735071885110417
1.68,0.1817973383746906,-0.924520729404012,1.7371207985051158,0.0063144885940036,0.1546593952409838,0.0418606678373363,0.0021322367285924,0.8640074830567948,-0.1474102627555464,0.181023824821023,-0.9391333853108808,1.7392485468395795,-0.0221808944508024,0.9934415714375276,-0.1638682842479015,0.3045729254835073,0.1185971145738695,0.1081430686921736,0.258852212751165,11.088380310192406,-1.392321770248318,0.212055622815772,-1.3772147843077585
1.7,0.1818579816395014,-0.9080964691828912,1.7343627142370448,0.0082581775507949,0.1537449968108094,0.0419702313961017,0.0040812012600429,0.8650315940418194,-0.1431736272869782,0.1806499405330704,-0.9204645539000116,1.73586982542686,-0.0245053478195854,1.033441572033574,-0.1604897599891687,0.2387275965825369,0.0974482265725245,0.0512055492512319,0.2118317734284072,11.088380310192406,-1.3942743465100382,0.2095515795172404,-1.3797651535495183
1.72,0.181958487018587,-0.8907939934508304,1.7315425908217152,0.0091066037092847,0.1527038847502778,0.0419906411631836,0.005818449973006,0.8652908970829601,-0.1390759591157146,0.1801598335766787,-0.8997957224593401,1.7326600302270765,-0.0268298011883684,1.0734415726296205,-0.1571112357304359,0.2229134114382957,0.0868624356481568,0.0129651520570372,0.2048834085631792,11.04912342794887,-1.396293974187697,0.2085534185259955,-1.3810624896839472
1.74,0.1820907939836876,-0.8734950742566132,1.7288033160785488,0.0082811582773069,0.1516128163660492,0.041887148185876,0.0072729870613019,0.864863107716567,-0.1350528589170015,0.179669726620287,-0.8791268910186686,1.7294502350272931,-0.0291542545571514,1.113441573225667,-0.1537327114717031,0.2149652128375258,0.0727268544147937,-0.0213894683196547,0.2011550099356579,11.030090139088315,-1.3981512759722634,0.2096324217033082,-1.381475801857741
1.76,0.1822488934032822,-0.8561941098246493,1.7261468902699508,0.0058529137203712,0.1505034961817878,0.0416706503718077,0.0084189771936138,0.8654319521168651,-0.1307893714364028,0.1791215083296757,-0.8574580595630961,1.726324902933978,-0.0314787079259344,1.1534415738217134,-0.1503541872129703,0.2225657365382666,0.0572995066155967,0.0284422200149014,0.2131743740299341,11.04329291472186,-1.3994805657326814,0.2125174929593548,-1.3819289357630202
1.78,0.1824172820813483,-0.8397255319618167,1.7237062420849945,0.0027440914203689,0.1494577475039826,0.0414124079663184,0.009210350190575,0.8682614673324199,-0.1263379139043095,0.1785151787048448,-0.8347892280926222,1.7232840339471314,-0.0338031612947174,1.1934415744177598,-0.1469756629542375,0.2666828722256339,0.0395686498480598,0.1414757607777428,0.2225728766046625,11.04329291472186,-1.4005365596993895,0.2166650061669537,-1.383177437467002
1.8,0.1826076918933686,-0.8223116794587711,1.7212325365903192,-0.0003953739015692,0.1483877671548819,0.0411550956148745,0.0097591399616231,0.8729761720032646,-0.1212533645844692,0.182877799590877,-0.7963124585951956,1.717389346389779,-0.0245239080737281,0.968261468822536,-0.1155130398608449,0.3477867598542981,0.0274394885524047,0.2357352335422335,0.2542274659920171,11.06899687985242,-1.40183595906064,0.2207130089364,-1.3847818986789555
1.82,0.18285074720636,-0.804725222004009,1.7188759916848406,-0.0009293619255714,0.145975938486519,0.0410837209352462,0.0146392973612313,0.8847270540092813,-0.1145728109586669,0.182877799590877,-0.7963124585951956,1.717389346389779,-0.0245239080737281,0.968261468822536,-0.1155130398608449,0.7185557753429749,0.2440078699804114,0.5875441003008353,0.3340276812901117,11.09678720973261,-1.3990146243900288,0.2210870627325809,-1.3902136373068028
1.84,0.1831943980515593,-0.7869430562823618,1.7166532978249252,0.0017432358888408,0.1404266675189859,0.0412242540005038,0.0189523457121446,0.8926252567406172,-0.1080001465212149,0.182877799590877,-0.7963124585951956,1.717389346389779,-0.0245239080737281,0.968261468822536,-0.1155130398608449,0.5571891740467169,0.2156524175456644,0.3949101365667951,0.328633221872604,11.196282322418485,-1.4091562897491816,0.2183184109512794,-1.3893961272309756
1.86,0.1835644628194118,-0.7699432083253377,1.71465715441443,0.0052660565105229,0.1330946318850686,0.041390075265799,0.0194091673160731,0.8963061463636739,-0.1024195712236986,0.1826325605101397,-0.7866298439069702,1.7162342159911703,-0.0312707597265888,0.9882614691205592,-0.1133480650521519,0.3350390090951742,0.0228410801964269,0.1840444811528341,0.2790287648758112,11.196282322418485,-1.4226720471930534,0.2139222088863122,-1.383910728717168
1.88,0.1839226912745231,-0.7520037591115404,1.7126637268527962,0.0084512324370796,0.124560343968306,0.0414821674317277,0.0160519677634883,0.8975876718574402,-0.0972371434323736,0.1821420823486652,-0.7672646145305195,1.7139239551939536,-0.04476446303231,1.0282614697166057,-0.1090181154347661,0.315319894073251,-0.1678599776292408,0.0640762746883127,0.2591213895662511,11.134970585510928,-1.4354211675043924,0.2099513312510836,-1.3759717511822172
1.9,0.1841745285754637,-0.7340541723710845,1.7107657012469264,0.010496661451061,0.1162914376014004,0.0414627733093887,0.0091301638844743,0.8976430711815907,-0.0928070478446006,0.1816516041871906,-0.7478993851540688,1.7116136943967366,-0.0582581663380313,1.068261470312652,-0.1046881658173802,0.4109141788179633,-0.3460901939507019,0.0027699662075275,0.221504779388653,11.079575447397474,-1.4465397231087296,0.2072714494246847,-1.3671114860108995
1.92,0.1842571111050092,-0.7161128318826128,1.708951526876508,0.0111929674296953,0.1090681328947716,0.0413404746012974,-0.0005864248628079,0.8967450253939864,-0.0888213051460678,0.18048644086043,-0.7265341557478158,1.709519931080389,-0.0717518696437526,1.1082614709086984,-0.1003582161999943,0.5270311375510813,-0.485829437364116,-0.0449022893802164,0.1992871349266393,11.002087260861115,-1.455072164206276,0.2061993877834088,-1.358628992092909
1.94,0.1841324563761928,-0.6990927318606059,1.7073008456762089,0.0102323768260133,0.1037105743880968,0.0411241156451989,-0.0121313764809044,0.8951542155408092,-0.0851237566226537,0.1793212775336694,-0.7051689263415627,1.7074261677640414,-0.0852455729494739,1.148261471504745,-0.0960282665826085,0.611327344669277,-0.5772475809048232,-0.0795404926588583,0.1848774261707056,11.002087260861115,-1.4616499721458955,0.2071271757403961,-1.3505767384225882
1.96,0.1837406923882472,-0.6811999059458869,1.705641237860049,0.0075170564654908,0.1003822195375704,0.0408087493892212,-0.0265553962056507,0.8944815952886117,-0.0810191830605242,0.1778187716242657,-0.6828036969204085,1.7054406531881283,-0.0987392762551952,1.1882614721007914,-0.0916983169652226,0.7505869156041649,-0.7212009862373169,-0.0336310126098748,0.2052286781064713,11.021308137776032,-1.4642025781311268,0.2101539571922799,-1.3457971553973938
1.98,0.183047081965761,-0.6632918532695933,1.704067840821973,0.0039647356188729,0.1000623457954262,0.0404661528341116,-0.0416463776193933,0.8965596137937061,-0.0765356616313555,0.175978923132219,-0.6594384674843532,1.70356338735265,-0.1122329795609165,1.2282614726968375,-0.0873683673478367,0.7939739374552123,-0.7545490706871285,0.1039009252547185,0.2241760714584352,11.034535529845016,-1.4600944985269353,0.2140064287360152,-1.3465043307765776
2.0,0.1820689588269603,-0.6453193826028952,1.702587813708844,0.0006248525765864,0.1021676020024893,0.0401485293037171,-0.0550824125008715,0.9005422127228219,-0.071704756232657,0.1809647630847914,-0.618463872579908,1.7002410577404052,-0.0616168318950014,0.9557819916304104,-0.0796233417197117,0.7411574976644092,-0.671801744073909,0.1991299464557894,0.2415452699349278,11.034535529845016,-1.4536948680839603,0.2175082355568218,-1.3506649464720977
2.02,0.1808621320480217,-0.6279628044725468,1.7012445224191115,0.0043932970358643,0.1068350826858995,0.0403330056695889,-0.0705226263225414,0.9224439552782828,-0.0699180215363552,0.1809647630847914,-0.618463872579908,1.7002410577404052,-0.0616168318950014,0.9557819916304104,-0.0796233417197117,1.342831849767079,-0.7720106910834967,1.0950871277730534,0.0893367348150861,11.051571291862274,-1.4452053957538535,0.2128978584267613,-1.3660625613802206
2.04,0.1793214216114609,-0.6094245816108496,1.6998604271964342,0.0152293786064512,0.1144632081286761,0.0410596990536142,-0.0822120427394267,0.9291866473643842,-0.068616352343786,0.1809647630847914,-0.618463872579908,1.7002410577404052,-0.0616168318950014,0.9557819916304104,-0.0796233417197117,0.6778655755793391,-0.5844708208442649,0.3371346043050616,0.0650834596284601,10.907494557982318,-1.432635400663908,0.1988677714807,-1.3785674764977494
2.06,0.1775924086249275,-0.5908525332616716,1.6984819395196276,0.0267823173534273,0.1233414509182402,0.0419346276714957,-0.0897427200446,0.927573676399853,-0.0694250601490409,0.1803485947658414,-0.6089060526636039,1.699444824323208,-0.065610922750123,0.9676264671977512,-0.0802408777373829,0.387191116638002,-0.3765338652586658,-0.0806485482265584,-0.040435390262742,10.714723420164772,-1.418490444785904,0.1837993416632673,-1.3917999485082346
2.08,0.1757532232055557,-0.5723652548648763,1.6970636184699888,0.0367503103922271,0.1322614515457245,0.0427804957793303,-0.0935979449112224,0.921634389218864,-0.0723837508149622,0.1791162581279413,-0.5897904128309956,1.697852357488814,-0.0735991044603662,0.9913154183324328,-0.0814759497727253,0.3837047740356349,-0.1927612433311167,-0.2969643590494564,-0.1479345332960673,10.714723420164772,-1.4047350536357128,0.171227377911997,-1.4021881205440514
2.1,0.173964840909808,-0.5549353100121804,1.6956479809991294,0.0441684531638832,0.1399710798080453,0.0434679772904551,-0.0943991034184227,0.9138778946117678,-0.0764875943812616,0.1778839214900413,-0.5706747729983874,1.6962598906544195,-0.0815872861706094,1.0150043694671145,-0.0827110218080678,0.4405865282785718,-0.0400579253600159,-0.3878247303548021,-0.2051921783149668,10.617075622402808,-1.392086202964425,0.1607562364509948,-1.410331048230011
2.12,0.1720896299900906,-0.5367561495516625,1.6940667171576709,0.0498617910493765,0.1467533119438898,0.0440170167790096,-0.0930196823610176,0.9047881348856914,-0.0814400421039031,0.1762521757666291,-0.5503746856090451,1.6946056702182584,-0.0895754678808527,1.038693320601796,-0.0839460938434103,0.5221428750277803,0.0689710528702536,-0.4544879863038198,-0.2476223861320778,10.543678617956177,-1.382209275898458,0.1531668312912595,-1.415518113826915
2.14,0.1702615730614418,-0.5187663623658376,1.692383113005502,0.0535442541956353,0.1518418323325587,0.0443513833125467,-0.0899527980226329,0.8951469147713629,-0.0866513211574439,0.1746204300432169,-0.5300745982197028,1.692951449782097,-0.0975636495910959,1.062382271736478,-0.0851811658787527,0.5690262169088429,0.1533442169192343,-0.4820610057164276,-0.2605639526770398,10.543678617956177,-1.3756019647236617,0.148429186068635,-1.4176430332797822
2.16,0.1685906150427013,-0.5018500536602313,1.6906894247761777,0.0556623161643817,0.1550638210739049,0.0444818055286841,-0.0862081361853159,0.8862849027569486,-0.0913506210048139,0.1727889797770486,-0.5091822870519935,1.6912663525450522,-0.1055518313013391,1.0860712228711595,-0.0864162379140952,0.5353530803940826,0.1872330918658522,-0.4431006007207139,-0.2349649923684992,10.542880619648711,-1.3715869569363228,0.145351612877851,-1.417644326620281
2.18,0.1669113370891369,-0.4842242871882795,1.68881406255311,0.0568055908890144,0.1569030401983765,0.0444447900718976,-0.0820069918919479,0.8768410269463986,-0.0959049048359691,0.1707578249681243,-0.4876977521059171,1.6895503785071238,-0.1135400130115823,1.1097601740058414,-0.0876513099494376,0.5647519475697055,0.2100572146683979,-0.4721937905274975,-0.2277141915577589,10.563330005067655,-1.3701790966268703,0.1437377170308406,-1.4154045146426486
2.2,0.1653168972320524,-0.466792965634107,1.6868532696104233,0.0567140194832484,0.1573463955214705,0.044227896173297,-0.0777922147311007,0.8669318560502938,-0.0999209999257903,0.1628109874945395,-0.4403822358409595,1.6840188173113115,-0.1046061041344082,0.866629755712542,-0.1143849393810331,0.5746412666488045,0.2107388580423592,-0.495458544805244,-0.2008047544910601,10.587968863576862,-1.3706604629905268,0.1436830871585774,-1.4113195983374611
2.22,0.1637948123357915,-0.449309586774584,1.6847897357686723,0.0633069862481463,0.1564039322179288,0.0443777855818554,-0.0745798898285746,0.8768899128427695,-0.1064336403451457,0.1628109874945395,-0.4403822358409595,1.6840188173113115,-0.1046061041344082,0.866629755712542,-0.1143849393810331,0.616231311265064,0.1606162451263069,0.4979028396237872,-0.3256320209677719,10.408737271669452,-1.372368563731227,0.1353416841826248,-1.416181816431985
2.24,0.1624094390827056,-0.43269274998427,1.6826926941342029,0.0751783101286157,0.154122962536817,0.0447732711555397,-0.0714911397690445,0.8709509963083517,-0.1139934874408473,0.1628109874945395,-0.4403822358409595,1.6840188173113115,-0.1046061041344082,0.866629755712542,-0.1143849393810331,0.5048821512081195,0.1544375029765052,-0.2969458267208902,-0.3779923547850769,10.408737271669452,-1.3777564895642764,0.1190715701950903,-1.4088856067192463
2.26,0.1610064331439694,-0.4154122004033654,1.680315691337854,0.0881407049256218,0.150378585322547,0.0450375007003875,-0.0691158157375165,0.8571848617976972,-0.1233545280169571,0.1617649264531954,-0.4317159382838341,1.6828749679175012,-0.1091259265829002,0.8645875014657707,-0.1180809462900459,0.8407997744525196,0.1187662015764021,-0.688306725532728,-0.4680520288054899,10.354952717696506,-1.384562838718893,0.1021833193820281,-1.398301182406842
2.28,0.1596363042584847,-0.3984653063475009,1.677739054763382,0.0995184101827985,0.145538759974649,0.0449943836709209,-0.0682198174463748,0.8385260045237513,-0.1337758267579673,0.1596728043705072,-0.4143833431695832,1.6805872691298804,-0.1181655714798843,0.860502992972228,-0.1254729601080715,1.0695317142990588,0.0447999145570844,-0.9329428636972948,-0.5210649370505104,10.237936981291568,-1.3927323856696798,0.0875656504060736,-1.38390130090135
2.3000000000000003,0.1582612868934131,-0.3819228685626761,1.6749505781326604,0.1086077534688354,0.1401725445600525,0.0446416026043254,-0.0695247957902558,0.8171305321624888,-0.1444682306567732,0.1575806822878191,-0.3970507480553324,1.6782995703422598,-0.1272052163768685,0.8564184844786853,-0.132864973926097,1.197702704320593,-0.0652489171940502,-1.0697736180631243,-0.534620194940294,10.222901024742896,-1.4004446895723195,0.0765671215106641,-1.3678138022595951
2.32,0.1569106345944233,-0.3666202426074918,1.67210567543045,0.1150907699614187,0.135230647307631,0.0440964232813248,-0.0726967115870031,0.7952210227876162,-0.1543818058992946,0.1550365779602817,-0.3799223783657587,1.675642270863738,-0.1362448612738526,0.8523339759851426,-0.1402569877441226,1.2128134903586985,-0.158595789837368,-1.0954754687436286,-0.4956787621260741,10.222901024742896,-1.4067657794348636,0.0678661992012298,-1.3501837904613996
2.34,0.1554049698073736,-0.3509677797596165,1.6689119967278363,0.1199397991735391,0.130755284721533,0.0434068083317403,-0.0778557416225829,0.7714818916966625,-0.1643840170143877,0.1524924736327443,-0.3627940086761849,1.672984971385216,-0.1452845061708367,0.8482494674915999,-0.1476490015621482,1.3135887513339084,-0.2579515017789864,-1.1869565545476857,-0.5001105557546542,10.232328268423773,-1.410860055684355,0.0618371709834763,-1.3319415061365307
2.36,0.1537766548140687,-0.3357977214677342,1.6655256709591084,0.1230134690740032,0.1276712886346242,0.0427159369528439,-0.0848249273692718,0.7470434230863193,-0.1736516546899864,0.1497223781827824,-0.3457677516989498,1.6701428715612434,-0.1543241510678208,0.8441649589980573,-0.1550410153801738,1.3524952921145017,-0.3484592873344488,-1.2219234305171578,-0.4633818837799328,10.279076426628308,-1.4107992655907968,0.0580849374920781,-1.3130749999655973
2.38,0.1519948798599661,-0.3211237474555561,1.661962751011715,0.1243911387942477,0.1266654113872418,0.0421340112298345,-0.0928171444665494,0.7219663249911333,-0.1821089936141426,0.1467262916103958,-0.3288436074340533,1.6671159713918202,-0.1633637959648048,0.8400804505045146,-0.1624330291981994,1.3822653188549257,-0.3996108548638764,-1.2538549047592995,-0.4228669462078102,10.279076426628308,-1.4051413618428217,0.0562637712429903,-1.2971395417769966
2.4,0.1501640258683003,-0.3076538893421794,1.65842820045676,0.123999797946826,0.1275314176382541,0.0416714157149852,-0.0992793223911899,0.6974720459964358,-0.1894716414398501,0.1473540226366387,-0.2850254312059995,1.652857301331008,-0.1066725915279093,0.6782700146199728,-0.1612969049904997,1.31903187035529,-0.3231088962320244,-1.2247139497348791,-0.3681323912853765,10.334540621831366,-1.3959764885064163,0.0564343402647778,-1.2827647401038829
2.42,0.1481194615640332,-0.2939036767530085,1.654656362338636,0.1242592162777819,0.1300554098883733,0.0414165351835244,-0.1045095355954347,0.6783224621271502,-0.1869239341023059,0.1473540226366387,-0.2850254312059995,1.652857301331008,-0.1066725915279093,0.6782700146199728,-0.1612969049904997,1.0006903931866673,-0.2615106602122399,-0.957479193464278,0.1273853668772098,10.334540621831366,-1.3786103942862489,0.0547932630821487,-1.276557050575
2.44,0.1459989212161951,-0.280564786197875,1.6509582524355566,0.1266074846842807,0.1337946833874198,0.0414469327295128,-0.1070455966216895,0.6562660948860626,-0.1830662572608076,0.1473540226366387,-0.2850254312059995,1.652857301331008,-0.1066725915279093,0.6782700146199728,-0.1612969049904997,1.1267171473089914,-0.1268030513127432,-1.1028183620543808,0.1928838420749173,10.964550190157752,-1.3675787058458502,0.0513470640616871,-1.273600146007221
2.46,0.1438547505080196,-0.2677020630400467,1.647337323796387,0.129264523212769,0.1378291026162811,0.0415272597353709,-0.1071285021335891,0.6311951796341702,-0.1792125630864395,0.1462872967213596,-0.2782427310597997,1.651244332281103,-0.1094436809401812,0.6695307525457407,-0.1571344872657711,1.2682750329493149,-0.0041452755949793,-1.2535457625946211,0.1926847087184047,10.964550190157752,-1.3574877849955016,0.0478455968633386,-1.2706713753061836
2.48,0.1418362882830517,-0.2559636337153603,1.6439700592207656,0.1311005608537557,0.1413214751446681,0.0415016855632991,-0.1053167972854763,0.6059390015499742,-0.1753953247645215,0.1441538448908014,-0.2646773307674003,1.648018394181293,-0.1149858597647252,0.6520522283972765,-0.1488096518163139,1.2803594361385564,0.0905852424056427,-1.2628089042098,0.1908619160958968,10.979464614400058,-1.3480558908495004,0.0450219323540472,-1.2672492060601004
2.5,0.139764155074939,-0.2441333874505219,1.6405078315442276,0.1319399923608373,0.1442173979212291,0.0412822357957751,-0.1019718336026291,0.5785267925936379,-0.1709848811306145,0.1420203930602432,-0.2511119304750008,1.644792456081483,-0.1205280385892691,0.6345737042488123,-0.1404848163668567,1.3982757193712527,0.1672481841423573,-1.3706104478168113,0.2205221816953539,10.999940599768706,-1.3401888464562148,0.0435089731208191,-1.2628368715659053
2.52,0.1377705965303883,-0.2328617039637333,1.6371390066721283,0.1311770349926531,0.1460641420091155,0.0407957939692574,-0.0975905185332178,0.5501878877532356,-0.1660576821270907,0.1396098322884578,-0.2384204563900246,1.641982759754146,-0.1260702174138131,0.6170951801003481,-0.1321599809173996,1.4547909981429945,0.2190657534705639,-1.4169452420201178,0.2463599501761879,11.030938460618929,-1.3341156550536282,0.0438218329402876,-1.2571754915383533
2.54,0.1358726113877512,-0.2221622559955123,1.633880205801632,0.1283189737716562,0.1467314953195952,0.0399932138629748,-0.0925755656868524,0.5216379702524535,-0.1599929676973316,0.1371992715166724,-0.2257289823050483,1.639173063426809,-0.1316123962383571,0.5996166559518838,-0.1238351454679424,1.4807331819636336,0.2507476423182698,-1.4274958750391031,0.3032357214879558,11.066979904995604,-1.3295503628203005,0.0461423594913718,-1.2516946015956034
2.56,0.1341637984663139,-0.2125071450437664,1.6309101766399696,0.1240509650818803,0.1462913184047536,0.0389772852895301,-0.0876562129965344,0.4966175197811156,-0.1528720068332334,0.1346501562742734,-0.2134744713237837,1.6365714879857085,-0.137154575062901,0.5821381318034197,-0.1155103100184852,1.3237551287043512,0.245967634515902,-1.251022523566894,0.3560480432049095,11.130050462567851,-1.326457276970874,0.0502314356515548,-1.2464995125798384
2.58,0.1324651773888232,-0.2028320852025933,1.6279429452915015,0.1189504468176369,0.1446825432255465,0.0377259929208736,-0.0825428556920975,0.4724574001591936,-0.1441437146152011,0.1319624865612609,-0.2016569234462306,1.634178033430844,-0.142696753887445,0.5646596076549555,-0.1071854745690281,1.309619112673398,0.2556678652218431,-1.2080059810961024,0.4364146109016142,11.191667953119577,-1.3255783059054913,0.0549404916248166,-1.2410763657934851
2.6,0.1308656036641741,-0.1936236006143746,1.6251605753156528,0.1136878815917266,0.1418490377363297,0.0363303934130321,-0.0777816524602022,0.4497979507164787,-0.1344660799340475,0.1283380346042183,-0.1792092151946336,1.6207357595607417,-0.092647325647065,0.438641308442904,-0.1179710859889737,1.2547672277002504,0.2380601615947671,-1.132972472135743,0.4838817340576812,11.282945722457953,-1.326928641272098,0.059741935798033,-1.2352287666188049
2.62,0.129319220692607,-0.1848548776838237,1.622520943965199,0.108260887034135,0.1385584702317837,0.0348916190010586,-0.0771997657945771,0.428529884412879,-0.1299249988696215,0.1283380346042183,-0.1792092151946336,1.6207357595607417,-0.092647325647065,0.438641308442904,-0.1179710859889737,1.0877622139277876,0.029094333281255,-1.0634033151799838,0.2270540532213011,10.935830723574329,-1.335988818794719,0.0650349075078094,-1.2297048838422535
2.64,0.1278505786508727,-0.1769000707246673,1.6201097358481034,0.1031865018391858,0.1358899120360139,0.0336021078635847,-0.077490175336459,0.4099722149539653,-0.124075911866952,0.1283380346042183,-0.1792092151946336,1.6207357595607417,-0.092647325647065,0.438641308442904,-0.1179710859889737,0.9729892756514722,-0.0145204770940952,-0.9278834729456842,0.2924543501334732,10.935830723574329,-1.335129961987524,0.0698817829073526,-1.2211039408440172
