t,x,y,z,roll,pitch,yaw,v_x,v_y,v_z,ref_x,ref_y,ref_z,ref_v_x,ref_v_y,ref_v_z,a_com,a_x,a_y,a_z,thrust,wind_x,wind_y,wind_z
0.0,-1.872318868258488,0.7260237990327176,1.929987424552903,0.0209911828637554,0.1364912470015444,0.0265233117735666,0.0052845963511382,0.0048218324127515,0.0068321591254668,-1.8721595297405444,0.7262225004605989,1.930197703108674,0.1053035244467411,-0.093847945141173,-0.0930370312237888,0.4946095043739689,0.2642298175569121,0.2410916206375786,0.3416079562733427,10.547072409097382,-1.2879302351015949,0.1550754821102991,-1.1722564507108333
0.02,-1.872326163384988,0.726328904288289,1.9299142221905985,0.0296712149425736,0.1388408272687323,0.0271773540889799,-0.0057230599799589,0.0219365762261338,-0.0152359405151373,-1.8721595297405444,0.7262225004605989,1.930197703108674,0.1053035244467411,-0.093847945141173,-0.0930370312237888,1.5009030410463606,-0.5503828165548585,0.8557371906691157,-1.103404982030208,10.547778152661522,-1.310563569582204,0.1478246654081025,-1.1872951337544928
0.04,-1.8725323261218447,0.7267782837055178,1.9292846539552304,0.0443478671183636,0.1448206845693361,0.0283942459130509,-0.0138421387568377,0.0214710606044902,-0.0468373001779253,-1.8721595297405444,0.7262225004605989,1.930197703108674,0.1053035244467411,-0.093847945141173,-0.0930370312237888,1.6315499360393837,-0.4059539388439411,-0.0232757810821795,-1.580067983139403,9.215483510178728,-1.3014654202372942,0.1326880003818883,-1.1735779295435251
0.06,-1.872839232733553,0.7271306336823498,1.9281027465907488,0.0586507618302438,0.1521299455487617,0.0297233865042202,-0.0177386494941922,0.0153584938076075,-0.0759554134090857,-1.871106494496077,0.7252840210091872,1.929267332796436,0.1253035247447644,-0.1138479454391962,-0.113037031521812,1.5003422833768227,-0.1948255368677259,-0.3056283398441393,-1.45590566155802,8.781336674091108,-1.2865624532937616,0.1166027727039175,-1.1593310434490802
0.08,-1.873207567510524,0.7273409533716765,1.926279701134991,0.0731772960166742,0.1604819311719598,0.0312208142148254,-0.0185783713766358,0.0056812327777173,-0.1047426922285119,-1.8690004240071425,0.7234070621063637,1.92740659217196,0.1653035253408108,-0.1538479460352427,-0.1530370321178585,1.5190967182077872,-0.0419860941221801,-0.4838630514945066,-1.4393639409713088,8.866857230469577,-1.2731604732785105,0.1016936935459275,-1.1489024996787387
0.1,-1.873562082281616,0.7273279191177144,1.923903115190623,0.0870283147804172,0.1689192232312825,0.0327755922112648,-0.0165681899571965,-0.006795748481188,-0.1314025403191166,-1.8668943535182076,0.7215301032035403,1.9255458515474844,0.2053035259368573,-0.1938479466312891,-0.1930370327139049,1.4751808286514012,0.1005090709719647,-0.6238490629452725,-1.332992404530233,8.968382007150467,-1.2615377547341895,0.0886354710808481,-1.1397271255082626
0.12,-1.8738497161076688,0.7270374215999854,1.9210150342697847,0.100205023030887,0.1771243539417362,0.034352574513276,-0.0120864586763127,-0.0219045280937806,-0.1561099981573087,-1.8627882829994704,0.7176531442709145,1.9216851108932065,0.2453035265329037,-0.2338479472273356,-0.2330370333099513,1.4652812097699763,0.2240865640441913,-0.7554389806296281,-1.2353728919096056,9.084427272278845,-1.2512412774668888,0.0759164324877687,-1.132259821416468
0.14,-1.8740211986386064,0.7264586179040995,1.9178198837639724,0.1121200546166554,0.1845671452470269,0.035845390934155,-0.0060264973087376,-0.0384935221460848,-0.1790189137380556,-1.8586822124807327,0.7137761853382887,1.917824370238928,0.2853035271289502,-0.2738479478233821,-0.2730370339059979,1.4463196988647422,0.302998068378756,-0.829449702615213,-1.1454457790373476,9.187660823086844,-1.2434898198122168,0.0640844851151711,-1.127675039081697
0.16,-1.8740601916937163,0.7254858773828877,1.9139880817109745,0.1240534718882736,0.191974161060946,0.0373897591335149,0.0019837827410335,-0.0581599943790825,-0.2029720019188652,-1.8535761419470949,0.7088992263907617,1.912963629569749,0.3253035277249966,-0.3138479484194285,-0.3130370345020443,1.6005351839030804,0.4005140024885578,-0.983323611649882,-1.1976544090404773,9.228234192392849,-1.237217604022125,0.0531009914735129,-1.123319821470415
0.18,-1.873922015451492,0.7240966309177549,1.9096819806660428,0.1353887871293485,0.198925948173143,0.0388887249393461,0.011596148712888,-0.0800210635187355,-0.2264393734165855,-1.8474700713985552,0.7030222674283336,1.9071028888856687,0.365303528321043,-0.3538479490154749,-0.3530370350980907,1.6740829194797753,0.4806182985927273,-1.0930534569826504,-1.1733685748860148,9.25068782960716,-1.2318028358878883,0.0429017873509167,-1.1185531223867686
0.2,-1.873575085517816,0.7222298906814794,1.904911294484312,0.1455695371547212,0.2054318825315739,0.0402860071594834,0.0227515153042922,-0.1053796287229004,-0.2494457009905198,-1.8733422080158475,0.7200955777418181,1.898360011995213,0.1115961502030042,-0.1800210650088516,-0.3191741796561904,1.800548625726106,0.5577683295702072,-1.2679282602082451,-1.150316378696714,9.293701450470508,-1.2272009020296573,0.0344557295560193,-1.1132650731824514
0.22,-1.8729937252402609,0.7198119067623855,1.9000609858941784,0.1493168743190461,0.2112075267713924,0.0411502092759351,0.037955186968704,-0.14498745132757,-0.2595933081684484,-1.8733422080158475,0.7200955777418181,1.898360011995213,0.1115961502030042,-0.1800210650088516,-0.3191741796561904,2.1811150674596247,0.7601835832205922,-1.9803911302334785,-0.5073803588964295,9.342255682154246,-1.2125938861637706,0.0314023989452642,-1.1009482883843322
0.24,-1.8720594814621017,0.7165502510129917,1.8947613472454456,0.1468982044855403,0.2168727463015912,0.0415221005842193,0.0547609591376735,-0.1783772258630784,-0.2698503341303376,-1.8733422080158475,0.7200955777418181,1.898360011995213,0.1115961502030042,-0.1800210650088516,-0.3191741796561904,1.9381160977288407,0.8402886084484761,-1.6694887267754213,-0.5128512980944633,10.195091710644192,-1.2084500558584756,0.0343927812643573,-1.1018137779234267
0.26,-1.870783908008049,0.7126840153396952,1.889244152487746,0.1416678640644678,0.2221582887103627,0.0415940588131957,0.0720662710264052,-0.2059648659865583,-0.281271974702326,-1.8722262465138173,0.7182953670917296,1.895168270198652,0.1315961505010274,-0.2000210653068748,-0.3377211409041114,1.7255474352394695,0.865265594436582,-1.3793820061739943,-0.5710820285994178,9.99107734212248,-1.2059057896541656,0.0401456534607446,-1.1029401895223947
0.28,-1.869157165612534,0.708311023747481,1.8834855671010853,0.1359276601014911,0.2270948216401916,0.041532543005651,0.0898481711198814,-0.2298085183417143,-0.2940034329157123,-1.8699943235097571,0.7146949457915526,1.888784786605528,0.1715961510970738,-0.2400210659029213,-0.3748150633999534,1.617718885349916,0.8890950046738108,-1.192182617757802,-0.6365729106693169,9.99107734212248,-1.2042841426597215,0.0460674765550248,-1.103621267479464
0.3,-1.8672778802677832,0.7037384217271145,1.8777662498659595,0.1308195675980312,0.2314881237324214,0.0414172042832744,0.1071690899462912,-0.2503479838230109,-0.3074046368584356,-1.8677624005056968,0.7110945244913756,1.882401303012404,0.2115961516931203,-0.2800210664989678,-0.4119089858957954,1.5012296113210923,0.8660459413204896,-1.0269732740648254,-0.6700601971361658,9.81093855270592,-1.20240487979046,0.051733521065769,-1.1051249712218232
0.32,-1.8649396006144037,0.6985205050614853,1.8714576861911545,0.1261441597709539,0.2358252174203057,0.0412697574730077,0.1258231909575104,-0.2704061598411951,-0.3228254937572932,-1.8635304774718349,0.7054941031613962,1.874163123294488,0.2515961522891667,-0.3200210670950142,-0.4490029083916373,1.57170984695671,0.9327050505609612,-1.0029088009092106,-0.7710428449428791,9.731581616280891,-1.2015332424181049,0.0566930555867259,-1.1062421398835889
0.34,-1.862222103765512,0.6929119648799339,1.8648339857154532,0.1222781166622817,0.2398859984642733,0.0411108427060881,0.1450797869799995,-0.2895635640486207,-0.3387899325354412,-1.8592985544379723,0.6998936818314169,1.8659249435765723,0.2915961528852132,-0.3600210676910607,-0.4860968308874793,1.5753459396599745,0.9628298011244512,-0.9578702103712838,-0.7982219389074008,9.708334731753894,-1.2010329376107212,0.0606631754491272,-1.1062780943868995
0.36,-1.859112537678491,0.6869176823177221,1.8578880090637613,0.1188294389602837,0.2436858291548826,0.0409198140408377,0.16498904242102,-0.3088109342005928,-0.3550050644943965,-1.854066631389209,0.6932932604865363,1.8567594157962604,0.3315961534812596,-0.4000210682871071,-0.5231907533833213,1.6045016472640083,0.9954627720510284,-0.9623685075986044,-0.8107565979477649,9.708334731753894,-1.2009500602185883,0.0643933466065571,-1.1058454790908596
0.38,-1.8557839849992743,0.680870079556778,1.8509872396374984,0.1156405553499844,0.2470676661196988,0.0406922919297591,0.1844506517783922,-0.326695210808372,-0.3705711985941932,-1.847834708325544,0.6856928391267546,1.846666539953552,0.371596154077306,-0.4400210688831535,-0.5602846758791633,1.533709652586961,0.9730804678686102,-0.8942138303889569,-0.778306704989834,9.69146814470605,-1.200888251138326,0.0679715024188988,-1.1047381713504714
0.4,-1.851875741616068,0.6741451987138891,1.8434005237309825,0.1123345952635528,0.2504016630582363,0.0404059212411298,0.2054109155156193,-0.3447483468756405,-0.3872925145334143,-1.8465614524103549,0.6645353190163594,1.8324586797077889,0.2844506532685084,-0.4266952122984881,-0.4298256549056575,1.6162075860921108,1.0480131868613518,-0.9026568033634248,-0.8360657969610552,9.69146814470605,-1.2008142681026297,0.0714158075549582,-1.103419580171982
0.42,-1.847444949799362,0.6670331236932723,1.835734330917328,0.1088459943397567,0.2526372379402749,0.0399604859295345,0.236909999333347,-0.365469269190064,-0.3770989857271575,-1.8465614524103549,0.6645353190163594,1.8324586797077889,0.2844506532685084,-0.4266952122984881,-0.4298256549056575,1.9528549180882624,1.574954190886389,-1.0360461157211789,0.5096764403128423,9.66890805413732,-1.192225362442169,0.0745522262573009,-1.0911974674373963
0.44,-1.8426455010389295,0.6599101398360512,1.8286639310268624,0.1055997466721751,0.2530331782258418,0.0393372114247957,0.2665125910251179,-0.3833144427694611,-0.3677991615527206,-1.8465614524103549,0.6645353190163594,1.8324586797077889,0.2844506532685084,-0.4266952122984881,-0.4298256549056575,1.7897279015425454,1.4801295845885425,-0.8922586789698539,0.464991208721846,11.228837400308294,-1.1981046616905238,0.0775125278563454,-1.097123981991453
0.46,-1.8369981496222347,0.6520578359403582,1.8213767549058293,0.1025872127977423,0.2518191913791096,0.0385279279979788,0.2965302809329154,-0.4009793069813667,-0.3615558495477883,-1.8437169458776697,0.6602683668933745,1.8281604231587325,0.3044506535665316,-0.4466952125965113,-0.4416765461679504,1.7692428322708262,1.500884495389873,-0.8832432105952776,0.3121656002466111,11.228837400308294,-1.2041701789445771,0.079867448707983,-1.101311166908408
0.48,-1.830761728880805,0.6438608484219952,1.8141800179235876,0.099973736720242,0.2487781864458316,0.0375553006769418,0.3254542838099378,-0.417842338845743,-0.3585311288057695,-1.8380279328123,0.6517344626474048,1.8195639100606191,0.344450654162578,-0.4866952131925578,-0.4653783286925361,1.6808544863076131,1.44620014385112,-0.8431515932188188,0.1512360371009408,10.995846942057142,-1.2109461586773045,0.081720710146519,-1.1014804755049272
0.5,-1.8243153954747369,0.6357681064429904,1.8073716679372425,0.0978206231742009,0.2440313528682368,0.0364696889161502,0.3513720556934251,-0.4332325897004841,-0.3582148901192962,-1.8323389197469293,0.643200558401435,1.810967396962506,0.3844506547586245,-0.5266952137886043,-0.4890801112171218,1.5072248734704208,1.2958885941743683,-0.7695125427370553,0.0158119343236645,10.798076517648042,-1.2209629839971858,0.0834140695008787,-1.0978044306943209
0.52,-1.817031697526386,0.6269401208994705,1.800193698599545,0.0959338017388389,0.2375760649475023,0.0352163824270078,0.3752670353634638,-0.4487865276229903,-0.3596357565816195,-1.824649906651757,0.6326666541256629,1.8011857947381635,0.4244506553546709,-0.5666952143846508,-0.5127818937417076,1.4273348414374367,1.1947489835019336,-0.77769689612531,-0.0710433231161628,10.633357857359442,-1.2331377962113297,0.0847742525989552,-1.0911095807911757
0.54,-1.8093044976953727,0.6178054036089523,1.79297883288697,0.0945236554361815,0.2305412062406523,0.0339480254753131,0.3959945807876235,-0.4639179428466633,-0.3617685854290019,-1.8169608935565849,0.6221327498498909,1.791404192513821,0.4644506559507174,-0.6066952149806972,-0.5364836762662933,1.2875750705046585,1.0363772712079833,-0.7565707611836475,-0.1066414423691208,10.490402762739905,-1.2446188693690423,0.0855716687677125,-1.082810563745792
0.56,-1.801188593828719,0.6083617914928294,1.78571207769122,0.0933474959998613,0.2234850472746019,0.0327000025500719,0.4143519816865301,-0.4795894813388179,-0.3647390730978115,-1.808271880446511,0.6105988455592176,1.781030045726364,0.5044506565467638,-0.6466952155767436,-0.5601854587908791,1.2159513594967613,0.9178700449453292,-0.783576924607729,-0.1485243834404792,10.35775165742234,-1.2544723191436122,0.0860325722892369,-1.0744948279521518
0.58,-1.793159668592499,0.599096867351733,1.7787455311650495,0.0920672040103047,0.2170166161627657,0.0315314412894915,0.4297350371258348,-0.4947546357453861,-0.3683845890833599,-1.798582867321536,0.5980649412536432,1.7700633543757922,0.5444506571428103,-0.6866952161727901,-0.5838872413154648,1.0953425144956563,0.7691527719652341,-0.7582577203284119,-0.1822757992774232,10.35775165742234,-1.2639595840551192,0.0866499747373138,-1.065420522612016
0.6,-1.7844136666769128,0.5890342184529336,1.7713285712583156,0.0903319799281081,0.2106846428781996,0.030328540696356,0.4438991711948349,-0.5106061333342616,-0.373133282556284,-1.7716729167362075,0.5743591355644636,1.7603263017108814,0.529735038615951,-0.5945079932154217,-0.4150177171601517,1.089085349541679,0.7082067034500095,-0.7925748794437748,-0.2374346736462002,10.211889492703447,-1.2724014010870208,0.0876359320178065,-1.056369327710669
0.62,-1.7753450446876005,0.5786042181218317,1.7640634968620867,0.0870669453087571,0.2049804679107601,0.0290930503690216,0.4620732445259473,-0.5306107927343141,-0.3530306014063573,-1.7716729167362075,0.5743591355644636,1.7603263017108814,0.529735038615951,-0.5945079932154217,-0.4150177171601517,1.6841920381687294,0.9087036665556186,-1.0002329700026236,1.0051340574963346,10.211889492703447,-1.272056080209912,0.0896302333338196,-1.0416167967596763
0.64,-1.766422116256944,0.5683688729172369,1.757514720488078,0.0831827253144953,0.2005159631232394,0.0279745503084933,0.476149846002648,-0.5456960707967472,-0.3373709684017492,-1.7716729167362075,0.5743591355644636,1.7603263017108814,0.529735038615951,-0.5945079932154217,-0.4150177171601517,1.295125890786092,0.7038300738350323,-0.7542639031216547,0.7829816502304049,11.805553122327185,-1.279092056728484,0.0924734180341106,-1.0429362197625995
0.66,-1.7567708242474125,0.5573091534571708,1.7508970838699631,0.0793654035935809,0.1974809752149189,0.0269803596388883,0.4880861241184665,-0.5594607278793294,-0.3254225531690318,-1.766375566350048,0.5684140556323094,1.75617612453928,0.5497350389139741,-0.6144586647094288,-0.4243443427755101,1.089386463144144,0.5968139057909272,-0.6882328541291116,0.5974207616358695,11.440618538763374,-1.2840175140030807,0.0951950852650603,-1.0445314341587288
0.68,-1.7469017805444926,0.5459886972472259,1.744473343426858,0.0761273818170005,0.1965957658905449,0.0262149137913454,0.498420709608711,-0.5719202462589231,-0.3177514100774708,-1.755780865577729,0.556523895768001,1.7478757701960768,0.5897350395100206,-0.6543600076974431,-0.4429975940062268,0.8956697101021799,0.516729274512226,-0.6229759189796846,0.3835571545780486,11.13445442428565,-1.2847611855246897,0.097322391611444,-1.0482229496836382
0.7000000000000001,-1.7368243535589838,0.5344301593321064,1.7381622236978604,0.0735426018642978,0.1974919993956828,0.025640085253132,0.5090230397273446,-0.5834250700156046,-0.313759773811005,-1.74518616480541,0.5446337359036926,1.7395754158528738,0.6297350401060671,-0.6942613506854572,-0.4616508452369435,0.8073158206373647,0.5301165059316798,-0.5752411878340746,0.1995818133232879,10.869104982950375,-1.283804147878152,0.0988867050029614,-1.0525061064012673
0.72,-1.7270477290762174,0.5232427939757419,1.7322155029648407,0.0716664005426073,0.1994326588872286,0.0252187990756619,0.519720618071672,-0.5937359924405259,-0.3124328594116428,-1.732591464003289,0.5307485088899835,1.7303423989481348,0.6697350407021135,-0.7341626936734714,-0.4803040964676601,0.745845167425856,0.5348789172163693,-0.5155461212460632,0.0663457199681111,10.523995921713322,-1.2817299702410063,0.1000602983975168,-1.0572753624747415
0.74,-1.7165267038225738,0.5112611670524753,1.7259728345193133,0.0703438621672454,0.2021635768116353,0.024872904697427,0.5319528182121219,-0.6039270817537031,-0.3119569535317494,-1.7199967632011672,0.5168632818762743,1.721109382043396,0.70973504129816,-0.7740640366614857,-0.4989573476983768,0.7964162041164393,0.611610007022495,-0.5095544656588624,0.0237952939946717,10.523995921713322,-1.2788058996308642,0.1006558998531212,-1.0618991336640675
0.76,-1.7057438303211407,0.499071424288333,1.719730694971343,0.0695458424493355,0.2050460843875889,0.0245770072719515,0.5457757429318784,-0.6145011755255312,-0.3122895425345887,-1.7064020623841447,0.5019805212878649,1.7114100338578893,0.7497350418942064,-0.8139653796494999,-0.5176105989290936,0.8703380411487768,0.6911462359878218,-0.5287046885914026,-0.0166294501419639,10.480248960151584,-1.2758943111219068,0.100772061366785,-1.0664567069531272
0.78,-1.6946708041321468,0.4866677222718457,1.7134751269080335,0.0689304306029409,0.2075050844601665,0.024267288907241,0.5608161031008134,-0.6252722148501695,-0.3132502247943533,-1.6918073615522211,0.486100227124755,1.7012443543916145,0.7897350424902528,-0.8538667226375141,-0.5362638501598103,0.9262162713810684,0.7520180084467532,-0.5385519662319149,-0.0480341129882322,10.450385850006567,-1.2736958595521026,0.1007600692917238,-1.0705724246422783
0.8,-1.6838650291208357,0.4746831790273406,1.7075084064193404,0.0683157700390735,0.2091259488712675,0.0239246246666801,0.5758141738435522,-0.6356436384960983,-0.3147678216688226,-1.666629998977106,0.4554041115293372,1.697812615668316,0.6608161045909295,-0.6847864691817582,-0.3514984210385931,0.9148929646698098,0.7499035371369367,-0.5185711822964401,-0.0758798437234642,10.42674953633832,-1.2726654921924774,0.1008024494315189,-1.073536778623505
0.8200000000000001,-1.6720942253579194,0.4616886269579707,1.7013950293254376,0.0625051000888736,0.2087837640260255,0.0230703253368595,0.600708213921186,-0.6605988232857876,-0.2951742892102329,-1.666629998977106,0.4554041115293372,1.697812615668316,0.6608161045909295,-0.6847864691817582,-0.3514984210385931,2.016420710987781,1.2447020038816925,-1.247759239484464,0.9796766229294844,10.399019754463552,-1.264525338855483,0.1052520907861871,-1.0694381586592825
0.84,-1.6598267648817944,0.4483273908182181,1.6956912186183049,0.0517481656937764,0.2050504049207214,0.0217016275271365,0.6244375185126583,-0.6734295651108887,-0.2764402705242703,-1.666629998977106,0.4554041115293372,1.697812615668316,0.6608161045909295,-0.6847864691817582,-0.3514984210385931,1.6421565762003798,1.1864652295736131,-0.6415370912550566,0.9367009342981292,11.943492010190312,-1.270321073711712,0.1149745204727369,-1.073430263861107
0.86,-1.64712859533859,0.4347912043896546,1.6903028638627666,0.0405204211118785,0.1986081007458541,0.0202515578233837,0.6436915206786769,-0.6793800375128987,-0.2632404708723482,-1.6600218379311968,0.4485562468375196,1.69429763145793,0.6808161048889527,-0.6966893200480759,-0.3591480602874411,1.2045325151972992,0.962700108300929,-0.2975236201004982,0.6599899825961042,11.626957131455129,-1.281109042776218,0.1249910057811053,-1.0724435686764675
0.88,-1.6347585718448174,0.4218647489161899,1.6853814695093985,0.0309100944716097,0.1912736313314992,0.0190047566557493,0.6571816344268223,-0.6811594416664088,-0.2554224649605339,-1.6468055158393782,0.4348605174538845,1.687267663037158,0.7208161054849992,-0.7204950217807115,-0.374447338785137,0.7846506619454864,0.674505687407273,-0.0889702076755094,0.3909002955907154,11.244344160505534,-1.2940351154619931,0.1346050441581456,-1.068186858353206
0.9,-1.621507458779815,0.4082477173543886,1.680321003281971,0.0224148133260343,0.1834810602785876,0.0179109302693784,0.6669487568731389,-0.6805966333781192,-0.2512093618040863,-1.6335891937475595,0.4211647880702493,1.6802376946163864,0.7608161060810457,-0.744300723513347,-0.3897466172828329,0.5325966397227323,0.4883561223158306,0.0281404144144847,0.2106551578223814,10.64360145581486,-1.3067571460542171,0.1426556201277239,-1.0621898654979756
0.92,-1.6081038797666536,0.3946621497285982,1.6753011370834183,0.0157354272428185,0.1765906148712587,0.0170543054334775,0.6728723681651156,-0.6783425656487837,-0.2509643792558922,-1.618372871625939,0.4062787735999824,1.6724427622707296,0.8008161066770921,-0.7681064252459825,-0.4050458957805288,0.3171356512432228,0.2961805645988358,0.1127033864667725,0.0122491274097052,10.415635223599566,-1.3178770278857084,0.1489497757265033,-1.0559875064225688
0.94,-1.594614943502139,0.3811325770890953,1.6702649939154732,0.0107324450070747,0.1713775858321916,0.0164061658578181,0.6756521885790321,-0.67508893570784,-0.2526489461908071,-1.603156549504318,0.3913927591297154,1.664647829925073,0.8408161072731386,-0.791912126978618,-0.4203451742782248,0.2299525770916707,0.1389910206958222,0.1626814970471846,-0.0842283467457433,10.30563765723764,-1.3265715467948478,0.1534237029905932,-1.0505140070315429
0.96,-1.5817702475552329,0.3683402852653107,1.6654369002159843,0.0072026041164832,0.1686701885836553,0.0159398169594357,0.6762662243135571,-0.6718377698558629,-0.2554805418877134,-1.5869402273677955,0.3759116021161326,1.656470415616974,0.880816107869185,-0.8157178287112534,-0.4356444527759207,0.2177444228394522,0.0307017867262504,0.1625582925988578,-0.1415797848453165,10.30563765723764,-1.332099994783913,0.1568299026969973,-1.0465671755400197
0.98,-1.5682426149143882,0.3549427776838657,1.6602871454648582,0.0044248566565013,0.1684593473164491,0.0155596324017555,0.676780518415754,-0.6681971306776018,-0.2594080137055218,-1.5697239052163725,0.3598353025592339,1.6479105193464323,0.9208161084652314,-0.8395235304438889,-0.4509437312736166,0.2689971511444109,0.0257147051098471,0.1820319589130536,-0.1963735908904224,10.231504867031616,-1.332072767728994,0.1591375388388687,-1.0454049983438618
1.0,-1.5546890405936555,0.3416208257404702,1.6550506901115782,0.0024150758531909,0.1702374240357194,0.0152597259693896,0.678765408544366,-0.6642864957458531,-0.2640797892188649,-1.5344035889936003,0.3215329211499856,1.6473167447795822,0.7752156819136788,-0.6937829068725319,-0.2766448629986346,0.3203839136065732,0.0992445064305957,0.1955317465874351,-0.2335887756671512,10.167998713889574,-1.3306298667741223,0.1607117069169336,-1.0466449897926369
1.02,-1.5416839960585202,0.3289471574073772,1.6502169764127534,-0.0018982266380519,0.1719705056567557,0.0148211298414056,0.6898913511591915,-0.6679795315410167,-0.2444997043292146,-1.5344035889936003,0.3215329211499856,1.6473167447795822,0.7752156819136788,-0.6937829068725319,-0.2766448629986346,1.1410574445866668,0.556297130741279,-0.1846517897581834,0.979004244482512,10.129016467153631,-1.3184510917479422,0.1637240915308688,-1.0418408013290998
1.04,-1.5277724406534303,0.3156191555253146,1.645522909759461,-0.008605973413389,0.1727527463274362,0.0142277373677811,0.7005452503815058,-0.6642907484263734,-0.2262101044748851,-1.5344035889936003,0.3215329211499856,1.6473167447795822,0.7752156819136788,-0.6937829068725319,-0.2766448629986346,1.0742696965120042,0.532694961115715,0.1844391557321689,0.9144799927164756,11.739108407415188,-1.321108724955648,0.1705453119905308,-1.0531040032134364
1.06,-1.5136634964230782,0.3024123728787918,1.6411419575561617,-0.0150046810501582,0.1729478554511451,0.0136857303383329,0.7097684990652953,-0.6566851234868882,-0.212795369966228,-1.5266514321744638,0.3145950920812603,1.644550296149596,0.7949027146132638,-0.6989000621115179,-0.2800922328572571,0.898427722386305,0.4611624341894715,0.3802812469742567,0.670736725432855,11.484827139363915,-1.3247894779020384,0.1769249404245933,-1.0621353777519191
1.08,-1.5001014172546878,0.2900288157207716,1.6371916465402707,-0.0199856369013724,0.1728866382174092,0.0132765146704369,0.7173450230361375,-0.6475007720057648,-0.2036940182018625,-1.5111471185361902,0.3007194339438097,1.639017398889623,0.8342767800124338,-0.7091343725894899,-0.2869869725745023,0.7493174086264758,0.3788261985421093,0.4592175740561699,0.4550675882182747,11.207976710039476,-1.3286375346266497,0.1825460854392711,-1.06890932458599
1.1,-1.4856806651415393,0.2771917511179488,1.6331920002336606,-0.023895313229001,0.1728411966785522,0.0129642771771458,0.7243088646764674,-0.6369081461092025,-0.1968705952535755,-1.495642804897917,0.286843775806359,1.6334845016296504,0.8736508454116036,-0.7193686830674619,-0.2938817122917473,0.7198227464232503,0.3481920820164963,0.5296312948281146,0.3411711474143486,10.98907651101672,-1.3323488992549208,0.1868543000832443,-1.074460906082164
1.12,-1.471128636093481,0.2645726334698097,1.6293038194892484,-0.0264740917219887,0.1730234294158644,0.0127634397076737,0.730555988271319,-0.6257823260238736,-0.1923792608416388,-1.478169787989685,0.2724564021450098,1.6276068673838155,0.9130249108107736,-0.729602993545434,-0.3007764520089924,0.6763551407735189,0.3123561797425789,0.556291004266446,0.224566720596836,10.828270427907228,-1.335388788804117,0.1898564446175538,-1.0795342169156152
1.14,-1.4564551812805258,0.2521822101475646,1.6254952650057384,-0.0277145744148599,0.1735510623570862,0.0126680210749921,0.7365440609276152,-0.6140851232229338,-0.1886996552572749,-1.4606967710814525,0.2580690284836606,1.6217292331379805,0.9523989762099436,-0.739837304023406,-0.3076711917262376,0.6823141958802372,0.2994036328148097,0.5848601400469888,0.1839802792181974,10.7012156881774,-1.3373840313567371,0.1914852325496307,-1.0846073050105227
1.16,-1.4423996592843615,0.240630367528834,1.6219415391398058,-0.0275785198585754,0.1742525716054214,0.0126810464217305,0.7427030094036224,-0.6026710946139224,-0.1855656423208789,-1.4422394025382412,0.243425797060362,1.6156792303992145,0.9917730416091134,-0.750071614501378,-0.3145659314434826,0.6671482828107645,0.3079474238003643,0.5707014304505709,0.1567006468197976,10.672044949872545,-1.338848985102053,0.1918694967960919,-1.0906043208295593
1.18,-1.42747417380945,0.2287044475053543,1.61826262610641,-0.0259276856166916,0.1749726987778687,0.0128168940170554,0.7495306788005548,-0.5906741458041358,-0.1825019636845533,-1.4227976823600506,0.2285267078751142,1.6094568591675171,1.0311471070082834,-0.76030592497935,-0.3214606711607278,0.7069829858722301,0.3413834698466178,0.5998474404893317,0.1531839318162808,10.659020243570012,-1.340550616786202,0.1907506866852653,-1.0967239519257357
1.2,-1.4124087055265195,0.2170109062436196,1.6146429505514952,-0.0227459505816468,0.1755139540528786,0.0130784406933787,0.7566684624098245,-0.5797583336283799,-0.1796173369303394,-1.389997639869422,0.1991707402151475,1.6091375279221825,0.8434096110977846,-0.5891834041852269,-0.1915532819649521,0.6678772002027518,0.3568891804634877,0.545790608787794,0.1442313377106929,10.652483140626828,-1.3427830309979811,0.1880997394796923,-1.1023012693841845
1.22,-1.3971239388772718,0.2054036593688512,1.611214639744591,-0.0224328645862955,0.1742418897709646,0.0131925974409728,0.7716112916008542,-0.5804378372438269,-0.1626983159234622,-1.389997639869422,0.1991707402151475,1.6091375279221825,0.8434096110977846,-0.5891834041852269,-0.1915532819649521,1.1291624564548348,0.7471414595514814,-0.0339751807723498,0.8459510503438628,10.645530931104986,-1.3376956692927524,0.1874198767932232,-1.1020746345191743
1.24,-1.3823311848742776,0.1944048907386003,1.608274766949248,-0.0265513121758498,0.1698255927386159,0.0130936485462859,0.7843566421738611,-0.5763068131798262,-0.1476763714839644,-1.389997639869422,0.1991707402151475,1.6091375279221825,0.8434096110977846,-0.5891834041852269,-0.1915532819649521,1.0064394365653084,0.6372675286503482,0.2065512032000338,0.7510972219748863,11.616434028359436,-1.3461057743520544,0.1926724935335919,-1.1064435031126627
1.26,-1.3665455922755545,0.1829791960118091,1.605455901952478,-0.0321291167728785,0.1630061346686759,0.0130182488350343,0.7930713219413181,-0.5663051310548995,-0.1351364425795098,-1.381563543758444,0.1932789061732953,1.6072219951025328,0.8621853975572304,-0.588885255861445,-0.1933635456210319,0.9127281984607726,0.4357339883728495,0.5000841062463346,0.6269964452227313,11.42925965431641,-1.3596817083144552,0.1996394384624988,-1.1086621768862233
1.28,-1.3506372912629043,0.1717877158086074,1.6028506001861975,-0.0371686836267827,0.1555635864297708,0.0130693634414082,0.7970264717695437,-0.5534483020372334,-0.1261558624482865,-1.3646953515364886,0.1814952380895907,1.6033909294632338,0.8997369704761224,-0.5882889592138815,-0.1969840729331914,0.8086904260075943,0.1977574914112767,0.642841450883308,0.4490290065611649,11.207364728928042,-1.3739424924778043,0.2061223755013226,-1.1090068164765725
1.3,-1.3346934295506965,0.1608694903537063,1.6003922240576869,-0.0410488683339265,0.1487440330805028,0.0132387315423906,0.7969863316913814,-0.539227268072671,-0.1202426325680164,-1.3478271593145328,0.1697115700058862,1.5995598638239348,0.9372885433950144,-0.5876926625663179,-0.200604600245351,0.7700741942566829,-0.002007003908111,0.7110516982281212,0.2956614940135035,10.812874077450942,-1.3863291919420586,0.2110930430778809,-1.1079780863663318
1.32,-1.3195834484848743,0.1507679986696107,1.5981413415405874,-0.0435176570895176,0.1438345689603389,0.0134614289207538,0.7934787250641316,-0.5251260789126391,-0.1169624220626248,-1.3290813884466326,0.1579577167545598,1.5955477718190276,0.9748401163139062,-0.5870963659187544,-0.2042251275575105,0.744826525001307,-0.1753803313624902,0.7050594580015945,0.1640105252695797,10.686776258034117,-1.3971766531122751,0.214883945009691,-1.1066505961632194
1.34,-1.303780266338682,0.1404254051239485,1.5958301191267537,-0.044954590268842,0.1414222933678095,0.0136851022828696,0.7869930896187869,-0.510030343501356,-0.114367109113403,-1.3103356175787322,0.1462038635032334,1.5915356798141207,1.0123916892327982,-0.5865000692711908,-0.2078456548696701,0.8316855536225456,-0.3242817722672375,0.7547867705641531,0.1297656474610907,10.686776258034117,-1.402966163181776,0.2172110858338245,-1.1073108171005888
1.36,-1.2881061709630408,0.1303903170194542,1.593565054186396,-0.0450685948753754,0.1421842839796789,0.0138772289850964,0.7810937844639672,-0.4943637163132678,-0.1123005639825041,-1.2906510573878596,0.1344649176680962,1.5874330746264096,1.0499432621516902,-0.5859037726236271,-0.2114661821818296,0.8433795372462344,-0.2949652577409867,0.78333135940441,0.1033272565449446,10.644805266061669,-1.4025652703883025,0.2180088537219573,-1.1119955306669531
1.38,-1.272529592818447,0.1206738002180732,1.5913410636581895,-0.0435303852322837,0.1451904457050319,0.0140995034488354,0.7771708806087083,-0.4783225412984602,-0.1102174718509522,-1.2700277078740148,0.122740879249148,1.5832399562558948,1.087494835070582,-0.5853074759760636,-0.2150867094939891,0.8322375612495306,-0.196145192762942,0.8020587507403809,0.1041546065775972,10.615138041090177,-1.4000220124115594,0.2172678065333587,-1.1203692454947654
1.4,-1.257782483737496,0.1117355369657025,1.5892705605941042,-0.0404580332993709,0.1492577564074732,0.0143887768094996,0.7755616978329759,-0.4638638262813733,-0.1078402391115058,-1.2336710487880116,0.0967576731531502,1.5858301900656422,0.8580364723731584,-0.4428395386358015,-0.1196691694314685,0.7370467160372918,-0.0804591387866204,0.7229357508543421,0.118861636972322,10.62290885062066,-1.3968390936559592,0.2148401930384748,-1.1314384673869513
1.42,-1.2421950210252963,0.1024843717057629,1.5872289926610177,-0.0401137521457048,0.152179519882522,0.0145656828432811,0.7833067721550495,-0.460894019365076,-0.096053391022327,-1.2336710487880116,0.0967576731531502,1.5858301900656422,0.8580364723731584,-0.4428395386358015,-0.1196691694314685,0.7206519916920838,0.3872537161036804,0.1484903458148639,0.5893424044589354,10.652681484507411,-1.3892459487872602,0.2147253174546772,-1.1372438061476275
1.44,-1.2264549812824128,0.0933379366515364,1.585425518461067,-0.0447037574066866,0.1518708587790591,0.0145462426100915,0.7900320179843503,-0.4526862620598019,-0.0849795899242602,-1.2336710487880116,0.0967576731531502,1.5858301900656422,0.8580364723731584,-0.4428395386358015,-0.1196691694314685,0.7668527925983496,0.3362622914650393,0.4103878652637061,0.5536900549033427,11.171700179343134,-1.39107482906591,0.2203979826184749,-1.145287347446558
1.46,-1.2113983597732945,0.084866493933375,1.58389192468062,-0.0502908404650806,0.1494801195048755,0.0145661253535803,0.7943643001497712,-0.43932792892889,-0.0770100542501383,-1.22509068406428,0.0923292777667922,1.5846334983713275,0.8742095907260484,-0.4357429381032697,-0.1215595089475718,0.8073525123178013,0.216614108271046,0.6679166565455974,0.3984767837060969,11.171700179343134,-1.3974279118533155,0.2281346861761828,-1.1516812475751712
1.48,-1.1954873365606695,0.0762559874195939,1.5824182445811068,-0.0557010777043575,0.14559005793197,0.0147328813828778,0.7962728455607087,-0.4224837854758558,-0.0708684037489916,-1.2079299546168167,0.0834724869940762,1.582240114982698,0.9065558274318284,-0.4215497370382063,-0.1253401879797784,0.9015092694063632,0.0954272705468717,0.8422071726517072,0.3070825250573311,11.02341162999437,-1.406572884800112,0.2355384994355897,-1.1552584473789296
1.5,-1.1795703889608755,0.0680006221944296,1.5810448693412285,-0.0600069609542536,0.1412804905669012,0.015045672233716,0.7950990567333929,-0.4040821998043323,-0.0668475649597077,-1.1907692251693536,0.0746156962213601,1.5798467315940687,0.9389020641376083,-0.4073565359731428,-0.1291208670119849,0.9436144339810631,-0.058689441365789,0.9200792835761752,0.2010419394641978,10.894951001251684,-1.4166485086055585,0.2417973753230602,-1.1569868047995298
1.52,-1.1637123480547185,0.0601228140686614,1.579732369964762,-0.0630167423935225,0.1377315447409076,0.0154406227932513,0.7906600896600493,-0.3849536627619975,-0.0645822928168699,-1.1719911838866015,0.0664685655018973,1.577264314253829,0.9712483008433884,-0.3931633349080793,-0.1329015460441914,0.988353195901293,-0.2219483536671784,0.9564268521167402,0.1132636071418884,10.69573588498588,-1.4258003945498217,0.2465988883285599,-1.160117032635496
1.54,-1.1487563870355737,0.0529961895673964,1.5785196446651584,-0.0647696462384674,0.1361670052148305,0.0158035406542711,0.7839289232200016,-0.3664447810350223,-0.0631784373004817,-1.1532131426038492,0.0583214347824344,1.5746818969135892,1.0035945375491686,-0.3789701338430158,-0.136682225076398,0.9872412505786938,-0.3365583220023838,0.925444086348759,0.0701927758194088,10.69573588498588,-1.4318113545907598,0.2502430350054888,-1.1648168918203443
1.56,-1.1331508835251842,0.0458788406912826,1.5772682823409303,-0.0654164724933274,0.1368214312165979,0.0161372376598716,0.7772364008925118,-0.3463855070345929,-0.0620537185777282,-1.1336264454034526,0.0505291340895981,1.5720049625975443,1.0359407742549485,-0.3647769327779523,-0.1404629041086045,1.0588074904504208,-0.3346261163744923,1.0029637000214724,0.0562359361376739,10.663420600239988,-1.4324360763599,0.2522633474035347,-1.1714981619987437
1.58,-1.1176645348459988,0.0391706538606056,1.5760385301478366,-0.0644556265270985,0.1391856378465312,0.0164852699935392,0.7719469748446185,-0.3256106956675528,-0.060980650531291,-1.1132310922854114,0.0430916634233884,1.5692335113056943,1.0682870109607283,-0.3505837317128889,-0.144243583140811,1.0732221231931836,-0.2644713023946643,1.0387405683520037,0.0536534023218644,10.64795316587606,-1.4311355252712554,0.2525857346143181,-1.180248407192732
1.6,-1.1022665213389788,0.032879132665283,1.574832817628767,-0.0615439438224433,0.1425992719620044,0.0169175211949717,0.7683099190297312,-0.3049740650096367,-0.0596236372485849,-1.079067186103768,0.0228901190772279,1.572989497621272,0.837709591538592,-0.2911273895576476,-0.0754459034001221,1.049928789205833,-0.1818527907443634,1.0318315328958076,0.0678506641353007,10.682318693952766,-1.429111674088361,0.2509246117858343,-1.1914875450437976
1.62,-1.0876185794853537,0.0272770515117813,1.5737668722917286,-0.0571310659675403,0.1443147249512262,0.0175500342448625,0.7734228057890197,-0.2863836480028382,-0.0526348446447349,-1.079067186103768,0.0228901190772279,1.572989497621272,0.837709591538592,-0.2911273895576476,-0.0754459034001221,1.0254126456695345,0.2556443379644224,0.9295208503399238,0.3494396301925006,10.682318693952766,-1.4226802461310968,0.246854770934508,-1.2008814930685876
1.64,-1.072105711294206,0.0217230827508655,1.5727886633358026,-0.0519560160300467,0.1427272401550235,0.0184482214071995,0.7773441274764273,-0.2701542211279956,-0.0456034845619691,-1.079067186103768,0.0228901190772279,1.572989497621272,0.837709591538592,-0.2911273895576476,-0.0754459034001221,0.9058298475369284,0.1960660843703832,0.8114713437421317,0.351568004138289,11.071693802257869,-1.4286385460769135,0.2431844738671175,-1.2109881823532738
1.66,-1.0565389031938046,0.0164726135257027,1.571936477093965,-0.0470241495818336,0.1386298607927754,0.0194439599749728,0.7788293127458573,-0.2557817395980673,-0.0400240050877023,-1.070690090188382,0.0199788451816515,1.5722350385872708,0.8508621148773867,-0.2842307283356665,-0.0783389539738884,0.7744426896427288,0.0742592634714989,0.718624076496413,0.2789739737133412,11.02222450381305,-1.436997589371699,0.2397830821512178,-1.216182549997111
1.68,-1.0409815011341543,0.0114938075700912,1.5711774387160182,-0.0425880254973173,0.133247883089512,0.0204402303774085,0.7765992423797579,-0.2428095630449086,-0.0361449949472141,-1.05393589835761,0.0141562973904985,1.5707261205192682,0.8771671615549762,-0.2704374058917044,-0.0841250551214208,0.6861073130970222,-0.1115035183049728,0.6486088276579357,0.193950507024411,10.926778698382805,-1.447515199541331,0.2365757804988303,-1.218240353863878
1.7,-1.0262782604181568,0.0069935467284538,1.570512982372258,-0.0388971355461899,0.1282179065564416,0.0213226112346513,0.7711178759507746,-0.2315121546814862,-0.0339881702072822,-1.0371817065268385,0.0083337495993456,1.5692172024512658,0.9034722082325656,-0.2566440834477423,-0.0899111562689533,0.6370414166627865,-0.2740683214491612,0.5648704181711178,0.1078412369965944,10.825833063000571,-1.457675263423421,0.2338016551864272,-1.2185484343900137
1.72,-1.0109463516620796,0.0024794396469845,1.5698448653812698,-0.0355690363179568,0.1241928916807711,0.0221436189118195,0.762168646015594,-0.2204770906930346,-0.0329956637562527,-1.0191122623621869,0.0032008679303907,1.5674189793258868,0.929777254910155,-0.2428507610037802,-0.0956972574164857,0.712120816149359,-0.4474614967590329,0.5517531994225833,0.0496253225514765,10.66103958406893,-1.4660663020614235,0.2314539734109084,-1.2182906584336053
1.74,-0.9958257170006392,-0.0018215524571512,1.5691862834135573,-0.0327929194905523,0.1227717593310513,0.0228226014491529,0.7505437363940675,-0.2101066116359971,-0.0329152123441863,-1.0010428181975357,-0.001932013738564,1.5656207562005078,0.9560823015877444,-0.2290574385598181,-0.1014833585640182,0.7789284819718937,-0.5812454810763257,0.5185239528518722,0.0040225706033167,10.616753397441244,-1.4696038950323154,0.2294978829705916,-1.2191184345104191
1.76,-0.9809315379951156,-0.0059172563668103,1.5685247843132268,-0.0304104703207124,0.1241761055677106,0.0233794187520253,0.7398322587919431,-0.1999728359224853,-0.0332496638395991,-0.9823157478659448,-0.0067200623464198,1.5636778805464404,0.9823873482653338,-0.215264116115856,-0.1072694597115507,0.7374635930596121,-0.535573880106216,0.5066887856755922,-0.01672257477064,10.616753397441244,-1.4677785142535875,0.2275881406300849,-1.222563536171658
1.78,-0.966962316965838,-0.0096230740992909,1.5678898640061092,-0.0283908189455418,0.1273561222633611,0.0238386896871911,0.7314127487661504,-0.1906240687352745,-0.0335806251140705,-0.962931051367414,-0.0111632778931766,1.5615903523636847,1.0086923949429234,-0.201470793671894,-0.1130555608590831,0.6292796126530196,-0.4209755012896388,0.4674383593605391,-0.0165480637235659,10.588720769213978,-1.4635697151059364,0.225940956368633,-1.228630955538835
1.8,-0.9524087128989048,-0.0133353736803863,1.5672160917965166,-0.0264738690850285,0.1318720578704514,0.0242807419944036,0.7246290110939972,-0.1811101408303329,-0.0337849822453395,-0.9303916795275308,-0.0191542775360546,1.5662108327504056,0.7860792865576409,-0.1625347037446825,-0.0418015389340392,0.5843279961248583,-0.3391868836076561,0.4756963952470813,-0.0102178565634516,10.5878990201345,-1.4579348149486295,0.2245066815836618,-1.2361899446879767
1.82,-0.937897915484772,-0.0168392874979825,1.5666265611504409,-0.0241875671449458,0.1350879083998125,0.0247878179389421,0.7268264838254787,-0.1700649784950035,-0.024709424051625,-0.9303916795275308,-0.0191542775360546,1.5662108327504056,0.7860792865576409,-0.1625347037446825,-0.0418015389340392,0.7231705434178035,0.1098736365740704,0.5522581167664686,0.4537779096857225,10.600526345023354,-1.4470332484719302,0.222051771359242,-1.2408913261790355
1.84,-0.9233438340222389,-0.0201421839192068,1.5662271800338436,-0.0216078895302283,0.1352178198222519,0.0253901012162522,0.728241315346135,-0.160845710053876,-0.0158010119817263,-0.9303916795275308,-0.0191542775360546,1.5662108327504056,0.7860792865576409,-0.1625347037446825,-0.0418015389340392,0.6448962405467421,0.0707415760328178,0.4609634220563735,0.4454206034949351,11.153809759548494,-1.4498513304552734,0.2207472484448966,-1.252141630139077
1.86,-0.9095084069232512,-0.0231197137321138,1.565993852074493,-0.0193533541072441,0.1333349613392278,0.025985155378284,0.7278932332419722,-0.1530231577987105,-0.0092031179827769,-0.9225308866619544,-0.0207796245735015,1.5657928173610651,0.797012594115939,-0.1569168307465641,-0.0434457216980329,0.5119709224101665,-0.0174041052081408,0.3911276127582769,0.3298946999474713,11.153809759548494,-1.4549395025123504,0.2194487558093883,-1.2596554139139464
1.88,-0.8949746920125337,-0.026100429841875,1.5658668480817473,-0.0173076506415056,0.1300380323909827,0.0266028694664324,0.7252924247331907,-0.1454451449030865,-0.0039150575393036,-0.9068093009308014,-0.0240303186483951,1.5649567865823844,0.8188792092325352,-0.1456810847503273,-0.0467340872260204,0.4799845507915378,-0.1300404254390763,0.3789006447812007,0.2644030221736672,11.043226623238295,-1.4616231040894134,0.218374617462395,-1.2628955036973628
1.9,-0.8805220083636481,-0.0289354579819325,1.5658264765312964,-0.0156413194594392,0.1263470287514984,0.0271887345842636,0.7199694720339109,-0.1383977039801022,-0.000375251319077,-0.8910877151996486,-0.0272810127232888,1.5641207558037036,0.8407458243491315,-0.1344453387540905,-0.0500224527540079,0.4757375250032237,-0.2661476349639868,0.3523720461492116,0.1769903110113295,10.846676881529676,-1.4685452109223769,0.2176585035278953,-1.2636020789299718
1.92,-0.866917275305047,-0.0315032553970053,1.5658402994571383,-0.0144500850073475,0.1234510078049136,0.0276987634836641,0.7122966436334568,-0.1322250365618027,0.0016586681872463,-0.8742727987126659,-0.0299699194983706,1.5631203067486237,0.8626124394657277,-0.1232095927578537,-0.0533108182819953,0.5027696969735626,-0.3836414200227067,0.3086333709149777,0.101695975316169,10.7700717514017,-1.4749061634197669,0.2172541055532348,-1.2632351307831848
1.94,-0.8527773115538292,-0.0340845005574481,1.5658898612228704,-0.0137278728381022,0.1220833432587327,0.0281673954502443,0.7021328197641171,-0.1262057140119891,0.0031613157101619,-0.8574578822256833,-0.0326588262734524,1.5621198576935431,0.8844790545823239,-0.1119738467616169,-0.0565991838099828,0.5953853986784051,-0.5081911934669836,0.3009661274906788,0.0751323761457782,10.7700717514017,-1.477623037595348,0.2172518099503264,-1.2633316383789286
1.96,-0.8388401013336174,-0.0365455206921915,1.565964556703752,-0.0135844448880426,0.1227571432936418,0.0285634104647776,0.6923237747298217,-0.1201754722442575,0.0042101920548525,-0.8400963003607858,-0.0350668393986283,1.5610371995002634,0.9063456696989202,-0.1007381007653801,-0.0598875493379703,0.5781031954776394,-0.4904522517147736,0.301512088386581,0.0524438172345293,10.735643005297788,-1.4757452556430548,0.2176870770527476,-1.2651874506664398
1.98,-0.8250871754752809,-0.0388836545923518,1.566057796887062,-0.0139317249540753,0.124966343896016,0.0289009154037242,0.6836937043462171,-0.1139208069735594,0.0050531661380894,-0.8221880531179734,-0.0371939588738982,1.559872332168784,0.9282122848155164,-0.0895023547691433,-0.0631759148659578,0.534578239782199,-0.4315035191802263,0.3127332635349034,0.0421487041618478,10.708485729535823,-1.4721177844219029,0.2185869835352371,-1.2683490899155911
2.0,-0.8121676494588436,-0.0409850319173301,1.566161695648618,-0.0145924518676768,0.1279791794505984,0.0291819317111183,0.6768555614731517,-0.1075867702170455,0.0058297680686934,-0.79090249025797,-0.0445796949410298,1.5663104551939666,0.7131878353301658,-0.0792838512652941,-0.0094312514866821,0.4676626191602829,-0.3419071436532694,0.3167018378256968,0.0388300965301981,10.698143629622791,-1.467206635141012,0.2199586386981163,-1.2732358865568292
2.02,-0.7986092255858541,-0.0430657793303498,1.5663327955766764,-0.0156936181350716,0.1292349397081457,0.0294740103724693,0.6794483906535279,-0.100746852176164,0.0114688640540335,-0.79090249025797,-0.0445796949410298,1.5663104551939666,0.7131878353301658,-0.0792838512652941,-0.0094312514866821,0.4618079836264886,0.1296414590188088,0.3419959020440732,0.2819547992670072,10.699501370601864,-1.4559639489863214,0.221051312918327,-1.274458394894502
2.04,-0.7849992177842421,-0.0450062917989565,1.5666148858426567,-0.017302872850168,0.1259621251370275,0.0298028218476701,0.6809253599246297,-0.0935862632287615,0.0163839940198279,-0.79090249025797,-0.0445796949410298,1.5663104551939666,0.7131878353301658,-0.0792838512652941,-0.0094312514866821,0.4404939695446782,0.0738484635550873,0.3580294473701235,0.2457564982897193,10.94788973425966,-1.4643221775651538,0.2243344109558953,-1.2779643514704335
2.06,-0.7714067598741662,-0.0467951882521434,1.5669741723322108,-0.0192221691960752,0.1196783701568939,0.0301718396671574,0.6777884198414756,-0.0855730759495295,0.0193251545300903,-0.7837706119046683,-0.0453725334536828,1.5662161426790997,0.7190866615269556,-0.072356460123641,-0.0123281350116364,0.4547031685739369,-0.1568470041577008,0.4006593639616022,0.1470580255131174,10.94788973425966,-1.4760738321966085,0.2278195335971424,-1.2766921696212612
2.08,-0.7585988021465387,-0.0483367034330458,1.5673514025739432,-0.0209301598375846,0.1127060292525872,0.0305632566037782,0.6703729442887744,-0.0771380507902562,0.0202550746288743,-0.7695068551980649,-0.0469582104789886,1.566027517649366,0.7308843139205351,-0.0585016778403349,-0.018121902061545,0.5634795437733435,-0.3707737776350639,0.4217512579636643,0.0464960049392004,10.825852776120882,-1.4888797143451435,0.2311843415929242,-1.271551583316501
2.1,-0.7453091311512278,-0.0497823055455974,1.5677511865035167,-0.0224159233811001,0.1057339909855003,0.0310022904129783,0.6588168088229857,-0.067889421348478,0.0196101133601795,-0.7552430984914617,-0.0485438875042945,1.5658388926196325,0.7426819663141145,-0.0446468955570288,-0.0239156691114537,0.7407722127839006,-0.5778067732894354,0.4624314720889103,-0.0322480634347387,10.70837991283952,-1.4998697911989198,0.2339357602484217,-1.264410428358828
2.12,-0.7322857779378902,-0.0510384577689703,1.568122278650215,-0.023453839520942,0.1002539072811504,0.0314475848378731,0.6439340478653528,-0.0582118919341905,0.0174777955690195,-0.7403894591651794,-0.0494368254154351,1.5653605792374037,0.754479618707694,-0.0307921132737227,-0.0297094361613623,0.8940049335000034,-0.7441380478816428,0.4838764707143759,-0.106615889557997,10.535116742827086,-1.5090094913876957,0.2360700132274292,-1.2576567861178831
2.14,-0.719594305182227,-0.0520972908431216,1.568440271624862,-0.0238592319679621,0.0975763977247658,0.0318733658789133,0.6260015330321487,-0.0482225043857032,0.0144433092429627,-0.725535819838897,-0.0503297633265757,1.5648822658551744,0.7662772711012735,-0.0169373309904165,-0.035503203211271,1.037510312117409,-0.8966257416602064,0.499469377424365,-0.1517243163028431,10.535116742827086,-1.5136608753239236,0.2372337682832035,-1.253059877854705
2.16,-0.7078740264056443,-0.0529137639991971,1.5686831592534718,-0.0234616637342383,0.098219721046399,0.0322540583248298,0.6090373552063323,-0.0383180984143468,0.0112891173680348,-0.7103872392027754,-0.0508763316806336,1.5642591082966977,0.778074923494853,-0.0030825487071104,-0.0412969702611796,0.9947732321177782,-0.8482088912908192,0.495220298567817,-0.1577095937463934,10.501286517987864,-1.510198966834846,0.2370439758875034,-1.2513756518320176
2.18,-0.6958645244630748,-0.053570223995232,1.568875142244483,-0.0220714297314744,0.1014682295396379,0.0326594367480847,0.593122761937236,-0.0279349330013369,0.0080872331310011,-0.694943717256814,-0.0510765304776089,1.563491106561973,0.7898725758884325,0.0107722335761956,-0.0470907373110882,0.9635046258088938,-0.7957296634548139,0.5191582706504951,-0.1600942118516851,10.4745334099498,-1.503493260315548,0.2356869533101747,-1.2534852751308854
2.2,-0.6841496506916402,-0.054022603348704,1.5690065666155897,-0.0196680751059721,0.1064474849594532,0.0330984520963261,0.579462195923151,-0.01801268151761,0.0052321865806666,-0.6662083863662129,-0.0549669706452989,1.5692795039010332,0.619390171261882,-0.0040830037688588,0.0023661674495734,0.8561737982677254,-0.6830283007042526,0.4961125741863459,-0.1427523275167251,10.47193454342414,-1.495133044416876,0.2331909314511434,-1.2581873769215766
2.22,-0.6726394432499266,-0.0542501754669322,1.56916690850033,-0.01539352101784,0.1112972773263975,0.0336760104289679,0.5724054254240966,-0.0061110063428501,0.0113868328506737,-0.6662083863662129,-0.0549669706452989,1.5692795039010332,0.619390171261882,-0.0040830037688588,0.0023661674495734,0.7571782362012466,-0.3528385249527199,0.5950837587379931,0.3077323135003562,10.485741056952977,-1.4832222479567971,0.2285015962587797,-1.2637063736957508
2.24,-0.6618240261454579,-0.0542927305054027,1.569443139813062,-0.010293969756188,0.1145766170581382,0.0343247955416746,0.5663601247171378,0.0008839868397188,0.017315386327563,-0.6662083863662129,-0.0549669706452989,1.5692795039010332,0.619390171261882,-0.0040830037688588,0.0023661674495734,0.5491432795502452,-0.3022650353479372,0.3497496591284519,0.2964276738444653,11.064244871642586,-1.4802238852915173,0.2232319359123732,-1.2751070906641324
2.26,-0.6505634904911193,-0.054222104022388,1.5698433738130535,-0.005257189470901,0.1170368849833669,0.0349957709288029,0.559996218309325,0.0058117536753354,0.0223283267500684,-0.6600144846535941,-0.0550078006829875,1.569303165575529,0.6246436531268112,0.0006873820776368,0.0012219543132878,0.4741090655988131,-0.3181953203906407,0.2463883417808284,0.2506470211252687,11.014116675750302,-1.477371165694258,0.2180959316211361,-1.2837189956624082
2.28,-0.6394314443504656,-0.0540693259790853,1.5703307743785455,-0.0010147244481321,0.1188085288166097,0.0356099017234,0.5535176778788783,0.0093033499169682,0.0261039973222197,-0.6476266812283564,-0.0550894607583647,1.5693504889245204,0.6351506168566696,0.010228153770628,-0.0010664719592831,0.4135771351662429,-0.3239270215223355,0.1745798120816428,0.1887835286075652,10.946323213340293,-1.4750031979639335,0.2137381336243754,-1.2899206188423695
2.3000000000000003,-0.6284308212140701,-0.0538571711695993,1.5708814053683648,0.0023060811879209,0.1201773255170077,0.0361513622829785,0.5468806402656217,0.0119248520779738,0.0287667864494754,-0.6352388778031188,-0.0551711208337418,1.569397812273512,0.645657580586528,0.0197689254636193,-0.0033548982318542,0.3808312874363503,-0.3318518806628312,0.1310751080502774,0.1331394563627859,10.82607924048989,-1.4729912914314982,0.2105031139440743,-1.2940238922573362
2.32,-0.6181044438440224,-0.0536117754410315,1.5714456184764634,0.0046782603874799,0.1213146888350329,0.0366011300580689,0.5404665145939406,0.0139420848111817,0.0304881292642848,-0.6223257261913883,-0.0547757423244694,1.5693307143088748,0.6561645443163864,0.0293096971566105,-0.0056433245044253,0.3470347861459265,-0.3207062835840546,0.1008616366603955,0.086067140740466,10.82607924048989,-1.4708895425359934,0.2079810241207823,-1.2970316270313151
2.34,-0.6073659198228883,-0.0533145586104204,1.5720715543776522,0.0064538103027147,0.1224973521485053,0.0370135481385223,0.5337605737871565,0.0157609531184285,0.0320015745915616,-0.6094125745796577,-0.0543803638151971,1.5692636163442375,0.6666715080462448,0.0388504688496018,-0.0079317507769964,0.3555574523964284,-0.3352970403392052,0.0909434153623415,0.075672266363843,10.780807275418738,-1.4686256827529427,0.2062725840010647,-1.2990293330663272
2.36,-0.5967587833083469,-0.0529835606456933,1.57272483064912,0.0075297666191657,0.1237229889710337,0.0373665495278681,0.5273356341396522,0.0173202447805117,0.0332474770795237,-0.5962367488746807,-0.0537464660135999,1.5691393077227864,0.6771784717761032,0.048391240542593,-0.0102201770495675,0.3363908179893741,-0.3212469823752117,0.0779645831041576,0.0622951243981061,10.767169018481582,-1.4661847546781357,0.205370004409544,-1.3006179352115157
2.38,-0.5867980068259534,-0.0526425057925456,1.5733662103677428,0.0078821121385715,0.1249062452441625,0.037645411707431,0.5215261784523637,0.0185644215748651,0.0342017020400271,-0.5827982490764573,-0.0528740489196779,1.568957788444521,0.6876854355059616,0.0579320122355843,-0.0125086033221386,0.3008666505007832,-0.2904727843644261,0.0622088397176702,0.0477112480251697,10.754396325644848,-1.4635283969211146,0.2052230819173585,-1.3020483856858174
2.4,-0.5764290120812356,-0.0522581896313105,1.5740587309583405,0.0074999794644225,0.126148317266592,0.0378762996501758,0.5157171285737394,0.0198534870579479,0.0349892428152472,-0.5607216979033353,-0.0517142847138023,1.575076295469744,0.5375340675145299,0.0333162926913245,0.0116486697759137,0.3001123572291496,-0.2904524939312147,0.0644532741541413,0.0393770387610022,10.74215264454142,-1.460934024333363,0.2059798612356464,-1.303205506732155
2.42,-0.5661381319723278,-0.0518034191144433,1.5747705037038082,0.0076711186163345,0.1262557311500191,0.0381269820368443,0.5136721375675293,0.0252812062625493,0.0361684053819499,-0.5607216979033353,-0.0517142847138023,1.575076295469744,0.5375340675145299,0.0333162926913245,0.0116486697759137,0.2959414990255328,-0.1022495503105069,0.2713859602300684,0.0589581283351355,10.7304336061934,-1.456549707273727,0.2058301909828939,-1.3054405334606567
2.44,-0.5558941737410122,-0.0512516836990387,1.5754945414565555,0.0092280561826968,0.1242135962542412,0.0384437669486521,0.510653660095457,0.0294617885080769,0.036184085702809,-0.5607216979033353,-0.0517142847138023,1.575076295469744,0.5375340675145299,0.0333162926913245,0.0116486697759137,0.2578212560742944,-0.1509238736036144,0.20902911227638,0.0007840160429557,10.68469306150655,-1.4604013054633755,0.2046207204191285,-1.3050737536785575
2.46,-0.5462356508877406,-0.050662587037687,1.5761702619259683,0.0114121001602711,0.1208830771909157,0.0387620720403245,0.5060534281023455,0.0321817336476867,0.0349605571313299,-0.5553463572281899,-0.0513811217868891,1.5751927821675034,0.5407356453269632,0.0362666669146163,0.007138063323091,0.2741225005274037,-0.2300115996555718,0.13599725698049,-0.061176428573953,10.68469306150655,-1.4661838976070458,0.2023753531993443,-1.301159208784846
2.48,-0.5361855824183434,-0.0500055137217935,1.5768451960223546,0.0137870650579846,0.1166306527627507,0.0390690375992085,0.4989992687761129,0.0333566181863136,0.0325612176428296,-0.5445956758778994,-0.0507147959330626,1.5754257555630216,0.5471388009518297,0.0421674153612001,-0.0018831495825542,0.377154966360171,-0.3527079663116328,0.0587442269313447,-0.1199669744250161,10.60414061422307,-1.472515519127432,0.1999287318466956,-1.2943886445092465
2.5,-0.5263052972688913,-0.0493370804249104,1.5774598525223622,0.0157606589564056,0.1125497410770459,0.0393252816793194,0.4892622041919295,0.0335315773641573,0.029050039781591,-0.5338449945276088,-0.0500484700792361,1.5756587289585398,0.5535419565766961,0.0480681638077838,-0.0109043624881996,0.5176132905068278,-0.4868532292091693,0.008747958892186,-0.1755588930619306,10.531879413449133,-1.478013833589537,0.197980097919162,-1.286487830560669
2.52,-0.5171243369451034,-0.0487055598538225,1.5779706180790505,0.0171147421525686,0.109793020870027,0.0395305309170387,0.4775870192872355,0.0330191028391793,0.024908220720724,-0.5227741553960749,-0.0490871068030804,1.5754406417087758,0.5599451122015626,0.0539689122543676,-0.019925575393845,0.619933943720029,-0.5837592452346996,-0.0256237262488995,-0.207090953043351,10.420426701648466,-1.4814769989199452,0.1964569731944755,-1.278069216060837
2.54,-0.5077179174059873,-0.0480569671209559,1.5784174951215786,0.0178257285969469,0.1089880268133741,0.039717341418699,0.463856749238073,0.0319213227286422,0.0199826321927235,-0.511703316264541,-0.0481257435269248,1.575222554459012,0.5663482678264291,0.0598696607009513,-0.0289467882994904,0.7314144843062476,-0.6865135024581248,-0.0548890055268529,-0.2462794264000251,10.420426701648466,-1.4798587988795353,0.1955352483076388,-1.2707001362459225
2.56,-0.4985782443815242,-0.0474326854353231,1.5787623345271018,0.0176523418251189,0.1103196197800348,0.0398685116115243,0.4510420221471762,0.0306338219476124,0.0147465448452803,-0.5004723982423854,-0.0470168615396045,1.5747789368866068,0.5727514234512956,0.0657704091475351,-0.0379680012051357,0.6951465661739459,-0.6407363545448408,-0.0643750390514903,-0.261804367372157,10.379782064050232,-1.4747164415700218,0.1955359920447879,-1.2653984588703122
2.58,-0.4896797715639731,-0.0468330816504941,1.5790011542733262,0.0165283446298268,0.1131930055530437,0.0399689802448981,0.4397000441196332,0.02950189885139,0.009409478606371,-0.4890814013296082,-0.0457604608411196,1.5741097889915605,0.5791545790761621,0.0716711575941188,-0.0469892141107811,0.6292972102105957,-0.5670989013771499,-0.0565961548111195,-0.2668533119454657,10.35340887667462,-1.4682901185741066,0.1965556607719641,-1.2621696024067657
2.6,-0.4814199207024885,-0.0462790297765777,1.5791294160141809,0.0146401127592699,0.1167936010094476,0.0400089378887157,0.4305023022307366,0.0289629702258429,0.0043645807551867,-0.4676947693579914,-0.0453579867079246,1.5794716282036447,0.4540316475423941,0.044374330606456,-0.0152106762661655,0.5252139903103328,-0.4598870944448274,-0.0269464312773559,-0.2522448925592179,10.339884307660212,-1.46080791048764,0.1986415553303835,-1.2602876544101598
2.62,-0.4728688269851566,-0.0456799307571832,1.5792294733457888,0.0125235059952851,0.1203667264550771,0.0400242388623238,0.4252045511766393,0.0309491709879946,0.0062485120775467,-0.4676947693579914,-0.0453579867079246,1.5794716282036447,0.4540316475423941,0.044374330606456,-0.0152106762661655,0.2981625266785321,-0.2648875527048677,0.0993100381075815,0.0941965661180014,10.334600850019342,-1.4495125288220565,0.2005440837405701,-1.2608456877994862
2.64,-0.4644162111315243,-0.0450368952792635,1.579366979847454,0.0108468579800088,0.1229560137531593,0.0400448247542784,0.4202871546144244,0.0332040543610637,0.007361119752826,-0.4676947693579914,-0.0453579867079246,1.5794716282036447,0.4540316475423941,0.044374330606456,-0.0152106762661655,0.2761484375083308,-0.2458698281107452,0.1127441686534575,0.0556303837639632,10.698719244238418,-1.4465317983215813,0.202585247329247,-1.2649490007721995
