t,x,y,z,roll,pitch,yaw,v_x,v_y,v_z,ref_x,ref_y,ref_z,ref_v_x,ref_v_y,ref_v_z,a_com,a_x,a_y,a_z,thrust,wind_x,wind_y,wind_z
0.0,-1.2873528985857112,-0.3679843688659128,1.853405976928505,0.0107174592564362,0.1363773955000237,0.0257171345450583,0.0056915655182669,0.0005270193075035,0.0056322262243158,-1.2871718398850047,-0.3680686496415428,1.853583310607234,0.1058044475646046,0.0862802795080867,-0.0943003845963944,0.4012282381671252,0.2845782759133491,0.0263509653751795,0.2816113112157912,10.545842016780623,-1.2871538402392089,0.1658278375279907,-1.168468189733631
0.02,-1.2873405618816642,-0.3681848061250319,1.8533084284605408,0.0034454526001173,0.1386859416230651,0.0252428948415235,-0.0043237665903886,-0.0168149277019141,-0.0163828071143064,-1.2871718398850047,-0.3680686496415428,1.853583310607234,0.1058044475646046,0.0862802795080867,-0.0943003845963944,1.4880454430432966,-0.50076660543278,-0.8670973504708853,-1.100751666931112,10.545536046910456,-1.300813967934171,0.1739422317614623,-1.1602049734346016
0.04,-1.2875136325124477,-0.3685654580939397,1.8526678789223097,-0.0114223376775826,0.144666225842799,0.0242167574413407,-0.0120291789628352,-0.0190020615818074,-0.0467332356243703,-1.2871718398850047,-0.3680686496415428,1.853583310607234,0.1058044475646046,0.0862802795080867,-0.0943003845963944,1.569478771107252,-0.385270618622332,-0.1093566939946674,-1.517521425503196,9.2193103195832,-1.2907786874813112,0.1885578558091392,-1.1483700142819695
0.06,-1.287802608301476,-0.3688801426145441,1.8514192113170325,-0.027826348481213,0.1523955559272586,0.0229761700053477,-0.0161427885597503,-0.0119105655956384,-0.07658634893138,-1.2861137954093589,-0.3672058468464619,1.8526403067612705,0.1258044478626278,0.1039193770794597,-0.1143003848944176,1.5479175312002618,-0.2056804798457528,0.3545747993084508,-1.4926556653504872,8.827313103167398,-1.2787303323557435,0.2044401505306778,-1.1360702152494169
0.08,-1.2881238018220609,-0.3689940946294774,1.849696205284172,-0.042697631063856,0.1603586303180729,0.0217303151176643,-0.0172272542433197,-0.0003654654382182,-0.1033044627582145,-1.2839977064580663,-0.3654802412563002,1.8507542990693424,0.1658044484586743,0.1391975722222057,-0.1543003854904641,1.456299256615364,-0.054223284178469,0.5772550078710083,-1.3359056913417224,8.879227922726386,-1.268824236313672,0.2194408272453596,-1.1262261396698927
0.1,-1.2884590194785028,-0.3688339724566422,1.847346736481772,-0.0567273250945285,0.168827856821828,0.0204277220807294,-0.0159948213792253,0.0157232083944538,-0.1301864919958246,-1.2818816175067744,-0.3637546356661385,1.8488682913774144,0.2058044490547207,0.1744757673649516,-0.1943003860865106,1.567647770060556,0.0616216432047161,0.8044336916336077,-1.344101461880505,9.05307459306914,-1.2617988510418383,0.23280948078459,-1.1193521822464363
0.12,-1.2887467866939706,-0.3683200247928017,1.844474315486428,-0.0686855901882815,0.1770845121194975,0.0191959367829279,-0.0126324832370597,0.034708764418676,-0.155650253080093,-1.27776552852568,-0.3602651203188395,1.844982283655684,0.2458044496507671,0.2097539625076976,-0.234300386682557,1.5969970130590758,0.1681169071082819,0.9492778012111106,-1.27318805421342,9.05307459306914,-1.2569326285380993,0.2441430084309962,-1.1145567015817124
0.14,-1.2889488192199792,-0.3674039786735044,1.8410991877117628,-0.0785352599352695,0.1849794534442923,0.0180724014430379,-0.0075621994873504,0.0556198052106584,-0.1805920619115735,-1.2736494395445854,-0.3567756049715404,1.841096275933954,0.2858044502468136,0.2450321576504436,-0.2743003872786035,1.647022489291384,0.253514187485465,1.0455520395991176,-1.2470904415740252,9.143099312149388,-1.2547764428278054,0.2531772263553682,-1.1123977287190852
0.16,-1.289032966470305,-0.3661261063938529,1.8374326879402716,-0.0859354467766681,0.1920901457192538,0.0171324483004354,-0.0014044624937107,0.0774020274481671,-0.2040879283741442,-1.2685333505485898,-0.3524041347456727,1.8362102681973225,0.3258044508428601,0.2803103527931895,-0.3143003878746499,1.6312868166833905,0.3078868496819834,1.0891111118754344,-1.1747933231285357,9.177906349431396,-1.254320278249187,0.2608605635483557,-1.111945664015756
0.18,-1.288981919397424,-0.3643266139812542,1.8330910338419373,-0.0917875047532048,0.1991495038118794,0.0162917727425928,0.0063364716736929,0.1011170429691598,-0.228823362309839,-1.2624172615376932,-0.3471507096412364,1.83032426044579,0.3658044514389065,0.3155885479359355,-0.3543003884706963,1.7565347384353998,0.3870467083701864,1.1857507760496355,-1.2367716967847413,9.20570323803986,-1.253825494903983,0.2666362395073035,-1.1128890920181636
0.2,-1.2887628521896253,-0.3620446329845986,1.8282574472722304,-0.0958456699320286,0.2057761245913053,0.0156079628061415,0.0153238312032828,0.125584504510317,-0.2532590940762746,-1.2886650958137391,-0.3592707618327962,1.8216498657264453,0.106336473163809,0.1737606433734224,-0.2890350096117514,1.7864310038057052,0.4493679764794929,1.223373077057858,-1.2217865883217798,9.217327485399435,-1.2543519832733911,0.2705197815378085,-1.114063640018064
0.22,-1.2883025207159051,-0.359066118248494,1.8231607018412432,-0.0924661012261585,0.2119037488206393,0.0155099842958037,0.0304662790623442,0.1674789208144293,-0.2548657561843415,-1.2886650958137391,-0.3592707618327962,1.8216498657264453,0.106336473163809,0.1737606433734224,-0.2890350096117514,2.2287985596258846,0.7571223929530705,2.0947208152056183,-0.0803331054033407,9.246339124713812,-1.250010275980176,0.2675275087921549,-1.118409805748776
0.24,-1.287571057360256,-0.3555967668305804,1.8183073234442348,-0.0828895446141899,0.2172370072992671,0.0159620050065924,0.0458784733771349,0.1944833055409637,-0.2559183256382822,-1.2886650958137391,-0.3592707618327962,1.8216498657264453,0.106336473163809,0.1737606433734224,-0.2890350096117514,1.5555388379199326,0.7706097157395349,1.3502192363267176,-0.0526284726970388,10.69900102529664,-1.2559959303599506,0.2592185505127876,-1.134273255548225
0.26,-1.2864798962914057,-0.3514814450498353,1.8131578447750512,-0.0714723237724187,0.2224176116999152,0.0166319079512219,0.0624958039721752,0.2152522033890285,-0.2591059147121664,-1.2876017310821013,-0.357533155399062,1.818759515630328,0.1263364734618323,0.1882893634542749,-0.3010773390721338,1.3394434646824045,0.8308665297520165,1.0384448924032423,-0.1593794536942056,10.564728578821814,-1.2620396590137424,0.2495383478707643,-1.1529082783757252
0.28,-1.285053246630957,-0.347000829768154,1.8079201127332023,-0.0605924659869968,0.2272246671251886,0.0173502535239794,0.0794039041216444,0.2316642577424288,-0.2646354709016146,-1.285475001618825,-0.3540579425315935,1.8129788154380928,0.1663364740578787,0.2173468036159799,-0.3251619979928987,1.2101811542241412,0.8454050074734574,0.8206027176700145,-0.276477809472414,10.4127497369509,-1.2663077329537455,0.2399478440188425,-1.1701886008800857
0.3,-1.2832854523909751,-0.3422253150342644,1.8025484231681612,-0.0509687280136928,0.2317101321525593,0.0180493404890686,0.0966098853505114,0.2451888560886289,-0.2722941462767405,-1.283348272155549,-0.350582729664125,1.8071981152458576,0.2063364746539251,0.2464042437776849,-0.3492466569136637,1.1593272391517877,0.860299061443353,0.6762299173100047,-0.3829337687562911,10.285104655309624,-1.2698059584598635,0.2316341386576794,-1.1839327216271165
0.32,-1.2812838055101854,-0.3374579959942287,1.7972876859184412,-0.0431403684647044,0.2357050504731967,0.0186717134859752,0.1132951202820331,0.2561324994952769,-0.2811214719743408,-1.2792215426624705,-0.3456546447885714,1.8002131821075846,0.2463364752499716,0.2754616839393899,-0.3733313158344286,1.0909652546065056,0.8342617465760843,0.547182170332397,-0.4413662848800154,10.183010917194224,-1.2719782225129694,0.2239569697649843,-1.196126093635588
0.34,-1.2788279534864917,-0.3322295924063562,1.791563823328803,-0.0362657092373656,0.2396491139709975,0.019272832623789,0.1314812344523264,0.2662484095776662,-0.2908412869934823,-1.275094813169392,-0.3407265599130177,1.7932282489693114,0.2863364758460181,0.304519124101095,-0.3974159747551935,1.148413241625438,0.9093057085146656,0.5057955041194689,-0.4859907509570743,10.104282808048993,-1.2738916193180032,0.21753225865226,-1.2058172293909444
0.36,-1.2760013748471002,-0.3268049956801253,1.785644190825372,-0.0305337192828573,0.2433373209489492,0.0198275002143901,0.1503345729928778,0.2757886862902354,-0.3006682961311344,-1.2699680836614122,-0.3350720390334213,1.785641199358019,0.3263364764420645,0.3335765642628,-0.4215006336759584,1.165155957874876,0.9426669270275688,0.4770138356284592,-0.4913504568826055,10.104538500140734,-1.2747554775521477,0.2124600597517293,-1.2144840743506593
0.38,-1.272791074578648,-0.3211965171347337,1.7795269155721134,-0.0255973645667443,0.2467824175220438,0.0203530517316897,0.169815089202193,0.2846231527002745,-0.310596534309816,-1.2638413541385314,-0.3286910821497824,1.7774520332737074,0.3663364770381109,0.362634004424505,-0.4455852925967233,1.179097347406198,0.9740258104657618,0.4417233205019522,-0.4964119089340801,10.104538500140734,-1.2757747108288915,0.2079137783714625,-1.2229772385443596
0.4,-1.2693750360536713,-0.3157116901667491,1.773530154931401,-0.0214992429053418,0.2498428306669055,0.0208305024238647,0.1888435606204591,0.2923173809448242,-0.3201682009007262,-1.2643003201185383,-0.30696535949972,1.7639970888566223,0.2698150906923092,0.3191883891197138,-0.3436058361808773,1.132365526367857,0.951423570913304,0.3847114122274842,-0.4785833295455094,10.113418078628456,-1.2770492485961586,0.2040422302834802,-1.2310590879483787
0.42,-1.2653139720580575,-0.3096952353894628,1.7671921595629496,-0.0148941021519168,0.2520910593143566,0.0215261561778999,0.21646980519136,0.3074040485832592,-0.3121728427247905,-1.2643003201185383,-0.30696535949972,1.7639970888566223,0.2698150906923092,0.3191883891197138,-0.3436058361808773,1.6238401105753402,1.381312228545044,0.7543333819217513,0.3997679087967803,11.35125173511733,-1.2713111667058978,0.1967765609746117,-1.2343824947516333
0.44,-1.2606953333778903,-0.3034574194117002,1.761035814104716,-0.0061181247047027,0.2527817045224823,0.0224004097809885,0.2438135153046908,0.3151990922224554,-0.3040702910826723,-1.2643003201185383,-0.30696535949972,1.7639970888566223,0.2698150906923092,0.3191883891197138,-0.3436058361808773,1.4782527957119154,1.3671855056665418,0.3897521819598126,0.4051275821059102,11.35125173511733,-1.2803193298736608,0.1892349939621412,-1.2525973806310795
0.46,-1.2558095772450408,-0.2974312063929344,1.7553102349636474,0.0019978004502845,0.2522332627262988,0.0232103584303907,0.268987399225483,0.3187348863384601,-0.2990284586365891,-1.2616021692116153,-0.3037734756085229,1.7605610304948138,0.2898150909903324,0.3261014364036017,-0.3502076965550896,1.295807032415195,1.2586941960396083,0.1767897058002315,0.2520916223041625,11.218216418803422,-1.289135985215598,0.1810317990561745,-1.2688584017257918
0.48,-1.250160600691416,-0.2910421156313348,1.7493653378811875,0.009542593835059,0.250428309547036,0.0239649290952056,0.2944529042860201,0.3200245048754523,-0.2958216356585575,-1.256205867397769,-0.2973897078261286,1.7536889137711962,0.3298150915863788,0.3399275309713774,-0.3634114173035141,1.2849501717689555,1.2732752530268563,0.0644809268496138,0.1603411489015771,11.064186247041109,-1.2977568035376004,0.1735775671389917,-1.2820301115726869
0.5,-1.2440137947025092,-0.2846459818878802,1.7434647491937718,0.0158202053080662,0.2473925132451292,0.0245851983198945,0.3188069451062551,0.3196320343820443,-0.2944625012596533,-1.2508095655839229,-0.2910059400437343,1.7468167970475788,0.3698150921824253,0.3537536255391531,-0.3766151380519386,1.219754671723121,1.2177020410117478,-0.0196235246704007,0.0679567199452113,10.841212640879348,-1.3072269223831112,0.1672878372620605,-1.2910983666859008
0.52,-1.2373948517100544,-0.2782715586352828,1.7375745432555267,0.0207791350203542,0.2431682414933625,0.0250574869996997,0.3416958007209459,0.3180668368587394,-0.2945989182456883,-1.2434132637402744,-0.2839308675329513,1.73928449428654,0.4098150927784717,0.3675797201069288,-0.3898188588003631,1.1471357420017947,1.144442780734542,-0.0782598761652486,-0.0068208493017501,10.841212640879348,-1.3171710706079558,0.1625562271429897,-1.2963515745445096
0.54,-1.2306990054091935,-0.2722525675143888,1.7319727761408907,0.0243737338792833,0.2382535131039405,0.0253763692814887,0.3617783622619683,0.3158108304994599,-0.2950196388632582,-1.236016961896626,-0.2768557950221683,1.7317521915255012,0.4498150933745182,0.3814058146747046,-0.4030225795487877,1.0106629613527292,1.0041280770511167,-0.1128003179639736,-0.0210360308784934,10.757468688122572,-1.328531403505213,0.1587954286406354,-1.2979868046158352
0.56,-1.2232592618490603,-0.265964684688354,1.726065844609621,0.0272125485686365,0.2325230405843053,0.025601963790434,0.3808945914846124,0.3131993461637689,-0.2956351600893868,-1.227620660038076,-0.2694350701471908,1.7238897957457515,0.4898150939705646,0.3952319092424803,-0.4162263002972122,0.9651799527912512,0.9558114611322084,-0.1305742167845486,-0.0307760613064284,10.73427263438407,-1.3400256059876747,0.1560772211806519,-1.2975228302795994
0.58,-1.215459169102374,-0.2597329238979718,1.7201426860057478,0.0292667743943827,0.2266135315403938,0.0257423288088746,0.3979586034119811,0.3102617473348884,-0.2966153657665496,-1.2182243581646253,-0.261668692908019,1.7156973069472918,0.529815094566611,0.409058003810256,-0.4294300210456367,0.8671372341019076,0.8532005963684336,-0.1468799414440252,-0.0490102838581418,10.709728725361856,-1.3512475130003232,0.1542035889635422,-1.2956186379474322
0.6,-1.2073387378133875,-0.253563633148112,1.7141953923916544,0.0306376421154859,0.2208365901719942,0.0258192622028631,0.4130759466524534,0.30690776068639,-0.2980362498696328,-1.195561238931775,-0.2442198365312274,1.7053119177174203,0.4979586049020972,0.3203326244845895,-0.3089135688399916,0.7774995252779142,0.7558671620236129,-0.1676993324249226,-0.0710442051541609,10.675122104630644,-1.360944619957193,0.1530797398593979,-1.2924152038461387
0.62,-1.1993126770067573,-0.2476961069869095,1.708678538851947,0.0337199174712879,0.2152940637110259,0.0259960818582281,0.430778685001613,0.3093657417190348,-0.2826427418218933,-1.195561238931775,-0.2442198365312274,1.7053119177174203,0.4979586049020972,0.3203326244845895,-0.3089135688399916,1.1793946602298435,0.8851369174579793,0.1228990516322414,0.769675402386974,10.635694380235693,-1.367557893326986,0.1495335739454461,-1.2874139539393386
0.64,-1.1905298189578752,-0.2415376763340544,1.7031801857313644,0.0386433915235898,0.2095342134379145,0.0262621708738064,0.446323886501959,0.3061027878910959,-0.2681882952699376,-1.195561238931775,-0.2442198365312274,1.7053119177174203,0.4979586049020972,0.3203326244845895,-0.3089135688399916,1.0738146749939743,0.7772600750172998,-0.163147691396942,0.7227223275977884,11.7664510548193,-1.380986862824646,0.1443971237483748,-1.2965390788278404
0.66,-1.1814679627431848,-0.2354791349937939,1.6979391834906057,0.0433537603780527,0.2045872289468395,0.0265004275808596,0.4588801709928919,0.2999407482190132,-0.2567503924061479,-1.190581652882754,-0.2410165102863815,1.7022227820290203,0.5179586052001205,0.3223467999145297,-0.31137320945468,0.9034055499318304,0.6278142245466495,-0.3081019836041365,0.5718951431894825,11.578122053110746,-1.390043507035061,0.1394046784236023,-1.3019213593158177
0.68,-1.1721853646116869,-0.2295625130542546,1.692898410178323,0.0471607727048454,0.2011595363510099,0.0267068189906434,0.4686717385118479,0.2922518719992307,-0.2478777585086774,-1.180622480784712,-0.2346098577966897,1.6960445106522206,0.5579586057961669,0.3263751507744102,-0.3162924906840568,0.7643906793648678,0.4895783759477995,-0.384443810989124,0.4436316948735266,11.249641394937498,-1.3969449954112845,0.1350587028360586,-1.306048123717223
0.7000000000000001,-1.163204785894469,-0.224092142606564,1.6882563646799285,0.0498174767321885,0.1999164760239002,0.0269103319647538,0.476340937050378,0.2842085784302899,-0.2412095634235321,-1.17066330868667,-0.2282032053069979,1.689866239275421,0.5979586063922133,0.3304035016342906,-0.3212117719134336,0.648027783650347,0.3834599269265049,-0.4021646784470395,0.3334097542572647,11.249641394937498,-1.3993840697476565,0.131805829284955,-1.3094314661990885
0.72,-1.1535896465710165,-0.2185015960467058,1.683493101398592,0.0516497887685339,0.2006184159842692,0.0271453495710637,0.4849710289208763,0.2754193680875172,-0.235540612458089,-1.1587041365588258,-0.2215951352743121,1.683442003837152,0.6379586069882598,0.3344318524941711,-0.3261310531428104,0.6779854518928498,0.4315045935249118,-0.4394605171386373,0.2834475482721518,11.135763891510578,-1.3981355682458418,0.129672736528587,-1.3138961396651458
0.74,-1.1437887934897597,-0.2130936028116068,1.678837631824116,0.0523651663393872,0.2027651915366276,0.0273690025015603,0.4948916266209104,0.2660122137301783,-0.2303076327746278,-1.1467449644309815,-0.2149870652416263,1.6770177683988834,0.6779586075843063,0.3384602033540516,-0.3310503343721871,0.731944137547809,0.4960298850017086,-0.4703577178669454,0.2616489841730643,11.047767550217031,-1.3951584459844717,0.1289003560693002,-1.3191520740567573
0.76,-1.133768020582212,-0.207877244331126,1.6742853489203262,0.0517348700970974,0.2055827202686533,0.0275259998045524,0.5067941166174909,0.2562917154693884,-0.2251977866182985,-1.133785792288236,-0.2082782864374434,1.6704705509298805,0.7179586081803526,0.342488554213932,-0.3359696156015639,0.8097343426983754,0.5951244998290195,-0.4860249130394928,0.2554923078164642,11.047767550217031,-1.3913840029364417,0.129656708875767,-1.3248069127458408
0.78,-1.124010988201282,-0.2031009539688504,1.6700552533153254,0.0497190176418433,0.2082000852484711,0.0275642816560746,0.5196826221215513,0.2471563640125821,-0.2203367220032134,-1.1198266201305895,-0.2014687988617636,1.6638003514301427,0.7579586087763991,0.3465169050738124,-0.3408888968309407,0.8264353718827638,0.64442527520302,-0.4567675728403164,0.2430532307542532,11.055542870341014,-1.3879708735696257,0.132281810359217,-1.3310678840347872
0.8,-1.1134640697891325,-0.1982441260702949,1.665703164593606,0.0463618204490149,0.2104339913356487,0.0274826695598615,0.5343361625167227,0.2394234071074776,-0.2151164935476327,-1.0980268570952043,-0.1907431357682213,1.6590384172151649,0.610959297584274,0.2581175427027772,-0.2416934555190721,0.8685845579700027,0.7326770197585708,-0.3866478452552238,0.2610114227790353,11.070373649331486,-1.385014122022961,0.1364399619303117,-1.338088399624444
0.8200000000000001,-1.1025554933499089,-0.1934982410622689,1.6615115253150063,0.0433560285005339,0.2103661786025258,0.0273146073833542,0.5558743048364475,0.2352994828812681,-0.2040303558181553,-1.0980268570952043,-0.1907431357682213,1.6590384172151649,0.610959297584274,0.2581175427027772,-0.2416934555190721,1.2286178976447302,1.076907115986242,-0.2061962113104762,0.5543068864738709,11.084054586018285,-1.3803651585929415,0.139796800056418,-1.343107125721811
0.84,-1.0912208271611723,-0.1888393880486628,1.657539182036439,0.0410644459147976,0.2063482234330729,0.0270284578298952,0.5760383757181279,0.2307723321878798,-0.193829409415664,-1.0980268570952043,-0.1907431357682213,1.6590384172151649,0.610959297584274,0.2581175427027772,-0.2416934555190721,1.1523282468860343,1.008203544084019,-0.2263575346694163,0.5100473201245639,11.417893403655398,-1.389746471790957,0.1428102747283974,-1.3504128746605832
0.86,-1.0801191920841322,-0.184497152243723,1.653935424921492,0.0391437121084587,0.1999642778436024,0.0266792481088507,0.5911294303344972,0.226549403429191,-0.1859678257706582,-1.0919172641193615,-0.1881619603411935,1.656621482659974,0.6292146326768185,0.2603097784408162,-0.2459648022222438,0.8766093116985233,0.7545527308184641,-0.2111464379344355,0.3930791822502902,11.417893403655398,-1.403308259841758,0.1456528052597658,-1.353027621795805
0.88,-1.0681714153617394,-0.1800106842069029,1.6502872458108384,0.0372560033705449,0.1921080051799086,0.0262915019835945,0.6024962590614636,0.2223634571032745,-0.1793163515116997,-1.0796980781676762,-0.182999609487138,1.6517876135495928,0.6657253028619077,0.2646942499168943,-0.2545074956285872,0.6909577624016391,0.5683414363483241,-0.2092973162958269,0.3325737129479242,11.279843234318832,-1.4173308720259772,0.1482470599269028,-1.3513677533305994
0.9,-1.0560402902806936,-0.1756042910013865,1.6467532570984318,0.0354649975590717,0.1843570649644016,0.0259308146152193,0.6098183202037861,0.2185317710086189,-0.1744775867714109,-1.0674788922159906,-0.1778372586330824,1.6469537444392113,0.7022359730469968,0.2690787213929723,-0.2630501890349307,0.4788215792749648,0.3661030571161239,-0.1915843047327822,0.2419382370144412,11.024643132895108,-1.429954565491133,0.1506400974768376,-1.3470081968568015
0.92,-1.0438011706416492,-0.1712705744618095,1.6432968601383786,0.0337642047177376,0.1776982519460098,0.0256302627965151,0.6136682067855871,0.2150750855510095,-0.1713820320315616,-1.0534341727550507,-0.172455684205223,1.641692740658513,0.7387466432320859,0.2734631928690503,-0.2715928824412741,0.3014662509841788,0.1924943290900482,-0.1728342728804663,0.1547777369924646,11.024643132895108,-1.4401300204290728,0.1527890874409053,-1.3420699645186651
0.94,-1.0321315191344025,-0.1672141864110586,1.6400603402582556,0.0322391742616938,0.1731514732921012,0.0254223753657432,0.6144684972139318,0.2121173909931682,-0.1694468071534671,-1.0393894532941106,-0.1670741097773635,1.636431736877814,0.7752573134171751,0.2778476643451283,-0.2801355758476176,0.181200974031462,0.0400145214172364,-0.1478847278920669,0.0967612439047235,10.915250823407405,-1.4482765307941372,0.1549423243994487,-1.3374137860314408
0.96,-1.0198515474284828,-0.163000549720334,1.6366859276972332,0.030770994211775,0.1709990302025043,0.0253055593296782,0.6135153118868155,0.209437282839953,-0.1681328425722021,-1.0244319670785431,-0.1615829235626021,1.6309571657619568,0.8117679836022642,0.2822321358212064,-0.2886782692539611,0.1566687979590959,-0.047659266355815,-0.1340054076607574,0.0656982290632532,10.849954725202224,-1.4509869985565995,0.156797689043385,-1.334680111559429
0.98,-1.0075876630757028,-0.1588353536668982,1.633330314876854,0.0295291673748631,0.1715523993909602,0.0252910378687442,0.6132603451220708,0.207238261260842,-0.167512563219962,-1.0085617141083492,-0.1559821255609388,1.625269027310941,0.8482786537873532,0.2866166072972844,-0.2972209626603045,0.1149505375295818,-0.0127483382372339,-0.1099510789555544,0.0310139676120022,10.798371107669482,-1.4485805023415654,0.1582749364887727,-1.3347366510843537
1.0,-0.9953101297524456,-0.1547094893543387,1.6299831543170988,0.0285970808609602,0.1739084142385242,0.0253512523358946,0.6147484660026573,0.2054655572207896,-0.1672540773691684,-0.9769246458195991,-0.1484734406038561,1.624954686715856,0.6758033349721151,0.2170164768107282,-0.1794216047736977,0.1164452479055689,0.0744060440293237,-0.0886352020026154,0.012924292539683,10.75411226255801,-1.44451990461784,0.159378337001906,-1.3371665539328093
1.02,-0.9834910150003388,-0.150800172948212,1.626936200196438,0.0287290062711295,0.1743762109402593,0.025427836822979,0.6289192685896607,0.2058295914406426,-0.1535089528112861,-0.9769246458195991,-0.1484734406038561,1.624954686715856,0.6758033349721151,0.2170164768107282,-0.1794216047736977,0.9872596112278984,0.7085401293501714,0.0182017109926477,0.6872562278941119,10.735053528603204,-1.4328182982855378,0.1585225000339888,-1.3378355310716838
1.04,-0.9707698367457588,-0.1466881028829486,1.624006213731258,0.030246452614777,0.1702095059713513,0.0254646096914476,0.6418011752562952,0.2052468650248539,-0.1403181001735423,-0.9769246458195991,-0.1484734406038561,1.624954686715856,0.6758033349721151,0.2170164768107282,-0.1794216047736977,0.9223362764661978,0.6440953333317234,-0.0291363207894329,0.6595426318871902,11.701499438441717,-1.443108650053031,0.1571799374158261,-1.3469208870635077
1.06,-0.9578453918912874,-0.142600352883277,1.6213081593634326,0.0327257419981876,0.1629538834375401,0.0254564321669635,0.6495051918343829,0.2033847500828873,-0.1300980831052459,-0.970166612469878,-0.1463032758357488,1.623160470668119,0.6883119329421239,0.2189721199207054,-0.1818034130844449,0.6466608314426034,0.3852008289043862,-0.0931057470983334,0.5110008534148197,11.549514930514306,-1.4564971573730108,0.1546952042504233,-1.348845132177958
1.08,-0.945474575647602,-0.1387726787139221,1.618907663337486,0.0352522255341634,0.154933970268681,0.0253965527517959,0.6520415418810568,0.1996278123902816,-0.1230640532537121,-0.9566505457704356,-0.1419629462995342,1.619572038572645,0.7133291288821416,0.2228834061406599,-0.1865670297059392,0.4184053905533829,0.1268175023336926,-0.1878468846302813,0.3517014925766885,11.166248088240536,-1.4707652243743488,0.1516575528150515,-1.3450771705958833
1.1,-0.9324457703467594,-0.1348337565019825,1.6165019385433494,0.0374620851305549,0.146713008371135,0.025281758593507,0.6504714750570088,0.1945450175694893,-0.1179666669544744,-0.9431344790709936,-0.1376226167633197,1.615983606477171,0.7383463248221593,0.2267946923606144,-0.1913306463274335,0.3683858714239267,-0.0785033412024016,-0.2541397410396162,0.2548693149618877,11.166248088240536,-1.4831043053629156,0.1490375259787415,-1.33785110952436
1.12,-0.919487584965209,-0.1310044389276547,1.6141749786726125,0.0389832566999941,0.1397830397890831,0.0251461333529315,0.6452759256302734,0.1887284419795833,-0.115058384074518,-0.9283675525745504,-0.1330867229161074,1.6121569935506224,0.7633635207621771,0.2307059785805689,-0.1960942629489278,0.4161862406080601,-0.2597774713367695,-0.2908287794952988,0.1454141439978205,11.012122221957725,-1.4929216416302926,0.147217541372216,-1.329138599864447
1.14,-0.9066687012985724,-0.1272993952438669,1.6118920199066151,0.0395735721592037,0.1351716768555887,0.0250249982526042,0.6368412049082317,0.1822131089598765,-0.1133549416644941,-0.9136006260781072,-0.1285508290688951,1.608330380624074,0.7883807167021948,0.2346172648005234,-0.2008578795704221,0.5396660867165675,-0.4217360361020827,-0.3257666509853429,0.0851721205011958,10.87886827676175,-1.499258593698785,0.1465577983008778,-1.3209865942885437
1.16,-0.89466616353365,-0.1239035994200913,1.6097489214628768,0.0390827867669458,0.1337619551120899,0.0249517517523559,0.6272926359487415,0.1757100931416425,-0.1123108273278257,-0.8982082696831635,-0.1239171530661839,1.604384677281988,0.8133979126422124,0.2385285510204779,-0.2056214961919164,0.5799882728434622,-0.4774284479745094,-0.3251507909116977,0.0522057168334172,10.820668325139197,-1.4989876232456247,0.1470012331027781,-1.314573974353947
1.18,-0.8822150740248487,-0.1204605639661115,1.6075119995012412,0.0373482669190136,0.1351505356659459,0.0249020614066011,0.6186400404534087,0.1690646407866016,-0.1114435562134827,-0.8821904833897194,-0.1191856949079739,1.6003198835243644,0.8384151085822301,0.2424398372404324,-0.2103851128134106,0.5472239143959863,-0.4326297747666408,-0.3322726177520455,0.0433635557171512,10.777095821660623,-1.4937120224595832,0.1488726941852911,-1.31162185904395
1.2,-0.8699153450633518,-0.1171407141850349,1.6052924979438,0.0344659940838716,0.138549886300796,0.0248442195340429,0.6120417742954779,0.1636400176617084,-0.1105424729897612,-0.8512830720021782,-0.1120073319267814,1.6019398216905671,0.6604273295364127,0.1732316066251233,-0.117136863825574,0.4294636285941272,-0.3299133078965399,-0.2712311562446626,0.0450541611860741,10.751753156969244,-1.4857981135795564,0.1521170406050837,-1.3124074654741311
1.22,-0.8576360824851165,-0.113873590519671,1.6032066041169355,0.032329386410163,0.1408586255035707,0.0247972397802225,0.6158271492464774,0.1627249947302292,-0.0981355426580233,-0.8512830720021782,-0.1120073319267814,1.6019398216905671,0.6604273295364127,0.1732316066251233,-0.117136863825574,0.6501889162800806,0.1892687475499754,-0.0457511465739607,0.620346516586897,10.746138383035031,-1.473705384022876,0.1539321628628262,-1.31397994092893
1.24,-0.8459071179131621,-0.1107976035993067,1.6014486586522634,0.0314277014654883,0.1402149034213504,0.0247395213810409,0.6184114785138705,0.1610235436907078,-0.0875669623614975,-0.8512830720021782,-0.1120073319267814,1.6019398216905671,0.6604273295364127,0.1732316066251233,-0.117136863825574,0.5506100772922375,0.1292164633696524,-0.0850725519760661,0.5284290148262892,11.478749547686675,-1.4761130715464348,0.1552814184630698,-1.321703805178445
1.26,-0.8335267455044901,-0.1075984313884637,1.599794514516801,0.0312098795488344,0.1373081283004126,0.0246613302199893,0.6192837004355712,0.1589573786524988,-0.0784899462290037,-0.8446787987068141,-0.1102750158605302,1.6007684530523114,0.6687847873530135,0.1740649997928277,-0.1182755253479923,0.4674987457613274,0.0436110960850388,-0.1033082519104514,0.4538508066246907,11.36636511530105,-1.4810532328988932,0.1556733201248755,-1.325006272560829
1.28,-0.8211539046039527,-0.104443188662697,1.5982996904543283,0.0315642968630438,0.1328367775029791,0.0245735507331275,0.617724220309587,0.1566480041116536,-0.0715207700661014,-0.8314702521160858,-0.1068103837280277,1.5984257157758,0.6854997029862151,0.1757317861282364,-0.1205528483928288,0.3752819121101148,-0.077974006299214,-0.1154687270422588,0.3484588081451155,11.236284414873808,-1.488116237191044,0.1553644006746554,-1.3243884698981854
1.3,-0.8088449398291849,-0.101338511576373,1.596922263894356,0.0323280705873591,0.1277423453771246,0.024490604174376,0.613080359272967,0.1539280681634025,-0.066545279220701,-0.8182617055253576,-0.1033457515955252,1.5960829784992885,0.7022146186194167,0.1773985724636451,-0.1228301714376653,0.3664662537079269,-0.2321930518309978,-0.1359967974125575,0.24877454227002,10.991216603364592,-1.4954946546709789,0.1545935100873191,-1.3209092986827589
1.32,-0.7972676491816938,-0.0984448848659641,1.5956905889193116,0.033253761483555,0.1233283956556505,0.0244337022478272,0.6057061685656049,0.1508137692249508,-0.063337940788791,-0.8042174131529692,-0.0997977801462523,1.5936263750705353,0.7189295342526183,0.1790653587990537,-0.1251074944825018,0.4311744608722598,-0.3687095353681058,-0.1557149469225832,0.1603669215954978,10.991216603364592,-1.5023422419264814,0.1534952243604849,-1.315540944642347
1.34,-0.7852600153667342,-0.0954690039309223,1.5944520959142954,0.0342288964265214,0.120240128269186,0.0244198284659418,0.5953011524457632,0.1469406126379557,-0.0607028142757103,-0.7901731207805809,-0.0962498086969794,1.591169771641782,0.7356444498858199,0.1807321451344624,-0.1273848175273383,0.5705470930201333,-0.5202508059920841,-0.1936578293497581,0.1317563256540324,10.897687771604067,-1.5064166256600906,0.1523537493913527,-1.310046559379358
1.36,-0.7734781232324633,-0.0925769500327063,1.5932600662911287,0.0349751353301902,0.1196732137153579,0.0244727011694582,0.5836815129413139,0.1424870688548731,-0.0586518096978672,-0.7757109555173626,-0.0926601675893213,1.5886562351369078,0.7523593655190215,0.1823989314698711,-0.1296621405721749,0.6305884042295851,-0.5809819752224665,-0.222677189154126,0.1025502288921554,10.86032221502228,-1.5046657622320971,0.1513407054860034,-1.3062586890886885
1.38,-0.7619176679596739,-0.0897793382977224,1.5921053717057838,0.035246245631968,0.1213941886197405,0.0245713896007319,0.5732409566666303,0.1375836856674063,-0.0569131052292852,-0.7608309173633141,-0.089028856823278,1.5860857655559126,0.7690742811522231,0.1840657178052798,-0.1319394636170114,0.5832483931333055,-0.5220278137341772,-0.2451691593733401,0.0869352234291017,10.796100551460768,-1.499243388446341,0.150781569006569,-1.3046828642075303
1.4,-0.7511121778307766,-0.087214632324564,1.59104015488893,0.0348991161895526,0.1244585597274872,0.0246729366099864,0.5649294888922931,0.1327230122046441,-0.0553023024782087,-0.7332556201263424,-0.0829001540143521,1.5892597164443196,0.6097534321273981,0.1392210267727855,-0.0706393275581269,0.4881119968263493,-0.4155733887168611,-0.2430336731381099,0.080540137553825,10.796100551460768,-1.492031717765752,0.1510179498737555,-1.3052200307214958
1.42,-0.7398532544678741,-0.0845955217420155,1.5900001323236803,0.0344075823110256,0.1276108274635846,0.0247673950957198,0.5614927781849735,0.1293588732175393,-0.048549809946854,-0.7332556201263424,-0.0829001540143521,1.5892597164443196,0.6097534321273981,0.1392210267727855,-0.0706393275581269,0.4145014083099265,-0.1718355353659828,-0.1682069493552415,0.3376246265677337,10.7893286358958,-1.4821324212939797,0.1512087284556023,-1.3068973899451892
1.44,-0.7286587876931249,-0.0820477693620005,1.5890934275544717,0.0340969589689153,0.1296639106742921,0.0248358291738313,0.5580697224311582,0.1255861437834079,-0.0425541249115155,-0.7332556201263424,-0.0829001540143521,1.5892597164443196,0.6097534321273981,0.1392210267727855,-0.0706393275581269,0.3933797056276272,-0.1711527876907648,-0.1886364717065713,0.2997842517669241,11.116891770093387,-1.4794646086504522,0.1515913433436056,-1.3118267022622938
1.46,-0.7175366827290491,-0.0795776251690652,1.588289418063832,0.0336931188258521,0.1310502472765561,0.0248746361037369,0.5543018834509122,0.1216602123053467,-0.0381417129741681,-0.7271580858050684,-0.0815079437466243,1.5885533231687383,0.6170559272195516,0.1395484949938613,-0.0733845720238952,0.3502817710655873,-0.1883919490122954,-0.1962965739030563,0.2206205968673713,11.038322793965564,-1.4771594500297371,0.1520693326704861,-1.3150263083593314
1.48,-0.7070438244696559,-0.0773037340167787,1.587595027729089,0.0331193501535475,0.132027297666579,0.0248866972121567,0.5504094318808733,0.1179418886941812,-0.0351681551500649,-0.7149630171625204,-0.0787235232111686,1.587140536617576,0.6316609174038588,0.140203431436013,-0.0788750609554319,0.3074864055358201,-0.1946225785019462,-0.1859161805582779,0.1486778912051633,10.952927605215336,-1.4751859698560046,0.1527781677006914,-1.3166309786319013
1.5,-0.6960812646972291,-0.0749848314027214,1.5869150618339214,0.0322744168860615,0.1329306135018914,0.0248787143003384,0.5460684905335847,0.1141899313620453,-0.0330260151270132,-0.7027679485199725,-0.0759391026757128,1.5857277500664133,0.6462659075881658,0.1408583678781647,-0.0843655498869686,0.3062258948926729,-0.2170470673644287,-0.1875978666067944,0.1071070011525805,10.880090487665257,-1.4732371649617988,0.153774642862673,-1.3171725111931585
1.52,-0.6852074375736691,-0.0727384616557274,1.5862677597055446,0.0311764066737248,0.1338857787737669,0.0248553815778636,0.5415866644414489,0.110691945990397,-0.0318037744925647,-0.6898426303682091,-0.0731219353181495,1.584040439068674,0.6608708977724729,0.1415133043203163,-0.0898560388185052,0.2907599480194656,-0.2240913046067938,-0.1748992685824166,0.0611120317224291,10.82061550769322,-1.471230419984647,0.1549980956022932,-1.3171078157516112
1.54,-0.6744228539548149,-0.0705580802447099,1.585639743028033,0.0298670903563433,0.1349957709922398,0.0248229909838829,0.537163386405643,0.107571892539803,-0.0310552694190892,-0.6769173122164458,-0.0703047679605863,1.5823531280709346,0.67547588795678,0.142168240762468,-0.0953465277500419,0.2732232693312586,-0.2211639017902944,-0.1560026725296981,0.037425253673773,10.76982550568846,-1.468790179671577,0.1565265022915427,-1.3167350102587028
1.56,-0.6642558419226726,-0.0685398067978856,1.5850534417210866,0.0285070601264429,0.1361751091288592,0.0247887499608093,0.5333165334846164,0.1050667583315233,-0.0306960415390288,-0.6636268693100749,-0.0674712271919692,1.5805285548499068,0.6900808781410871,0.1428231772046196,-0.1008370166815786,0.2302336827405826,-0.19234264605133,-0.1252567104139824,0.017961394003021,10.74229232788366,-1.4660341525158351,0.1582015647336081,-1.3164511677470956
1.58,-0.6536288193203074,-0.0664612335521174,1.5844403728843066,0.0270679501758078,0.1374605902770654,0.0247544928450984,0.5296311481926075,0.1029574257179092,-0.0306439208204548,-0.6499713016490961,-0.0646213130122983,1.5785667194055906,0.7046858683253943,0.1434781136467713,-0.1063275056131153,0.2123326717365727,-0.1842692646004451,-0.1054666306807068,0.0026060359286981,10.71969979196274,-1.463370260093397,0.1599021844767141,-1.316312804718225
1.6,-0.6430717649352766,-0.0644187605812481,1.5838244977415803,0.0257643208725196,0.1387206563751596,0.0247302419800179,0.5262940982846451,0.1014025155801457,-0.0309442643020955,-0.627147261910677,-0.061313362266222,1.5829081768432838,0.5435915860417715,0.1055329715224843,-0.0369120966049533,0.1846879383698032,-0.1668524953981176,-0.0777455068881743,-0.0150171740820364,10.698971031512883,-1.4610005366602268,0.1613811667105019,-1.316265890695574
1.62,-0.6330143137639979,-0.0624964495199778,1.583323099499661,0.0249822313478726,0.1375449575245368,0.0246804604641986,0.5322728262976788,0.100921346878336,-0.0218253613199435,-0.627147261910677,-0.061313362266222,1.5829081768432838,0.5435915860417715,0.1055329715224843,-0.0369120966049533,0.5457359791404095,0.2989364006516837,-0.0240584350904869,0.455945149107603,10.67893736343376,-1.4528819727580715,0.1616865675696936,-1.3122746803464247
1.64,-0.6223222157520296,-0.0604831883016402,1.5829764522920626,0.0248283670043863,0.1316859607580843,0.0245619887176394,0.5358354770407656,0.1003852342992784,-0.0133983289711899,-0.627147261910677,-0.061313362266222,1.5829081768432838,0.5435915860417715,0.1055329715224843,-0.0369120966049533,0.4582433066111818,0.1781325371543407,-0.0268056289528806,0.4213516174376782,11.325106977275937,-1.4650187852664138,0.1623307916081217,-1.3134855950832107
1.66,-0.6116191550601634,-0.058482794229448,1.5827754266937428,0.0253017324614987,0.1230884588380321,0.0244181322464236,0.533797008471321,0.0996384686090111,-0.0071988870890999,-0.6217113460502594,-0.0602580325509971,1.5825390558772343,0.5463836736116043,0.1060480806833993,-0.038165731761853,0.3284284273406653,-0.1019234284722281,-0.0373382845133621,0.3099720941044992,11.192043630187982,-1.4792041944896532,0.1620734376767497,-1.3083654941212393
1.68,-0.6010143310960753,-0.0565019563688649,1.5826728835951895,0.026297563086543,0.1137383757110925,0.0242838053631228,0.526528436532664,0.0984481244454755,-0.0033299015198411,-0.6108395143294238,-0.0581473731205474,1.5818008139451352,0.5519678487512699,0.1070782990052293,-0.0406730020756523,0.4159870989292494,-0.3634285969328521,-0.0595172081767812,0.1934492784629433,11.039491564141828,-1.4923177941048642,0.1611288938051279,-1.299452499052365
1.7,-0.5911170120092795,-0.054648449137072,1.5826287479433614,0.0275622376325444,0.1055214426558046,0.0241839575460067,0.5156088461634214,0.0967100689352014,-0.0014895609012016,-0.5999676826085885,-0.0560367136900978,1.581062572013036,0.5575520238909355,0.1081085173270594,-0.0431802723894517,0.5604577245017338,-0.5459795184621308,-0.0869027755137058,0.0920170309319726,10.900166499691297,-1.5036651312973806,0.1596064474908141,-1.287777407050807
1.72,-0.5809545733726476,-0.0527404270734997,1.5826054745927,0.0290084548280833,0.0985504219675806,0.0241196490799816,0.5010869665226098,0.0941673490726688,-0.0009877902979021,-0.5888166421307698,-0.0538745433435566,1.580198966565247,0.5631361990306011,0.1091387356488894,-0.0456875427032511,0.7375672619156051,-0.7260939820405821,-0.1271359931266313,0.0250885301649753,10.698673232092917,-1.5115808283597856,0.157864244222714,-1.2760268840964062
1.74,-0.5711149084795208,-0.0508925701045565,1.58258215088142,0.0302843532756581,0.0943126921504614,0.0241122623812114,0.4836045400447608,0.0907903547991688,-0.0013480588442775,-0.5776656016529511,-0.0517123729970154,1.579335361117458,0.5687203741702667,0.1101689539707194,-0.0481948130170505,0.890462126232991,-0.8741213238924461,-0.1688497136749955,-0.0180134273187692,10.698673232092917,-1.5154825027415002,0.1563836268687158,-1.2663257570028323
1.76,-0.5621064966635666,-0.049206471023447,1.5825497412285192,0.0310884673234178,0.0936044921744182,0.0241727735036304,0.4659626249791772,0.0869354874632343,-0.0020248272051889,-0.5663749567966407,-0.0495244471924284,1.5784090739118235,0.5743045493099324,0.1111991722925495,-0.0507020833308499,0.9035418982720878,-0.8820957532791801,-0.192743366796725,-0.0338384180455699,10.665217826241133,-1.511650126289969,0.1550598910962949,-1.259002215239815
1.78,-0.5529677994168812,-0.0475146140584955,1.5825017418351135,0.0312914000448656,0.0958383301532986,0.0242837132515101,0.4491619035608133,0.0825085242807484,-0.0027253186366726,-0.5549447075618387,-0.0473107659297957,1.5774201049483447,0.5798887244495979,0.1122293906143795,-0.0532093536446492,0.8694149346574092,-0.8400360709181931,-0.2213481591242995,-0.0350245715741871,10.634326385004895,-1.5035052971637366,0.1544726174133431,-1.2555114156090368
1.8,-0.5441422034976752,-0.0459131286712103,1.5824416000298869,0.0306692417668896,0.1001590664350272,0.0244021108494672,0.4345528269812201,0.0779416203704589,-0.0032388187281869,-0.5305097042388406,-0.043389187844458,1.58236547590328,0.4667598489678463,0.0722353862195825,-0.0303644282779862,0.7657437759757197,-0.7304538289796603,-0.2283451955144746,-0.0256750045757118,10.619290041424392,-1.493104117135193,0.1548612496918954,-1.2551461785556397
1.82,-0.5355826482850047,-0.0443439338282809,1.5823773794621354,0.030977948409286,0.1056740070607323,0.0246208928856436,0.4224244374897795,0.0785596712430694,-0.0031809508946433,-0.5305097042388406,-0.043389187844458,1.58236547590328,0.4667598489678463,0.0722353862195825,-0.0303644282779862,0.6072132393636134,-0.6064194745720314,0.0309025436305274,0.0028933916771801,10.61875141341352,-1.4817973821868784,0.1542729374023605,-1.2603368558515626
1.84,-0.527655635561355,-0.042855937368721,1.5823080030140226,0.0330078895563903,0.1114021206869199,0.0249703835550571,0.4128132864300042,0.0778474323568529,-0.0041352043097525,-0.5305097042388406,-0.043389187844458,1.58236547590328,0.4667598489678463,0.0722353862195825,-0.0303644282779862,0.4842316297628283,-0.480557552988764,-0.0356119443108232,-0.0477126707554599,10.640310580954065,-1.4716695065186425,0.1517380727178575,-1.265446835686093
1.86,-0.519487040443711,-0.0413279805091805,1.5822057083512675,0.0360725194757471,0.1174848619766874,0.0254170242494176,0.4047446764487706,0.0747501000832056,-0.0060935160981549,-0.5258421057491621,-0.0426668339822622,1.5820618316205,0.4702794380492529,0.0701807586073494,-0.0358922502062489,0.4430883639389453,-0.4034304990616827,-0.1548666136823667,-0.0979155894201196,10.57603824409216,-1.4618005293084018,0.1481133961745828,-1.269264553191781
1.88,-0.5114593017050406,-0.0398839285482791,1.5820550205806885,0.0390269388349653,0.1232103017470051,0.0258563751239596,0.3985500320521341,0.0698651952921349,-0.0088769600812097,-0.5165069087698052,-0.0412221262578706,1.5814545430549405,0.4773186162120661,0.0660715033828831,-0.0469478940627743,0.4182806307534771,-0.3097322198318264,-0.2442452395535373,-0.1391721991527439,10.485337781336966,-1.452874820957741,0.1447867745905478,-1.2718695343596338
1.9,-0.5039326178495465,-0.0386120688336363,1.5818544355321404,0.0413504594093515,0.1280661683114706,0.0262261108081758,0.3941006196812569,0.0643793863281975,-0.0120948781187428,-0.5071717117904483,-0.0397774185334789,1.5808472544893806,0.4843577943748793,0.0619622481584167,-0.0580035379192997,0.3880926659034235,-0.2224706185438574,-0.2742904481968677,-0.1608959018766519,10.485337781336966,-1.4445755368605195,0.1418904564051402,-1.2733513892683552
1.92,-0.4960892719924265,-0.0373895615804386,1.5815720442547312,0.0432222342214906,0.1324288225880113,0.0265489445194845,0.390530134905912,0.0582406132471555,-0.0159925954794949,-0.4974845559029507,-0.0385381735703106,1.5796871837309947,0.4913969725376925,0.0578529929339504,-0.0690591817758252,0.4050465932945387,-0.178524238767247,-0.3069386540521007,-0.1948858680376062,10.455489720812691,-1.4376711748190314,0.1397126736248318,-1.2735159517282164
1.94,-0.4883077179037937,-0.0362946222889105,1.581207247505536,0.0444617214977913,0.135980156015028,0.0267934559616805,0.3878370997358737,0.0515994182529174,-0.0203013529030791,-0.4877974000154531,-0.0372989286071423,1.5785271129726086,0.4984361507005057,0.0537437377094841,-0.0801148256323506,0.4181007651088642,-0.1346517585019135,-0.3320597497119021,-0.2154378711792078,10.427653244631074,-1.4321389012530172,0.1382947734714448,-1.2720982467860245
1.96,-0.4805719115313426,-0.0353394531043203,1.5807521911967146,0.0448208908534223,0.1386966805524325,0.0269372637089742,0.3858564773532315,0.0443707331944776,-0.024973054137907,-0.4779342646738852,-0.0361624150245856,1.5770906511178095,0.5054753288633189,0.0496344824850178,-0.091170469488876,0.4415924170664275,-0.0990311191321091,-0.3614342529219917,-0.2335850617413995,10.406371785161356,-1.4280102269383708,0.137898274343133,-1.2692890957444882
1.98,-0.4732557154470392,-0.0345683304405795,1.5802302803725,0.0441559934697771,0.1405361829019336,0.0269669633457816,0.3843356299079942,0.0372863235702472,-0.0297138351637731,-0.467895149878247,-0.0351286328226406,1.5753777981665973,0.5125145070261321,0.0455252272605514,-0.1022261133454014,0.4329458436420917,-0.0760423722618669,-0.3542204812115222,-0.2370390512933001,10.386897587657586,-1.4248568356148508,0.1386990137420059,-1.2650615006684078
2.0,-0.4655846993473699,-0.0338991303919816,1.5795804089558865,0.0423224229222415,0.1417925446602458,0.026885720210701,0.3828208015981532,0.0301170689354394,-0.0350231481665342,-0.4540389339516395,-0.0327040142620671,1.5787445886143112,0.3984030925534653,0.0488265371700482,-0.0443838020477304,0.4524425968791448,-0.0757414154920504,-0.3584627317403896,-0.2654656501380592,10.365994652430343,-1.422766964977431,0.1408317182080797,-1.2597730947762713
2.02,-0.457890319045084,-0.0334263673246285,1.578938259875733,0.0375624328510503,0.1414072831623632,0.0265336167260397,0.3867670774703272,0.0189035509078955,-0.0282578819729812,-0.4540389339516395,-0.0327040142620671,1.5787445886143112,0.3984030925534653,0.0488265371700482,-0.0443838020477304,0.6838949233672252,0.1973137936087027,-0.5606759013771923,0.3382633096776504,11.130287168591169,-1.4121442480736217,0.1454407233750333,-1.249172627887967
2.04,-0.4501192146303372,-0.0331084378010521,1.578441793523442,0.0306882059012938,0.1382917808382646,0.0259536554038737,0.3899178534605573,0.0138568423804198,-0.0218700933483344,-0.4540389339516395,-0.0327040142620671,1.5787445886143112,0.3984030925534653,0.0488265371700482,-0.0443838020477304,0.4364644882893493,0.1575387995115029,-0.252335426373787,0.3193894312323392,11.130287168591169,-1.4164385993618094,0.1529018895339063,-1.2498558867361786
2.06,-0.442700778409597,-0.0328609067227498,1.5780658186321972,0.0241464644692295,0.1332412469130123,0.0253787011866873,0.390437718519404,0.0124802283719648,-0.0179915211565517,-0.4500549030261048,-0.0322157488903666,1.578300750593834,0.4012165850825595,0.0511345798900084,-0.0473177954245219,0.2074165377600981,0.0259932529423356,-0.0688307004227512,0.1939286095891357,10.99478130843363,-1.4256371347281045,0.1609963769217305,-1.2471725179528086
2.08,-0.4349207636878056,-0.032605993529998,1.5777314615927516,0.0179867517680002,0.1268628183401467,0.0248519097211972,0.3872462182240263,0.0130637847425399,-0.0157188554882606,-0.4420868411750355,-0.0312392181469656,1.5774130745528794,0.4068435701407479,0.0557506653299289,-0.0531857821781049,0.1980607319287687,-0.159575014768884,0.0291778185287553,0.113633283414557,10.851751843415514,-1.4354757583351836,0.1682103790622645,-1.2411834886716548
2.1,-0.4272425355149806,-0.0323228677901613,1.5774219626314665,0.0128371429284043,0.1205843211778272,0.0244490701706009,0.3806398527869977,0.0150581324270279,-0.0153224874227872,-0.4341187793239662,-0.0302626874035647,1.5765253985119247,0.4124705551989364,0.0603667507698493,-0.0590537689316878,0.3456103102394242,-0.3303182718514319,0.099717384224401,0.0198184032736682,10.731868519947966,-1.4438411968851967,0.1739208038948956,-1.233937877331553
2.12,-0.4200992498101267,-0.0320082867450778,1.5771211998908856,0.0088714636305771,0.1155664867384863,0.0241813328251751,0.3715356933804009,0.0177949439506613,-0.0163428207227789,-0.4258693682199875,-0.0290553523881677,1.5753443231332909,0.4180975402571248,0.0649828362097697,-0.0649217556852708,0.4780610208427595,-0.4552079703298378,0.1368405761816691,-0.0510166649995819,10.623832930747994,-1.4509541449772705,0.1787769755449789,-1.2260875505317297
2.14,-0.4127931911538214,-0.0316164013554939,1.5767770937066157,0.005553520811253,0.1122105097729121,0.0240036235465037,0.3594222564848101,0.021157710008426,-0.0180330494602116,-0.4176199571160088,-0.0278480173727707,1.5741632477546572,0.4237245253153132,0.0695989216496902,-0.0707897424388537,0.634232650861574,-0.6056718447795428,0.1681383028882361,-0.0845114368716346,10.539843478809416,-1.4546200903118542,0.1825212205763572,-1.2193396751533694
2.16,-0.4057463049716895,-0.031151745298325,1.5763944028106809,0.003025480381006,0.1116341709102039,0.0239122453276063,0.3461934338260472,0.0250373991795249,-0.0201662002123807,-0.4092298713855753,-0.0265252802213757,1.5728354727071838,0.4293515103735017,0.0742150070896106,-0.0766577291924367,0.6975028120603154,-0.6614411329381426,0.193984458554944,-0.1066575376084564,10.509582030539605,-1.4522301536517157,0.1851339445298917,-1.2149570320100995
2.18,-0.3989509997445871,-0.0306050590915049,1.5759656067610417,0.0012298888372538,0.1135211636665766,0.0238861938522065,0.3343369882639446,0.0292890480356579,-0.0226026488169604,-0.4006991110286872,-0.0250871409339827,1.571360997990871,0.4349784954316901,0.078831092529531,-0.0825257159460196,0.6414594709833931,-0.592822278105129,0.2125824428066528,-0.1218224302289844,10.453856307557544,-1.4470721488539535,0.1868419510265794,-1.2137946124346133
2.2,-0.3926968957397482,-0.0300031439825064,1.5755117025260603,0.0001653229894668,0.1168478535436355,0.0239104710578466,0.3248242024435281,0.0337781213281726,-0.0250570050006671,-0.3822341503313899,-0.029140606689722,1.5748354743201938,0.3461005572315254,0.0296367096468163,-0.0040133943482809,0.5400665175864551,-0.475639291020824,0.2244536646257316,-0.1227178091853346,10.453856307557544,-1.4400886232716097,0.1879447907677271,-1.215208799058437
2.22,-0.3862395292406619,-0.0292094692841288,1.5751306253670725,0.0018704090937012,0.1203160321863996,0.0241361327619418,0.3215951285539078,0.0447756799470961,-0.0121808729260175,-0.3822341503313899,-0.029140606689722,1.5748354743201938,0.3461005572315254,0.0296367096468163,-0.0040133943482809,0.8619280581421903,-0.1614536944810174,0.5498779309461757,0.6438066037324797,10.44112404802854,-1.4196284590884578,0.1849110528197257,-1.2188595425742703
2.24,-0.3798342631102766,-0.0282369980093745,1.5750268778654262,0.0071527626865213,0.1225640882483126,0.0246156090886881,0.319036861169369,0.0509937929754237,0.0009933711366907,-0.3822341503313899,-0.029140606689722,1.5748354743201938,0.3461005572315254,0.0296367096468163,-0.0040133943482809,0.7395444007422002,-0.1279133692269396,0.31090565141638,0.6587122031354125,11.467199002406232,-1.4188096856534975,0.1796045554558948,-1.233339612766484
2.26,-0.3734806131279489,-0.0271977782549554,1.5751667293742515,0.0131737266344845,0.1238381128293814,0.0251424206817046,0.3163926346372316,0.0524822843850547,0.0123162792101445,-0.3787731447590746,-0.0288442395932538,1.574795340376711,0.3484532710250416,0.029706241969048,-0.0002955434545451,0.5861224016143942,-0.132211326606868,0.0744245704815512,0.5661454036726907,11.37920108190974,-1.4180654617485915,0.1735301546611411,-1.2445221236437944
2.28,-0.3674964950006492,-0.0262105052305052,1.5754949070293025,0.0183871531279015,0.1243687379754814,0.0255954783799562,0.3135955296948619,0.0514700957664817,0.021651887373793,-0.3718511336144441,-0.0282515054003175,1.5747150724897454,0.3531586986120739,0.0298453066135114,0.0071401583329266,0.4899028006742216,-0.1398552471184866,-0.0506094309286501,0.466780408182425,11.283920520022548,-1.417283371404282,0.1674972372167437,-1.2532171352940116
2.3000000000000003,-0.3612589333709725,-0.0252069525562879,1.5760209569169483,0.0229557140051281,0.1244455147326242,0.0259922123213346,0.310264382906689,0.0490345723809744,0.0304109368073098,-0.3649291224698136,-0.0276587712073812,1.5746348046027798,0.3578641261991062,0.0299843712579747,0.0145758601203984,0.4841210077669075,-0.1665573394086433,-0.121776169275364,0.4379524716758406,11.207148308330945,-1.4162672800258782,0.1623682547207299,-1.259378907823575
2.32,-0.3550925290310291,-0.0242634430833577,1.5767109711616654,0.0264720605057394,0.1242447001486447,0.0263005917689258,0.3065167140079143,0.0456596223578384,0.0381518279665628,-0.3577718399458315,-0.0270590837822217,1.574926321805188,0.3625695537861385,0.0301234359024381,0.0220115619078702,0.4619434645411444,-0.1873834449387379,-0.1687475011568035,0.3870445579626473,11.151668715721826,-1.4151167223575192,0.158518862018715,-1.26348376893602
2.34,-0.3493066506415393,-0.0234347430298016,1.5775082082285363,0.0289171837116165,0.123962529448145,0.0265211107139004,0.3027029805743195,0.0419395545361143,0.0453798636358602,-0.3506145574218493,-0.0264593963570622,1.575217839007596,0.3672749813731709,0.0302625005469015,0.0294472636953419,0.4489653854624573,-0.1906866716797406,-0.1860033910862018,0.3614017834648705,11.101555617408849,-1.413368682611697,0.1554529457619243,-1.2665392376524829
2.36,-0.3432959334722111,-0.0226407980006788,1.5784954288584578,0.0306804124058513,0.123675151339874,0.0266901399493086,0.2985659112725198,0.037751161644546,0.0529587947140049,-0.3433396392081914,-0.0258562323157911,1.5756952487546907,0.3719804089602032,0.0304015651913648,0.0368829654828137,0.4798389670225344,-0.2068534650899817,-0.2094196445784145,0.3789465539072379,11.1049888835405,-1.4114293165574203,0.1533174661537792,-1.2691296523567013
2.38,-0.3373691451804753,-0.0219362284327878,1.5796326178213904,0.0315750024211786,0.1234577222787724,0.0267951826468663,0.2943288487789512,0.0330404252684377,0.0603775608831863,-0.3359470853048577,-0.0252495916584084,1.5763585510464722,0.3766858365472355,0.0305406298358282,0.0443186672702855,0.4878058713581301,-0.2118531246784294,-0.2355368188054166,0.3709383084590681,11.1049888835405,-1.4094432253567544,0.152176712306755,-1.2712635865649655
2.4,-0.3315276559635612,-0.0213298619078203,1.5809162186993388,0.0314463221587249,0.123347112071019,0.0268285552460635,0.29004737743328,0.0279657900129346,0.0676099151833353,-0.3226527027415278,-0.0202842071693659,1.5826514958655498,0.3076042560336471,0.0353769981241487,0.0406401495927791,0.4908917105204644,-0.2140735672835625,-0.2537317627751551,0.3616177150074506,11.099427225492036,-1.4073805508894963,0.1521827122377033,-1.2729809667865033
2.42,-0.3260783223482377,-0.020856274703738,1.5821758059526123,0.0299117006748581,0.1236200791149251,0.0267722765873976,0.2838835055968463,0.0224154766655876,0.0646400858110228,-0.3226527027415278,-0.0202842071693659,1.5826514958655498,0.3076042560336471,0.0353769981241487,0.0406401495927791,0.4405087421674204,-0.3081935918216844,-0.2775156673673506,-0.1484914686156274,11.09197446905,-1.4112855915310738,0.1544207454093013,-1.2750832096670062
2.44,-0.3204690277489339,-0.0204569427421669,1.5834293203094834,0.0267728561219996,0.1245503945801482,0.0266262668894041,0.2774618073354871,0.0182624897701941,0.0609085105291462,-0.3226527027415278,-0.0202842071693659,1.5826514958655498,0.3076042560336471,0.0353769981241487,0.0406401495927791,0.4254708062768987,-0.3210849130679621,-0.207649344769672,-0.1865787640938254,10.458180406101746,-1.407833308987421,0.1579477944404045,-1.2706647490058116
2.46,-0.3149833710410178,-0.0201102391413568,1.584609270754196,0.0232187994889692,0.1260518672322204,0.0264664013502611,0.2715412886633645,0.0166958802762202,0.0572802091865035,-0.3195766601811913,-0.0199304371881244,1.5830578973614775,0.3102593374845863,0.0358443126952909,0.0366926673346977,0.3559191526406828,-0.2960259336061283,-0.0783304746986972,-0.1814150671321391,10.444821471684008,-1.4042903942296443,0.1617743892919605,-1.2675738764536464
2.48,-0.3098754074039951,-0.0197942762900992,1.5856636804410282,0.0201389756544926,0.1278427195654999,0.026342417026055,0.2665267403394337,0.0165834165158095,0.0538923779260122,-0.3134245750605184,-0.0192228972256414,1.5838707003533332,0.3155695003864647,0.0367789418375753,0.0287977028185348,0.302637339236273,-0.2507274161965389,-0.005623188020536,-0.1693915630245623,10.44332345636576,-1.4005367086605716,0.1654783453834793,-1.2653713939259947
2.5,-0.3045942221520253,-0.0194555843972379,1.586704032168046,0.0174192749801106,0.1299452685791696,0.0262509161042993,0.261941855138145,0.0172416870824915,0.0503195429784685,-0.3072724899398454,-0.0185153572631585,1.5846835033451887,0.320879663288343,0.0377135709798597,0.0209027383023719,0.2924877861139927,-0.2292442600644345,0.0329135283341023,-0.1786417473771874,10.442423174942633,-1.3968924332019312,0.1685873261373714,-1.2639625871520677
2.52,-0.2993972539839752,-0.0190978007564931,1.58767292157238,0.0152685161236733,0.1321214655766068,0.026198812322934,0.2580593566561789,0.018434672748591,0.0467476261873549,-0.3008548966740786,-0.0177610858435613,1.5851015581112362,0.3261898261902214,0.0386482001221441,0.0130077737862091,0.2704422249974444,-0.1941249240983072,0.0596492833049744,-0.1785958395556786,10.438559061828528,-1.3930759606440684,0.1710275502750846,-1.2628929249227527
2.54,-0.2942715652995747,-0.0187115539366728,1.5885663556541716,0.0136792454472353,0.1342499030535565,0.0261841950030209,0.2547632356092895,0.0200368637099117,0.0427747497246012,-0.2944373034083117,-0.0170068144239641,1.5855196128772835,0.3314999890920997,0.0395828292644284,0.0051128092700462,0.2702553293673765,-0.1648060523444711,0.0801095480660369,-0.1986438231376851,10.438559061828528,-1.39008985368222,0.1727928392539861,-1.262341474717622
2.56,-0.2894574145178376,-0.0183108948393687,1.589338107851908,0.012713715070168,0.1361251451530313,0.0262060105115928,0.2521854593640128,0.0219972840629389,0.0386630676399986,-0.2878869560699979,-0.0162291772758098,1.5857402935304268,0.3368101519939781,0.0405174584067128,-0.0027821552461166,0.2616969043383856,-0.1288888122638332,0.0980210176513587,-0.205584104230129,10.41405727997062,-1.3873131624468311,0.1740110775485386,-1.2617699327042091
2.58,-0.2844380859357531,-0.017845686501627,1.590062912186141,0.012381177570462,0.1378592228005429,0.0262738634303826,0.2499119080377027,0.024381234497506,0.0340215668413587,-0.2812038546591371,-0.0154281743990984,1.585763600070666,0.3421203148958565,0.0414520875489972,-0.0106771197622795,0.2845864761878812,-0.1136775663155051,0.1191975217283562,-0.2320750399319958,10.39357014916368,-1.3851604608855603,0.1744465457474912,-1.261089499607654
2.6,-0.2794603538604504,-0.0173311402010743,1.5906923045945431,0.0128503683639397,0.1393052311963475,0.0263944239046867,0.2479917800995531,0.0268952069033615,0.0291436645877374,-0.271942490533868,-0.0166266247767517,1.5917639905282088,0.2583143738803669,0.0318897717639095,0.0145672422233768,0.2906926166595433,-0.0960063969074775,0.1256986202927707,-0.2438951126810661,10.360726304834316,-1.3835242859289256,0.1739700925522943,-1.2601476262598894
2.62,-0.2744819912243575,-0.0167780125075289,1.5912894290012285,0.0138348568868764,0.1396597092687828,0.0265362254038752,0.2498968788860114,0.0282984424585994,0.0308056604812823,-0.271942490533868,-0.0166266247767517,1.5917639905282088,0.2583143738803669,0.0318897717639095,0.0145672422233768,0.1445743905383083,0.0952549393229154,0.0701617777618993,0.0830997946772485,10.75704931653854,-1.3762718106915943,0.1723704717459211,-1.2560640456554404
2.64,-0.2697207777507298,-0.0162299817212472,1.5918806294174863,0.014946195696175,0.138325550125012,0.0266576155797496,0.2510499558701682,0.0293168522086819,0.0313331460979224,-0.271942490533868,-0.0166266247767517,1.5917639905282088,0.2583143738803669,0.0318897717639095,0.0145672422233768,0.0813170650327643,0.0576538492078365,0.0509204875041217,0.0263742808320045,10.75704931653854,-1.3802510169556432,0.1713679813997169,-1.257348965424066
