t,x,y,z,roll,pitch,yaw,v_x,v_y,v_z,ref_x,ref_y,ref_z,ref_v_x,ref_v_y,ref_v_z,a_com,a_x,a_y,a_z,thrust,wind_x,wind_y,wind_z
0.0,0.0016202965553254,-1.0378511094708611,2.5288183973246987,0.0222145232118476,0.1365720685241176,0.0266408384309209,0.0060277541736753,-0.0043259088706134,0.0180503214259677,0.0017965066619121,-1.0378742778742451,2.529365319985833,0.0633271370211032,0.0982838807528755,-0.0818174355049743,0.9757835460744644,0.3013877086837684,-0.2162954435306736,0.902516071298386,10.555563805183738,-1.2855551015153557,0.1536061749186424,-1.176587612983918
0.02,0.0016454619516798,-1.0381764595385068,2.5289699024093286,0.0134806547541414,0.1386844189283,0.0260599310897743,-0.0033357681506856,-0.0257743572359837,-0.0030298647281083,0.0017965066619121,-1.0378742778742451,2.529365319985833,0.0639205422380355,0.0982838807528755,-0.0818174355049743,1.5748696262637614,-0.4681761162180514,-1.072422418268513,-1.0540093077038055,10.555563805183738,-1.2983473542576494,0.1640534614777591,-1.1669035771318272
0.04,0.0015011274386009,-1.038725933425617,2.528658407550739,-0.0029497832226125,0.1445168773036104,0.0249527001194101,-0.0100743766821596,-0.0271041834047188,-0.0268527133164788,0.0017965066619121,-1.0378742778742451,2.529365319985833,0.0639205422380355,0.0982838807528755,-0.0818174355049743,1.239662653147957,-0.3369304265736993,-0.0664913084367578,-1.1911424294185249,9.224043187384268,-1.2843491642544222,0.1804362893266291,-1.1548053673131613
0.06,0.0012606696010879,-1.0392102042501563,2.5278684625284136,-0.0199558348925083,0.1521194311427596,0.0237089855574189,-0.0132965529367208,-0.0208486104412556,-0.0509622946300179,0.0017965066619121,-1.0378742778742451,2.529365319985833,0.0639205422380355,0.0982838807528755,-0.0818174355049743,1.2557731921318669,-0.1611088127280579,0.3127786481731629,-1.2054790656769545,9.180455594428167,-1.2737440672615503,0.1974939253829885,-1.146361878376445
0.08,0.0009862850762787,-1.0395258559084146,2.52659806438272,-0.0363596029979467,0.1604085605878133,0.0223824332495248,-0.0137130002399533,-0.0106641235536137,-0.0748914233080034,0.0024357120842924,-1.0368914390667163,2.5285471456307835,0.0755218688526538,0.1182838810508987,-0.1018174358029975,1.3004810656142824,-0.0208223651616283,0.509224344382093,-1.196456433899272,9.180455594428167,-1.2651979126076005,0.2130079125297863,-1.1400117259938487
0.1,0.0007403390364661,-1.0396063937181508,2.5249512738495703,-0.0512347665472382,0.1683810018750001,0.0210649784080981,-0.0119638701205574,0.0019757123226143,-0.0972838005376349,0.0037141229290531,-1.034925761451659,2.526910796920684,0.0987245220818904,0.1582838816469451,-0.1418174363990439,1.2886460580262908,0.0874565059697946,0.6319917938114036,-1.119618861481575,9.195077590088658,-1.2581486183013686,0.2284969404877549,-1.13453502629652
0.12,0.0005369381534948,-1.0393994067601224,2.5227592291748517,-0.0660729985780942,0.1765768960880822,0.0196456584367895,-0.008273804566599,0.0183466167909556,-0.1207599122570202,0.0049925337738139,-1.032960083836601,2.5252744482105847,0.1219271753111271,0.1982838822429916,-0.1818174369950904,1.4428711986566305,0.1845032776979209,0.8185452234170656,-1.1738055859692655,9.223105349320576,-1.253442453605338,0.2431584840734578,-1.130396037240465
0.14,0.0004229666761959,-1.0388170294852643,2.520090834639887,-0.0794279290359321,0.1844257974328478,0.0182652654208805,-0.0031385428305718,0.0390028784558172,-0.1449409863080574,0.0074310772800364,-1.0289944061917415,2.521638099470682,0.1451298285403637,0.238283882839038,-0.2218174375911368,1.6107268555891805,0.2567630868013602,1.0328130832430833,-1.20905370255186,9.24167889500859,-1.25141897874687,0.2564573963502461,-1.127854067099931
0.16,0.0004255682414287,-1.0377893993824243,2.516932830864916,-0.0906825429383634,0.1918692319623422,0.0169978300466391,0.0033051702736432,0.062390104648559,-0.1696404334885177,0.0098696207862589,-1.0250287285468815,2.518001750730781,0.1683324817696003,0.2782838834350846,-0.2618174381871834,1.7310015009960629,0.3221856552107532,1.1693613096370885,-1.2349723590230164,9.224703662523098,-1.2510586204070395,0.2671097044007661,-1.1258977941494437
0.18,0.0005591801853371,-1.0363544998299092,2.513473558526136,-0.0992030795329664,0.1985484994391709,0.0159403242009949,0.010572822627664,0.0869765485158127,-0.1932280231580504,0.0128882306232124,-1.020063050887121,2.513365401975978,0.1915351349988369,0.318283884031131,-0.3018174387832298,1.741900097016735,0.3633826177010412,1.2293221933626834,-1.1793794834766336,9.220304121389743,-1.251665590426099,0.2760882634580747,-1.1247950935596236
0.2,0.0008607755038785,-1.0343306076297374,2.5093465767134777,-0.1059625696139817,0.2051696666615843,0.0149996212122226,0.0193435331358512,0.1137947694270371,-0.2182085326320856,0.0164869067908968,-1.0140973732124583,2.507729053206274,0.2147377882280735,0.3582838846271774,-0.3418174393792762,1.8842559468156264,0.4385355254093595,1.3409110455612194,-1.2490254737017603,9.241888415591347,-1.2524035729443643,0.2828552858629735,-1.1250574588065323
0.22,0.0013495702872768,-1.0317608499009183,2.504721193029268,-0.1106617755061254,0.2113833058979767,0.0142397118726293,0.0292283571796773,0.1414829137547548,-0.2430374380011677,0.0018279521606711,-1.0286408691583857,2.498436150081873,0.0676162918581565,0.2137947709171532,-0.3182085341222017,1.924069661236804,0.4942412021913082,1.3844072163858876,-1.2414452684541026,9.241888415591347,-1.253907771786655,0.2874673378894093,-1.126161695968625
0.24,0.0020798871515505,-1.028507569734579,2.4997253623333977,-0.1099475287136269,0.2170305736894895,0.013936382202753,0.0435901318889309,0.1812539053896826,-0.2544433804846845,0.0018279521606711,-1.0286408691583857,2.498436150081873,0.0676162918581565,0.2137947709171532,-0.3182085341222017,2.1897990046817903,0.7180887354626764,1.9885495817463887,-0.5702971241758406,9.264832517655124,-1.252915354619904,0.2873340869612827,-1.1303604275239263
0.26,0.0030531553298081,-1.0247530120545407,2.494783351989062,-0.1037397983443017,0.2216856326084964,0.0141550197086393,0.0581757852453307,0.2108245490456561,-0.2651661299739528,0.0018279521606711,-1.0286408691583857,2.498436150081873,0.0676162918581565,0.2137947709171532,-0.3182085341222017,1.7335956900840732,0.7292826678199915,1.4785321827986766,-0.5361374744634162,10.183445308633054,-1.2601349036906089,0.2825155235732787,-1.1428991511491846
0.28,0.0043809937109334,-1.0202697239952745,2.489337885904761,-0.0958427557827473,0.2257856354494273,0.0146112543182006,0.0738335017316212,0.2356507259818535,-0.2789452919614778,0.0025041150792526,-1.0265029214492138,2.495254064740652,0.0772708436026175,0.2337947712151764,-0.3382085344202249,1.6212406143991112,0.7828858243145258,1.241308846809866,-0.6889580993762495,10.031522501253676,-1.2656762201287022,0.2763331591928269,-1.1576674411398142
0.3,0.0060231011447222,-1.0153285157577037,2.483589952146388,-0.0881729618731171,0.2290007576489986,0.0151770147580813,0.0895571653375886,0.2571390196611981,-0.2952679008720862,0.0038564409164158,-1.0222270260308708,2.488889894058208,0.0965799470915396,0.2737947718112228,-0.3782085350162714,1.5615760661044171,0.7861831802983714,1.0744146839672313,-0.8161304455304191,9.860942826312566,-1.2709542362161252,0.2702524922824586,-1.1685371298301217
0.32,0.0079776961780006,-1.0099826497820743,2.4774905768706605,-0.0813251819725347,0.231340863713868,0.0157924106599813,0.1050600081942884,0.2764554243575493,-0.3138517793698279,0.0052087667535789,-1.0179511306125275,2.482525723375764,0.1158890505804618,0.3137947724072693,-0.4182085356123178,1.5482426869289376,0.7751421428349898,0.9658202348175604,-0.9291939248870869,9.721155725514109,-1.2758692594293208,0.2642149895003955,-1.1761204452759808
0.34,0.0101182192234978,-1.0045611287136986,2.471335358400364,-0.0757221531668433,0.2328689587312713,0.0163900371892712,0.1194363849369597,0.2933878107916555,-0.3331439232090653,0.0075265477651881,-1.0116752351643823,2.474161552663517,0.1351981540693839,0.3537947730033157,-0.4582085362083642,1.471030873668994,0.7188188371335613,0.8466193217053108,-0.9646071919618664,9.512042292560182,-1.279174223658626,0.2589658779142771,-1.181950226278521
0.36,0.0126620443498141,-0.9985181976095622,2.4644501492854136,-0.0708015864392083,0.2339334450484964,0.0170064641550579,0.1341477295645278,0.3101075566349728,-0.3544124123932986,0.0098443287767974,-1.005399339716237,2.465797381951271,0.154507257558306,0.3937947735993622,-0.4982085368044108,1.5397420189727014,0.7355672313784047,0.8359872921658629,-1.0634244592116675,9.512042292560182,-1.2824950128295292,0.2546579793277795,-1.18599574216153
0.38,0.0155001878274478,-0.99213991662309,2.457132358245372,-0.0665467223961688,0.2345153833111929,0.0176216449936311,0.1488890893142112,0.326830789157996,-0.3763169021775533,0.0126448373756296,-0.9981234442531906,2.456433211224123,0.1738163610472281,0.4337947741954087,-0.5382085374004572,1.5626746830332336,0.7370679874841731,0.8361616261511606,-1.0952244892127343,9.4298098573654,-1.2851997554784271,0.2511716344066472,-1.18906844271047
0.4,0.0184687566863343,-0.985774660713447,2.449769207225795,-0.0627737212443931,0.2345751857447385,0.0182275940978921,0.1627877661715819,0.3422777993396956,-0.3976401390497001,0.015928073561685,-0.9898475487752428,2.446069040482074,0.1931254645361503,0.4737947747914551,-0.5782085379965036,1.4886770743220508,0.694933842868535,0.7723505090849792,-1.066161843607341,9.402033605004362,-1.2882431391638247,0.2477777843867117,-1.191435173035539
0.42,0.0218747625785075,-0.9787649760775472,2.4415742935019766,-0.05899922203522,0.2341717055027154,0.0188857372318497,0.1770220630916227,0.3577951204431367,-0.4207495686768106,0.0266081449949134,-0.9686607707464622,2.42988720027331,0.1571194226611032,0.4422778008298117,-0.4976401405398162,1.5632083999946669,0.71171484600204,0.7758660551720559,-1.1554714813555245,9.36005260986076,-1.291635737405333,0.2445626986806751,-1.1927901129933265
0.44,0.0257213058090067,-0.9714424351311656,2.433118961236296,-0.0555700953169782,0.2300064600860682,0.0197374952624935,0.2070427501610589,0.3737761432629759,-0.4224793202052029,0.0266081449949134,-0.9686607707464622,2.42988720027331,0.1571194226611032,0.4422778008298117,-0.4976401405398162,1.7026646637250762,1.5010343534718098,0.7990511409919604,-0.0864875764196165,9.36005260986076,-1.2886651839515109,0.239688847231388,-1.1736795014062165
0.46,0.0301391662282303,-0.963818187545236,2.42463118780444,-0.0529327180091681,0.2190964828683507,0.0208916920329261,0.2320477956473161,0.3881170209992532,-0.4261760526229759,0.0266081449949134,-0.9686607707464622,2.42988720027331,0.1571194226611032,0.4422778008298117,-0.4976401405398162,1.4530819871786798,1.250252274312856,0.7170438868138673,-0.1848366208886481,10.7876376079912,-1.3146150458962074,0.2401329769550463,-1.178108442183076
0.48,0.0347194335423169,-0.9563108055617204,2.416458381781424,-0.0511310606755379,0.2049251257256672,0.0221161602842815,0.2481206335168118,0.4014854685326948,-0.4338121812444118,0.0281793392215244,-0.964237992738164,2.4249107988679115,0.1559857539590075,0.4622778011278349,-0.5176401408378395,1.112836428857121,0.8036418934747852,0.6684223766720787,-0.3818064310717961,10.4459655699593,-1.3423809602900487,0.2409686724270135,-1.1740041812419408
0.5,0.0397900500495649,-0.9481413886798464,2.4076622912299115,-0.049896519959367,0.1882137895071881,0.023427288758563,0.2574206384872324,0.4147617453245106,-0.4455062234854954,0.0313217276747465,-0.9553924367215678,2.4149579960571157,0.153718416554816,0.5022778017238814,-0.557640141433886,0.999375107053156,0.465000248521033,0.6638138395907905,-0.5847021120541779,9.867057086525165,-1.3690930575222808,0.2418121846573229,-1.161235295533687
0.52,0.0449705390662904,-0.9397145281286956,2.398591957608029,-0.0494983740954696,0.1714843296829623,0.0246689767160799,0.2597813212818703,0.4273354492991507,-0.4608629669758819,0.0344641161279685,-0.9465468807049716,2.405005193246319,0.1514510791506245,0.5422778023199278,-0.5976401420299324,0.9993753368083332,0.1180341397318957,0.6286851987320041,-0.7678371745193258,9.867057086525165,-1.3912899298237131,0.2427881093284066,-1.143719046283059
0.54,0.049879762833669,-0.931480926505441,2.3896624409668483,-0.0500051109619453,0.1568017275193327,0.0257314053047885,0.256695917773811,0.4388208601218651,-0.4782837392810685,0.037493137710981,-0.935701324658573,2.3930523904057206,0.149183741746433,0.5822778029159743,-0.6376401426259789,1.054653597494486,-0.1542701754029651,0.5742705411357185,-0.8710386152593286,9.642523243333017,-1.4098580928198734,0.2443568817436561,-1.124576680235319
0.56,0.0549404526161731,-0.922580958017542,2.3798882241119306,-0.051611995367301,0.1434502682602373,0.0266911304588059,0.2493622680215197,0.4506715167311381,-0.498282616507337,0.0405221592939935,-0.9248557686121744,2.3810995875651217,0.1469164043422415,0.6222778035120208,-0.6776401432220254,1.2187858415976447,-0.3666824876145669,0.5925328304636518,-0.9999438613134264,9.45822321893047,-1.4234762609958491,0.2466197794279711,-1.105504289571872
0.58,0.0598184750459042,-0.9134286415880664,2.369699443838844,-0.0539745399262872,0.1327806281211938,0.0274939585362156,0.2388799339063121,0.4641180169501643,-0.5195780189943315,0.0434944974419012,-0.9130102125508748,2.368146784709622,0.14464906693805,0.6622778041080671,-0.7176401438180717,1.3639848457059631,-0.5241167057603802,0.6723250109513079,-1.0647701243497258,9.352731189159384,-1.4315958560548494,0.24910841243455,-1.088549622566586
0.6,0.0642366138864933,-0.9044676561845,2.359615835935946,-0.056059364868366,0.1253179026363116,0.0281528217243521,0.2267811970024215,0.4783504499119721,-0.5407716913624037,0.0464101521547041,-0.9001646564746739,2.354193981839221,0.1423817295338585,0.7022778047041136,-0.7576401444141182,1.4125449825820602,-0.6049368451945286,0.7116216480903909,-1.0596836184036065,9.283444546279044,-1.4366244515631592,0.2515178205099202,-1.0748140848999477
0.62,0.0686201261164517,-0.8947377282046275,2.348555976541991,-0.0577242245133613,0.1205537399741391,0.0287293211577387,0.2121453438365737,0.4937932635869838,-0.5641342631814731,0.0755756737366144,-0.8805501336889012,2.332577251367826,0.1544201822190391,0.5783504514020883,-0.6407716928525198,1.5799513078688243,-0.7317926582923919,0.7721406837505856,-1.168128590953471,9.22822301549877,-1.4381570584136567,0.2533397866746467,-1.06550009956501
0.64,0.0728236936987201,-0.8846334334906977,2.337289922993985,-0.0573494452303838,0.1164554188957586,0.0294175233021527,0.2094078453360364,0.5155627940332707,-0.5598873057602769,0.0755756737366144,-0.8805501336889012,2.332577251367826,0.1544201822190391,0.5783504514020883,-0.6407716928525198,1.1174110716626466,-0.1368749250268613,1.088476522314341,0.2123478710598092,10.847481885995876,-1.424415412424179,0.2500392431397086,-1.0353152586339427
0.66,0.0767720039579389,-0.8746509804321128,2.3266614394996714,-0.0544823091744289,0.1098881384040461,0.030384819099611,0.2057096377737796,0.533849145529766,-0.5592353851490462,0.0755756737366144,-0.8805501336889012,2.332577251367826,0.1544201822190391,0.5783504514020883,-0.6407716928525198,0.933397544873378,-0.184910378112843,0.9143175748247688,0.0325960305615324,10.43327596130348,-1.43815286579947,0.2499940347548081,-1.0428054192527745
0.68,0.080803806679757,-0.8638051970206709,2.31542495237442,-0.0502605711380993,0.1011881638002796,0.031544594576794,0.1972359875480696,0.5494377947564375,-0.5646972579961147,0.0771198755588048,-0.8747666291748804,2.3261695344393005,0.1399479792623626,0.5983504517001115,-0.660771693150543,0.9282251718433192,-0.4236825112855003,0.7794324613335735,-0.2730936423534225,10.43327596130348,-1.4514400136261087,0.2481176694114151,-1.0434333924935304
0.7000000000000001,0.0846201201931936,-0.8526774219765937,2.30401981815523,-0.0460539696509056,0.0918887274583073,0.03268133014399,0.1845019115126078,0.5624920513888124,-0.5757471410401944,0.0802082792031855,-0.8631996201468386,2.3133541005822504,0.1110035733490096,0.6383504522961579,-0.7007716937465894,1.0661498768802,-0.6367038017730877,0.6527128316187458,-0.5524941522039861,10.061968938335667,-1.4621961041137392,0.245511864944824,-1.037939149870825
0.72,0.0881416534332888,-0.8413072637617406,2.292340473545176,-0.0423452744194449,0.0829865688781818,0.0337148911726179,0.1681516988924668,0.5739428814521792,-0.5915921773020739,0.0832966828475663,-0.8516326111187968,2.3005386667252,0.0820591674356567,0.6783504528922044,-0.7407716943426359,1.2742803223822068,-0.8175106310070526,0.572541503168339,-0.7922518130939749,9.755938448834968,-1.4691385698431374,0.2429152488493099,-1.0294411841257318
0.74,0.0911567703215485,-0.8303043604853512,2.280917590040017,-0.0394278404485153,0.0755210748439005,0.0345739229806327,0.1500215289819262,0.5838011418167367,-0.6099996273034356,0.0849378661962795,-0.8380656020609527,2.285723232838347,0.0531147615223037,0.7183504534882509,-0.7807716949386824,1.3826808868581215,-0.9065084955270266,0.4929130182278751,-0.920372500068084,9.513184224862924,-1.472798626444641,0.2402791484055588,-1.0182920789416603
0.76,0.093939100861978,-0.8185280166038132,2.2684980507954817,-0.0370609368677672,0.0690961299478135,0.0353421354194928,0.1290814071187175,0.5934237676452851,-0.6310431007265898,0.0865790495449926,-0.8244985930031087,2.2709077989514945,0.0241703556089507,0.7583504540842974,-0.8207716955347288,1.5603776828009266,-1.0470060931604366,0.4811312914274224,-1.052173671157708,9.325425930599522,-1.4734309840604916,0.2379811385932692,-1.006295547166471
0.78,0.0962792379794078,-0.8065554174213589,2.255645455842165,-0.0351343010186756,0.0646669798628675,0.035983824260333,0.1058773820037452,0.6033217084620296,-0.6531908377281984,0.0874966227458719,-0.8099315839303634,2.2550923650497405,-0.0047740503044021,0.7983504546803437,-0.8607716961307752,1.6784801668775131,-1.160201255748615,0.4948970408372222,-1.107386850080433,9.234277564655258,-1.4721500555422946,0.2360484785215161,-0.9964301217294506
0.8,0.0981320101097563,-0.7943865854876794,2.2423386463400026,-0.0333215729398143,0.0631595733728711,0.0364993962319859,0.0807942211775757,0.6130064185635102,-0.676348082949098,0.0876905857989174,-0.7943645748427169,2.238276931133085,-0.0337184562177551,0.8383504552763902,-0.9007716967268216,1.7742720852522051,-1.2541580413084772,0.4842355050740321,-1.1578622610449785,9.182654082870158,-1.466031700434234,0.2339931885634303,-0.9892606625584802
0.8200000000000001,0.0994330508965778,-0.7826496742157656,2.2292604755688896,-0.0316270921366625,0.0645762179958085,0.0368828465838365,0.0578101821371177,0.6219238838803197,-0.6991057605561386,0.1021717211686351,-0.7637362645595038,2.2085212421925475,0.0318610280899978,0.7130064200536264,-0.7567456739439329,1.677572001700517,-1.1492019520228955,0.445873265840474,-1.1378838803520308,9.13204976351608,-1.4541099206735242,0.2314944158589846,-0.9840673660155604
0.84,0.1003217763170191,-0.7700847111656319,2.215338988432571,-0.0291503752538264,0.0699377628742957,0.0372101894220384,0.0329878605171896,0.633719779352346,-0.6901690238062416,0.1021717211686351,-0.7637362645595038,2.2085212421925475,0.0318610280899978,0.7130064200536264,-0.7567456739439329,1.4449533420902243,-1.241116080996408,0.5897947736013154,0.4468368374948517,9.077197938247082,-1.4353900763135332,0.226824595920863,-0.9625415725111606
0.86,0.1007679646153696,-0.7573156761602918,2.2016065219204832,-0.0263821051516817,0.0792679318695336,0.0374511451748452,0.0135126671141257,0.642684466461533,-0.683706636776743,0.1021717211686351,-0.7637362645595038,2.2085212421925475,0.0318610280899978,0.7130064200536264,-0.7567456739439329,1.11961066801299,-0.9737596701531952,0.4482343554593482,0.3231193514749264,11.110789922483493,-1.4226373998747253,0.2249272913109205,-0.981849287336605
0.88,0.1008741871840801,-0.7450298765900069,2.188620443983983,-0.0242126665908529,0.0898727225837345,0.0376161777683103,-0.0009333214622902,0.6502496785319928,-0.6835696580941704,0.1024903314495351,-0.7566062003589675,2.200953785453108,0.0220743894724823,0.7330064203516495,-0.7728251921428999,0.8153799463753872,-0.7222994288208006,0.3782606035229896,0.0068489341286337,10.693216868277888,-1.407758553632266,0.2231890327952687,-1.00223561852852
0.9,0.1007263658659717,-0.7319489169233084,2.174903676806356,-0.0225870435177855,0.1017299979266292,0.0377395921421207,-0.0126959782853053,0.6575473270738609,-0.6883441481883478,0.103127552011335,-0.742346071957895,2.185818871974229,0.0025011122374511,0.773006420947696,-0.8049842285408338,0.7321398866269532,-0.5881328411507544,0.3648824270934048,-0.2387245047088704,10.326864512355314,-1.3918889711465974,0.2218698645379368,-1.0210662784621978
0.92,0.1003751142540535,-0.7187274627958561,2.1610466508280046,-0.0218086789690474,0.1136540989124479,0.0378074513232949,-0.0215077499957665,0.6643094146777303,-0.6972984585991489,0.103764772573135,-0.7280859435568225,2.170683958495351,-0.0170721649975799,0.8130064215437425,-0.8371432649387678,0.713359699542715,-0.4405885855230589,0.3381043801934713,-0.447715520540054,10.05069042728428,-1.3762310795724806,0.221273923999181,-1.038513842667609
0.94,0.0998750995487524,-0.705375751493359,2.146975155701262,-0.0221171292653121,0.1252882762748038,0.0378000694189287,-0.0277595385044801,0.6706297575441954,-0.7095480875657153,0.1034233292731834,-0.7118258151259477,2.1539410931965755,-0.036645442232611,0.853006422139789,-0.8693023013367017,0.7567777139390126,-0.3125894254356786,0.316017143323255,-0.6124814483283225,9.840308171565084,-1.3618638859044945,0.2215998519586508,-1.0531409410684394
0.96,0.0993116086987511,-0.6925767328484795,2.133365507820764,-0.023666653609079,0.1357760271444628,0.0377007258329786,-0.0310426982341349,0.6765025935010277,-0.7224486856857398,0.1030818859732318,-0.6955656866950728,2.1371982278978003,-0.0562187194676422,0.8930064227358354,-0.9014613377346358,0.7274867212545366,-0.1641579864827436,0.293641797841615,-0.6450299060012266,9.681374968722594,-1.3472179855064996,0.2230707479680377,-1.065242566620768
0.98,0.0986794943882852,-0.6789687421904834,2.118765740696533,-0.0264113968389756,0.1458216103152766,0.0375126294744364,-0.0318182260224332,0.6842804757374631,-0.7369124012754038,0.1022511107424044,-0.6783055582492968,2.1196513866890765,-0.0757919967026733,0.9330064233318818,-0.9336203741325696,0.8220340079536986,-0.0387763894149141,0.3888941118217692,-0.7231857794831986,9.637060578831552,-1.3340309397234782,0.2257364738900223,-1.0762093797485914
1.0,0.0980569940059452,-0.6651790854186385,2.1038680758074597,-0.0293137756516136,0.1544624384752675,0.0373181298033827,-0.0303371757925197,0.6942799813540208,-0.7521558731354463,0.1009310035807012,-0.6600454297886196,2.101300569570405,-0.0953652739377044,0.9730064239279282,-0.9657794105305036,0.9145313782301342,0.0740525114956775,0.4999752808278856,-0.7621735930021245,9.585443760067392,-1.324008886645367,0.2286023564950445,-1.0857237662560009
1.02,0.0975096909934219,-0.6518812698283422,2.089425858460562,-0.0316420491948634,0.161195065761257,0.0371826308264704,-0.0273521786837695,0.7048659961187924,-0.7673294668732704,0.0965401352163193,-0.6304650863509375,2.066260282150687,-0.0459781610131904,0.772074495950483,-0.7588478728688943,0.937032367717019,0.1492498554375108,0.5293007382385806,-0.758679686891206,9.563640292557466,-1.3160384442573303,0.2313453879504535,-1.0945098419658137
1.04,0.097055924469268,-0.637506708081136,2.0743176607311065,-0.0289907277480864,0.1671693986776509,0.0374205430773943,-0.0176640925672499,0.7305414063889597,-0.7405173753806943,0.0965401352163193,-0.6304650863509375,2.066260282150687,-0.0459781610131904,0.772074495950483,-0.7588478728688943,1.918315638358808,0.4844043058259781,1.2837705135083644,1.3406045746288064,12.448946023131612,-1.3038675345401265,0.2265712975342151,-1.0735083488895336
1.06,0.096827315145176,-0.6227149775713896,2.05978839034156,-0.0202934928904206,0.1721830128769177,0.0381271516704179,-0.005691012096402,0.7460189640946898,-0.7139974830577561,0.0965401352163193,-0.6304650863509375,2.066260282150687,-0.0459781610131904,0.772074495950483,-0.7588478728688943,1.6478881464740254,0.5986540235423943,0.7738778852865058,1.3259946161469085,12.082057080194318,-1.3088247354952327,0.2209056119817272,-1.100723684783038
1.08,0.0968407284021459,-0.6084522530285166,2.0464146700632746,-0.0108509390806613,0.1755558104653173,0.0389279922840836,0.00639338714008,0.7542379762004245,-0.6950956157574069,0.0960803536061873,-0.6227443413914326,2.058671803421998,-0.0491063580573245,0.7876333988697755,-0.7601862728155839,1.1946395401342988,0.6042199618241045,0.4109506052867362,0.9450933650174632,12.082057080194318,-1.3127796328665162,0.2128485155743509,-1.1248703400270124
1.1,0.0971029340737674,-0.5933155803888663,2.032671841778181,-0.0013714652233364,0.1773586835587418,0.0397600959574365,0.019029132762633,0.7588859351599272,-0.6804146910003764,0.0951607903859235,-0.6073028514724229,2.04349484596462,-0.0553627521455928,0.8187512047083604,-0.7628630727089631,0.9959858704427964,0.6317872811276517,0.2323979479751325,0.7340462378515211,11.669430765103243,-1.3173327491057705,0.2045900115541808,-1.1430308897019128
1.12,0.097614839912361,-0.5781168026820687,2.0191691980586013,0.0069436315929908,0.1771982030762371,0.0404954820183518,0.0313489781319242,0.7608749802211163,-0.6705634967527533,0.0942412271656597,-0.5918613615534133,2.0283178885072424,-0.0616191462338611,0.8498690105469453,-0.7655398726023424,0.7949542727149296,0.6159922684645578,0.0994522530594566,0.4925597123811576,11.35364420733913,-1.3224443188746162,0.197388957356332,-1.1550068112723126
1.14,0.0983260866410064,-0.5636600609318421,2.006490963575942,0.0135754441209754,0.1749866233690159,0.0410582498979697,0.0427402589727362,0.7609800378680356,-0.6644592980252259,0.0930088442409825,-0.5748639813424744,2.013007091055196,-0.0678755403221294,0.8809868163855302,-0.7682166724957216,0.6462073165954054,0.569564042040599,0.0052528823459629,0.3052099363763716,11.094302636367502,-1.3292334732402264,0.1908111380086792,-1.1613206200059902
1.16,0.0993036261335397,-0.5484545793273459,1.9932627253362496,0.0191701681737048,0.1701842484723346,0.0414723489124418,0.0540903733364379,0.7597137649327456,-0.658668484098137,0.0917764613163053,-0.5578666011315355,1.9976962936031488,-0.0741319344103976,0.9121046222241151,-0.7708934723891008,0.6402383719247122,0.5675057181850875,-0.0633136467645012,0.28954069635444,10.902545507778996,-1.3389484597140753,0.1855513015800388,-1.16098419055152
1.18,0.1004813840573216,-0.5332797027073475,1.9801482140083244,0.0235741810808738,0.1631829965960518,0.0417067086502007,0.0626780479624925,0.7579065005677119,-0.6530430308605956,0.0903876685394214,-0.540091275774632,1.9823185761537676,-0.0803883284986659,0.9432224280627,-0.77357027228248,0.5212007389093689,0.429383731302731,-0.0903632182516822,0.2812726618770744,10.848316919324134,-1.351409226302425,0.1814977792106802,-1.1572341000197837
1.2,0.1017968627127395,-0.5181490272966278,1.967143001961697,0.0270499536561043,0.1548867573193112,0.0417917845302578,0.0680510177354809,0.7553781773840683,-0.647714080246389,0.0888424659103307,-0.5215380052717639,1.966873938707052,-0.0866447225869342,0.9743402339012848,-0.7762470721758592,0.3989327542050433,0.2686484886494165,-0.1264161591821799,0.2664475307103287,10.815893757754566,-1.3637960145783292,0.1784283899939989,-1.1510831272962687
1.22,0.1031153329978731,-0.5038280569339071,1.954883105053845,0.0296202721284862,0.1465243023029928,0.0417635566029591,0.0701959812044246,0.752345539335198,-0.6430335854186698,0.1051994135995136,-0.4803801184274244,1.9347572979493777,-0.0029048249979022,0.7701721619760292,-0.6404354949055613,0.2987674415446941,0.1072481734471865,-0.1516319024435164,0.2340247413859575,10.815893757754566,-1.3764552295011367,0.1758722929912382,-1.1427483965599623
1.24,0.1045935143078117,-0.4886436721925172,1.9422148295391968,0.0373796942388688,0.1358910056452756,0.0419598751969219,0.0771213074657603,0.7631525569760447,-0.623351775949866,0.1051994135995136,-0.4803801184274244,1.9347572979493777,-0.0029048249979022,0.7701721619760292,-0.6404354949055613,1.174867437290068,0.3462663130667835,0.5403508820423342,0.9840904734401912,10.77785387005315,-1.382996043332119,0.1673471245105765,-1.1233633194474613
1.26,0.1061677159441499,-0.473394754724218,1.9299314605289952,0.0500400709310787,0.1223943258117954,0.0422070507530627,0.0792115370835668,0.7602705597120742,-0.6060287769168158,0.1051994135995136,-0.4803801184274244,1.9347572979493777,-0.0029048249979022,0.7701721619760292,-0.6404354949055613,0.8842528817930818,0.1045114808903256,-0.1440998631985213,0.8661499516525117,11.7303720269947,-1.4058446865344816,0.1557200324005876,-1.1214165310260755
1.28,0.1076450752597953,-0.4590431027986292,1.9185435473571333,0.0621023063336083,0.1083091201234442,0.0421572525217814,0.0756976445853612,0.7505206676466287,-0.593527149438971,0.1051703653495346,-0.4726783968076641,1.928352943000322,-0.0170959935445789,0.7731309588944214,-0.6389797778373958,0.811939845942399,-0.1756946249102796,-0.487494603272276,0.625081373892239,11.461325794170987,-1.4275318098637966,0.1429442866710062,-1.1107249366290437
1.3,0.1090724686527858,-0.4441826161058456,1.9067822353094253,0.0733015554624691,0.0933278251904594,0.0417593666318882,0.0667384998971932,0.7361169622820687,-0.5833595906732589,0.1051122688495765,-0.4572749535681435,1.9155442331022108,-0.0454783306379321,0.7790485527312058,-0.6360683437010647,0.988827908468902,-0.4479572344084012,-0.7201852682280019,0.5083779382856035,11.20862475942522,-1.4458643034315048,0.1315311705342226,-1.0935042641044188
1.32,0.1102682098422391,-0.4296424149465934,1.8951971371319103,0.0824273679514961,0.0791390619184109,0.0410741117444097,0.0529231990624181,0.7188641589715493,-0.5757136168887801,0.1050541723496185,-0.4418715103286229,1.9027355232041,-0.0738606677312854,0.7849661465679901,-0.6331569095647336,1.1693830364125155,-0.6907650417387522,-0.8626401655259686,0.3822986892239421,10.89097446123651,-1.4598926144774529,0.1226168122598945,-1.073836866288228
1.34,0.1111424798395848,-0.415470375468514,1.8837448867472724,0.0892792747097254,0.0665198930521678,0.0402087751268191,0.0350336831537112,0.6997163550356421,-0.569813521270031,0.1035769589949928,-0.4261721873972631,1.890072385012805,-0.1022430048246387,0.7908837404047745,-0.6302454754284025,1.3430229924746304,-0.8944757954353479,-0.9573901967953602,0.2950047809374523,10.89097446123651,-1.469864559023328,0.115458498285736,-1.0506362819566932
1.36,0.1116111621694877,-0.4023736421099521,1.8729712005004584,0.0937966518765292,0.0564215372921184,0.0393214676284335,0.0151575583836523,0.680351101339503,-0.5644800690469163,0.1020997456403671,-0.4104728644659033,1.8774092468215104,-0.130625341917992,0.7968013342415589,-0.6273340412920714,1.412904012315611,-0.9938062385029404,-0.9682626848069532,0.2666726111557382,10.803086414253812,-1.474451362551213,0.1103581867476042,-1.0272349542096229
1.38,0.1116711846583092,-0.3889869840826924,1.861741865489716,0.0967444869815183,0.0480966116351217,0.0384167529095473,-0.0081886268160485,0.6596689183055635,-0.5586731714503429,0.0999129738584075,-0.3946256016886239,1.864818894483624,-0.1590076790113453,0.8027189280783432,-0.6244226071557404,1.5862826971611992,-1.1673092599850492,-1.034109151696977,0.2903448798286689,10.79090110773086,-1.4742452668091404,0.1069308135997475,-1.0064017508905854
1.4,0.1112363649538886,-0.3760236114771672,1.8506295720444623,0.097880363928949,0.0427085273992884,0.0376362686235332,-0.03412565828636,0.6381081397712318,-0.5527841573476818,0.0970166436491141,-0.3786303990654249,1.8523013279991456,-0.1873900161046985,0.8086365219151276,-0.6215111730194093,1.711926735873769,-1.296851573515574,-1.0780389267165846,0.2944507051330536,10.802166744796525,-1.4710085219011124,0.1052486036943766,-0.990151566546363
1.42,0.1103243468567232,-0.3641167060480998,1.8401832475392976,0.0969675489076863,0.0410388073084704,0.0370804665867969,-0.0602005279945759,0.6167021822295126,-0.5470414023165745,0.1095300820395706,-0.3441182044886056,1.8229903641770784,-0.0733604678638251,0.627145896579334,-0.5141845842719105,1.711061866156241,-1.3037434854107943,-1.0702978770859628,0.2871377515553663,10.82043568075187,-1.4591259925950115,0.1049337823174701,-0.9772949304234496
1.44,0.1087838877412763,-0.3519334045434994,1.829425268534102,0.0967530838115634,0.0446756393240115,0.0370630359821884,-0.0916960668301719,0.6021788799406053,-0.5284741613943046,0.1095300820395706,-0.3441182044886056,1.8229903641770784,-0.0733604678638251,0.627145896579334,-0.5141845842719105,1.9670013417542,-1.5747769417797983,-0.7261651144453651,0.9283620461134956,10.829731620312486,-1.435410525841155,0.103502527807085,-0.9715501633906614
1.46,0.1066813734063386,-0.3400775248579269,1.8190595422977087,0.0987252130104728,0.0537220791756683,0.0377210218866932,-0.1161756355815611,0.5840950721905599,-0.5090512517542332,0.1095300820395706,-0.3441182044886056,1.8229903641770784,-0.0733604678638251,0.627145896579334,-0.5141845842719105,1.8052166129587948,-1.2239784375694582,-0.9041903875022684,0.9711454820035714,11.677147007988424,-1.4130833505165528,0.100624868470486,-0.9766636779514264
1.48,0.1042905810676591,-0.329174982903599,1.8095623389273603,0.1008948274407469,0.064729861742766,0.0386158186755641,-0.1337454454201851,0.5645413280400731,-0.4916050127945637,0.1087964773609324,-0.3378467455228122,1.8178485183343596,-0.0812074297793181,0.6249534479409544,-0.5064646696567562,1.5775125846613656,-0.8784904919311998,-0.9776872075243416,0.8723119479834701,11.48951034106085,-1.3910428477386254,0.0976260047238622,-0.9861218568537132
1.5,0.1014647479535389,-0.3181183722351949,1.7999157963573986,0.1023626703669563,0.0773401344279832,0.0396153619423759,-0.1474108040339297,0.542333294587639,-0.4739810249709738,0.1073292680036559,-0.3253038275912255,1.807564826648921,-0.0969013536103041,0.6205685506641953,-0.4910248404264477,1.573645228976913,-0.6832679306872314,-1.1104016726217023,0.8811993911794963,11.48951034106085,-1.3703220483340393,0.0955590128740168,-0.9970070923587286
1.52,0.0984103631795065,-0.3075187160203419,1.790613888631966,0.1022106547991186,0.0901510264132001,0.0405195209886635,-0.1569189379730494,0.5189662830396008,-0.4571138994971337,0.1058620586463794,-0.3127609096596389,1.797281134963483,-0.1125952774412901,0.6161836533874361,-0.4755850111961391,1.5173346379759625,-0.4754066969559864,-1.168350577401911,0.8433562736920058,11.409596740710183,-1.3511823309082058,0.094933238970262,-1.010250788246847
1.54,0.0952045822404518,-0.2973951235046065,1.7816433648333034,0.0996637131768879,0.1027036385563908,0.0412017653555112,-0.1628141459840637,0.4950835391069722,-0.4407571170492934,0.1036101530975536,-0.3004372365918901,1.7877694347395603,-0.1282892012722762,0.6117987561106769,-0.4601451819658306,1.4770606515057272,-0.2947604005507129,-1.1941371966314285,0.817839122392014,11.409596740710183,-1.3343039398694003,0.0964533904370779,-1.0223557966088272
1.56,0.0920927807460227,-0.2881973724740472,1.773428242278268,0.0952673390500506,0.1137919960989804,0.0415774414464076,-0.1642941288107603,0.474949407961387,-0.424785630644107,0.1013582475487277,-0.2881135635241414,1.7782577345156374,-0.1439831251032622,0.6074138588339177,-0.4447053527355221,1.2871110714949932,-0.0739991413348295,-1.0067065572792604,0.798574320259321,11.42144268805714,-1.3176470414387813,0.09989158001487,-1.035688779540758
1.58,0.088823906624705,-0.278896211506548,1.7651131345444906,0.0897837827178593,0.1238310974964717,0.0416945158192247,-0.1623609371794769,0.4565608587258969,-0.4075588355232734,0.0987139939041273,-0.2758995128883116,1.7691320300224724,-0.1596770489342482,0.6030289615571587,-0.4292655235052136,1.2635648410395128,0.0966595815641707,-0.9194274617745052,0.8613397560416791,11.42144268805714,-1.3040503696099963,0.1041905830011236,-1.0492279144982506
1.6,0.0856238586072208,-0.2699401907802803,1.7571440970845214,0.0840065735377854,0.1316993336158145,0.0415381197351072,-0.157708557784521,0.4402130552907928,-0.3902110936720682,0.0956773921637522,-0.2637950846844009,1.760392321260065,-0.1753709727652342,0.5986440642803995,-0.413825694274905,1.2143305342074973,0.2326189697477942,-0.8173901717552029,0.8673870925602595,11.4557054241086,-1.2948622221385464,0.1087210283483152,-1.059736353449983
1.62,0.082538177726508,-0.2612920259382446,1.7495228147469373,0.078220649037456,0.1371034734787243,0.0411305297051593,-0.1512614953190554,0.4256247668377808,-0.3727921400668932,0.0777384307179947,-0.2479295380157406,1.737633542400918,-0.1289867297708624,0.4362444006246969,-0.3438595155854536,1.180892373505242,0.3223531232732793,-0.7294144226506011,0.870947680258749,11.475407260246357,-1.289198281395888,0.1136511346564349,-1.068211889670963
1.64,0.0796571652434926,-0.2532985504402203,1.7425953174274522,0.0740006974707443,0.1422646175105423,0.0408032399847766,-0.1517474523289399,0.4158975835807809,-0.3573665634580411,0.0777384307179947,-0.2479295380157406,1.737633542400918,-0.1289867297708624,0.4362444006246969,-0.3438595155854536,0.9121439881486404,-0.0242978504942245,-0.4863591628499947,0.7712788304426094,11.490952215647669,-1.2901728630530445,0.1178296286846998,-1.0808057259678403
1.66,0.0766465987818805,-0.2451023579755369,1.7356211563954806,0.0707951628618017,0.1493806553544739,0.040643484773793,-0.1488855951360693,0.4042356126960905,-0.3408613948969217,0.0777384307179947,-0.2479295380157406,1.737633542400918,-0.1289867297708624,0.4362444006246969,-0.3438595155854536,1.0205542375821013,0.1430928596435288,-0.5830985442345199,0.8252584280559666,11.417492900697653,-1.279428983956674,0.1200905545650222,-1.090568231310007
1.68,0.0737275043764686,-0.2371415895504993,1.7289830136874245,0.0679558360722424,0.1571963636295988,0.0405317913948188,-0.1428730969871321,0.392527379734333,-0.323821470070573,0.0764485634202861,-0.2435670940094937,1.7341949472450635,-0.1232423641681307,0.4354506696914776,-0.3345891999681307,1.0765592078067228,0.3006249074468586,-0.5854116480878774,0.8519962413174376,11.45711381656838,-1.2700461436069903,0.1220487985550502,-1.1017839697559704
1.7,0.0710914603797407,-0.2297918747464652,1.7229963344948245,0.0653342112267286,0.1647314537199264,0.0404137042702251,-0.1346933084443327,0.3818299462311608,-0.3072456921652174,0.0738688288248688,-0.2348422059969997,1.7273177569333544,-0.1117536329626673,0.4338632078250393,-0.3160485687334848,1.06782540394881,0.4089894271399691,-0.5348716751586102,0.8287888952677763,11.552417887814954,-1.2612360232599176,0.1241369547753424,-1.1153349285252216
1.72,0.0685190988448559,-0.2222674472763236,1.717038182050398,0.0625989492665509,0.17212025995862,0.0402309443583702,-0.122806361484942,0.3712829213000779,-0.2894512832169202,0.0712890942294516,-0.2261173179845058,1.7204405666216454,-0.1002649017572039,0.4322757459586009,-0.297507937498839,1.1928749229608,0.5943473479695357,-0.5273512465541447,0.8897204474148629,11.552417887814954,-1.253706123799297,0.1262819600988708,-1.1292649493360063
1.74,0.0662140732921483,-0.2149461004950356,1.7114382844612352,0.0598964751851562,0.1781701201623295,0.0399445552184546,-0.1082495775320273,0.361473713971454,-0.2714387854570824,0.0692837961943075,-0.2174718030653338,1.7144904078716685,-0.0887761705517405,0.4306882840921625,-0.2789673062641932,1.257547795330185,0.727839197645734,-0.4904603664311946,0.9006248879918882,11.64290893904763,-1.2495745399766238,0.1285793335698429,-1.1426505945643213
1.76,0.0642216276367406,-0.2078133383049046,1.7062007563398889,0.0572472243914481,0.1823423443224623,0.0395327144071576,-0.0918863335965416,0.3523758711736047,-0.2532348959313418,0.0672784981591635,-0.2088262881461617,1.7085402491216917,-0.0772874393462771,0.4291008222257241,-0.2604266750295473,1.3056684969125536,0.8181621967742844,-0.4548921398924627,0.9101944762870297,11.64290893904763,-1.2489687657904474,0.1308396213264867,-1.1541973178486664
1.78,0.0626414548933524,-0.2011990025412795,1.7015640718622291,0.054816889254385,0.1843701823229079,0.0390271916233243,-0.0754824172289685,0.3443748527231269,-0.2357523183949638,0.065560418404156,-0.2002204597736507,1.7030536061525812,-0.0657987081408137,0.4275133603592857,-0.2418860437949015,1.263670532372552,0.8201958183786585,-0.4000509225238896,0.8741288768189026,11.67801614277596,-1.2516310464314249,0.1332142312722718,-1.1648299511726818
1.8,0.0613163983600256,-0.1943943679925092,1.6970456531634968,0.0523894818399751,0.1844391276277241,0.0383877556529613,-0.0580033243439218,0.3365568787263441,-0.2170005069566043,0.0641295569292851,-0.1916543179478006,1.6980304789643366,-0.0543099769353503,0.4259258984928473,-0.2233454125602556,1.3400278334033315,0.8739546442523359,-0.39089869983914,0.937590571917972,11.709431381114882,-1.2562015852789976,0.135370372580395,-1.1757933070901183
1.82,0.0603420049894732,-0.187740260539498,1.6929044717199062,0.050117830427907,0.1822300048877212,0.0376430084681632,-0.0404441245625499,0.32928200684616,-0.1980471241663955,0.0584162321428295,-0.177566524056192,1.6861956278156665,-0.0531738398402055,0.32507170163409,-0.1948639658731492,1.3420879041882914,0.8779599890685923,-0.3637435940092054,0.9476691395104432,11.747258425724796,-1.2627339255756989,0.1372464701181457,-1.1842103460447406
1.84,0.0597461822533316,-0.1814954701727299,1.6892071354955176,0.0496363881218661,0.1767390593599243,0.0368879893246718,-0.023849790048519,0.32772909334116,-0.1920509967240004,0.0584162321428295,-0.177566524056192,1.6861956278156665,-0.0531738398402055,0.32507170163409,-0.1948639658731492,0.8856311628197883,0.8297167257015452,-0.0776456752500015,0.2998063721197541,11.77010673209952,-1.2840062047709817,0.1382390037994256,-1.1931609261354206
1.86,0.0594117109232033,-0.1749749330326248,1.6854392464763448,0.0515750438841843,0.1673804305150757,0.0360740367670316,-0.0110872400012332,0.3241872480015865,-0.1849029218093603,0.0584162321428295,-0.177566524056192,1.6861956278156665,-0.0531738398402055,0.32507170163409,-0.1948639658731492,0.752532934668378,0.6381275023642903,-0.1770922669786734,0.3574037457320059,11.019682164563164,-1.302556607663453,0.135880585563403,-1.189377769222589
1.88,0.0592787832118109,-0.1685526326945166,1.6818299725166703,0.0550583650695323,0.1562357409802086,0.0352363857899321,-0.0033107523465989,0.3177470741141858,-0.176359598775128,0.0578844937444274,-0.1743158070398512,1.6842469881569349,-0.0522079429394623,0.3227746662156391,-0.1904366576564582,0.6613205886895579,0.3888243827317129,-0.3220086943700379,0.4271661517116137,11.019682164563164,-1.3194264157693505,0.1318173806042225,-1.1813875930029936
1.9,0.0592511102977992,-0.1626034736746815,1.6785673172853426,0.0584310858388962,0.145404973481104,0.0343827187526622,-0.0002583612189175,0.3088422484830244,-0.1674823737503217,0.0568210169476233,-0.1678143730071694,1.680349708839472,-0.0502761491379758,0.3181805953787375,-0.1815820412230762,0.6469508004067699,0.1526195563840732,-0.4452412815580675,0.4438612512403156,11.075232154482364,-1.3346720413432482,0.1271988751732696,-1.1717305364843391
1.92,0.0592441341041907,-0.1565404574915128,1.6753212816016,0.0614090692456825,0.1348156006859632,0.0334458584979875,-0.0008420367957682,0.2980066948642472,-0.15755139246506,0.0557575401508192,-0.1613129389744876,1.676452429522009,-0.0483443553364893,0.3135865245418358,-0.1727274247896942,0.7354833252573192,-0.0291837788425362,-0.5417776809388625,0.4965490642630812,11.111401168994234,-1.3463765187312318,0.1230141339532785,-1.1619005172295065
1.94,0.0591908432789874,-0.1507048342411519,1.6722775489010946,0.06359030516969,0.1257949804552953,0.0325163744317924,-0.004578377741922,0.2862411352538717,-0.1473003119082457,0.0547906530440894,-0.1550412084836508,1.672997881026215,-0.0464125615350028,0.3089924537049341,-0.1638728083563121,0.802298711817335,-0.1868170473076917,-0.5882779805187727,0.5125540278407198,11.141051922401855,-1.353928009554885,0.1196857166530357,-1.1541045490350037
1.96,0.0590330046156144,-0.1451127046854326,1.6694359417734947,0.064847802269188,0.11891521971758,0.0316402460859797,-0.0110568416355485,0.2737487936749074,-0.1373631193020245,0.0538237659373596,-0.1487694779928141,1.669543332530421,-0.0444807677335163,0.3043983828680325,-0.1550181919229301,0.8613606814797119,-0.3239231946813222,-0.6246170789482142,0.496859630311057,11.156439603127184,-1.3589128869598417,0.1171129831090287,-1.1478870693694676
1.98,0.0587399447409391,-0.1400386706509117,1.6669173665430033,0.0649829929817105,0.1149380065695977,0.0308949906448952,-0.0194807402724817,0.2611618276405875,-0.1282367438027479,0.052905173675667,-0.1426125992729,1.6663101494454615,-0.0425489739320298,0.2998043120311308,-0.1461635754895481,0.8841443772770472,-0.4211949318466615,-0.6293483017159984,0.456318774963832,11.140444757558726,-1.359942220701032,0.1157338476492995,-1.1435581322109452
2.0,0.0582477283265593,-0.1349584479937439,1.6644523812291552,0.0637474129019557,0.1139608026412607,0.0302262637034841,-0.0289276665517098,0.247675586946454,-0.1187418735288783,0.0520348762590116,-0.1365705723239083,1.6632983317713368,-0.0406171801305433,0.2952102411942292,-0.137308959056166,0.9503626488121278,-0.4723463139614026,-0.67431203470667,0.4747435136934791,11.117457093186204,-1.3534801029220591,0.1156126232427777,-1.1415184105722884
2.02,0.0575835853751384,-0.1301459555964828,1.662176346985662,0.0609032901841459,0.1156970492451415,0.0296230677715373,-0.0366642227403746,0.2346856571120759,-0.1093175191685076,0.0568013449989738,-0.1225746686464212,1.6585152875527112,-0.0503701394864327,0.2460658803937548,-0.1145266549364432,0.8908016528277707,-0.3868278094332442,-0.649496491718908,0.4712177180185357,11.117457093186204,-1.3445253234182415,0.1170910130420936,-1.1429656356810338
2.04,0.0568577751117988,-0.1258079122432104,1.6601346239011463,0.0566371352872916,0.1179112991075321,0.0289778987472022,-0.0394689226242969,0.2233265010741474,-0.106029559464509,0.0568013449989738,-0.1225746686464212,1.6585152875527112,-0.0503701394864327,0.2460658803937548,-0.1145266549364432,0.6076747615871476,-0.1402349941961145,-0.5679578018964223,0.1643979851999308,10.71549152411626,-1.3375521446995229,0.1206471488436652,-1.1448849583818037
2.06,0.0560429043059129,-0.1214350494505037,1.658050354434546,0.0514247098945499,0.119368512810314,0.0282023768504127,-0.0419134298525052,0.2147599306799705,-0.1025356647423916,0.0568013449989738,-0.1225746686464212,1.6585152875527112,-0.0503701394864327,0.2460658803937548,-0.1145266549364432,0.478458577717003,-0.1222253614104138,-0.4283285197088468,0.1746947361058688,10.71549152411626,-1.3329549760791866,0.1251535717540288,-1.1448249554640586
2.08,0.0551793626133723,-0.1172096892462433,1.6560393373387483,0.046402554515393,0.1200288863900108,0.0274080104126724,-0.0443658120273593,0.2082610183192167,-0.0987305594671337,0.0562976436041095,-0.1201140098424837,1.6573700210033466,-0.0546586340733772,0.245743939083215,-0.1136836112179561,0.39600778515105,-0.1226191087427049,-0.3249456180376892,0.1902552637628958,10.741976020432958,-1.3299842119134564,0.1295162903049263,-1.1446488117551965
2.1,0.0542649579578312,-0.1130988382270349,1.6541063156359224,0.0419408069389019,0.1200701206692586,0.0266373093575521,-0.0470127260585126,0.2031024604538549,-0.0947655133145821,0.0552902408143808,-0.1151926922346086,1.6550794879046178,-0.0632356232472664,0.2451000564621353,-0.1119975237809821,0.351206720217832,-0.1323457015576647,-0.2579278932680923,0.1982523076275777,10.741976020432958,-1.328140821000129,0.1331543163683711,-1.1444055040335397
2.12,0.0533441741304548,-0.1092797834740767,1.6523438894761004,0.0382976202606355,0.119710693140439,0.025944520653662,-0.0498220218194856,0.1990897863302569,-0.0909543230970185,0.0542828380246522,-0.1102713746267335,1.652788954805889,-0.0718126124211556,0.2444561738410556,-0.110311436344008,0.3103178498300827,-0.1404647880486519,-0.2006337061798993,0.1905595108781792,10.748720653775308,-1.32681935474312,0.1363662187360256,-1.1440627188613637
2.14,0.0523137001637187,-0.1053355745730352,1.6505669440496722,0.0350640853101251,0.1190746918275852,0.0252635639280111,-0.0531144388581023,0.1955069429793894,-0.0869431362212989,0.052846585776229,-0.1053822511499124,1.650582726079009,-0.0803896015950447,0.243812291219976,-0.108625348907034,0.3153030153081868,-0.1646208519308304,-0.1791421675433765,0.2005593437859804,10.750621970695647,-1.3257876787252698,0.1389537971300606,-1.1436744605624825
2.16,0.0512130593554825,-0.1014566992509749,1.6488672412576562,0.0324105123694502,0.1183188143285394,0.0246353470064017,-0.0568077519769118,0.1924771307353236,-0.0832296551805045,0.0514103335278059,-0.1004931276730912,1.6483764973521289,-0.0889665907689339,0.2431684085988963,-0.1069392614700599,0.3025320870097971,-0.1846656559404795,-0.151490612203288,0.1856740520397207,10.75026987404908,-1.3251123990832887,0.1408854988797106,-1.1433709252462585
2.18,0.0500944794288377,-0.0978240425268414,1.6473184912425614,0.0303568779423533,0.1176363249971573,0.0240868954471805,-0.0607489787742516,0.1899876640078267,-0.0799832374806447,0.0497596565500356,-0.0956201012617971,1.6462124208111728,-0.097543579942823,0.2425245259778166,-0.1052531740330859,0.2840331896862832,-0.197061339866986,-0.1244733363748445,0.1623208849929891,10.732031938940963,-1.3242787741598114,0.1424269105450027,-1.1429955906603468
2.2,0.0488330491434046,-0.0940485785272388,1.6457525584494463,0.0286156411590568,0.1170827538117777,0.0235583046841325,-0.0651812029330287,0.1876577421794526,-0.0767919283478064,0.047894554842918,-0.09076317191603,1.6440904964561414,-0.1061205691167122,0.2418806433567369,-0.1035670865961118,0.2968905551769824,-0.2216112079388557,-0.1164960914187038,0.1595654566419156,10.714949068278656,-1.3229242902763358,0.1435135486833297,-1.142671847614212
2.22,0.0474807631353505,-0.0903156834880752,1.6442480218389368,0.0272986198724772,0.1167746201311377,0.0230800218491806,-0.0698060262372585,0.1857443553118107,-0.0738318910834948,0.0455739889967531,-0.0846656914182662,1.641912962032056,-0.0688419232404086,0.1828184424671225,-0.0868155334262652,0.29073983433099,-0.2312411652114883,-0.0956693433820973,0.1480018632155792,10.70141334101936,-1.3212261831335912,0.1441764746684827,-1.142735860121975
2.24,0.045990114807848,-0.0865843364642164,1.6427879816325104,0.0275641493683409,0.1180742831657216,0.0227676659322181,-0.0785348088189943,0.1870173653996509,-0.0723330516819437,0.0455739889967531,-0.0846656914182662,1.641912962032056,-0.0688419232404086,0.1828184424671225,-0.0868155334262652,0.447377691650467,-0.4364391290867922,0.0636505043920099,0.0749419700775563,10.688067339437112,-1.3219512813948429,0.1436335179534825,-1.1473208599511886
2.26,0.0444298738839698,-0.0830261744655854,1.6414205656239629,0.0297848980352706,0.1213854226254189,0.0226767296478506,-0.084956957020712,0.187279138543391,-0.0716851453955153,0.0455739889967531,-0.0846656914182662,1.641912962032056,-0.0688419232404086,0.1828184424671225,-0.0868155334262652,0.3230026906219297,-0.3211074100858829,0.0130886571870061,0.0323953143214213,10.613092754150784,-1.3139711658214557,0.1404157493531806,-1.150197052757967
2.28,0.0426809255466912,-0.0792997140362399,1.6399874912010302,0.0334107314174262,0.1261130719740511,0.0227259434052141,-0.0893387922314849,0.184978643421664,-0.0716993318654581,0.0448855697643491,-0.0828375069935949,1.6410448066977934,-0.0695740673018846,0.1818505825246565,-0.0888202544419569,0.2474518078100706,-0.219091760538647,-0.1150247560863515,-0.0007093234971437,10.56287162312583,-1.3049957401138186,0.1358460418205413,-1.152835572284425
2.3000000000000003,0.0408691786695855,-0.0756476101979228,1.6385470559848694,0.0370521245377107,0.1313225349135225,0.0228151053819845,-0.0914251210899358,0.1803428347797552,-0.0723755564656746,0.0435087312995409,-0.0791811381442525,1.639308496029268,-0.0710383554248366,0.1799148626397245,-0.0928296964733405,0.2564213796660651,-0.1043164429225466,-0.2317904320954397,-0.0338112300108217,10.521425218744298,-1.296614284727927,0.1315472060807209,-1.1558913160354265
2.32,0.0390376118047995,-0.0721021092144517,1.6370875590875904,0.0401428191874038,0.1363908152595419,0.0228821251823121,-0.0914980509473122,0.1745159869448081,-0.0735630097481696,0.0421318928347327,-0.07552476929491,1.6375721853607428,-0.0725026435477886,0.1779791427547924,-0.096839138504724,0.2973529878521189,-0.0036464928688188,-0.2913423917473554,-0.0593726641247516,10.489652457697956,-1.2887398300532085,0.1276507581783773,-1.15877386012533
2.34,0.0373130355120099,-0.068849130026439,1.635675146536471,0.0424010803188592,0.1406508389486797,0.0228921823936955,-0.0900078241284948,0.1683509682831261,-0.0750521636025288,0.0406818399637769,-0.0719651864398142,1.6356354025906483,-0.0739669316707406,0.1760434228698604,-0.1008485805361075,0.3257522458570389,0.0745113409408713,-0.3082509330840963,-0.0744576927179586,10.46792384741184,-1.282233562047081,0.1245802987918986,-1.1611040824367502
2.36,0.0355402192780598,-0.0655540469125473,1.634154929712586,0.0441085542482108,0.1443098286184596,0.0228332162215795,-0.0873248606844951,0.1615629540742837,-0.0769009068562918,0.0392317870928212,-0.0684056035847183,1.633698619820554,-0.0754312197936926,0.1741077029849283,-0.104858022567491,0.3764747048595039,0.1341481721999833,-0.339400710442124,-0.0924371626881512,10.454288878058833,-1.2775025303714276,0.1223081788636276,-1.1623488046358328
2.38,0.0338299085762337,-0.0623998721747019,1.6325957010661107,0.0450726312269059,0.1470142484823209,0.0226891218826712,-0.0838518560918572,0.1542470504203563,-0.0789305607934008,0.0377451270187916,-0.0648944137267458,1.6316616009996747,-0.0768955079166446,0.1721719830999963,-0.1088674645988745,0.4174437156026334,0.1736502296318942,-0.3657951826963657,-0.1014826968554497,10.437183354889385,-1.2742763759743634,0.1208610722931523,-1.162141044383299
2.4,0.0322744136729702,-0.0595441062542664,1.631075761652163,0.0450879668772853,0.1486783727623288,0.0224547481604898,-0.0801259240411679,0.1468430778771041,-0.080950302188191,0.0362218597416882,-0.0614316168658965,1.629524346128011,-0.0783597960395965,0.1702362632150643,-0.112876906630258,0.4265581272506031,0.1862966025344685,-0.3701986271626128,-0.1009870697395103,10.437183354889385,-1.27249996705019,0.1204621131929018,-1.1607063185890534
2.42,0.0307140731610145,-0.056690139689478,1.629434084517086,0.0440310841150514,0.1495743450916383,0.0221008622960485,-0.0761589988230315,0.1390376442011504,-0.083100639929859,0.0282681174709118,-0.0522019523604112,1.6270282465427537,-0.0651551250644485,0.1412784222341476,-0.0916853492380114,0.4507916452177208,0.1983462609068162,-0.3902716837976855,-0.1075168870833975,10.433951583073394,-1.2718454938098651,0.1211937254232522,-1.1582052866104728
2.44,0.0292133536170431,-0.0539900169201747,1.6277836664597878,0.0418642724383146,0.150468202414132,0.0216768857149948,-0.074029465512054,0.1314721791689964,-0.0816592562706745,0.0282681174709118,-0.0522019523604112,1.6270282465427537,-0.0651551250644485,0.1412784222341476,-0.0916853492380114,0.3995270958529325,0.1064766655488748,-0.3782732516076983,0.0720691829592251,10.430732442374392,-1.271207919714466,0.1230961607528576,-1.1563487768165952
2.46,0.0277599026607545,-0.0514254831997914,1.626163180694115,0.0389405388848731,0.152043100977761,0.0212365437842248,-0.0713049220182153,0.1256117243369525,-0.0804792270519614,0.0282681174709118,-0.0522019523604112,1.6270282465427537,-0.0651551250644485,0.1412784222341476,-0.0916853492380114,0.3284833977740048,0.1362271746919392,-0.2930227416021932,0.0590014609356516,10.656145826103057,-1.268942507777675,0.1255848541059809,-1.1576557166735222
2.48,0.0264377023443471,-0.0490806371074226,1.6246395065813857,0.0361686738255526,0.1538269472152963,0.0208364165884925,-0.0679477058185206,0.1215195646076542,-0.0799702617402692,0.0276165662202673,-0.0507891681380697,1.6261113930503734,-0.0621609652691046,0.1401654911055563,-0.0938323586479755,0.2658745829808164,0.1678608099847309,-0.2046079864649184,0.0254482655846099,10.612224626129318,-1.2668625729821517,0.1282812437127769,-1.1592200962559902
2.5,0.0251221676862507,-0.0466864652117696,1.623040707106038,0.0335617454189055,0.1557250036176714,0.0204445300909922,-0.0637319890293748,0.1181048555915482,-0.0799641683957067,0.0263134637189783,-0.0479635996933868,1.6242776860656132,-0.0561726456784169,0.1379396288483737,-0.0981263774679037,0.2712588378274986,0.2107858394572941,-0.1707354508053003,0.0003046672281251,10.574326787842438,-1.2654263733957127,0.1307124841856701,-1.1608481195196103
2.52,0.0238973905316962,-0.0443538749645121,1.621437115860726,0.0313664685499028,0.15743992260944,0.0200829652966014,-0.0589308615436117,0.1152930419079252,-0.0804161067498048,0.0250103612176893,-0.0451380312487038,1.622443979080853,-0.0501843260877291,0.1357137665911911,-0.1024203962878319,0.2791118485565607,0.2400563742881549,-0.1405906841811487,-0.0225969177049055,10.520709203983644,-1.264676289632359,0.132759643966964,-1.1623051634029118
2.54,0.0227734721319547,-0.0420726434183744,1.619820249804168,0.0295964165596568,0.1588268361399251,0.0197495016857002,-0.0537113883810082,0.112899394417244,-0.0812490587511673,0.0240066746959347,-0.04242375591688,1.6203955711550964,-0.0441960064970414,0.1334879043340085,-0.10671441510776,0.2901131565499748,0.2609736581301727,-0.1196823745340615,-0.0416476000681259,10.520709203983644,-1.2647010548481528,0.1343265499713413,-1.163402397420414
