t,x,y,z,roll,pitch,yaw,v_x,v_y,v_z,ref_x,ref_y,ref_z,ref_v_x,ref_v_y,ref_v_z,a_com,a_x,a_y,a_z,thrust,wind_x,wind_y,wind_z
0.0,-0.4635865447924047,-1.781688407220716,2.65782347976814,0.0187908908483001,0.1365611009111534,0.0265163565082116,0.0072821846653325,-0.0089134256169163,0.0231910306119748,-0.4633725774830886,-1.7818895409049027,2.658523831699026,0.1071724868759329,0.0926817061460808,-0.0766962742068494,1.2945107865269618,0.3641092332666275,-0.4456712808458168,1.1595515305987445,10.55774482218476,-1.2847910130865683,0.1573586853267428,-1.1783011314491474
0.02,-0.4635477545392897,-1.7820937508938812,2.658054498704458,0.0089010832263591,0.1388719074101876,0.02585434549399,-0.0025513677356001,-0.0282725719848797,0.001297028958073,-0.4633725774830886,-1.7818895409049027,2.658523831699026,0.1071724868759329,0.0926817061460808,-0.0766962742068494,1.5417705806467916,-0.4916776200466358,-0.9679573183981712,-1.0947000826950926,10.55709520417804,-1.2972511948463494,0.1690859130150146,-1.168937349213791
0.04,-0.4636861027304971,-1.782673147689419,2.657763151812552,-0.0075597345552638,0.1448457684115147,0.0247252194739061,-0.0103324776630929,-0.0279290070924014,-0.0295509032426094,-0.4633725774830886,-1.7818895409049027,2.658523831699026,0.1071724868759329,0.0926817061460808,-0.0766962742068494,1.590800607867762,-0.3890554963746383,0.0171782446239162,-1.5423966100341264,9.238296223242289,-1.288450711447556,0.1859202088891023,-1.1578447043293965
0.06,-0.4639411706674117,-1.783164107082998,2.65685406085918,-0.0243797742799317,0.1525698802444001,0.0234656618114214,-0.0144441560827501,-0.0207972821739226,-0.0597799493020426,-0.4623008526143293,-1.7809627238434418,2.657756868956957,0.1271724871739561,0.112681706444104,-0.0966962745048726,1.5664949931318488,-0.2055839209828621,0.3565862459239416,-1.5114523029716596,8.805199513749358,-1.2770842075743511,0.201590983062049,-1.145275567715118
0.08,-0.4642293331099387,-1.7834614066860617,2.6554492307323123,-0.0397798894425555,0.1605269776530746,0.0221916317377519,-0.0154542427917194,-0.0105486889834179,-0.0866020697350557,-0.4601574028768107,-1.7791090897205202,2.6562229434728204,0.1671724877700026,0.1526817070401505,-0.1366962751009191,1.4365584586670608,-0.0505043354484645,0.5124296595252326,-1.3411060216506543,8.868632490244636,-1.2667221850004364,0.2172472617344767,-1.1346004741090208
0.1,-0.4645274494440191,-1.7835319592165382,2.6534354743153843,-0.055249730781941,0.168982371847232,0.0207910890017692,-0.0140693986259912,0.0032953446857144,-0.1133142508208312,-0.458013953139292,-1.7772554555975986,2.6546890179886837,0.207172488366049,0.1926817076361969,-0.1766962756969655,1.505918058822165,0.0692422082864106,0.6922016834566219,-1.3356090542887755,8.973335728198435,-1.2590896452422509,0.2321168509389573,-1.126635220735442
0.12,-0.464774750693955,-1.7832898552665477,2.650904038661374,-0.0698185778759163,0.1772114845611849,0.0193647364871454,-0.0105294319103697,0.0204665357054651,-0.1384492835918682,-0.453870503371971,-1.7734018214448746,2.651155092474744,0.2471724889620955,0.2326817082322434,-0.216696276293012,1.5322785629460245,0.176998335781073,0.8585595509875311,-1.2567516385518471,9.061507777851148,-1.2539293326017649,0.2454267459558133,-1.1209875587311526
0.14,-0.4649333536687758,-1.7826569592144297,2.647875816492987,-0.08281411717676,0.1850667786089504,0.0179893844100682,-0.0053356609889286,0.04174916527222,-0.1631314286890683,-0.44972705360465,-1.7695481872921508,2.6476211669608047,0.287172489558142,0.2726817088282899,-0.2566962768890585,1.6501014092013873,0.2596885460720594,1.0641314783377476,-1.2341072548600076,9.15695450624753,-1.2514695941157743,0.2581650048274957,-1.1175832973467756
0.16,-0.4649742650245744,-1.7816269918531642,2.644543297246411,-0.0930378439657224,0.1921351892995311,0.0168052125638848,0.0009134281431357,0.0651254090445187,-0.1864070065438199,-0.4445836038224279,-1.7646945531245255,2.643087241431964,0.3271724901541884,0.3126817094243363,-0.2966962774851049,1.678728992686891,0.3124544566032161,1.1688121886149334,-1.163778892737577,9.195649360232892,-1.2511997557213197,0.2688559890435223,-1.1162358253623392
0.18,-0.4648760579785053,-1.7800484249574422,2.640557870357473,-0.1014699033679875,0.1991505565574095,0.0157223808659733,0.0087301121328226,0.0911890647268569,-0.210887025676849,-0.4384401540253046,-1.7588409189419991,2.6375533158882227,0.3671724907502348,0.3526817100203827,-0.3366962780811513,1.830086086004962,0.3908341994843484,1.303182784116913,-1.2240009566514567,9.22994436443878,-1.251519785737815,0.2772590207933322,-1.116454757013644
0.2,-0.464608237552485,-1.7779323506921731,2.6360867723110792,-0.1075768071064089,0.2057371934197652,0.0148262776620323,0.0178033701031854,0.1185622047917973,-0.2349593642895903,-0.4644395523718641,-1.775488971721099,2.630013519073631,0.1087301136229388,0.1911890662169731,-0.3108870271669651,1.8782240903963436,0.4536628985181374,1.3686570032470189,-1.2036169306370623,9.248826016246312,-1.2524221823820791,0.2831485726886666,-1.1174835597998798
0.22,-0.464152448540905,-1.7752775366965967,2.6314985973710554,-0.1076103984993221,0.2115831847999163,0.0144290240420326,0.0298789664513844,0.1572667262281934,-0.2465767663430199,-0.4644395523718641,-1.775488971721099,2.630013519073631,0.1087301136229388,0.1911890662169731,-0.3108870271669651,2.1088053710905323,0.6037798174099483,1.9352260718198044,-0.580870102671481,9.287459721990672,-1.2519463170104077,0.2838041264138326,-1.1230921402200504
0.24,-0.4634133907070936,-1.7717927097858703,2.6264368449226403,-0.1016619662055811,0.2173063539152678,0.0145191313132337,0.0435030022141892,0.1879872950200698,-0.2590049273092207,-0.4644395523718641,-1.775488971721099,2.630013519073631,0.1087301136229388,0.1911890662169731,-0.3108870271669651,1.7915265015932569,0.681201788140243,1.5360284395938173,-0.6214080483100389,10.07404698879236,-1.2574063583747273,0.2789243359133047,-1.1330079406829363
0.26,-0.4623959966599829,-1.7677688161810523,2.621109781533997,-0.0941515710813167,0.2226331983613283,0.0148136095747198,0.0576374171291565,0.212555185687508,-0.2731685570366802,-0.4633522512356347,-1.7735770810589295,2.6269046488019616,0.128730113920962,0.2111890665149963,-0.3308870274649884,1.5842753421455995,0.7067207457483623,1.2283945333719113,-0.7081814863729774,9.823230830772443,-1.2612487164183035,0.2730581776113543,-1.145562586635794
0.28,-0.4611639613592764,-1.763526810518615,2.615767509408105,-0.0871529190035557,0.2273667372800552,0.0151625347366162,0.0714249024261567,0.2327210934009289,-0.2884822730278967,-0.461177648963176,-1.7697532997345902,2.620686908258622,0.1687301145170084,0.2511890671110428,-0.3708870280610348,1.441586350328038,0.6893742648500133,1.0082953856710444,-0.7656857995608224,9.823230830772443,-1.2642966633177095,0.2667731920982821,-1.157761236556229
0.3,-0.4595800671644893,-1.7586711161626924,2.60981212543397,-0.080569502404986,0.2320382843576384,0.0155460127862294,0.0863038194501054,0.2518154379434482,-0.3063553037833488,-0.4590030466907172,-1.7659295184102506,2.6144691677152827,0.2087301151130549,0.2911890677070892,-0.4108870286570812,1.504511044907383,0.7439458511974347,0.9547172271259632,-0.8936515377726051,9.719709943207818,-1.2671810003925017,0.2610619801814124,-1.1679573082712644
0.32,-0.4576945311097563,-1.7534493082504212,2.603482916650153,-0.0749936177972492,0.2364172454238911,0.0159205837260347,0.1015857513107401,0.26955116032902,-0.3256972639414038,-0.4548284443884561,-1.7601057370561088,2.606251427142141,0.2487301157091013,0.3311890683031356,-0.4508870292531277,1.5183911820467615,0.7640965930317357,0.8867861192785903,-0.967098007902753,9.623884016281409,-1.2687523218257506,0.2563226479823751,-1.1755038263236288
0.34,-0.4556144744874643,-1.7481689756403629,2.597106089103392,-0.0705802291888798,0.2403215520260143,0.0162633096876307,0.1166688788937638,0.2855237726979537,-0.344611065600438,-0.4506538420861949,-1.754281955701967,2.5980336865689995,0.2887301163051479,0.3711890688991822,-0.4908870298491742,1.4494455636305117,0.7541563791511823,0.7986306184466885,-0.9456900829517084,9.535416448919932,-1.2682778181058405,0.252204347375155,-1.1833725643754809
0.36,-0.4531095237848369,-1.742282205998703,2.5899999794350426,-0.0665472285771549,0.2441758558262844,0.0166256886993659,0.1331022719848579,0.3022737917512368,-0.3650391421082147,-0.4454792397690327,-1.7474581743329245,2.5888159459809565,0.3287301169011943,0.4111890694952286,-0.5308870304452206,1.5555753409746351,0.8216696545547041,0.8375009526641525,-1.0214038253888336,9.517830755316936,-1.2681187681504194,0.2488305844834888,-1.191360371105447
0.38,-0.45026977488974,-1.7360635877523425,2.582482092597958,-0.0628066489119593,0.2477820843648199,0.0170081182121506,0.1501190070088855,0.3186651667412168,-0.3857457514011642,-0.4393046374369693,-1.73963439294898,2.5785982053780128,0.3687301174972407,0.451189070091275,-0.570887031041267,1.5708358550075938,0.8508367512013822,0.819568749499,-1.035330464647477,9.517830755316936,-1.2680669701609482,0.2457169243555131,-1.1986229254578282
0.4,-0.44708389426969,-1.7295227664922568,2.574547342805731,-0.0592053519601834,0.2511535007017103,0.0174170618264825,0.1676837743167061,0.3344905117424167,-0.4067069100663903,-0.4427638245392958,-1.7201303294152814,2.5631948050279,0.2501190084990017,0.4186651682313329,-0.4857457528912803,1.5798202172823876,0.8782383653910292,0.791267250059996,-1.0480579332613038,9.50767345118038,-1.2677386135248976,0.2428532695503975,-1.2051624659495117
0.42,-0.4436807879954065,-1.7230123946552791,2.566785431809009,-0.0559066564100317,0.2540666638809063,0.0178317983080298,0.1899476090918438,0.3500054399474412,-0.4083491838225982,-0.4427638245392958,-1.7201303294152814,2.5631948050279,0.2501190084990017,0.4186651682313329,-0.4857457528912803,1.3593090148969291,1.1131917387568828,0.7757464102512268,-0.082113687810395,9.50767345118038,-1.265472900316115,0.2388691628044692,-1.201717100075077
0.44,-0.4396367265278098,-1.7158616052310554,2.558586898832405,-0.0530368674453891,0.2568013374104169,0.0182603576925624,0.2132332227586346,0.3644040991479731,-0.4117637585082427,-0.4427638245392958,-1.7201303294152814,2.5631948050279,0.2501190084990017,0.4186651682313329,-0.4857457528912803,1.3794931233028511,1.1642806833395414,0.7199329600265952,-0.1707287342822244,10.733892240340538,-1.2701791801849076,0.2379436387316957,-1.218011715259296
0.46,-0.4351351749059233,-1.7084251664362848,2.55027728649962,-0.0509070107883535,0.2593118667274166,0.0186622304353999,0.2357551404567857,0.3785882573138269,-0.4192047898179394,-0.4402626344543058,-1.7159436777329682,2.558337347498987,0.2701190087970249,0.4386651685293561,-0.5057457531893036,1.3818430325367397,1.1260958849075533,0.7092079082926889,-0.372051565484835,10.27379424870196,-1.2732674263059227,0.2375292577781306,-1.2314161118351026
0.48,-0.4304472496477881,-1.7011017354405435,2.5422116394259264,-0.0493902327554094,0.261549158084797,0.0190267543700894,0.2566246738236383,0.3916506706384777,-0.4294443023133169,-0.4352602542843257,-1.7075703743683417,2.548622432441161,0.3101190093930713,0.4786651691254026,-0.54574575378535,1.333240114305355,1.0434766683426326,0.6531206662325401,-0.5119756247688734,10.1088543004671,-1.2757227619439877,0.2373958573469764,-1.242934158132104
0.5,-0.4250872211327937,-1.6931308414783943,2.5334863746081524,-0.0483866061756716,0.2637780430917146,0.0193850904863763,0.2782923674017927,0.4047787728529405,-0.4426633489686075,-0.4302578741143457,-1.6991970710037148,2.538907517383336,0.3501190099891178,0.518665169721449,-0.5857457543813964,1.4287925035015816,1.08338467890772,0.6564051107231378,-0.6609523327645334,9.97628794434786,-1.2776423803890429,0.2376795415694945,-1.2516871024967515
0.52,-0.4192956678157985,-1.6849017879651071,2.524475889694921,-0.0481510347715003,0.2658914606510377,0.0197041640259357,0.2997986325783504,0.4175158524455652,-0.4578087806622906,-0.4232554939145633,-1.6888237676092857,2.527192602295708,0.3901190105851642,0.5586651703174955,-0.6257457549774429,1.4612808932416903,1.075313258827884,0.6368539796312356,-0.7572715846841521,9.880616562536488,-1.2791908288330245,0.2386728333575218,-1.2585233511416614
0.54,-0.4130725823963589,-1.6764193200694475,2.515153820912511,-0.0487843568019545,0.2678916429009456,0.0199758152286461,0.3214653276924222,0.4301616001576468,-0.4736715031656442,-0.416253113714781,-1.6784504642148568,2.51547768720808,0.4301190111812107,0.598665170913542,-0.6657457555734894,1.484070902603848,1.0833347557035882,0.63228738560408,-0.7931361251676816,9.880616562536488,-1.2803734037607246,0.2404393660890888,-1.26368815242801
0.56,-0.406757374226955,-1.6681156776341215,2.505999912228336,-0.0499277116974584,0.2696855590898249,0.0202082848666204,0.3422390398905149,0.4432399605226481,-0.4891143407159014,-0.4082507335000975,-1.6670771608055266,2.5027627721055508,0.4701190117772572,0.6386651715095883,-0.7057457561695357,1.4500619468919718,1.038685609904635,0.6539180182500631,-0.772141877512858,9.855592219506434,-1.2814415325182793,0.2429997163585426,-1.2690877021657243
0.58,-0.3996818944128949,-1.659097830394912,2.4960421011267355,-0.0512455614487296,0.2714650273928135,0.0204583119451701,0.3642399517444124,0.4578436972402649,-0.5058850396897235,-0.3992483532705128,-1.654703857381295,2.4890478569881203,0.5101190123733036,0.6786651721056348,-0.7457457567655822,1.56410165317907,1.100045592694876,0.7301868358808444,-0.8385349486911081,9.825813045550603,-1.2827315868306894,0.2457739941402392,-1.274696464153351
0.6,-0.3921648239108153,-1.6497758796511646,2.48574465779641,-0.0522135840628136,0.2731385658184969,0.0207468960077475,0.3863956646299757,0.4735029114699475,-0.5230342899193018,-0.3814698968256743,-1.6362056455328988,2.470747849142249,0.4222238270190706,0.5578436987303811,-0.6058850411798397,1.604823500572026,1.1077856442781668,0.7829607114841292,-0.8574625114789125,9.825813045550603,-1.283667863400625,0.2481933893792217,-1.2816204571755476
0.62,-0.3844612473523625,-1.6405603990759072,2.475865640689283,-0.0508904223258764,0.2719847541111196,0.0213319557907086,0.4230715392913809,0.4950013399743402,-0.5159516070866806,-0.3814698968256743,-1.6362056455328988,2.470747849142249,0.4222238270190706,0.5578436987303811,-0.6058850411798397,2.1549168234789766,1.8337937330702572,1.0749214252196326,0.3541341416310573,9.81802824631268,-1.2796340088328622,0.2466939382857675,-1.2766271141517629
0.64,-0.3756215759927036,-1.6304577542616854,2.465596132352858,-0.0467152482210015,0.2653663003078952,0.0224097534769993,0.4580186038438567,0.5134502146729814,-0.5115192619383925,-0.3814698968256743,-1.6362056455328988,2.470747849142249,0.4222238270190706,0.5578436987303811,-0.6058850411798397,1.9882806529729544,1.747353227623788,0.9224437349320574,0.2216172574144082,11.50028650645072,-1.3023630465942275,0.2460292596800024,-1.2954178953107622
0.66,-0.366152342401384,-1.6200307842503294,2.455362832484476,-0.0417852195608685,0.2549793547549004,0.0236710408484505,0.4864459633563012,0.5281238618741432,-0.5121645014350658,-0.3772476585554836,-1.630627208545595,2.464688998730451,0.4338206020740022,0.5778436990284043,-0.6258850414778628,1.599880483850279,1.4213679756222255,0.7336823600580911,-0.0322619748336638,11.136971461528448,-1.325852301197101,0.2437768464129258,-1.3062548316183726
0.68,-0.35618514138891,-1.6093372247217534,2.4450606797128307,-0.0370816288933789,0.242436331082076,0.0249390836895169,0.508288850626654,0.5404800901612731,-0.5178885900617013,-0.3688031820151021,-1.619470334570987,2.452571297906854,0.4570141521838655,0.6178436996244507,-0.6658850420739093,1.2870055287318958,1.0921443635176389,0.617811414356495,-0.2862044313317768,10.766706817744309,-1.3463564445967016,0.240939060787976,-1.3076553478037278
0.7000000000000001,-0.3463715142989577,-1.598965496840747,2.4351271238477974,-0.0331685742310966,0.2298377317724339,0.0260645193460307,0.5232765865379871,0.5507322008591812,-0.5273886031618613,-0.3603587054747207,-1.6083134605963798,2.4404535970832573,0.4802077022937288,0.6578437002204972,-0.7058850426699558,1.0246807434674956,0.7493867955666589,0.5126055348954051,-0.475000655008001,10.43588738152448,-1.3676091424843932,0.2380628128208917,-1.302719174238731
0.72,-0.3357898180126839,-1.5878497941054364,2.424439459151049,-0.0297795242960599,0.2169791696446026,0.0271240926432258,0.5337361448530319,0.5603681719515865,-0.5410139541037794,-0.3507545514288462,-1.59515658659197,2.4263358962298582,0.5034012524035921,0.6978437008165437,-0.7458850432660022,0.9847645496893164,0.5229779157522374,0.4817985546202663,-0.681267547095904,10.14864740860412,-1.3869551848075117,0.2355848639702474,-1.2932639421624677
0.74,-0.325046370035039,-1.5765494778150284,2.4134529951490524,-0.0271623592584269,0.2053955738836662,0.0280439332397355,0.5398633403261851,0.5692738792274814,-0.5570177079215656,-0.3411503973829716,-1.58199971258756,2.412218195376459,0.5265948025134554,0.7378437014125901,-0.7858850438620487,0.9656271054481416,0.3063597736576606,0.4452853637947451,-0.8001876908893091,9.900693574397335,-1.4032764991597615,0.2335888943539502,-1.2807649651255169
0.76,-0.3142148315922044,-1.565068660169643,2.4021246587558385,-0.0250065743589148,0.1955734516703602,0.0288495892832271,0.5429405144311626,0.5783357699099739,-0.574976452039412,-0.3309664045843504,-1.5678428385682488,2.397100494508159,0.5497883526233186,0.7778437020086365,-0.8258850444580951,1.0174764782343506,0.1538587052488771,0.4530945341246262,-0.8979372058923185,9.751212724931976,-1.415323063013024,0.2319185253039434,-1.2683076171804084
0.78,-0.3038899375675837,-1.5539959593205968,2.391014917520807,-0.0231056795402377,0.1879785296341501,0.0295367115699329,0.5437549294910006,0.586705785214907,-0.5935482810120418,-0.3202025730329827,-1.5526859645340363,2.3809827936249577,0.5729819027331818,0.817843702604683,-0.8658850450541415,1.0193542802714857,0.0407207529918962,0.4185007652466543,-0.928591448631494,9.633008352598154,-1.4248068805252538,0.2301555047996177,-1.2556977750438425
0.8,-0.2930234191900718,-1.5421736127098231,2.3789243517038727,-0.0212065811565611,0.1818706973207173,0.0301884084971327,0.5427442499120166,0.5950402621497753,-0.6145803297354661,-0.2767021910930337,-1.5246606700598515,2.361337503470205,0.5148715617141298,0.6867057867050231,-0.6935482825021579,1.132289773527208,-0.0505339789491965,0.4167238467434164,-1.0516024361712115,9.53029459355821,-1.4317032265781566,0.228426584084785,-1.2444476183188895
0.8200000000000001,-0.2820056207877872,-1.5301560381634136,2.3667054287901523,-0.0187177263007094,0.1737710111576933,0.0308983594963436,0.5588497368739013,0.6059103304107628,-0.6046011272479049,-0.2767021910930337,-1.5246606700598515,2.361337503470205,0.5148715617141298,0.6867057867050231,-0.6935482825021579,1.0921647959050285,0.8052743480942315,0.5435034130493732,0.4989601243780561,9.43265938110926,-1.4327670061012925,0.2245668869584963,-1.2133338149291264
0.84,-0.2707073110208659,-1.5179573198997465,2.3546777951078712,-0.0161017611412319,0.1603175313409899,0.0316764210675798,0.5690965784637331,0.6135354577665368,-0.5987358335990494,-0.2767021910930337,-1.5246606700598515,2.361337503470205,0.5148715617141298,0.6867057867050231,-0.6935482825021579,0.7027481756400825,0.51234207949159,0.3812563677887015,0.2932646824427787,11.4412388814917,-1.4558748313613386,0.2239756366509643,-1.2149762461082918
0.86,-0.2598656091433175,-1.506239705594414,2.343286258334146,-0.014211490539846,0.1447762698753031,0.0323753349827204,0.5709796518359497,0.6196571224327432,-0.6005785342376405,-0.2715534754758923,-1.5177936121928013,2.3544020206451832,0.5090948881587557,0.7067057870030463,-0.7135482828001811,0.3332277346428964,0.0941536686108301,0.3060832333103169,-0.0921350319295577,10.904043122282928,-1.4803851254127285,0.2235208592735166,-1.205817386145248
0.88,-0.2484930663998814,-1.493790495183903,2.3311930739689704,-0.0130429955854916,0.1274663094471788,0.0330304706823052,0.5655637453392327,0.6249933100509447,-0.6088899745683903,-0.2612560442416098,-1.5040594964587009,2.3405310549951404,0.4975415410480074,0.7467057875990928,-0.7535482833962276,0.5632206091964391,-0.2707953248358485,0.2668093809100769,-0.415572016537491,10.410780090255685,-1.5036826272570236,0.2234423882774073,-1.1879752122090823
0.9,-0.2372972201149584,-1.481245159145381,2.3188721321558763,-0.0130719322912727,0.1107324051242537,0.0335770030328044,0.5539186109182996,0.6293712946143094,-0.6229893195495562,-0.2509586130073272,-1.4903253807246004,2.326660089345097,0.4859881939372591,0.7867057881951393,-0.7935482839922741,0.9401694440586038,-0.5822567210466534,0.2188992281682344,-0.7049672490582914,10.01184441093119,-1.5225624918512046,0.2240732360732083,-1.1654956348064816
0.92,-0.2263890591383714,-1.468620516825391,2.306215416401822,-0.0146754320701214,0.0957609760785645,0.0340004622014566,0.5373741374508146,0.6331082612440764,-0.641912442558645,-0.241238849128582,-1.4745912649606976,2.310789123665252,0.4744348468265108,0.8267057887911857,-0.8335482845883205,1.270599372663758,-0.82722367337425,0.1868483314883484,-0.9461561504544412,9.686555855731967,-1.5373615140618977,0.2258294783191762,-1.1385828749614095
0.94,-0.2163671508488197,-1.4565548441009877,2.293821635982065,-0.0177634503637734,0.0838128639958522,0.034293820730471,0.5183977424232047,0.6373306273610264,-0.6617136318003652,-0.2315190852498368,-1.4588571491967948,2.294918157985406,0.4628814997157625,0.8667057893872322,-0.873548285184367,1.3874608456240172,-0.9488197513804976,0.2111183058475019,-0.9900594620860126,9.437366673177166,-1.5464928533659488,0.2288279080882882,-1.1107117859244222
0.96,-0.2062317747573931,-1.4437360137887834,2.2803573820112204,-0.0216143801104365,0.0739313066651683,0.0345588227977033,0.4961344006418966,0.6444537487156187,-0.6836987892746572,-0.2220881550488603,-1.4421230334179909,2.2780471922906598,0.4513281526050142,0.9067057899832786,-0.9135482857804134,1.6044799735997033,-1.1131670890654033,0.3561560677296127,-1.0992578737145986,9.331593251777122,-1.5514796795882384,0.2322894717365852,-1.0867829687715167
0.98,-0.1965650690559131,-1.4307574189865762,2.26644347084423,-0.0252433935529352,0.0670644087490446,0.0348116048431186,0.4717025058566885,0.6530172351371714,-0.7065603410510916,-0.2129460585256526,-1.424388917624286,2.2601762265810112,0.4397748054942659,0.946705790579325,-0.9535482863764598,1.7269201864259576,-1.2215947392604063,0.4281743210776345,-1.143077588821717,9.26135346120327,-1.5536016288375931,0.2353677805065227,-1.0689247183019253
1.0,-0.1878541699645149,-1.418260956179504,2.252795443296785,-0.0282294595591319,0.0638204780408206,0.0350209234802769,0.4465121739196353,0.6618909223834407,-0.728906566243362,-0.1729799437630786,-1.3981065572297176,2.2311154537916758,0.4034378202854948,0.7530172366272875,-0.7536516723840135,1.7411554560026998,-1.2595165968526585,0.4436843623134678,-1.1173112596135235,9.184499538933778,-1.5516399372827352,0.2380184446095181,-1.0552766196478187
1.02,-0.1791231969231031,-1.404840798651639,2.2383899951105364,-0.0287816726885505,0.0623598626949523,0.0353723943648686,0.4282303400888482,0.6790418732479971,-0.7082754673873607,-0.1729799437630786,-1.3981065572297176,2.2311154537916758,0.4034378202854948,0.7530172366272875,-0.7536516723840135,1.6232858680628637,-0.9140916915393564,0.8575475432278212,1.031554942800067,9.184499538933778,-1.533211733996502,0.2353998667037684,-1.0192993707059512
1.04,-0.1707516134007268,-1.3911056661830912,2.224431074725892,-0.0259113255603558,0.0607740536706222,0.0359546822831694,0.4097278984142938,0.6931947896532181,-0.6892172990848928,-0.1729799437630786,-1.3981065572297176,2.2311154537916758,0.4034378202854948,0.7530172366272875,-0.7536516723840135,1.504874720482281,-0.9251220837277168,0.7076458202610492,0.9529084151233936,11.94122081034402,-1.5385244260033804,0.2347032476385409,-1.0335392445507714
1.06,-0.1631523077454918,-1.377836834454518,2.2114478736230327,-0.0217844791085243,0.0594245236710486,0.0365830542991491,0.3911382380462657,0.702553894123072,-0.6783523557607063,-0.1689455655602237,-1.3905763848634447,2.223578937067835,0.3897848831712561,0.7730172369253107,-0.7630699386505979,1.1738987419216145,-0.9294830184014058,0.4679552234926942,0.5432471662093263,11.49816964376896,-1.542326009230851,0.2320629140784157,-1.044438292885352
1.08,-0.1555417391682427,-1.3637104922959882,2.1979468990031057,-0.017590007062966,0.0583470342981264,0.0372061899942512,0.3708857915411309,0.7096021925239943,-0.6725607293953908,-0.1608768091545138,-1.3755160401308988,2.208505903620155,0.3624790089427785,0.8130172375213571,-0.7819064711837668,1.1106113583824084,-1.01262232525674,0.3524149200461124,0.2895813182657747,11.06148662454234,-1.5432195268559037,0.2289423266305496,-1.0504512272534428
1.1,-0.1483436205026367,-1.349460720179888,2.1845048937277083,-0.0141563200439323,0.0577636100937671,0.0377494774911642,0.3499934084747759,0.715205107227803,-0.6718945790435086,-0.1528080527488039,-1.360455695398353,2.1934328701724746,0.3351731347143011,0.8530172381174036,-0.8007430037169355,1.0820444534084397,-1.0446191533177522,0.2801457351904346,0.0333075175941111,10.723210464100704,-1.5417856452088918,0.2261369941164569,-1.0533379667508884
1.12,-0.1415672343916979,-1.3351080813223248,2.171037178864041,-0.0116092981222883,0.0577656854794698,0.0382080512896195,0.3287647883353232,0.7200046406554441,-0.674887884956772,-0.1461045900545179,-1.343395350636005,2.177418010098136,0.3078672604858236,0.8930172387134501,-0.8195795362501043,1.0984645128981176,-1.0614310069726351,0.2399766713820583,-0.1496652956631705,10.452957509429323,-1.5386520140815385,0.2239951762945941,-1.0541619768676065
1.14,-0.1355225779850501,-1.3213900677774484,2.158177030105754,-0.0100597687013238,0.0583202589627253,0.0385656807418329,0.3086528420659893,0.7239525185502386,-0.6786431702893079,-0.1394011273602318,-1.326335005873657,2.1614031500237973,0.2805613862573461,0.9330172393094964,-0.8384160687832731,1.041847266327386,-1.005597313466694,0.1973938947397224,-0.1877642666267942,10.250915693794925,-1.5333519257644543,0.2223152148546673,-1.052486320496907
1.16,-0.1295720313338298,-1.3068654552348988,2.144557277070459,-0.0092110953940609,0.0594904542374245,0.0388719958559385,0.2875459598302011,0.728330884704992,-0.6831489276132985,-0.1333803115216578,-1.3082746610964078,2.1449173766361294,0.2532555120288686,0.9730172399055428,-0.8572526013164419,1.101104464802517,-1.055344111789408,0.2189183077376699,-0.2252878661995305,10.201761957192502,-1.5271745930730636,0.221339318088194,-1.0510191428935092
1.18,-0.1240419366886806,-1.2922529671770997,2.1308414164923137,-0.0090104451165781,0.0613055520939448,0.0391179885858854,0.2666268993190435,0.7327233099718322,-0.688225372377256,-0.1280421425387956,-1.2892143163042575,2.127960689935132,0.2259496378003912,1.0130172405015894,-0.8760891338496106,1.0984884886012254,-1.0459530255578802,0.2196212633420124,-0.2538222381978761,10.167112697579796,-1.5202208529064545,0.2209348115622352,-1.05009331720574
1.2,-0.1189267864890848,-1.2775521720708214,2.117017110404952,-0.0094128699662906,0.0637859420155402,0.039306689776803,0.2460934768270201,0.7371797878665228,-0.693934542931975,-0.1107105917227284,-1.255616801678508,2.096430147873451,0.2652073156342787,0.8327233114619483,-0.7010697365360652,1.088664621089377,-1.0266711246011722,0.2228238947345306,-0.2854585277359489,10.132076019548547,-1.512837362080362,0.2210374956078122,-1.049771512288898
1.22,-0.1144915273567649,-1.2634490150931768,2.1040130402940385,-0.0086290839360288,0.0687114752261766,0.0395348936307418,0.2223037896434255,0.7467924285253414,-0.6732351739667974,-0.1107105917227284,-1.255616801678508,2.096430147873451,0.2652073156342787,0.8327233114619483,-0.7010697365360652,1.6483445879771403,-1.189484359179728,0.4806320329409308,1.0349684482588772,10.09493645357088,-1.4965092220207217,0.2187901057353788,-1.034378082996388
1.24,-0.1102648679177968,-1.248434617478918,2.090771240316924,-0.0057563752400041,0.0777901078306638,0.0398884681750282,0.2022886023659594,0.7537596843568943,-0.6524135417838504,-0.1107105917227284,-1.255616801678508,2.096430147873451,0.2652073156342787,0.8327233114619483,-0.7010697365360652,1.485505589299721,-1.0007593638733034,0.3483627915776444,1.041081609147354,11.980480814024304,-1.4846448987284675,0.2165132535164384,-1.0566195076933895
1.26,-0.1063872443153902,-1.2333165108726187,2.077893805421517,-0.0026957354218277,0.0887639459391216,0.0402628291227646,0.1869770834074268,0.7578035100183625,-0.6363696161999423,-0.1080585185663857,-1.2472895685638885,2.0894194505080903,0.2649233988973258,0.8527233117599715,-0.7036386093678271,1.127167564007049,-0.7655759479266319,0.2021912830734107,0.8021962791954051,11.636806659529611,-1.4719854824397205,0.214086844315683,-1.0785668401070252
1.28,-0.1029499595413206,-1.2188934958116842,2.065923706865036,-0.0004177700888812,0.099846734906643,0.0405907686862644,0.1759707202219001,0.7604383236930414,-0.6244595523187622,-0.1027543722537001,-1.2306351023346496,2.075398055777369,0.2643555654234198,0.892723312356018,-0.7087763550313507,0.8214802117607313,-0.5503181592763334,0.1317406837339441,0.595503194059005,11.351429533934606,-1.45784981932574,0.2120193480174814,-1.100209316267638
1.3,-0.099523874717422,-1.2036643622063534,2.05354218839838,0.001022859279639,0.1115685845719713,0.0408802258761103,0.1675755122392614,0.7624818395536397,-0.6144513435978388,-0.0974502259410145,-1.2139806361054106,2.061376661046648,0.2637877319495139,0.9327233129520645,-0.7139141006948744,0.6610970351352426,-0.4197603991319354,0.1021757930299127,0.500410436046167,11.151720281268354,-1.44390052129158,0.2108731471141968,-1.120331241890564
1.32,-0.0962350382604004,-1.1884010678843209,2.0413377666555568,0.0011506670576345,0.1229963933951635,0.041076455608914,0.1620421740478631,0.7638947948211496,-0.6065981141510846,-0.0921744713020242,-1.1953261698463693,2.04709837903275,0.263219898475608,0.9727233135481108,-0.719051846358398,0.485508719982813,-0.276666909569917,0.0706477633754976,0.3926614723377131,10.910124058083966,-1.430498873754112,0.2110404378952996,-1.138840985613336
1.34,-0.0930277552931778,-1.1731146220114053,2.029283527591229,-0.0004509448043858,0.1339403743176935,0.0411337838730746,0.1592498264476556,0.7649685504370913,-0.5992493803526915,-0.0868987166630339,-1.176671703587328,2.032820097018853,0.2626520650017021,1.0127233141441574,-0.7241895920219217,0.3967179246101552,-0.1396173800103747,0.0536877807970848,0.3674366899196535,10.910124058083966,-1.4180615073589622,0.2127900344206353,-1.1538016852322908
1.36,-0.0900089237379448,-1.1585574439748505,2.01796745786412,-0.0034122657856187,0.1438016835314606,0.0410563216836944,0.158880235557035,0.7677207121570511,-0.5923225110949957,-0.0816371578608913,-1.1570172373133856,2.0184133713633674,0.2620842315277962,1.0527233147402038,-0.7293273376854454,0.3731370702317472,-0.018479544531029,0.1376080859979866,0.3463434628847905,10.911656343342656,-1.405436049252494,0.216261478700595,-1.1688559305978783
1.38,-0.086816390120824,-1.1431481810463346,2.006196548812609,-0.0069589010463968,0.1535851924724346,0.0409061018004462,0.1606370933678025,0.7731831074932137,-0.5851739169654582,-0.0763897948955963,-1.136362771024542,2.0038782020662937,0.2615163980538902,1.09272331533625,-0.7344650833489691,0.4583304217609947,0.0878428905383768,0.2731197668081331,0.357429706476875,10.928180731173596,-1.394590911625703,0.2204566327937522,-1.1847753731184003
1.4,-0.0835671275386811,-1.127611031764466,1.994566218935956,-0.0102268034129184,0.1627577856308974,0.0407405295283781,0.1644262694581015,0.7802554842294545,-0.5782617558163452,-0.0787845354524339,-1.104489025671674,1.976937852964336,0.1608441070075404,0.8731831089833298,-0.5804949560758803,0.5295147304228626,0.1894588045149456,0.3536188368120363,0.3456080574556486,10.943871832571858,-1.385112427797191,0.2245339145932647,-1.2010303100242377
1.42,-0.0801528801100064,-1.111845809840949,1.983220876939772,-0.0106426098808899,0.1699193442294707,0.0407690738558109,0.1769578331425891,0.7951584828825601,-0.555879773262032,-0.0787845354524339,-1.104489025671674,1.976937852964336,0.1608441070075404,0.8731831089833298,-0.5804949560758803,1.4833177342484811,0.6265781842243814,0.7451499326552813,1.1190991277156614,12.08339642595547,-1.371478248662437,0.2243745032997353,-1.2022013636017606
1.44,-0.0766605759788472,-1.0966249310602254,1.972862408664607,-0.0075793289677602,0.17360156533289,0.0410677161859182,0.1897363599968791,0.8058031969536112,-0.5357149431606165,-0.0787845354524339,-1.104489025671674,1.976937852964336,0.1608441070075404,0.8731831089833298,-0.5804949560758803,1.3069248823471031,0.6389263427144992,0.5322357035525582,1.0082415050707727,12.08339642595547,-1.375511513005199,0.2228479693054669,-1.2281783990963582
1.46,-0.0727272424123912,-1.0804353726509883,1.9623403335190024,-0.0031200503179852,0.1745852647652764,0.0414853785639107,0.2027607528199208,0.812373665367168,-0.5177105024945702,-0.0771760943823585,-1.0957571945818407,1.9711329034035772,0.1608855097354879,0.893183109281353,-0.5795591638979647,1.1586260691867227,0.6512196411520843,0.3285234206778398,0.900222033302317,11.911095555802603,-1.3815863537830362,0.2194808729345482,-1.2488061211779766
1.48,-0.0685390068834619,-1.0641452555743771,1.9521445614770536,0.0009681170853566,0.1726579157885213,0.0418681605811235,0.2152375425339023,0.8163720759449941,-0.5028923812502938,-0.0739592122422077,-1.078293532402174,1.95952300428206,0.1609683151913831,0.9331831098773996,-0.5776875795421336,0.988982161019428,0.6238394856990792,0.1999205288913008,0.7409060622138197,11.716741875769912,-1.3898883935900237,0.2161285099165527,-1.2626566764360858
1.5,-0.0641123529346744,-1.047791687735551,1.9422153833786369,0.0041042544459688,0.1676823340816418,0.0421529576244446,0.2262907201839145,0.8190173851574364,-0.4907209929567195,-0.0707423301020569,-1.0608298702225074,1.9479131051605425,0.1610511206472782,0.973183110473446,-0.5758159951863024,0.8326360098883525,0.5526588825006103,0.1322654606221163,0.6085694146787141,11.534827542273888,-1.401828739045898,0.2138427838961528,-1.270434426168052
1.52,-0.059736150522035,-1.0322148207057993,1.9329910061984017,0.0061033232721477,0.1607730680799741,0.0423175863331696,0.2333807205663532,0.8207657924814515,-0.4808357791937889,-0.0675213076891113,-1.0413662080130384,1.936396785256816,0.1611339261031734,1.0131831110694924,-0.5739444108304713,0.614496714255826,0.3545000191219352,0.0874203662007577,0.4942606881465278,11.38567086659532,-1.4166281944614674,0.2123833967591015,-1.272571989625268
1.54,-0.0550226838225958,-1.0157897152072648,1.9234777424308755,0.007084353823137,0.1523017985654842,0.0423806850377025,0.2372081971115467,0.8217535171755935,-0.4710109671488131,-0.0643002852761657,-1.0219025458035695,1.9248804653530904,0.1612167315590685,1.053183111665539,-0.5720728264746402,0.5295094628392525,0.1913738272596707,0.0493862347070994,0.4912406022487908,11.269186934520803,-1.4312489912207391,0.2119276062969688,-1.268644644380348
1.56,-0.0502701409205482,-0.9993440196612086,1.9141553150204804,0.0068656945062868,0.1435110602960596,0.0423452206734349,0.2375499045956473,0.8228337099459518,-0.4617307736584171,-0.0610771927268228,-1.0014388835791994,1.91341093505826,0.1612995370149637,1.0931831122615854,-0.570201242118809,0.4674547348273758,0.0170853742050294,0.0540096385179156,0.4640096745197997,11.223093101084489,-1.4450009328113895,0.2126813530228376,-1.2626253369081957
1.58,-0.0455450844171679,-0.982875336971158,1.9050128596037996,0.0055770624282768,0.1351271460313105,0.042238359379524,0.234754083913161,0.8240789466797289,-0.4529585984513095,-0.0578520300410825,-0.9799752213399282,1.9019881943723251,0.1613823424708588,1.1331831128576315,-0.5683296577629778,0.4645381730169219,-0.1397910341243119,0.0622618366888538,0.4386087603553829,11.178702706059994,-1.4565704909592512,0.2143995854269346,-1.25596270634191
1.6,-0.0411338980318303,-0.9672024288444058,1.8964862006224328,0.0034645848346847,0.1280110128688995,0.0420899084123031,0.2296366477673958,0.8257468192289542,-0.4450124862279007,-0.0338073802215098,-0.9416713896371716,1.882364929681234,0.197052343052222,0.924078948169845,-0.4426560305967858,0.4798714698058456,-0.255871807288259,0.0833936274612645,0.397305611170437,11.110599219147844,-1.4663752772478886,0.2171223640502411,-1.2488889172521918
1.62,-0.0365717702732724,-0.9506003240555382,1.887773996236938,0.002426245968039,0.1206714102465285,0.0420292892088538,0.2266632342704566,0.8339128206685333,-0.4261020662609343,-0.0338073802215098,-0.9416713896371716,1.882364929681234,0.197052343052222,0.924078948169845,-0.4426560305967858,1.0405872748861973,-0.1486706748469637,0.4083000719789564,0.9455209983483231,11.110599219147844,-1.470871021437656,0.2178512710907258,-1.2361814005264182
1.64,-0.0320950954258926,-0.9338628684151123,1.8794403689338404,0.0033784419258135,0.1128806273862743,0.0420976551106872,0.2208306216567476,0.8393231864359939,-0.4083779111437549,-0.0338073802215098,-0.9416713896371716,1.882364929681234,0.197052343052222,0.924078948169845,-0.4426560305967858,0.971387026700921,-0.2916306306854466,0.2705182883730284,0.8862077558589698,11.65930098237186,-1.4838044410450713,0.217502667235144,-1.2369374323160995
1.66,-0.0277694773051474,-0.9170375791140344,1.8714295694218408,0.0050101624791809,0.1053524180246235,0.0421933896116671,0.211848786257021,0.8429814890676913,-0.3935701941145973,-0.0318368567909876,-0.932430600155473,1.877938369375266,0.1895119948800342,0.9440789484678682,-0.440595517025881,0.8850494744765263,-0.4490917699863331,0.1829151315848709,0.7403858514578782,11.65930098237186,-1.4940861187242571,0.2161849737758973,-1.2356318824207524
1.68,-0.0238523188365987,-0.9010014039796213,1.864071078956704,0.0065334394870217,0.0989334378391927,0.0422646381102112,0.2008551924667227,0.8449662659087158,-0.3817374725091466,-0.0278958099299432,-0.913949021192076,1.8690852487633305,0.1744312985356586,0.9840789490639148,-0.4364744898840716,0.8136518667815693,-0.5496796895149147,0.0992388420512246,0.5916360802725368,11.486703071550435,-1.5030282518328166,0.2146072783977868,-1.2324664940558263
1.7,-0.0199762898436562,-0.8840947556987343,1.85655084436129,0.0074766128364021,0.0933710632562037,0.0422834878214351,0.1871618600068982,0.8456845861960891,-0.3709787862248278,-0.0239547630688987,-0.8954674422286792,1.8602321281513947,0.159350602191283,1.0240789496599612,-0.4323534627422621,0.871453768789433,-0.6846666229912229,0.0359160143686643,0.5379343142159376,11.345542831265448,-1.5099501674394995,0.2136493623096087,-1.2285824630756077
1.72,-0.0163974039553035,-0.8671852366644152,1.8492301194406533,0.0071512485219098,0.0896412036546723,0.0422180509991687,0.1712843163325027,0.8453802375374169,-0.3616835099655638,-0.0207677510250731,-0.87498586323548,1.8515850588965492,0.1442699058469073,1.0640789502560075,-0.4282324356004527,0.9200423658375856,-0.7938771837197739,-0.0152174329336118,0.4647638129632009,11.170665736323826,-1.5139011969980558,0.2139843568435963,-1.2254838259441982
1.74,-0.0131522107657095,-0.8502874293965209,1.8420891032753588,0.0050888700510026,0.0883879692614405,0.0420473796950319,0.1542215534530442,0.8446336181455837,-0.3528830343801079,-0.0175807389812474,-0.8545042842422808,1.842937989641704,0.1291892095025317,1.104078950852054,-0.4241114084586432,0.9606556200417188,-0.8531381439729271,-0.037330969591659,0.4400237792727968,11.144939921014156,-1.5131393497136805,0.2158508441468251,-1.2228769576185472
1.76,-0.010379603322277,-0.834228518742035,1.8354681177986372,0.0017933221026819,0.0893463103657435,0.0418025828675642,0.138724750349059,0.8462154790639835,-0.3444952256087488,-0.0147707443460311,-0.8330227052341804,1.834393946065404,0.1141085131581561,1.1440789514481005,-0.4199903813168337,0.8846023490723599,-0.7748401551992606,0.0790930459199923,0.4193904385679542,11.144939921014156,-1.5080184430209889,0.2192350667733157,-1.2228216330200932
1.78,-0.007764830834733,-0.8172643370979356,1.8286731712123028,-0.0018663026989566,0.0919478505363931,0.0415288963296538,0.1237787204887159,0.8502051178172768,-0.335436983536959,-0.0123377671194243,-0.8105411262111788,1.8259529281676492,0.0990278168137805,1.1840789520441468,-0.4158693541750243,0.8963157582559692,-0.7473014930171558,0.1994819376646639,0.4529121035894867,11.147315044328025,-1.5012486818946875,0.2229486090287082,-1.2266517811138669
1.8,-0.0054333233235471,-0.8002035150826123,1.8220604774440423,-0.0051556649496254,0.0955892814537189,0.0412691592706413,0.1103307305158989,0.8556618420457344,-0.3262953044146918,-0.0015758948102972,-0.7747540812070717,1.8119013220354547,0.1148832189943082,0.9502051193073928,-0.3213813486881856,0.857605053023998,-0.6723994986408487,0.2728362114228777,0.4570839561133605,11.147315044328025,-1.4936726951065529,0.2263550866525052,-1.2331315969566004
1.82,-0.0033996825826539,-0.7829449858082072,1.815692451612932,-0.0052974112191492,0.1013627106298662,0.0412077413771657,0.0942075705195377,0.8690938190791118,-0.3106505374658937,-0.0015758948102972,-0.7747540812070717,1.8119013220354547,0.1148832189943082,0.9502051193073928,-0.3213813486881856,1.3087522952946868,-0.8061579998180572,0.6715988516688698,0.7822383474399064,11.15329733011822,-1.4815952561473316,0.2261637080304375,-1.2431114670905494
1.84,-0.0017305505554548,-0.766341555470414,1.8099333127713024,-0.0017684392522482,0.10940467401012,0.0414010537093647,0.0827919880433062,0.8773673184407657,-0.2964160605792325,-0.0015758948102972,-0.7747540812070717,1.8119013220354547,0.1148832189943082,0.9502051193073928,-0.3213813486881856,1.0017318094128582,-0.5707791238115774,0.4136749680826945,0.7117238443330592,11.649073100212265,-1.4690270253115816,0.2220002412713354,-1.2626373554506145
1.86,-0.0001630173797279,-0.7487506584257003,1.804144316090554,0.0028511858825766,0.1190483314423941,0.04169683405593,0.0749619336555436,0.8812086767678285,-0.2833490505689316,-0.0004270626203541,-0.7652520300139978,1.808687508548573,0.1131041186954267,0.970205119605416,-0.3185702217184308,0.7855134246490005,-0.3915027193881308,0.1920679163531446,0.6533505005150458,11.418194722316002,-1.4555857204885,0.2166306284748848,-1.2823332425099416
1.88,0.0012900761633824,-0.7311121667111138,1.7985939284694743,0.0067561871618742,0.1287313487189025,0.0419767559880716,0.0709807376271757,0.8827153724860911,-0.2723765913567088,0.0018706017595319,-0.7462479276278499,1.8022598815748088,0.1095459180976636,1.0102051202014626,-0.3129479677789215,0.5884617977566946,-0.1990598014183914,0.0753347859131281,0.548622960611142,11.418194722316002,-1.4421664172304185,0.2119817905823064,-1.3005009354621144
1.9,0.0026989961943906,-0.7134550211469561,1.793246588615163,0.0094940064658715,0.1375733329518572,0.0421927534151776,0.0702257243187202,0.8832696554912994,-0.2629400930985213,0.0041682661394181,-0.7272438252417021,1.7958322546010457,0.1059877174999005,1.050205120797509,-0.3073257138394121,0.4741433699910349,-0.0377506654227768,0.0277141502604161,0.4718249129093715,11.245752449702197,-1.43089017503834,0.2088365450991786,-1.3159917995442312
1.92,0.0040487596298591,-0.696675872939042,1.7883310935870549,0.0109053804741891,0.1446554296826764,0.0423117506274809,0.0718977735706266,0.8831939855774151,-0.2549760306929759,0.0062880204894161,-0.7062397228257519,1.7896857403242572,0.1024295169021375,1.0902051213935553,-0.3017034598999027,0.4069022137937133,0.0836024625953189,-0.0037834956942151,0.3982031202772712,11.245752449702197,-1.4213372699589235,0.2070230868053674,-1.3298097848131516
1.94,0.0055226367930605,-0.6790202501203159,1.7833166098159798,0.0109072334661325,0.1504287082805656,0.0423138410170294,0.0754144115664194,0.8825343555272958,-0.2469129715792838,0.0084077748394141,-0.6852356204098017,1.783539226047469,0.0988713163043744,1.130205121989602,-0.2960812059603933,0.4410634219343279,0.1758318997896392,-0.0329815025059687,0.4031529556846061,11.206931914335655,-1.4143903520353516,0.2070758597660837,-1.3407526200040698
1.96,0.0070809567899058,-0.6613714030629338,1.7784624043083248,0.0093409758491942,0.1543391580058939,0.042177853912747,0.080111653172235,0.8825376074950407,-0.2389241717258186,0.0104385741744681,-0.6632315179789503,1.7775332681191685,0.0953131157066114,1.1702051225856482,-0.2904589520208839,0.463370835231959,0.234862080290784,0.0001625983872488,0.3994399926732589,11.21133594188359,-1.4102053541193178,0.2089363985601648,-1.348771007401379
1.98,0.0086534752930038,-0.6445943908330228,1.7740002649285087,0.0067176483874026,0.1563899656086199,0.0419457960993948,0.0850284902521385,0.8837290498958019,-0.2311782435008185,0.0123804184945779,-0.6402274155331978,1.7716678665393557,0.0917549151088483,1.2102051231816946,-0.2848366980813745,0.4625857378138073,0.2458418539951733,0.0595721200380594,0.3872964112500029,11.222740933518253,-1.4080906408754006,0.2124009806641767,-1.354930634194959
2.0,0.0104082879314873,-0.6268856286307202,1.7694650700518164,0.0035827804370243,0.1569833929534341,0.0416611008574922,0.0900778989109164,0.8871786032117548,-0.2227400957851497,0.0129048998056107,-0.6004079383382327,1.7624413527534677,0.0671023877480043,0.940040597651997,-0.2307755671808822,0.5210524991648873,0.2524704329388928,0.1724776657976434,0.4219073857834432,11.242960220073655,-1.408290616608481,0.2164425227254803,-1.3600412887744384
2.02,0.0122759284836827,-0.6088885659939381,1.7650945620462235,0.0072818006733854,0.1554318692450141,0.0418386963518366,0.0965187378512592,0.9095751194392871,-0.2147297423883548,0.0129048998056107,-0.6004079383382327,1.7624413527534677,0.0671023877480043,0.940040597651997,-0.2307755671808822,1.2321263195459102,0.3220419470171404,1.119825811376618,0.400517669839745,11.268476700821338,-1.40771022942279,0.2118036173634899,-1.3701450977375558
2.04,0.0142746544996549,-0.5906031725332219,1.760874523876065,0.0183146075273621,0.1508370617537242,0.0424514323245948,0.1027297167067226,0.9166541474553428,-0.2077137702278239,0.0129048998056107,-0.6004079383382327,1.7624413527534677,0.0671023877480043,0.940040597651997,-0.2307755671808822,0.5871813207018277,0.3105489427731693,0.3539514008027766,0.3507986080265451,11.27938213604557,-1.4173201249414824,0.1991036464422627,-1.3763126667344383
2.06,0.016258758610428,-0.5731972308757385,1.7569712746201362,0.0295915675093045,0.1442591443512645,0.0429529308496424,0.1054194570385151,0.915104529021671,-0.2034742810451838,0.0135759236830907,-0.5910075323617128,1.760133597081659,0.0635171672471775,0.951302907203236,-0.230695031916895,0.2627227096777519,0.1344870165896267,-0.0774809216835814,0.2119744591320013,11.181382457853942,-1.4300659037949046,0.1842575903921464,-1.3757142521175023
2.08,0.0183626043875442,-0.5549600565088652,1.7529292219995642,0.0401023603777607,0.1363137240915263,0.0432363188689885,0.1044818009881145,0.9088159716380396,-0.2010166614944137,0.0149179714380508,-0.5722067204086728,1.7555180857380412,0.0563467262455238,0.973827526305714,-0.2305339613889205,0.3408263732914726,-0.046882802520029,-0.3144278691815771,0.1228809775385073,11.021281870381245,-1.4424707967222066,0.1708468211688037,-1.3687255557852336
2.1,0.0204101600044316,-0.5368806662975649,1.748917739587443,0.0484872487201547,0.1283908482813249,0.043261183525384,0.1000815044123532,0.8997260555919802,-0.2002898077317799,0.0162600191930109,-0.5534059084556329,1.7509025743944235,0.0491762852438702,0.996352145408192,-0.2303728908609459,0.5062546297845556,-0.2200148287880655,-0.4544958023029677,0.0363426881316908,10.895461948856791,-1.4532279374109691,0.1605022607007836,-1.3589447220916422
2.12,0.0223380372693945,-0.5190033568518996,1.744907625821044,0.0545706809993731,0.1213084470738762,0.0430811522985403,0.0928475778564703,0.8890006030441564,-0.2007019618668255,0.0172435448978883,-0.533478865547469,1.7462951165772047,0.0420058442422165,1.01887676451067,-0.2302118203329714,0.6471763608216907,-0.3616963277941476,-0.5362726273911878,-0.0206077067522819,10.79420631300036,-1.462231300632607,0.1523583116236197,-1.3470731113050822
2.14,0.0240129384464247,-0.5022264526535489,1.7410857702178804,0.0584328615996456,0.1158757862881379,0.0427936992005355,0.0837315612339743,0.8780053714913508,-0.2015304326007977,0.0182270706027657,-0.5135518226393051,1.7416876587599857,0.0348354032405628,1.0414013836131482,-0.2300507498049969,0.7153377519019977,-0.455800831124796,-0.5497615776402787,-0.0414235366986093,10.731307830021253,-1.4690213514835602,0.1468160182712571,-1.33536003879488
2.16,0.0255666303837601,-0.4847884608145339,1.7370458296618472,0.0609459669603873,0.112166250918507,0.0424662148932835,0.0719941977874559,0.8666234359190824,-0.202392453804874,0.0190313352826018,-0.4930616642535793,1.7370842277059662,0.0276649622389091,1.063926002715626,-0.2298896792770224,0.8186226826249263,-0.5868681723259196,-0.5690967786134205,-0.0431010602038178,10.704576701643418,-1.4724420733794443,0.1432452775418031,-1.3255906087652731
2.18,0.0268694199300318,-0.4675804470598547,1.7329897221965025,0.0621906559244313,0.1111848295840285,0.0421962760011938,0.0591304191610905,0.8548943544748581,-0.203152869696981,0.0196563389373965,-0.4720083903902916,1.732484823415146,0.0204945212372555,1.0864506218181045,-0.2297286087490479,0.871243915907528,-0.6431889313182726,-0.5864540722112177,-0.0380207946053479,10.70437818922892,-1.470959218827534,0.1411572818549632,-1.318223936619634
2.2,0.0279272959555078,-0.4506134175824051,1.7289205111544106,0.0619887893559541,0.1126646092275578,0.0419661543374378,0.0476188244555556,0.8426395652978069,-0.2037063994753461,0.0298259408880864,-0.4248357293361118,1.7228320787116531,0.0385008902511688,0.8357891696515835,-0.1941339530602756,0.8411347479060745,-0.5755797352767458,-0.612739458852557,-0.0276764889182559,10.701220059196205,-1.4653677995554992,0.1406961103539434,-1.3141366527015876
2.22,0.0287370994489967,-0.4344808660550155,1.7251086233165795,0.0681399244635314,0.1155219333608717,0.0422736304270788,0.0385619071349456,0.8513095983040726,-0.1977720662705182,0.0298259408880864,-0.4248357293361118,1.7228320787116531,0.0385008902511688,0.8357891696515835,-0.1941339530602756,0.6935660283419738,-0.4528458660304962,0.4335016503132838,0.2967166602413973,10.70372204960404,-1.4536150788909863,0.1321040182970704,-1.319124719268692
2.24,0.0294302406312787,-0.4175340641720921,1.7212011528739075,0.0806256837741095,0.1192888108688066,0.0430780048494178,0.0314343051709326,0.842163031123504,-0.1934253350428104,0.0298259408880864,-0.4248357293361118,1.7228320787116531,0.0385008902511688,0.8357891696515835,-0.1941339530602756,0.6191859036508904,-0.3563800982006537,-0.4573283590284305,0.2173365613853894,11.052671544237455,-1.4476680915596536,0.1164544836016068,-1.3246771542062403
2.26,0.0300004949168796,-0.400850259121925,1.7173543801759423,0.0936091873910666,0.1232419342454093,0.0439511488514355,0.0260783707130331,0.8263924357385241,-0.1914966886864362,0.0302109497905981,-0.416477837639596,1.7208907391810506,0.0343749844691845,0.8319681326869285,-0.1923301697329345,0.8383277841662243,-0.2677967228949732,-0.7885297692489968,0.0964323178187079,10.95430881950415,-1.4412535936957884,0.1009737602579517,-1.328241660704954
2.28,0.0304584372996428,-0.3853482788774464,1.713718226006007,0.104620460418148,0.1267687593557153,0.0446809084070926,0.0224394776212723,0.806505122925302,-0.1913249186179058,0.0309809675956214,-0.3997620542465643,1.717008060119845,0.0261231729052159,0.8243260587576187,-0.1887226030782524,1.0109108007394312,-0.1819446545880414,-0.9943656406611046,0.0085885034265195,10.777103016268484,-1.434646578966411,0.0864035827679103,-1.3291375330190958
2.3000000000000003,0.030878689816751,-0.3694664745850957,1.7098851551152814,0.1140396358798312,0.1299534197625794,0.0452455390001891,0.0198174989456206,0.7829973191970403,-0.1919858872778319,0.0317509854006448,-0.3830462708535327,1.7131253810586395,0.0178713613412472,0.8166839848283088,-0.1851150364235702,1.1831404057332435,-0.1310989337825831,-1.1753901864130831,-0.0330484329963021,10.777103016268484,-1.4285968233049602,0.0746099008454232,-1.3278589006815509
2.32,0.0312571763455846,-0.3540749797087665,1.7060349183221757,0.121090334116125,0.1324107910583776,0.0455528668555969,0.0181617087316035,0.7576925780068642,-0.1929600670477734,0.0321084126274698,-0.3667125911569665,1.7094230803301682,0.0096195497772785,0.809041910898999,-0.1815074697688881,1.2688780419713257,-0.0827895107008581,-1.2652370595088058,-0.0487089884970773,10.749139672276216,-1.4233848709491703,0.065825258909784,-1.3236490968739816
2.34,0.0316112698399836,-0.3392031043350974,1.7021696495073302,0.1258138128447172,0.1340300414588368,0.0455774307883144,0.0172552694367558,0.7313336140176696,-0.193436954589638,0.0324658398542947,-0.3503789114604003,1.7057207796016969,0.0013677382133099,0.8013998369696892,-0.1778999031142059,1.3189427930225837,-0.0453219647423822,-1.3179481994597286,-0.0238443770932267,10.747300739628372,-1.4187511568549869,0.060215064352894,-1.3164829547032624
2.36,0.0319342186316072,-0.3255680066462201,1.6984964300868604,0.1284146494652459,0.1348166280025167,0.0453525018761481,0.0167084594631166,0.7057654795913253,-0.1931180032939676,0.0326169717920204,-0.3342362836120669,1.7021086680395925,-0.0068840733506587,0.7937577630403793,-0.1742923364595237,1.278798487956463,-0.027340498681959,-1.2784067213172157,0.0159475647835166,10.782133800256815,-1.41507535292622,0.0566689078634701,-1.3080421953535244
2.38,0.0322638338171685,-0.3117415738203137,1.6946451887668437,0.1293743676953743,0.1349569846565702,0.0448795639165768,0.0162294460354833,0.6784262373679177,-0.1919422513749219,0.0325618084406469,-0.3182847076119662,1.698586745643855,-0.0151358849146273,0.7861156891110694,-0.1706847698048416,1.368435248549546,-0.0239506713816646,-1.3669621111703778,0.0587875959522879,10.82759276300476,-1.4113657718401735,0.0552409070699,-1.2981119192869806
2.4,0.032583784370818,-0.2984719435983068,1.690826231561123,0.1281667776041634,0.1345138708323994,0.0441588431706416,0.0157276702724362,0.6501505857654837,-0.1899251307227267,0.0330753061189426,-0.2778202619519179,1.6850480761980977,-0.0027180304856509,0.6517296019577281,-0.1893782353438205,1.417597464183791,-0.0250887881523585,-1.413782580121703,0.1008560326097599,10.919753254508578,-1.4084478114227352,0.0562049026014871,-1.2878834562222763
2.42,0.0328697935947958,-0.2857394759812294,1.6870043079951076,0.1251332764658156,0.1340029581325842,0.0432877332275912,0.0128529403052998,0.6248235499715526,-0.192570232510716,0.0330753061189426,-0.2778202619519179,1.6850480761980977,-0.0027180304856509,0.6517296019577281,-0.1893782353438205,1.2813268298523994,-0.1437364983568166,-1.2663517896965517,-0.1322550893994675,10.919753254508578,-1.410978300770421,0.0596060549229173,-1.2794115973033928
2.44,0.033090650779559,-0.2740969868702875,1.6833310100578678,0.1214427029414322,0.1337627662814708,0.0424261328096769,0.0105514861989599,0.602271541272243,-0.1938737015761459,0.0330753061189426,-0.2778202619519179,1.6850480761980977,-0.0027180304856509,0.6517296019577281,-0.1893782353438205,1.1353290480977951,-0.1150727053169953,-1.1276004349654811,-0.0651734532714942,10.575097669150637,-1.4057111706143792,0.0636026538059965,-1.2674252392239107
2.46,0.0332806996558362,-0.2622883818724565,1.6794545155854088,0.1172855412285146,0.1335414760147306,0.0414977301367335,0.0085807128466023,0.579944130144059,-0.1936110178743493,0.0330481258140861,-0.2713029659323406,1.6831542938446593,-0.0065075257898778,0.6463902748756902,-0.1888654321376003,1.120787934915108,-0.0985386676178819,-1.116370556409202,0.0131341850898317,10.661122201354374,-1.4011611589479551,0.0677851366089284,-1.2570599237210167
2.48,0.033435413856966,-0.2509160435902349,1.6755990745737817,0.1130816201031381,0.133215150698483,0.0405495373395803,0.006958580161164,0.5585774592203031,-0.1919151354635621,0.0329937652043731,-0.2582683738931861,1.6793667291377827,-0.0140865163983316,0.6357116207116144,-0.1878398257251597,1.074758063431556,-0.081106634271914,-1.068333546187794,0.0847941205393568,10.737215266833118,-1.3971037054826456,0.0716448278969077,-1.2483731763387884
2.5,0.0335542230194036,-0.2404991886129847,1.671977888034587,0.1091332617571904,0.1327355701731073,0.0396309763686843,0.0055922501361138,0.5391296354437877,-0.1893226515464579,0.0329394045946601,-0.2452337818540315,1.6755791644309064,-0.0216655070067853,0.6250329665475385,-0.1868142193127192,0.9833688019255508,-0.0683165012525111,-0.972391188825772,0.1296241958552144,10.799334802122758,-1.3930534394257157,0.075457761476826,-1.2406669742331395
2.52,0.0336516255473699,-0.2299233139594911,1.6682270891687223,0.1051005357423429,0.1320159304344006,0.0386496294444709,0.0041861027367224,0.5195874240087895,-0.1858460941850428,0.0325060944545244,-0.2327331225230807,1.671842880044652,-0.0292444976152391,0.6143543123834626,-0.1857886129002786,0.9949393566521978,-0.0703073699695709,-0.9771105717499062,0.1738278680707514,10.844764902747556,-1.3895934124864036,0.0790236036182143,-1.2337934540310482
2.54,0.033719717038477,-0.2197294602819003,1.6645501207317408,0.1012284985222519,0.1310733904268733,0.0376585415865155,0.0026496731128721,0.5008768764424935,-0.1819974603573493,0.0320727843143887,-0.2202324631921299,1.6681065956583976,-0.0368234882236928,0.6036756582193867,-0.1847630064878381,0.9581977725909976,-0.0768214811925119,-0.9355273783148044,0.1924316913846743,10.8841288048734,-1.386929177070559,0.0823624057422733,-1.2273687170063836
2.56,0.0337538469306013,-0.2099033117610287,1.6609527778411968,0.0974566868285226,0.1299656395249762,0.0366621702949843,0.0007938160010782,0.4828156569607841,-0.1779026324947905,0.0314499994090416,-0.207998770215281,1.6643959514324542,-0.0444024788321466,0.592997004055311,-0.1837374000753976,0.930617362305612,-0.0927928555896955,-0.9030609740854678,0.2047413931279426,10.88761102514036,-1.384907916165916,0.0854055686348672,-1.2213889919211742
2.58,0.033748500420446,-0.2008957371332398,1.657613138647472,0.0939312591683327,0.1288490024730086,0.0357191008370561,-0.0012950705272227,0.4663743651940551,-0.1738211706614031,0.0306377397384832,-0.1960320435925341,1.6607109473668218,-0.0519814694406003,0.5823183498912351,-0.182711793662957,0.8534310935632491,-0.1044443264150517,-0.8220645883364491,0.204073091669367,10.88761102514036,-1.382952426323024,0.0884962456125524,-1.2153808084153055
2.6,0.033696677137688,-0.191742497615639,1.654183385906498,0.090315879269455,0.1276781864879247,0.0347407554451357,-0.0038067771165046,0.4499193923631154,-0.1693485611743299,0.0336837468940849,-0.1775770188735371,1.6489220801144018,-0.0079435882066458,0.4428691114767518,-0.1408913553094401,0.8617990433991324,-0.1255853294640951,-0.8227486415469859,0.2236304743536615,10.888878129314437,-1.3809641475851313,0.0914319952568848,-1.2097873139485291
2.62,0.0335799125220872,-0.1829053603285964,1.6509168881208265,0.0872038677920859,0.1272430825568058,0.0338703843242738,-0.0076017740030853,0.4344880770679523,-0.1571709654041023,0.0336837468940849,-0.1775770188735371,1.6489220801144018,-0.0079435882066458,0.4428691114767518,-0.1408913553094401,1.0010261383337566,-0.189749844329031,-0.7715657647581559,0.6088797885113808,10.888804901605,-1.3729063048445762,0.0932825721990039,-1.2065967474454495
2.64,0.0334079448369935,-0.1747978492993232,1.6480539883285477,0.0847298941261292,0.1279138307211334,0.0331750020708666,-0.0101905001240307,0.4197315227100219,-0.1448446544612996,0.0336837468940849,-0.1775770188735371,1.6489220801144018,-0.0079435882066458,0.4428691114767518,-0.1408913553094401,0.9700455413361718,-0.1294363060472705,-0.7378277178965165,0.6163155471401338,11.399079946152597,-1.3678062550522856,0.0947024947785222,-1.208239031128669
