t,x,y,z,roll,pitch,yaw,v_x,v_y,v_z,ref_x,ref_y,ref_z,ref_v_x,ref_v_y,ref_v_z,a_com,a_x,a_y,a_z,thrust,wind_x,wind_y,wind_z
0.0,-2.402401785882992,1.1517822511687363,2.7875373552446203,0.0150213666960243,0.1365315279059077,0.0260738956990267,0.0061105891142716,-0.0071730882906003,0.0171615369513552,-2.402220159834913,1.151540283344258,2.7880549556094008,0.0902953307931727,-0.10783912111155,-0.0827702643704415,0.9789162955545992,0.3055294557135805,-0.3586544145300183,0.8580768475677646,10.552870659565087,-1.2849502465070828,0.1611225866726151,-1.1742038487603796
0.02,-2.402388723589082,1.1518990331399257,2.787678689800995,0.0209203623047401,0.1385903341986318,0.0265185774646747,-0.0045379508529663,0.0159504357271201,-0.0033316461396279,-2.402220159834913,1.151540283344258,2.7880549556094008,0.0902953307931727,-0.10783912111155,-0.0827702643704415,1.6340588419886528,-0.5324269983618962,1.156176200886024,-1.0246591545491597,10.552870659565087,-1.3095061070527323,0.1572322485328421,-1.1934633137482549
0.04,-2.40257254150497,1.152270232973613,2.787301933166121,0.0354347282946299,0.1444055574955123,0.0276776537491892,-0.0127457959172492,0.018927690084353,-0.033427501468616,-2.402220159834913,1.151540283344258,2.7880549556094008,0.0902953307931727,-0.10783912111155,-0.0827702643704415,1.5668385941844165,-0.4103922532141447,0.148862717861644,-1.5047927664494072,9.256666853583738,-1.2998926514678224,0.1411585808452353,-1.1788264740336394
0.06,-2.4028760206733173,1.1526070725037565,2.786323169085565,0.0508225811503783,0.1520421569567626,0.029045204110441,-0.0168193961235921,0.0142523222312115,-0.0629065646180323,-2.401317206526982,1.1504618921331426,2.7872272529656965,0.1071404185002154,-0.1278391214095732,-0.1027702646684647,1.5062108479314715,-0.2036800103171451,-0.2337683926570736,-1.473953157470813,8.868625785990844,-1.286127305016487,0.1252931017961917,-1.1653431925734936
0.08,-2.403207096355262,1.1528039802465482,2.7848639684510346,0.0649960431027975,0.159954763056106,0.0304413127264105,-0.0175743843321735,0.006435927453445,-0.0892352913100886,-2.399511299911118,1.1483051097109116,2.785571847678288,0.1408305939143008,-0.1678391220056197,-0.1427702652645111,1.3737429560711076,-0.0377494104290717,-0.3908197388883261,-1.3164363346028185,8.928573257281187,-1.2730252828818178,0.1096804344534105,-1.1561358172639076
0.1,-2.4035430757995235,1.1528214571164042,2.782800882212547,0.0792504111067741,0.1683886767267652,0.0319711760697017,-0.0157207517593606,-0.0045824943987547,-0.1156437197596906,-2.397705393295255,1.1461483272886803,2.7839164423908787,0.1745207693283862,-0.2078391226016661,-0.1827702658605576,1.4337421900447893,0.0926816286406435,-0.5509210926099857,-1.3204214224800983,9.020544907890326,-1.2614898710452502,0.0952937812837771,-1.1477573413816835
0.12,-2.4038164108623703,1.1525903607234786,2.780224758820661,0.0928136705677713,0.1766121839089432,0.0335301223381205,-0.0114764314317316,-0.0182651816643119,-0.1406039012953085,-2.394214977908687,1.141991544836647,2.780261037073668,0.2082109447424716,-0.2478391231977126,-0.222770266456604,1.4389586930672895,0.2122160163814527,-0.6841343632778636,-1.248009076780895,9.179453673297758,-1.251138107269187,0.0820396934661803,-1.1394124878508427
0.14,-2.403984194933125,1.1520595708612946,2.777154223941094,0.1057087137399586,0.1844670830720112,0.0350901818638532,-0.0053237690986501,-0.0343991581985732,-0.1652220726017142,-2.39072456252212,1.137834762384614,2.7766056317564565,0.241901120156557,-0.2878391237937591,-0.2627702670526505,1.5035082399712263,0.3076331166540759,-0.8066988267130654,-1.2309085653202836,9.179453673297758,-1.243934282059539,0.070312287442832,-1.1349923309666587
0.16,-2.4040133627842213,1.15123432758608,2.77378354716142,0.117365137220835,0.1915282869412192,0.0365524570922313,0.0020945480606939,-0.0518835305909903,-0.1883832972037875,-2.3863918927502,1.1326779799176794,2.771950226424344,0.2755912955706424,-0.3278391243898055,-0.3027702676486969,1.4976456794758053,0.3709158579672043,-0.8742186196208517,-1.1580612301036644,9.22661802598941,-1.2373964294350728,0.0588541085280141,-1.129862454841296
0.18,-2.403876290685422,1.1499844087986408,2.769760886865848,0.1290362888147629,0.1985203228269675,0.0380531617057072,0.0113829532914247,-0.0724345071866092,-0.2126820800034091,-2.3812169685929274,1.1265211974358436,2.766294821077331,0.3092814709847277,-0.3678391249858519,-0.3427702682447434,1.6575946098994858,0.4644202615365379,-1.0275488297809443,-1.2149391399810832,9.22661802598941,-1.2322764598080518,0.0481998304301636,-1.1252125152656016
0.2,-2.403537714287016,1.1483008021380563,2.765256957195632,0.1401195051385596,0.2050631426727167,0.0394994585917652,0.0221526661746116,-0.0951282945721351,-0.2365295143141645,-2.4033071430208506,1.1463626834393104,2.759126782865678,0.0961065599970903,-0.1724345086767253,-0.3126820814935253,1.7318305522564377,0.538485644159347,-1.1346893692762985,-1.192371715537771,9.283935887719052,-1.2278497871071177,0.0383245317526097,-1.1199033736857502
0.22,-2.4029372360925665,1.1459752273806982,2.7603826612945355,0.1457555916258399,0.2111618073859235,0.0405230366963446,0.0376153491681398,-0.1342240055223614,-0.2487780475078934,-2.4033071430208506,1.1463626834393104,2.759126782865678,0.0961065599970903,-0.1724345086767253,-0.3126820814935253,2.18951806652735,0.7731341496764063,-1.9547855475113145,-0.6124266596864436,9.283935887719052,-1.2136599475572791,0.0339168508618604,-1.1069641495842502
0.24,-2.402068032027264,1.1431076885377147,2.755545370361444,0.145252803182878,0.2165579677166099,0.0410079301301741,0.0531901215448945,-0.1650614051569624,-0.2597922229151269,-2.4033071430208506,1.1463626834393104,2.759126782865678,0.0961065599970903,-0.1724345086767253,-0.3126820814935253,1.813029792028466,0.7787386188377345,-1.5418699817300472,-0.5507087703616714,10.127492663830708,-1.2099079262131862,0.035112411574578,-1.106328047041727
0.26,-2.400828590155061,1.1394985907578192,2.7502112751038905,0.1416113134410698,0.2218736381614017,0.0412091046077856,0.0700190642556948,-0.1934992783131949,-0.2730419601638986,-2.40234607742088,1.1446383383525431,2.7559999620507427,0.1130512813382234,-0.1924345089747485,-0.3326820817915485,1.7800853066460467,0.8414471355400188,-1.421893657811625,-0.6624868624385882,10.02413974675892,-1.2075045333306322,0.0393632754035874,-1.107211575406953
0.28,-2.39924812814843,1.1353685601784544,2.744597093232072,0.1368477405218274,0.2268493731248088,0.0412393265228171,0.087271117915267,-0.2178505068360163,-0.2877675531731497,-2.400423946220938,1.1411896481790085,2.749746320420872,0.1469407240204897,-0.232434509570795,-0.3726820823875949,1.6639251602141965,0.8626026829786095,-1.2175614261410728,-0.7362796504625541,9.89459082105077,-1.2058144947287508,0.0446959018174817,-1.1076992070465266
0.3,-2.3973184160161702,1.1307797217612474,2.738671219873849,0.1321671824417362,0.2315110713333316,0.041190541157212,0.1049400708676287,-0.239794330124441,-0.304081399433756,-2.398501815020996,1.137740958005474,2.743492678791001,0.1808301667027559,-0.2724345101668414,-0.4126820829836414,1.6277782855483405,0.8834476476180846,-1.0971911644212338,-0.815692313030314,9.78868355139457,-1.2039647800027211,0.0495128064484196,-1.1084931087823666
0.32,-2.3951535946067337,1.126029332650223,2.7327269099633043,0.1282048981460414,0.2356691431405205,0.0411076267272958,0.122133669310081,-0.2592145303529003,-0.3208320620764473,-2.394885211686941,1.1322922678021372,2.7352390371313287,0.2147196093850221,-0.3124345107628878,-0.4526820835796878,1.543817268399179,0.8596799221226137,-0.9710100114229638,-0.8375331321345658,9.696314522190733,-1.2028804320566695,0.0540756507972962,-1.1089458499584297
0.34,-2.392516340464792,1.120641675952328,2.7261184253719173,0.1247085999057241,0.2397776131167203,0.0410011059738894,0.1407640901890246,-0.2785987572153172,-0.3391821176477471,-2.3912686083528856,1.1268435775988004,2.726985395471656,0.2486090520672884,-0.3524345113589344,-0.4926820841757343,1.6275482885693529,0.9315210439471816,-0.9692113431208432,-0.917502778564988,9.620458661056546,-1.2024047003563143,0.0579566482689774,-1.1085465574664235
0.36,-2.389500051378629,1.1148637519863005,2.7191378885993647,0.121619942281591,0.2436259812286536,0.0408614004192976,0.1600100811806877,-0.2981349217600386,-0.3579449335154122,-2.386804768951774,1.1203948873805625,2.7177317537970818,0.2824984947495546,-0.3924345119549808,-0.5326820847717807,1.661409908521611,0.9622995495831538,-0.9768082272360727,-0.9381407933832576,9.564274123205903,-1.2023703919820063,0.0614197129129657,-1.1073897607435776
0.38,-2.3860925474347443,1.1086980597360678,2.711779853102638,0.1185842813730809,0.247228461814633,0.0406683631451461,0.1798496347420265,-0.3173191517058401,-0.376906227166226,-2.381493693483605,1.1129461971474233,2.707478112107607,0.3163879374318208,-0.4324345125510272,-0.5726820853678272,1.6741962407667517,0.9919776780669382,-0.9592114972900744,-0.948064682540692,9.553664469653086,-1.2021018060129636,0.0646074723359385,-1.1053975734587616
0.4,-2.382482795014448,1.102490566175488,2.704436332425815,0.1156594486328779,0.2504353506589548,0.0404330636831445,0.1991906669211571,-0.3350104482158771,-0.3951355083206438,-2.377100065697643,1.092832102150776,2.6929345417443264,0.2719329994671394,-0.4173191531959562,-0.4769062286563422,1.5963741646047664,0.9670516089565332,-0.884564825501849,-0.91146405772089,9.553664469653086,-1.2015617896772646,0.0678669669626775,-1.103468179582887
0.42,-2.378219174485274,1.0955848683104952,2.6965347522976746,0.1127389370636914,0.2533688117838038,0.040122667250838,0.2264671176464103,-0.3547245611324704,-0.3930110415066365,-2.377100065697643,1.092832102150776,2.6929345417443264,0.2719329994671394,-0.4173191531959562,-0.4769062286563422,1.68609339265295,1.3638225362626586,-0.9857056458296654,0.1062233407003676,9.539057088351,-1.1962695896694784,0.070987696513783,-1.0929187932994848
0.44,-2.373404878377747,1.0882999714456991,2.688681172865554,0.1104156151285066,0.2556786390982783,0.0397636674449279,0.2535091493593108,-0.3728870749155654,-0.3928071415405806,-2.377100065697643,1.092832102150776,2.6929345417443264,0.2719329994671394,-0.4173191531959562,-0.4769062286563422,1.628795537566632,1.3521015856450256,-0.9081256891547484,0.0101949983027926,10.900050065115463,-1.1996152256272905,0.0729349883879951,-1.098504840665743
0.46,-2.3683341154787763,1.0810465069890287,2.6811779219243146,0.1087579596874616,0.2571998301344535,0.0393709058013649,0.2788380392602641,-0.3897815831512286,-0.3969870561806773,-2.374380735702972,1.0886589106188165,2.688165479457763,0.290349672412162,-0.4373191534939795,-0.4969062289543653,1.5365942523467282,1.266444495047664,-0.8447254117831621,-0.2089957320048324,10.613625673222488,-1.2017871254285215,0.0743240202791563,-1.1015204701942949
0.48,-2.3624837764257114,1.0730714775044654,2.673161241631993,0.1074525053037262,0.2579649902812763,0.0388825308190793,0.3047593913642089,-0.4068292031505507,-0.4045866634784936,-2.368942075713629,1.0803125275548973,2.6786273548846364,0.3271830183022072,-0.4773191540900259,-0.5369062295504118,1.5971003988627268,1.2960676051972402,-0.8523809999661042,-0.379980364890814,10.3683431016716,-1.2049880794185155,0.0752755131081916,-1.1027667627401667
0.5,-2.356123046976625,1.0647619672000226,2.664961114978904,0.1066827048470494,0.2578699812310736,0.0383257411698947,0.3299106546824119,-0.4233079282966422,-0.4150063806230654,-2.363503415724286,1.071966144490978,2.669089230311509,0.3640163641922523,-0.5173191546860724,-0.5769062301464583,1.5911512611273773,1.2575631659101498,-0.8239362573045778,-0.5209858572285897,10.024031127718445,-1.208910115426082,0.0756958923939124,-1.1021411676760564
0.52,-2.349622234134445,1.0565667829677066,2.656957937943909,0.1065040452466225,0.2570064976604853,0.0377410754882521,0.3530568430565364,-0.4385654824337332,-0.4268878580180975,-2.3562230884404407,1.061619761397257,2.6575511057085803,0.4008497100822975,-0.5573191552821188,-0.6169062307425047,1.5080687149342489,1.1573094187062232,-0.7628777068545478,-0.5940738697516046,10.024031127718445,-1.2136154585477914,0.0755436454390267,-1.0996471126268834
0.54,-2.342312073520323,1.0476301372941392,2.64828014680318,0.1070175951625032,0.2553308922898102,0.0370799215995569,0.3766530073059288,-0.4543549413225948,-0.4402884619957448,-2.348942761156596,1.051273378303535,2.646012981105651,0.4376830559723427,-0.5973191558781653,-0.6569062313385512,1.5697628533102477,1.1798082124696212,-0.7894729444430787,-0.6700301988823654,9.900892383987411,-1.2189164283732703,0.0746685012566781,-1.0953142781150496
0.56,-2.334531743542132,1.0383653433421618,2.6393255233823782,0.107952772234623,0.252754385591302,0.0363357230060538,0.4001276276435323,-0.4713170458310834,-0.4545029241389423,-2.3407416002254995,1.0399269951949124,2.6334748564878208,0.4745164018623878,-0.6373191564742117,-0.6969062319345976,1.6130884378823689,1.1737310168801751,-0.8481052254244309,-0.7107231071598746,9.840910175134924,-1.2245653656958069,0.0733108088710572,-1.0894225776670143
0.58,-2.326284277576367,1.0287489009183786,2.630077680654694,0.1086290342634663,0.2488845523086312,0.0354159330040758,0.4232987684442417,-0.4893466664978394,-0.4695061972249363,-2.331619605647152,1.0275806120713886,2.619936731855089,0.511349747752433,-0.6773191570702581,-0.736906232530644,1.648535100237729,1.1585570400354683,-0.9014810333378004,-0.7501636542997042,9.751890151709633,-1.2310782289978544,0.0722121493902132,-1.0820954115532555
0.6,-2.318029622822887,1.0192709643526232,2.621007253907904,0.1085559892089366,0.2438265797834129,0.0343281032135804,0.4441331446086514,-0.5072715018841878,-0.4844318333246161,-2.305119339154155,1.0042815675934866,2.606602370793447,0.5022371483280079,-0.5893466679879555,-0.5695061987150525,1.563765940580524,1.0417188082204876,-0.8962417693174185,-0.7462818049839892,9.751890151709633,-1.2399732466061362,0.0717930448231739,-1.0721093909107655
0.62,-2.308851741639152,1.0088654781280966,2.611424224876055,0.1064311077103403,0.2370149696364308,0.0328750781157277,0.4725434119862856,-0.5321166153080947,-0.4715429655313581,-2.305119339154155,1.0042815675934866,2.606602370793447,0.5022371483280079,-0.5893466679879555,-0.5695061987150525,1.9940824121055944,1.4205133688817069,-1.242255671195347,0.6444433896628993,9.69859545358031,-1.2420649274770912,0.0733156963902293,-1.0493526847735006
0.64,-2.2991397014530084,0.997994222138808,2.6021083423477447,0.102138947958446,0.2290373976260715,0.0311726288992532,0.4967619042378834,-0.5531804526724126,-0.4610569208461701,-2.305119339154155,1.0042815675934866,2.606602370793447,0.5022371483280079,-0.5893466679879555,-0.5695061987150525,1.6883259049950177,1.2109246125798945,-1.0531918682158914,0.5243022342593995,11.585170303858831,-1.2543218733953,0.076177314008833,-1.0470529177048304
0.66,-2.2889943625360845,0.9867398054836312,2.592926482029931,0.0973863749777833,0.2207076788245577,0.0294495242430116,0.5162958942939652,-0.5710337073895208,-0.4575484342723787,-2.300096967670875,0.9983881009136072,2.600907308806297,0.5180248243047612,-0.6093466682859787,-0.5895061990130757,1.3347518023433411,0.9766995028040848,-0.8926627358554096,0.1754243286895718,11.12596459672659,-1.26514385141792,0.079283952518069,-1.0435925646717414
0.68,-2.279034737970242,0.97573932932195,2.584214329087158,0.0930349326590805,0.21297155516358,0.0278895213473163,0.5309492048410333,-0.5859818401978603,-0.4596399266400457,-2.2900522247043145,0.986601167553848,2.589517184831996,0.5496001762582676,-0.6493466688820252,-0.6295061996091221,1.0518323592291006,0.7326655273534044,-0.7474066404169755,-0.1045746183833518,10.683346179498583,-1.2756674302010975,0.0825648080537233,-1.036793083557881
0.7000000000000001,-2.268287067540383,0.9638705313913628,2.574954338499677,0.0889327624155803,0.2055039137879028,0.0263907716820186,0.5428496280356638,-0.6001025096802179,-0.4664404017012042,-2.2800074817377545,0.9748142341940887,2.5781270608576947,0.5811755282117741,-0.6893466694780717,-0.6695062002051686,0.9839459333453326,0.5950211597315291,-0.7060334741178842,-0.340023753057922,10.02104184925156,-1.285134923756209,0.0854955690855098,-1.0288282608381532
0.72,-2.2573359167373197,0.9517322119306346,2.5655097342534536,0.0854425476090213,0.1991704448164462,0.0250757776248156,0.5516250699401717,-0.6130940677913553,-0.4776380134198253,-2.268383971173519,0.9610273008045274,2.5647369368535915,0.6127508801652806,-0.7293466700741181,-0.7095062008012151,0.9632957372679664,0.4387720952253926,-0.6495779055568696,-0.5598805859310579,10.02104184925156,-1.2929272131689833,0.0879469291925504,-1.0202370174412014
0.74,-2.246235791645846,0.9393426735372604,2.5558182234792066,0.0825627724686011,0.1944079840431935,0.0239683035104115,0.5578886519295867,-0.6253050202546837,-0.4909295282960585,-2.2567604606092835,0.947240367414966,2.551346812849488,0.644326232118787,-0.7693466706701646,-0.7495062013972615,0.955254137788626,0.3131790994707506,-0.6105476231664186,-0.6645757438116573,9.77313246931044,-1.2984769353716088,0.0898420676923517,-1.0119417645589348
0.76,-2.235591098472337,0.9273435883050316,2.546349262571651,0.0801086733151651,0.1917562951437348,0.023111073484294,0.5622745843038004,-0.6370533790756111,-0.5051102690046612,-2.2443475662462102,0.9324534340105034,2.5369566888304838,0.6759015840722935,-0.809346671266211,-0.7895062019933079,0.9465116808854748,0.2192966187106848,-0.5874179410463698,-0.7090370354301323,9.550740250439958,-1.3013017177493242,0.0915682446475032,-1.004337228299245
0.78,-2.224304940300485,0.9144763814735338,2.5360760895177994,0.0775885038956367,0.1911450733491755,0.0224031654212591,0.5663399692884927,-0.648948267479611,-0.5215367455338038,-2.2311452880843,0.9166665005911396,2.521566564796578,0.7074769360258,-0.8493466718622574,-0.8295062025893544,1.0342205475379114,0.2032692492346166,-0.5947444201999941,-0.8213238264571321,9.550740250439958,-1.3003402747575137,0.0931734523463301,-0.9990127551181992
0.8,-2.2129271281166547,0.9013761057193784,2.525457972724087,0.0750440064289756,0.1922503790992622,0.0218374527429107,0.5714398842902826,-0.6603503252008308,-0.5394413841125894,-2.1959879418360604,0.8820289680995532,2.509999252241109,0.6429641615859514,-0.7489482689697271,-0.6215367470239199,1.0915495132384578,0.2549957500894928,-0.5701028860609914,-0.8952319289392774,9.453039608295512,-1.2978582505389609,0.0947565547739835,-0.9956170330811336
0.8200000000000001,-2.201937680532495,0.8886936263082118,2.515361956293351,0.0723207614247145,0.1940092980142036,0.0213385598016042,0.5851436541087115,-0.6737707750720584,-0.5224078590642521,-2.1959879418360604,0.8820289680995532,2.509999252241109,0.6429641615859514,-0.7489482689697271,-0.6215367470239199,1.282617204737005,0.6851884909214456,-0.6710224935613796,0.8516762524168608,11.571615733816545,-1.2852987020838464,0.0964262611891462,-0.982162831734466
0.84,-2.190091397595691,0.8750968446280938,2.5050446123797223,0.0695731409525036,0.1960940211130525,0.0208443340548255,0.5988382503645678,-0.6852996521162528,-0.5103566826589682,-2.1959879418360604,0.8820289680995532,2.509999252241109,0.6429641615859514,-0.7489482689697271,-0.6215367470239199,1.078990066291552,0.684729812792817,-0.5764438522097182,0.6025588202641985,11.571615733816545,-1.2857072769383662,0.0980212700794198,-0.9929319777508416
0.86,-2.178588224138886,0.8619767133487779,2.4953948487298168,0.0674128816263453,0.1981113919485826,0.0204145156963184,0.6113756407718015,-0.6952609971316416,-0.5060074617136416,-2.189558300220201,0.8745394854098559,2.50378388477087,0.6582890000454431,-0.7689482692677503,-0.6415367473219431,0.8296539573374453,0.6268695203616836,-0.4980672507694406,0.2174610472663263,11.059609557160911,-1.2856368945594507,0.0993763802097853,-1.002339647202554
0.88,-2.1662276515254324,0.8479710273692699,2.4852685694063896,0.0656410282625836,0.2000416356098575,0.0199906772958641,0.6240065041261409,-0.7048304523920151,-0.5071031485983398,-2.176699016988482,0.8595605200304615,2.491353149830392,0.6889386769644266,-0.8089482698637968,-0.6815367479179896,0.7942192908850558,0.6315431677169692,-0.478472763018678,-0.0547843442349094,10.626814812290831,-1.285552511019664,0.1003714838814129,-1.0089852328314504
0.9,-2.1536205714870342,0.8337827239050346,2.475063883720182,0.0644826598370123,0.2016699484526158,0.0195974768638796,0.6360790238511795,-0.7135966132919495,-0.5132879656845949,-2.1638397337567628,0.8445815546510669,2.4789224148899134,0.71958835388341,-0.8489482704598432,-0.721536748514036,0.8075321538883405,0.6036259862519322,-0.4383080449967158,-0.3092408543127534,10.295390172253065,-1.28550316452979,0.1008627444560534,-1.0130431565436455
0.92,-2.141425224923724,0.8201486929371288,2.465218710739166,0.0641064476503921,0.2029125350899505,0.0192624894988143,0.6470389328297723,-0.7212172052953071,-0.5227280628192404,-2.1494479666790944,0.82760258924187,2.464491679919633,0.7502380308023935,-0.8889482710558897,-0.7615367491100825,0.8174785336818027,0.547995448929639,-0.3810296001678814,-0.4720048567322776,10.032447614499688,-1.285529064680669,0.1007414290999174,-1.0151000129182082
0.94,-2.1283662398685435,0.8056461190142754,2.4546445067800424,0.0647226715104303,0.2039659414874119,0.0189722365098415,0.6582781062178397,-0.7287323180649922,-0.5342598456750406,-2.135056199601426,0.8106236238326731,2.450060944949352,0.780887707721377,-0.9289482716519362,-0.801536749706129,0.8885071105813549,0.5619586694033674,-0.3757556384842542,-0.5765891427900072,9.827967827684915,-1.2852319176358418,0.0996972874743343,-1.0149505622008863
0.96,-2.115079510003362,0.7909833242186205,2.443826232006456,0.0662319836108448,0.2046967224389486,0.0187305703209135,0.6698136469689303,-0.7372086733854247,-0.5470267896544926,-2.119898190600784,0.7926446584085751,2.4346302099641703,0.8115373846403604,-0.9689482722479824,-0.8415367503021753,0.959051821478855,0.5767770375545322,-0.423817766021628,-0.6383471989725997,9.740899725090458,-1.284823757768181,0.0978348466065117,-1.0138174094667394
0.98,-2.101560573040727,0.7761402640331474,2.432739911975429,0.0681356241022516,0.2049098221549424,0.0184874100428751,0.6814330482474833,-0.7466510576568376,-0.5609421645467009,-2.103973939677166,0.773665692969576,2.418199474964087,0.8421870615593439,-1.0089482728440289,-0.8815367508982218,1.0220161021135683,0.5809700639276494,-0.4721192135706431,-0.6957687446104144,9.68007291899903,-1.2848808496880015,0.095748108066094,-1.011671414188737
1.0,-2.088503636468132,0.7618540200616788,2.421939688958364,0.0699025425469939,0.2045699070947364,0.0182197355456948,0.6923326476200712,-0.7566603045224353,-0.5752049689581455,-2.0674889206283527,0.7388077111503055,2.404692803748094,0.7630934977523356,-0.8388844621740114,-0.660942166036817,1.0276354886078536,0.5449799686293944,-0.5004623432798838,-0.7131402205722337,9.563662934521744,-1.2853604630078592,0.0935917999892938,-1.0082104345882417
1.02,-2.074470755373678,0.7465112570555574,2.410605601162466,0.069119480612214,0.2037730246151317,0.0177264977363453,0.7106728758670983,-0.7765960423763919,-0.5556704437947175,-2.0674889206283527,0.7388077111503055,2.404692803748094,0.7630934977523356,-0.8388844621740114,-0.660942166036817,1.6698767089933106,0.917011412351354,-0.9967868926978318,0.9767262581714008,9.563662934521744,-1.2783549631904385,0.0936816631583918,-0.9920607044142722
1.04,-2.0600774945378,0.7307999653669905,2.3996597161930446,0.0644748427994647,0.2027650233104129,0.0169635792400541,0.7276399059412094,-0.7925112287051926,-0.5400210260291868,-2.0674889206283527,0.7388077111503055,2.404692803748094,0.7630934977523356,-0.8388844621740114,-0.660942166036817,1.4018537208071564,0.8483515037055578,-0.7957593164400367,0.7824708882765374,11.865350432346531,-1.280690540989447,0.0968622036261426,-0.9998431734977348
1.06,-2.046107686785893,0.7156353693951907,2.3894741259008163,0.0588874314965032,0.2016109568755189,0.0161673427239732,0.7419577263187701,-0.8027282937804819,-0.5328900346213375,-2.059857985650829,0.7304188665285654,2.398083382087726,0.779425587653306,-0.8573311430774461,-0.6809421663348402,0.9489987323168666,0.7158910188780343,-0.510853253764465,0.3565495703924615,11.320829867931025,-1.2840658718808955,0.101537587229795,-1.006406957461979
1.08,-2.031127872970996,0.6994981069785691,2.3788320918215757,0.0531806501739979,0.2001755426460399,0.0153570133304109,0.7551557156498672,-0.8103993965455688,-0.5319758173543324,-2.0445961156957826,0.7136411772850851,2.3848645387669896,0.812089767455247,-0.8942245048843156,-0.7209421669308866,0.7646380405583507,0.659899466554853,-0.3835551382543434,0.0457108633502567,10.808587295510732,-1.287682912204598,0.1062319661104016,-1.0097138887781774
1.1,-2.015902616605365,0.6832287309924929,2.368145035286533,0.0481818868081309,0.1985932364799818,0.0146181758388649,0.7666130762813963,-0.816187208817865,-0.5370023171471343,-2.029334245740736,0.6968634880416049,2.371645695446253,0.8447539472571879,-0.9311178666911852,-0.7609421675269331,0.6892669724194203,0.5728680315764567,-0.2893906136148094,-0.2513249896400948,10.39985351811174,-1.2908754743256188,0.1103537863211365,-1.0103232713641483
1.12,-2.0004665230156564,0.6668590062507883,2.3573016479401443,0.0440806852880384,0.196991763765973,0.0139693402536534,0.776389042927049,-0.8206634869882766,-0.5470509341783888,-2.012439166795592,0.6782411307077812,2.356426852095715,0.8774181270591288,-0.9680112284980544,-0.8009421681229796,0.7358350602489594,0.4887983322826361,-0.2238139085205814,-0.502430851562724,10.063433363466174,-1.2937029219142928,0.1135612964990535,-1.0085870376057535
1.14,-1.9856329041735976,0.6512332791595588,2.3467918028973567,0.0410372138297057,0.1956490888785027,0.0134438166658048,0.7845306116026937,-0.8241124917995386,-0.558731422781233,-1.995544087850448,0.6596187733739575,2.341208008745176,0.9100823068610696,-1.004904590304924,-0.840942168719026,0.7324864993457554,0.4070784337822319,-0.172450240563099,-0.5840244301422104,9.798169617897656,-1.296028953054729,0.1161415948701971,-1.0048851297989518
1.16,-1.9698572342070888,0.6347118685438208,2.335471456024315,0.0384564090684093,0.1945294631644532,0.0129676905968452,0.7925967626729218,-0.8278595769232288,-0.5727577033888723,-1.977832404410256,0.6400740819949621,2.324989165379736,0.9427464866630106,-1.0417979521117935,-0.8809421693150724,0.8304215611605973,0.4033075535114061,-0.1873542561845076,-0.7013140303819665,9.674347394127835,-1.297634832600988,0.1181262004829681,-1.0010869565423952
1.18,-1.953923109909354,0.6181172469769203,2.323853508540324,0.0362156935030794,0.1935718169820699,0.0125416504656994,0.800384715756522,-0.8313962076871153,-0.5883878893019743,-1.9593041164750156,0.619607056570795,2.3077703219993952,0.9754106664649516,-1.0786913139186631,-0.9209421699111188,0.8908741242040847,0.3893976541800126,-0.1768315381943275,-0.7815092956550973,9.572252306059454,-1.2989603902007618,0.1197370651473157,-0.9972121187929486
1.2,-1.9378368567312056,0.6014555776907544,2.311905516407556,0.0341961983255499,0.1926411756566944,0.0121512654076441,0.8078208166390315,-0.8345782543280977,-0.6056041748541845,-1.913903874121528,0.5765474365925645,2.2944341140752256,0.8763875743356808,-0.8794490066437479,-0.6883878907920904,0.951080313874028,0.3718050441254728,-0.1591023320491214,-0.860814277610511,9.482223209874064,-1.3002725374810502,0.1212467001515043,-0.9924938839979858
1.22,-1.922346034926965,0.5854342269798065,2.300543327636858,0.0283319615385236,0.1914213786787982,0.0115150061075462,0.8227457178023224,-0.8495706051261798,-0.5876434960065088,-1.913903874121528,0.5765474365925645,2.2944341140752256,0.8763875743356808,-0.8794490066437479,-0.6883878907920904,1.3875421091412865,0.7462450581645463,-0.7496175399041016,0.8980339423837858,9.39609921376814,-1.2933386272630554,0.1256272289120868,-0.9738168686612796
1.24,-1.9057387639156824,0.5683730102366834,2.2889606351297465,0.0177662980525601,0.1894730535284682,0.0105650421028588,0.8369666871551639,-0.8548686511772784,-0.5721667095449627,-1.913903874121528,0.5765474365925645,2.2944341140752256,0.8763875743356808,-0.8794490066437479,-0.6883878907920904,1.0837852421839769,0.7110484676420725,-0.2649023025549313,0.7738393230773022,11.771282379254444,-1.2976848366124374,0.1349126090706622,-0.9819137573582128
1.26,-1.8888748344374575,0.5512825077136048,2.277578987101431,0.0066227517461126,0.1869670517518848,0.0096285398664754,0.8486326426772574,-0.8536886075052494,-0.5667222533372838,-1.905139998378171,0.567752946526127,2.2875502351673047,0.8915881460515126,-0.8890595664350744,-0.7083878910901136,0.646392150147055,0.5832977761046743,0.0590021836014476,0.2722228103839486,11.198714880937588,-1.3031865265653766,0.1444686112147555,-0.9867943410998116
1.28,-1.872660982869207,0.5351089226548839,2.266790102110947,-0.0030902379808408,0.1841130111843857,0.0088615613849178,0.8574285637486295,-0.848945654816537,-0.5691912176834387,-1.8876122468914571,0.550163966393252,2.273782477351463,0.921989289483176,-0.9082806860177276,-0.74838789168616,0.5146834285358267,0.4397960535686085,0.2371476344356193,-0.1234482173077478,10.159563987433105,-1.3090611328828643,0.1537458978880117,-0.9865809671642072
1.3,-1.8554374925680135,0.5182063624529812,2.255320230598501,-0.0118956686617493,0.1808348816992669,0.0082216822634737,0.8642944726494547,-0.841661808126699,-0.5779204606638667,-1.870084495404744,0.532574986260377,2.2600147195356213,0.9523904329148396,-0.9275018056003804,-0.7883878922822065,0.6640685406018839,0.3432954450412584,0.3641923344919029,-0.4364621490213993,10.159563987433105,-1.3151714675276178,0.1617073734251514,-0.9832070338127432
1.32,-1.8381020290857384,0.5014674707667449,2.243619561580494,-0.0191086498985863,0.1776644821476066,0.0077544321507779,0.8687644166157703,-0.8327672462702408,-0.5918955971081271,-1.851036686746447,0.5140249501483695,2.244246961689977,0.9827915763465032,-0.9467229251830336,-0.828387892878253,0.8579016090380907,0.2234971983157807,0.4447280928229102,-0.6987568222130203,9.522202657480191,-1.3211912298141315,0.1682146594663766,-0.9782023883552372
1.34,-1.82069974764242,0.484920389993584,2.231607344363685,-0.0246975260790517,0.1751170412080414,0.0074406308967342,0.8711918797844459,-0.822725949858978,-0.6085797543543097,-1.83198887808815,0.4954749140363618,2.228479203844333,1.0131927197781667,-0.9659440447656866,-0.8683878934742995,0.9811744417654056,0.1213731584337796,0.5020648205631417,-0.8342078623091276,9.522202657480191,-1.326019809309863,0.1729609328024481,-0.972433935132117
1.36,-1.804133726299256,0.4693892190598676,2.219871314216963,-0.028765292112097,0.1736331577603108,0.0072436571858185,0.8724574397658025,-0.8128569067718967,-0.6259339414557102,-1.8121810408440615,0.4764443499347879,2.211711445983788,1.04359386320983,-0.9851651643483396,-0.9083878940703458,1.0002093074345686,0.0632779990678289,0.4934521543540626,-0.8677093550700288,9.30505900766184,-1.329490739448448,0.1767308682169801,-0.9668441248974688
1.38,-1.786674740098882,0.4532452688614302,2.2071471053587106,-0.0320255741956675,0.1731432450362074,0.0071072397386506,0.8734812479869163,-0.8021937764296927,-0.645634259056812,-1.791613175014182,0.4569332578436476,2.1939436881083414,1.0739950066414936,-1.0043862839309927,-0.9483878946663924,1.1212192532604108,0.0511904110556904,0.5331565171102004,-0.98501588005509,9.30505900766184,-1.331298604627822,0.1795366057911907,-0.962516265504976
1.4,-1.7691921254809495,0.4373190224504176,2.194014829233923,-0.0343530568972539,0.1734546319426415,0.007035599276717,0.8748152122860524,-0.7911824727648117,-0.6665881563605386,-1.743000677699536,0.4131355800399455,2.17486539240587,0.946509320701722,-0.8354790999601283,-0.7262776447055395,1.1854261695343054,0.0666982149568062,0.5505651832440506,-1.0476948651863272,9.220211903976631,-1.3323441304613486,0.1814373931411585,-0.9590498534367602
1.42,-1.7515939739643986,0.4215910142927413,2.180837661200792,-0.0370910267549,0.1737539762834511,0.0069587290668853,0.8852579133186785,-0.7815771469751014,-0.6481495167308486,-1.743000677699536,0.4131355800399455,2.17486539240587,0.946509320701722,-0.8354790999601283,-0.7262776447055395,1.163288141193807,0.5221350516313061,0.4802662894855147,0.9219319814844972,9.156979162409698,-1.324378199649417,0.1824140766483614,-0.944026287922294
1.44,-1.734681208002939,0.4068575390959889,2.1686704116384385,-0.0400939920164956,0.1735028442524098,0.0069003727050999,0.894395728422665,-0.7698079958728362,-0.633760580526072,-1.743000677699536,0.4131355800399455,2.17486539240587,0.946509320701722,-0.8354790999601283,-0.7262776447055395,1.0356810170700792,0.456890755199324,0.5884575551132587,0.719446810238833,11.658473624233013,-1.328928295925878,0.1863512581710126,-0.9541375749928052
1.46,-1.7167081096468806,0.3916087308628738,2.156085060129128,-0.0426191057599295,0.1728550083659601,0.0069240600745299,0.9023152391759602,-0.7558822342619902,-0.6258415504871707,-1.7335355844925189,0.4047807890403442,2.167602615958814,0.961114935244683,-0.8421361646662153,-0.742406321835285,0.8935274530906872,0.3959755376647611,0.6962880805423011,0.3959515019450632,11.172054211630892,-1.3339960824206267,0.1896594761904627,-0.9612850665655605
1.48,-1.69859461772888,0.3766490389446255,2.1435838900145545,-0.0439341110745083,0.1719461469490629,0.0070677158575562,0.9085859229932812,-0.7410872347268452,-0.6246194163439752,-1.7146053980784846,0.3880712070411417,2.153077063064704,0.9903261643306052,-0.8554502940783896,-0.7746636760947759,0.8057715225883147,0.3135341908660549,0.739749976757248,0.0611067071597748,10.375335024113156,-1.338855332881991,0.1917322231834728,-0.9658653732593152
1.5,-1.681284320763136,0.3627179047764765,2.131683225648685,-0.043678297039407,0.1709800115335683,0.0073326976891439,0.9132077401300528,-0.7263622814526104,-0.6281109450535259,-1.69567521166445,0.3713616250419391,2.138551510170593,1.0195373934165275,-0.8687644234905638,-0.8069210303542669,0.7911640400444296,0.2310908568385672,0.7362476637117421,-0.1745764354775358,10.375335024113156,-1.3435341389774298,0.1923911944194635,-0.9684501664807966
1.52,-1.6629806763906794,0.3483578659981159,2.119047763937826,-0.0413870671414886,0.1700274691015578,0.0077641058491632,0.91686321029218,-0.7106576024095631,-0.6353894139867652,-1.6752844637961195,0.3539863365721278,2.122413089563508,1.0487486225024498,-0.8820785529027381,-0.8391783846137578,0.884555701981877,0.1827735081063652,0.7852339521523644,-0.3639234466619623,10.105725332272414,-1.3478196055394054,0.1911168190123289,-0.9696151113910662
1.54,-1.6446111560771388,0.3342958494115492,2.106251704274329,-0.0371067998771339,0.169286189565733,0.0083334264653318,0.9199039103382668,-0.6969601492427855,-0.6438487988676082,-1.654893715927789,0.3366110481023165,2.1062746689564222,1.077959851588372,-0.8953926823149123,-0.8714357388732489,0.8191875130099525,0.1520350023043348,0.6848726583388809,-0.4229692440421484,9.898527851260042,-1.3512673281405707,0.1879289306910569,-0.9691212206695056
1.56,-1.6261804569552745,0.3204773616791966,2.0932804139486114,-0.0320180386746812,0.168695734315873,0.0089568021207,0.9229992129890304,-0.6858777539547504,-0.6528341012950548,-1.6337726873323104,0.3189029063972009,2.08932981449285,1.1071710806742945,-0.9087068117270864,-0.9036930931327398,0.7299589774993653,0.1547651325381926,0.5541197644017559,-0.4492651213723331,9.838473109410188,-1.3535235558226475,0.1841720153408414,-0.9685225366525708
1.58,-1.6086141150003594,0.30753732391471,2.08078589712379,-0.027047710111573,0.1681166377959021,0.0095601188263958,0.925904899004236,-0.6769527869705007,-0.6619151893827482,-1.6119213780096835,0.3008619114567809,2.07157852617279,1.1363823097602164,-0.9220209411392608,-0.9359504473922308,0.6530011633706211,0.1452843007602677,0.4462483492124858,-0.4540544043846684,9.805485422220954,-1.3556734868968694,0.1800721862814347,-0.9675793099588682
1.6,-1.5900660306241592,0.2940849831514084,2.0674391997752632,-0.0219318223202556,0.1674142563876358,0.0101891132546948,0.9287126754504308,-0.6688849878721168,-0.6723071285600182,-1.5623188700501476,0.273689684566185,2.047690137654653,0.9857854723067432,-0.693161806318526,-0.710853400436358,0.6726168871054464,0.1403888223097393,0.4033899549191921,-0.5195969588634997,9.7683634989844,-1.3577975230105626,0.1760667069383186,-0.9662119432530336
1.62,-1.571353378924843,0.2806821463007213,2.054240356808767,-0.0205290487000443,0.1651045172630611,0.0105932042117853,0.9427741737115666,-0.6705456208288594,-0.6452276187985284,-1.5623188700501476,0.273689684566185,2.047690137654653,0.9857854723067432,-0.693161806318526,-0.710853400436358,1.5278933896770797,0.7030749130567948,-0.0830316478371284,1.353975488074488,12.222453317595864,-1.3500708978436224,0.1740229131070834,-0.9518865611164136
1.64,-1.5523568071515723,0.2672940005963993,2.041593298244964,-0.0240938525375477,0.1592810347218707,0.0107470889923675,0.955516655754148,-0.6672153693528534,-0.6210076665444079,-1.5623188700501476,0.273689684566185,2.047690137654653,0.9857854723067432,-0.693161806318526,-0.710853400436358,1.3784660956030368,0.6371241021290774,0.1665125738002981,1.2109976127060271,12.222453317595864,-1.3593852639771795,0.1781952434587525,-0.9564365355147364
1.66,-1.5341251521146797,0.2546964156721422,2.0299512759258884,-0.028981226829558,0.151362212756623,0.0108982598385128,0.9625201066882838,-0.6588292007337563,-0.6056260827764476,-1.55246101532708,0.2667580665029997,2.0405816036502893,0.9977615869672448,-0.696403610188131,-0.72064104264708,0.9433573929131456,0.350172546706784,0.4193084309548567,0.7690791883980141,11.731698030921509,-1.3725702002203686,0.1840113210516059,-0.9551744281944926
1.68,-1.5148455777743013,0.2416394906969364,2.01794503811793,-0.0338327109432845,0.1418965631843673,0.011179715471389,0.9646356899893526,-0.647352213643994,-0.5960738664613207,-1.5327453058809453,0.2528948303766292,2.026364535641562,1.0217138162882478,-0.7028872179273412,-0.7402163270685239,0.7540586215495925,0.1057791650534378,0.5738493544881151,0.4776108157563463,11.21407200716385,-1.386363100165325,0.1894443541011474,-0.9490584707657754
1.7,-1.4955767773566824,0.2288288217440131,2.0060581682046275,-0.0377042675694004,0.1324453062823118,0.0115944054149944,0.9619240143093732,-0.6345432885489707,-0.5930230660215091,-1.5130295964348104,0.2390315942502586,2.012147467632835,1.0456660456092508,-0.7093708256665513,-0.7597916114899679,0.6721776744411836,-0.1355837839989659,0.6404462547511647,0.152540021990577,10.789330024769695,-1.399017679080006,0.1938509446313976,-0.9404149031796006
1.72,-1.4773602204999232,0.2169022328362685,1.994775423437228,-0.0403374153233213,0.1242908194012083,0.0120771101075699,0.9556715648749476,-0.62180546742246,-0.5947461628318303,-1.4921162755226254,0.2248441777369276,1.9969516354030357,1.069618274930254,-0.7158544334057614,-0.7793668959114118,0.7146927199831604,-0.3126224717212855,0.6368910563255337,-0.0861548405160617,10.42791224460234,-1.4094526121420123,0.1969709955080994,-0.9311304611715312
1.74,-1.458342530239611,0.2046111982670583,1.982841823362017,-0.042049625379108,0.1171782599325113,0.0126332228507434,0.9463051849875054,-0.6081441276481169,-0.5985847235433263,-1.4712029546104404,0.2106567612235965,1.981755803173236,1.093570504251257,-0.7223380411449716,-0.7989421803328558,0.8501409073820804,-0.4683189943721078,0.683066988717157,-0.1919280355747954,10.150351402257913,-1.417899803591244,0.199118571902963,-0.9208271243362588
1.76,-1.43953596814866,0.1925965980687397,1.970815721082259,-0.0426330170792901,0.1120536296246905,0.0132047361895036,0.934696103450493,-0.5941122348954436,-0.6038740090185772,-1.4496908279652303,0.1963072545167853,1.9660705888329009,1.1175227335722595,-0.7288216488841817,-0.8185174647542997,0.9482105899986378,-0.5804540768506172,0.7015946376336624,-0.2644642737625491,10.035969180778013,-1.4240610553032207,0.2002399550590187,-0.9123860023654052
1.78,-1.420984832778163,0.1808683345276871,1.9586712079275528,-0.0417945649840129,0.1095262176041406,0.0137738457901532,0.92102747557236,-0.5796418321642858,-0.6102870742597701,-1.4275798955869952,0.1817956576164938,1.9498959923820287,1.1414749628932626,-0.7353052566233919,-0.8380927491757436,1.045647346217372,-0.6834313939066528,0.7235201365578925,-0.3206532620596447,9.902005863661543,-1.4273837990388505,0.2001693838585864,-0.9072254532653412
1.8,-1.403616777297777,0.169995428245552,1.947009534569233,-0.0394342078297376,0.1097585674832179,0.0143170305239769,0.9082114087166996,-0.56585311665489,-0.6169199693656323,-1.3749334589995448,0.1518862429194728,1.928156854214564,0.982476247078908,-0.5899420856822115,-0.624079419560087,0.9979673623585786,-0.640803342783014,0.6894357754697877,-0.331644755293109,9.902005863661543,-1.4272308118748325,0.198691905503846,-0.9057528234303244
1.82,-1.3855362786730303,0.1588009000628256,1.934873932950581,-0.0363850588349362,0.1116692547658044,0.0148673754629443,0.9010902925028612,-0.5542963780962633,-0.5932659096434665,-1.3749334589995448,0.1518862429194728,1.928156854214564,0.982476247078908,-0.5899420856822115,-0.624079419560087,1.3636193049961096,-0.3560558106919187,0.5778369279313356,1.1827029861082916,9.861633247496684,-1.4175169980143938,0.1956008823444655,-0.8981669784799506
1.84,-1.3675776009687943,0.147836332223256,1.9232762496662144,-0.0337181469415937,0.114311517867946,0.0153723270805026,0.8952147873284397,-0.5428137917935871,-0.5681657099699083,-1.3749334589995448,0.1518862429194728,1.928156854214564,0.982476247078908,-0.5899420856822115,-0.624079419560087,1.411020351470479,-0.2937752587210795,0.5741293151338089,1.2550099836779072,11.9776443935134,-1.417787079837052,0.1949110320681366,-0.910994895398603
1.86,-1.3497329869518877,0.137100199365071,1.9121276724362883,-0.0309955986416615,0.117484809056315,0.0158722443796754,0.8897051372600705,-0.5315716425592492,-0.5479457497863758,-1.3651086965287558,0.1459868220626507,1.921916060018963,0.9947660013802176,-0.5920021363857967,-0.6268378886201503,1.189105707145762,-0.2754825034184616,0.5621074617168986,1.010998009176628,11.710768326343896,-1.4176228173754164,0.1940437132700987,-0.9243386824652524
1.88,-1.3328772958459232,0.1271030699555779,1.9018752283746216,-0.028226010863389,0.1208238189192367,0.0163590361165482,0.8849878784005771,-0.5215025779181285,-0.5322740937904706,-1.3454591715871775,0.1341879803490065,1.9094344716277611,1.0193455099828366,-0.5961222377929669,-0.632354826740277,0.9607801459602048,-0.2358629429746683,0.5034532320560337,0.7835827997952571,11.429473270123708,-1.4164272285331416,0.1928282195317937,-0.936732956644612
1.9,-1.315224157808938,0.1167775110926595,1.8913770646958916,-0.0251508409035271,0.1245341734402406,0.0168873114213926,0.8806931532875597,-0.5117390875937526,-0.518494789807097,-1.3258096466455993,0.1223891386353622,1.89695288323656,1.0439250185854558,-0.6002423392001373,-0.6378717648604038,0.8712629129269492,-0.2147362556508714,0.4881745162187922,0.688965199168684,11.214655022268744,-1.4145902829205856,0.1913235604319225,-0.9482240165137956
1.92,-1.2976489345417148,0.1066382990773603,1.8811293213999816,-0.021976270600231,0.1283150852370543,0.0174312881083055,0.8771541063327125,-0.5028105113598079,-0.5070698392700745,-1.3049311462738902,0.1103842918513595,1.8841954479393517,1.068504527188075,-0.6043624406073076,-0.6433887029805305,0.746280479590925,-0.1769523477423595,0.4464288116972359,0.5712475268511208,10.92922000722774,-1.4124140749100191,0.1896190258131547,-0.9588994746471874
1.94,-1.2801343601952642,0.0966690107948102,1.8711013594148944,-0.018769390201824,0.1320318057109725,0.0179888854770203,0.874586143366169,-0.4946966033612315,-0.4963063943002875,-1.284052645902181,0.0983794450673567,1.8714380126421435,1.093084035790694,-0.6084825420144778,-0.6489056411006572,0.6860788665024857,-0.1283981483271745,0.4056953999288182,0.538172248489352,10.92922000722774,-1.4098911541960768,0.1878419897211607,-0.967904149018026
1.96,-1.2635307767436723,0.0873394903913874,1.86177070715376,-0.0158075589866943,0.1352923487399471,0.0185256839397948,0.8733277888835537,-0.4878263346888965,-0.4864219107517307,-1.2625596578154064,0.0862715957481747,1.8585426538919323,1.1176635443933134,-0.6126026434216482,-0.654422579220784,0.6051591994171358,-0.0629177241307676,0.3435134336167517,0.4942241774278377,10.911682198494418,-1.407303054189066,0.1859917803781182,-0.9769140151126584
1.98,-1.2460696124604704,0.0776520806199237,1.852147078395552,-0.0128707738003128,0.1382151900611486,0.0190922101576275,0.8728906478887277,-0.4813300877519494,-0.4764936671056844,-1.2404521820135663,0.0740607438938135,1.8455093716887176,1.1422430529959324,-0.6167227448288184,-0.6599395173409106,0.5936378071063416,-0.0218570497412973,0.3248123468473557,0.4964121823023137,10.90050427135884,-1.4053327476441588,0.1842751407012922,-0.9851761761869008
2.0,-1.2286098555936502,0.0680875666468633,1.842714850291001,-0.0101613499163588,0.140485795385436,0.0196546698690699,0.8731074584523008,-0.4754844964863625,-0.4672643687942306,-1.202425080066034,0.0535855762323262,1.8283223950402676,0.9293170351689536,-0.465935849928165,-0.4764827378488249,0.546346710859019,0.0108405281786516,0.2922795632793434,0.461464915572693,10.880901844650907,-1.4042013240261142,0.1827471781102434,-0.992651642981411
2.02,-1.211064120619065,0.0585249123813935,1.8336391120467028,-0.0113046137312736,0.1404974003812862,0.0199729134825297,0.8815763757653582,-0.4800511307784442,-0.4398784292651472,-1.202425080066034,0.0535855762323262,1.8283223950402676,0.9293170351689536,-0.465935849928165,-0.4764827378488249,1.4513497107034807,0.4234458656528717,-0.2283317146040853,1.3692969764541678,10.84773750824479,-1.397717365864257,0.1835216793928268,-0.9888116704953936
2.04,-1.194240245793566,0.0494116998718887,1.825524303156544,-0.0172092495403232,0.1368600083357735,0.0199997819780167,0.8885335477444719,-0.4778431461961736,-0.4157818804653687,-1.202425080066034,0.0535855762323262,1.8283223950402676,0.9293170351689536,-0.465935849928165,-0.4764827378488249,1.2588894926905023,0.3478585989556859,0.1103992291135336,1.2048274399889285,12.142476432543845,-1.4038583075703863,0.1903607558922112,-0.9956404703488914
2.06,-1.1764326111033914,0.0399361866275924,1.8174323106323969,-0.0245839961043569,0.1302029714283831,0.0200495369177091,0.8913252633431635,-0.4695776950856218,-0.3948742025430303,-1.1931319097143445,0.0489262177330446,1.8235575676617792,0.9406023126249986,-0.4628570023634082,-0.476480551997453,1.1327426386310495,0.1395857799345812,0.4132725555275884,1.0453838961169164,11.848162019497067,-1.4156027849244823,0.1986202245526762,-0.9972539981503415
2.08,-1.158623721252226,0.0306638131656239,1.8097046681256472,-0.0314649820004711,0.1222873757237258,0.0202369889986398,0.8891105173952355,-0.4581428446813154,-0.3789007724868055,-1.1745455690109654,0.0396075007344813,1.8140279129048027,0.963172867537089,-0.4566993072338944,-0.4764761802947092,0.9884474836123543,-0.1107372973964015,0.5717425202153209,0.7986715028112434,11.258353971623364,-1.42826082647021,0.2064463928446511,-0.9954676474550734
2.1,-1.140906482559254,0.0216411805494977,1.8022542081112132,-0.0372528929937505,0.1144528058452582,0.0205671265716644,0.882564123249802,-0.4448968784816979,-0.3669274054291536,-1.1559592283075864,0.0302887837359179,1.8044982581478264,0.9857434224491792,-0.4505416121043807,-0.4764718085919654,0.950884345709348,-0.3273197072716727,0.6622983099808744,0.5986683528825948,11.258353971623364,-1.4401775976797608,0.2130174820790127,-0.9932977224361428
2.12,-1.1242317871554846,0.0133262040722163,1.795367310233705,-0.0415965269010138,0.1080103162160096,0.0209742329476069,0.8729414291365167,-0.4312712092453965,-0.3585910140989483,-1.1362443598586027,0.0212779514938303,1.794968821975987,1.0083139773612697,-0.4443839169748669,-0.4764674368892216,0.9324035131653928,-0.4811347056642656,0.6812834618150687,0.4168195665102625,10.84805666797547,-1.4510909752241772,0.2187392047481616,-0.9905251329639164
2.14,-1.1069073093640207,0.004858330753973,1.7882742301530503,-0.045027625966365,0.1031316143627267,0.021437993392676,0.85984248795928,-0.4164056180658222,-0.3512038209725257,-1.116529491409619,0.0122671192517427,1.7854393858041475,1.0308845322733595,-0.4382262218453532,-0.4764630651864778,1.0572827003337513,-0.6549470588618378,0.7432795589787156,0.3693596563211304,10.84805666797547,-1.459291303100041,0.2231768495509044,-0.9877383165545692
2.16,-1.089872262864943,-0.0033054994113543,1.7813167026104166,-0.0473184449280637,0.101170825628586,0.0218688779426105,0.8445113465396191,-0.4010231635047096,-0.3449028230122687,-1.0962503590878334,0.0034102293878929,1.7759100589248769,1.0534550871854502,-0.4320685267158395,-0.476458693483734,1.1306705763058236,-0.7665570709830427,0.7691227280556295,0.3150498980128507,10.783130826826891,-1.4627661708376487,0.2263238107591262,-0.9873001828353524
2.18,-1.0731389714983168,-0.0111568166872752,1.7744802736102232,-0.0484981346576195,0.1021703936155276,0.0222440589948352,0.8299680874944891,-0.3850896424210975,-0.3390491127246148,-1.0754069628932452,-0.0052927180977189,1.7663808413381747,1.0760256420975405,-0.4259108315863257,-0.4764543217809902,1.1176419394281116,-0.7271629522564993,0.7966760541806062,0.2926855143826956,10.702905762522278,-1.4619122848946429,0.228221604217656,-0.9901079655602508
2.2,-1.057495303610562,-0.0183139312110405,1.7680937812434248,-0.0483690227631291,0.1051173627438393,0.0225925123670935,0.8177437047720731,-0.3692864087633898,-0.3335058934897645,-1.0316405671235924,-0.0304112988083301,1.7575278179739924,0.8625507095159258,-0.3518532878316352,-0.3330214267806238,1.0367075364704117,-0.6112191361207997,0.7901616828853819,0.2771609617425119,10.702905762522278,-1.4590911904002708,0.229094510101302,-0.9965670390116428
2.22,-1.04117765596538,-0.0255541608492356,1.761607484657299,-0.047939497152126,0.107502660823355,0.0230157531459833,0.8147309813801424,-0.3553710496324743,-0.3148235985504727,-1.0316405671235924,-0.0304112988083301,1.7575278179739924,0.8625507095159258,-0.3518532878316352,-0.3330214267806238,1.174459307700071,-0.1506361695965352,0.6957679565457786,0.9341147469645928,11.54106203747324,-1.4493387615102362,0.2288032805611806,-0.9984879452186792
2.24,-1.0249206649560356,-0.0325065967004722,1.7555010170316283,-0.0478657864694818,0.107044792851614,0.0235512773373852,0.8108652351300023,-0.3405648455580419,-0.2968509791775509,-1.0316405671235924,-0.0304112988083301,1.7575278179739924,0.8625507095159258,-0.3518532878316352,-0.3330214267806238,1.1802359089268275,-0.1932873125070067,0.7403102037216197,0.8986309686460886,11.422187350081913,-1.4546110517751731,0.2308608332020531,-1.0104586552564636
2.26,-1.0095672056079024,-0.0388310057624573,1.7500074238224144,-0.0476042882215531,0.1047911328042832,0.0241604416959847,0.805324581212658,-0.3259846915777875,-0.2823231656584578,-1.0230150600284331,-0.0339298316866465,1.7541976037061862,0.8690672339202131,-0.3452060169137427,-0.3318158895918257,1.0657592382490213,-0.2770326958672131,0.7290076990127181,0.7263906759546551,11.422187350081913,-1.4620053564361504,0.2328056213493507,-1.0196246021715123
2.28,-0.9935426492393408,-0.0451883345138692,1.7445005862700502,-0.0468565797663786,0.1012562114725859,0.0248876738772681,0.7972149295777576,-0.3105944149662031,-0.2692202363422335,-1.0057640458381147,-0.0409668974432792,1.7475371751705735,0.8821002827287878,-0.3319114750779579,-0.3294048152142292,1.0889373495368022,-0.4054825817450203,0.7695138305792187,0.6551464658112155,11.270393123876602,-1.47029035252598,0.2341218354260498,-1.0250414120561264
2.3000000000000003,-0.977708057061851,-0.0512388403717262,1.739233172089594,-0.0454603193464216,0.0973849311862815,0.0256695146773656,0.786451688868603,-0.2953310789272628,-0.258258825284029,-0.988513031647796,-0.0480039631999119,1.7408767466349613,0.8951333315373625,-0.3186169332421729,-0.3269937408366329,1.0827849624784105,-0.5381620354577343,0.7631668019470184,0.5480705529102264,11.025212149542313,-1.4781700577582777,0.2346099094103032,-1.0279815159020655
2.32,-0.9621191634099292,-0.0569881098702357,1.7341645235827192,-0.0433052901722307,0.0942091620662439,0.0264619791520649,0.7728872761378623,-0.2805656512475319,-0.2491389115412413,-0.9706103650170488,-0.0543763018647553,1.7343368718182286,0.9081663803459372,-0.305322391406388,-0.3245826664590365,1.101344603168246,-0.6782206365370302,0.738271383986544,0.455995687139385,11.025212149542313,-1.4846362479365256,0.2342161843813217,-1.0297475886381215
2.34,-0.9475836370641936,-0.0621900335148822,1.7295109311643266,-0.0408289619291932,0.0927951980178591,0.0271643362411385,0.7579433994599126,-0.2678913584215225,-0.2411654794688464,-0.9527076983863016,-0.0607486405295988,1.727796997001496,0.921199429154512,-0.2920278495706031,-0.3221715920814401,1.057748514319801,-0.747193833897486,0.6337146413004702,0.3986716036197449,10.934006874742408,-1.4883609439603984,0.2331771526853027,-1.0333864531689712
2.36,-0.9325888320073988,-0.0674160806770376,1.7247730681833415,-0.0381593669847164,0.093309119039,0.0278182080587283,0.7425471473691568,-0.2554696034087991,-0.2330532487346975,-0.93447920553534,-0.0667886156485476,1.7213173990442032,0.9342324779630864,-0.2787333077348182,-0.3197605177038438,1.0690566677242703,-0.7698126045377895,0.6210877506361678,0.4056115367074411,10.88177027655911,-1.487851197185864,0.2317469029997038,-1.038494540236058
2.38,-0.9178918680987316,-0.0724008600725718,1.7201954885435609,-0.035537680926254,0.0954455644634783,0.028402943738706,0.7281708636755472,-0.2437076765815476,-0.2251168027992338,-0.915924886464164,-0.0724962272216019,1.7148980779463503,0.9472655267716612,-0.2654387658990333,-0.3173494433262473,1.0099599368481225,-0.718814184680483,0.5880963413625775,0.396822296773186,10.88177027655911,-1.485796440288769,0.2303741917713095,-1.0453498029334845
2.4,-0.9041831064437904,-0.0769242243268215,1.7159934136754815,-0.03313601665011,0.0985400776005324,0.0289138057369427,0.7157719188716406,-0.2330777313663093,-0.217614675310623,-0.8814833249149543,-0.0845862439016492,1.7089396484035992,0.7549858739102607,-0.1968748505930165,-0.2264383759588912,0.8986260128449679,-0.6199472401953288,0.5314972607619108,0.3751063744305408,10.87328782075656,-1.48240833548761,0.2289683020173037,-1.054161252959269
2.42,-0.8899541773438664,-0.0815143028566983,1.711771506541573,-0.0321370720600985,0.1014971518926844,0.0293541304082611,0.7078159253313404,-0.2260676929272372,-0.2047724864573724,-0.8814833249149543,-0.0845862439016492,1.7089396484035992,0.7549858739102607,-0.1968748505930165,-0.2264383759588912,0.8327068611959457,-0.3977996770150094,0.3505019219536096,0.6421094426625292,10.87328782075656,-1.4764174475500949,0.2286362334152093,-1.0605883181510465
2.44,-0.8758841753374077,-0.0859557743362919,1.707802047391136,-0.033542315432918,0.1032330074447998,0.0296627178467878,0.699497702993594,-0.2182174844271452,-0.1929345003647554,-0.8814833249149543,-0.0845862439016492,1.7089396484035992,0.7549858739102607,-0.1968748505930165,-0.2264383759588912,0.8230378349202615,-0.4159111168873186,0.3925104250045996,0.5918993046308496,11.190898770096284,-1.4767226729721925,0.2312313232918334,-1.0705444292296882
2.46,-0.8619885434490927,-0.0902247154655544,1.7040491952830616,-0.0367542183845542,0.1043319741315518,0.0298637656461922,0.6904584273088821,-0.2085734670887674,-0.1829691165053334,-0.8739334661758517,-0.0865549924075794,1.7066752646440104,0.7603488759572035,-0.1875082853953102,-0.2267026905908227,0.8276841951988436,-0.4519637842355983,0.482200866918886,0.4982691929710986,11.106053431593864,-1.476783042563631,0.2356141753288347,-1.079184330646956
2.48,-0.8489616924927628,-0.0940709022080067,1.7006528271312982,-0.0402754880203689,0.1051653042401466,0.0300288383969826,0.6812623507997813,-0.1967054346842121,-0.1750564110583405,-0.8588337486976465,-0.0904924894194397,1.7021464971248326,0.7710748800510888,-0.1687751549998978,-0.2272313198546857,0.8485707451469281,-0.4598038254550407,0.5934016202277694,0.3956352723496495,11.01169384907007,-1.4776981854368536,0.240653138177322,-1.087350619850329
2.5,-0.8354423222943498,-0.0978589986801399,1.697227673288482,-0.0436691501592395,0.1061076269774659,0.0302216032770461,0.6711872692225906,-0.1827420267655767,-0.167936394826393,-0.8437340312194412,-0.0944299864313001,1.6976177296056547,0.7818008841449743,-0.1500420246044853,-0.2277599491185487,0.9316365447861734,-0.5037540788595307,0.6981703959317659,0.3560008115973706,10.931919977028883,-1.4789907338877473,0.2454845532736676,-1.095613870971181
2.52,-0.82212697747189,-0.1013565875461512,1.6939336588072502,-0.0464503153687363,0.1073125882279523,0.0304449744691373,0.6609084051394838,-0.1677978898461644,-0.1618678771634771,-0.8280980135365418,-0.0974308269233898,1.6930625306232838,0.7925268882388598,-0.1313088942090729,-0.2282885783824116,0.9563069352073214,-0.5139432041553427,0.7472068459706146,0.3034258831457956,10.873643963164795,-1.4799426356568544,0.2497209982230654,-1.1038393267749096
2.54,-0.8090172088865211,-0.1045481362078321,1.6907540596270532,-0.0485066424152404,0.1089018907382736,0.030699503920884,0.6506928163706938,-0.1522724259702137,-0.1564018831434641,-0.8124619958536422,-0.1004316674154795,1.6885073316409127,0.8032528923327451,-0.1125757638136604,-0.2288172076462746,0.9686012764333136,-0.5107794384395015,0.7762731937975359,0.273299701000651,10.806804739366273,-1.4799011427703956,0.2530145427859965,-1.1116668293988654
2.56,-0.7967479755339428,-0.1072839620461754,1.6878307139908737,-0.0496551353915125,0.1107413508260729,0.0309794473645007,0.6414058635891035,-0.1366550105693721,-0.1516004616435863,-0.7965578280683957,-0.1029641796476839,1.6839389169269452,0.8139788964266306,-0.093842633418248,-0.2293458369101376,0.9396871875648573,-0.4643476390795154,0.7808707700420788,0.2400710749938903,10.806804739366273,-1.479029653312283,0.2556387576055847,-1.1206297658622966
2.58,-0.7840178052119691,-0.1098377192056706,1.68484913320061,-0.0497351217446396,0.1129162301023144,0.0313388375322228,0.632185083588232,-0.1196483683318441,-0.1468300403611288,-0.7803855101808019,-0.1050283636200029,1.679357286481381,0.8247049005205159,-0.0751095030228356,-0.2298744661740005,0.9962499475933076,-0.4610390000435727,0.8503321118764013,0.2385210641228777,10.790893806113672,-1.4776382591921515,0.257110834845885,-1.1305507794498362
2.6,-0.7714659325977906,-0.1120450094064794,1.6819597506340496,-0.0482951460571016,0.1152336516627837,0.0317954761145141,0.6235520522358134,-0.1021701330353261,-0.1423558583257877,-0.7524085510325574,-0.1158201376222628,1.6775076311825534,0.6704427346192493,-0.0759087179333513,-0.1469128580391775,1.0000453043458326,-0.4316515676209276,0.873911764825902,0.2237091017670542,10.790893806113672,-1.475986370387103,0.2570781942763079,-1.1408734185950613
2.62,-0.7596852354111412,-0.1137885883726353,1.6793533169749242,-0.0444079161604209,0.1173547827822608,0.0324078965935213,0.6170636622967633,-0.0832010644243519,-0.1318625887129937,-0.7524085510325574,-0.1158201376222628,1.6775076311825534,0.6704427346192493,-0.0759087179333513,-0.1469128580391775,1.1314078344432164,-0.3244194969525049,0.9484534305487062,0.5246634806396977,11.24268702815698,-1.4725412279451533,0.2541050790387585,-1.1514704973545586
2.64,-0.7474141242385813,-0.1152946305906612,1.6768314364297876,-0.0386205282070484,0.1194254127722464,0.0331774474936467,0.6104335318262876,-0.0687183834422744,-0.1209852184594184,-0.7524085510325574,-0.1158201376222628,1.6775076311825534,0.6704427346192493,-0.0759087179333513,-0.1469128580391775,0.9643960054323232,-0.331506523523789,0.7241340491038785,0.5438685126787676,11.24268702815698,-1.4728606735694405,0.2498295567731329,-1.1670691154276265
