t,x,y,z,roll,pitch,yaw,v_x,v_y,v_z,ref_x,ref_y,ref_z,ref_v_x,ref_v_y,ref_v_z,a_com,a_x,a_y,a_z,thrust,wind_x,wind_y,wind_z
0.0,-1.8730296081962037,0.7253487503152659,1.929619342375419,0.0178192998882753,0.1365773957538416,0.0262323349988107,0.0060099353324384,-0.0082274229632861,0.0047233718145117,-1.8728538280441176,0.725142941503599,1.9297604892022504,0.1059005651983685,-0.1072815531837767,-0.0952914214174751,0.5615159227818598,0.3004967666219245,-0.4113711481643094,0.2361685907255873,10.549263864892056,-1.284982267749166,0.1579154320353553,-1.1656266416711467
0.02,-1.8730301620365908,0.7254664062196846,1.9294982585881493,0.0242169129011337,0.1388699681980959,0.0267174239055182,-0.0051784476060729,0.0151547002305104,-0.0174572147077159,-1.8728538280441176,0.725142941503599,1.9297604892022504,0.1059005651983685,-0.1072815531837767,-0.0952914214174751,1.7057857546440942,-0.5594191469255728,1.1691061596898342,-1.1090293261113855,10.54839394251485,-1.3093790748922811,0.1535042314567827,-1.1840135520136468
0.04,-1.87322696309424,0.7258099252144761,1.9288207176506156,0.0387089588854545,0.1448254426080142,0.0278921407108566,-0.0134359426112706,0.0171412856297849,-0.0494151937018654,-1.8728538280441176,0.725142941503599,1.9297604892022504,0.1059005651983685,-0.1072815531837767,-0.0952914214174751,1.6533641210422902,-0.4128747502598858,0.099329269963724,-1.5978989497074765,9.210434157677357,-1.300165554549095,0.1377056739805017,-1.1689558586695712
0.06,-1.873527173434888,0.7260926831592672,1.927586410730039,0.0532042032555128,0.1521282801446333,0.029199536460397,-0.0174331148819794,0.0122320172497874,-0.0788756729312106,-1.871794822392134,0.7240701259717612,1.928807574988076,0.1259005654963918,-0.1272815534817999,-0.1152914217154983,1.5066503730222562,-0.1998586135354376,-0.2454634189998746,-1.4730239614672562,8.756092268924476,-1.286282837492445,0.1221718090945173,-1.1562510154694676
0.08,-1.8738903439844303,0.7262515079741699,1.9257018191811988,0.067987799284832,0.1604821394319174,0.0306774169133839,-0.0183616267186648,0.0035876576994247,-0.1079547784758035,-1.8696768110881667,0.7219244949080857,1.9269017465597265,0.1659005660924382,-0.1672815540778464,-0.1552914223115447,1.5175485705080312,-0.0464255918342718,-0.4322179775181354,-1.453955277229647,8.841850235210131,-1.2730419507985111,0.1069321117371425,-1.1459499854402546
0.1,-1.874241303748032,0.7262067511929445,1.923258808135776,0.0820946882646747,0.1689249851539793,0.0322154123697519,-0.0164246862226707,-0.0079314395851371,-0.1348142206718543,-1.8675587997841996,0.7197788638444101,1.924995918131377,0.2059005666884847,-0.2072815546738928,-0.1952914229075912,1.4644717271248513,0.0968470247997075,-0.5759548642280947,-1.3429721098025404,8.946848739175493,-1.2610533499917869,0.0928960997485127,-1.1365309231114789
0.12,-1.8745266006474917,0.7259031324510206,1.9203017805053904,0.0955167605779159,0.1771361543495777,0.0337790443027303,-0.0119941242831671,-0.0221342194601852,-0.1595850369147382,-1.8634407884504296,0.7156332327509323,1.921090089673225,0.2459005672845311,-0.2472815552699393,-0.2352914235036376,1.4447682968365263,0.2215280969751799,-0.7101389937524057,-1.2385408121441912,9.067190307084276,-1.2514771878624775,0.0805337518877255,-1.1300681873298497
0.14,-1.8746969438404293,0.7253282796400262,1.9170396217020425,0.1076542739286774,0.1845842446260982,0.0352626397093892,-0.0059966110789242,-0.0378976226417561,-0.1825939836525716,-1.85932277711666,0.7114876016574544,1.9171842612150731,0.2859005678805776,-0.2872815558659858,-0.2752914240996841,1.4264174305618649,0.299875660212142,-0.788170159078546,-1.1504473368916732,9.177270465857871,-1.24390631002681,0.0684296830924969,-1.1257030603909377
0.16,-1.8747360435568328,0.7243762210120577,1.9131353182420496,0.1198110542031032,0.1919963052985215,0.0368009163677483,0.0019461031515562,-0.0567360161601772,-0.2066412185956037,-1.854204765767989,0.7063419705490754,1.9122784327420204,0.3259005684766241,-0.3272815564620322,-0.3152914246957305,1.578164509887477,0.3971357115240253,-0.9419196759210544,-1.2023617471516062,9.21517389165274,-1.2377935805310245,0.057182219838843,-1.121635601837999
0.18,-1.874599292079544,0.7230237800708265,1.9087551678075076,0.1313591341572237,0.1989521965485863,0.0382972386295074,0.0114947034931495,-0.0778105756186803,-0.2301687364298698,-1.848086754404417,0.7001963394257952,1.906372604254066,0.3659005690726705,-0.3672815570580786,-0.355291425291777,1.649891602723618,0.4774300170796685,-1.0537279729251534,-1.1763758917133007,9.238343521377828,-1.232492105199156,0.0467371538234551,-1.117029920162589
0.2,-1.874255254909972,0.721226950420655,1.9039120749587315,0.1423248279650697,0.2054548036596881,0.0397364888677527,0.0225715935034241,-0.1010465416642653,-0.2530023372012527,-1.8740245569048863,0.7191332512898925,1.897246730986014,0.1114947049832657,-0.1778105771087964,-0.3045510043222305,1.72045120139907,0.5538445005137282,-1.1617983022792515,-1.1416800385691483,9.283160382236929,-1.2283830092991217,0.037495947443733,-1.1125528747223123
0.22,-1.8736677297416249,0.7188761817228239,1.8990334920964056,0.1466404910220753,0.2112050627810457,0.0406311788344333,0.038781162604976,-0.1419844549520081,-0.2589918682248944,-1.8740245569048863,0.7191332512898925,1.897246730986014,0.1114947049832657,-0.1778105771087964,-0.3045510043222305,2.221788331893869,0.8104784550775948,-2.046895664387137,-0.2994765511820846,9.333628812579263,-1.210690039177894,0.0335508210993112,-1.099696531444355
0.24,-1.8727049742064985,0.7156658208121208,1.8937966466002405,0.1442757934517134,0.2168160128435641,0.0409957808496728,0.0567305358442265,-0.1761105089347618,-0.2643864051502986,-1.8740245569048863,0.7191332512898925,1.897246730986014,0.1114947049832657,-0.1778105771087964,-0.3045510043222305,1.9467078547866985,0.897468661962526,-1.706302699137685,-0.2697268462702101,10.46812065164886,-1.2064893291481924,0.0363772313216222,-1.1013859321011863
0.26,-1.87137756339905,0.7118410041721177,1.8884422692660447,0.1388922554582039,0.2220314207496998,0.0410451006372361,0.0752020910047272,-0.2040769808111648,-0.2707894248826685,-1.8729096098550535,0.7173551455188045,1.894201220942792,0.1314947052812889,-0.1978105774068196,-0.3194274579007026,1.706107089952282,0.9235777580250342,-1.39832359382015,-0.3201509866184948,10.271770131864288,-1.2039135475371423,0.0417782125543372,-1.1040206441071372
0.28,-1.8696762300070453,0.7075034539212596,1.8829446470483115,0.1328765764184923,0.2268924367747633,0.0409526424043855,0.0941125083098344,-0.2280969014749523,-0.2786356302805209,-1.8706797157553885,0.7137989339766285,1.888110200856347,0.1714947058773354,-0.2378105780028661,-0.3491803650576469,1.578071141055777,0.9455208652553616,-1.2009960331893748,-0.3923102698926206,10.271770131864288,-1.202401303673243,0.04816341979031,-1.106154879897252
0.3,-1.8677053970866864,0.7029629945828673,1.87756372266082,0.1274742047070517,0.2312133224014116,0.0408064334004781,0.1124837621336215,-0.2486504505752088,-0.2873959745609279,-1.868449821655723,0.7102427224344526,1.8820191807699025,0.2114947064733818,-0.2778105785989125,-0.3789332722145911,1.4462840139353053,0.9185626911893529,-1.0276774550128278,-0.4380172140203503,10.17241264052882,-1.2014115239023773,0.0541931871514494,-1.1079681185508332
0.32,-1.8652490660708956,0.6977799220665675,1.8717071382157124,0.1224882830119683,0.2354755762862434,0.0406276467291877,0.1322592703574971,-0.2686080334028226,-0.297879798937937,-1.8642199275262556,0.7046865108624744,1.8744405153256107,0.2514947070694283,-0.317810579194959,-0.4086861793715354,1.4994052249155352,0.9887754111937804,-0.9978791413806865,-0.5241912188504505,10.085710770429614,-1.2002848891268645,0.05935850102675,-1.110135456432785
0.34,-1.8623905552718236,0.6922085860987442,1.8656358393455708,0.1183101243682215,0.2394633488506805,0.0404386222096602,0.1526845354827842,-0.287583036386041,-0.3087510825668312,-1.859990033396788,0.6991302992904962,1.8668618498813188,0.2914947076654748,-0.3578105797910055,-0.4384390865284797,1.4961843146745668,1.0212632562643529,-0.9487501491609236,-0.5435641814447112,10.008853449040544,-1.1996390715164649,0.0635257356793239,-1.111374801080678
0.36,-1.859116398048105,0.686257125833341,1.8593449727533948,0.1146099551053232,0.2431917733649463,0.0402232853097505,0.1737845189735671,-0.3065286084976072,-0.3197931827919605,-1.854760139252419,0.6925740877036167,1.8585393617581036,0.3314947082615212,-0.3978105803870519,-0.468191993685424,1.521571542294072,1.0549991745391438,-0.9472786055783085,-0.5521050112564652,9.994584256533926,-1.199522480515704,0.0674096732186244,-1.1124002033703049
0.38,-1.855609131456107,0.6802561854904451,1.8531633804936651,0.1112303405297137,0.2465074252475038,0.0399776927621985,0.1944049331457618,-0.3240870947317846,-0.3303453864083207,-1.848530245093149,0.6850178761018362,1.8494730509559645,0.3714947088575676,-0.4378105809830983,-0.4979449008423682,1.4533159675632927,1.031020708609738,-0.8779243117088692,-0.5276101808180084,9.992550527940692,-1.199929941512747,0.0711082798342511,-1.1132937559853628
0.4,-1.8514887192574376,0.673587223139678,1.8464379422315425,0.1077642967376449,0.249773397090252,0.0396769952608314,0.2166125749458474,-0.3417836254456989,-0.3416507733883887,-1.8458888847988189,0.6640518307538559,1.8366461111732493,0.2944049346358779,-0.4240870962219007,-0.3721995854303753,1.528200190091691,1.1103820900042776,-0.884826535695718,-0.5652693490034,9.99156861238771,-1.200500854707234,0.0746803804037565,-1.113679761664922
0.42,-1.8468065546863877,0.6665444637984036,1.8397026846959168,0.104148859582371,0.2511925202474472,0.0391454186437475,0.2507766447395524,-0.361506865662189,-0.3301113748767842,-1.8458888847988189,0.6640518307538559,1.8366461111732493,0.2944049346358779,-0.4240870962219007,-0.3721995854303753,2.055083688999148,1.7082034896852532,-0.9861620108245012,0.576969925580223,11.561957160206475,-1.1914068139412233,0.0776614798497376,-1.1055260694841995
0.44,-1.841431988636936,0.6591258539511781,1.8332253115661288,0.1006095611438798,0.2490561930123407,0.0382358004551202,0.2846789903852199,-0.3793548045908926,-0.3184321393722538,-1.8458888847988189,0.6640518307538559,1.8366461111732493,0.2944049346358779,-0.4240870962219007,-0.3721995854303753,2.0026997442523222,1.695117282283373,-0.8923969464351839,0.5839617752265186,11.375223502721385,-1.1993728246935764,0.080503961319832,-1.109848593743692
0.46,-1.835718048580526,0.6517584758137496,1.827257745708167,0.097636958656376,0.2439326885915712,0.0370890764582382,0.3145404765792113,-0.3953314769469444,-0.3102031801903481,-1.84294483545246,0.6598109597916368,1.8329241153189453,0.3144049349339012,-0.4440870965199239,-0.3805704252347863,1.7426116797095366,1.4930743096995684,-0.7988336178025884,0.4114479590952874,11.375223502721385,-1.212534191511444,0.0832068806310725,-1.1087507509394945
0.48,-1.8291365868929852,0.6436835236524935,1.8211254226427072,0.094970764036844,0.2363098557571528,0.035708799526378,0.3415671634459207,-0.4113726637445891,-0.3035009898932937,-1.8370567367597423,0.6513292178671989,1.825480123610338,0.3544049355299476,-0.4840870971159704,-0.3973121048436081,1.6067675871497589,1.3513343433354723,-0.8020593398822329,0.3351095148527161,11.170815954062164,-1.226420135510105,0.0853001623507611,-1.103146005568756
0.5,-1.8220619230079875,0.6352934691045123,1.8151025546131176,0.0927945656368887,0.2276054461583308,0.0342765885619689,0.3642041291194633,-0.4269148515908883,-0.2990465701600896,-1.831168638067025,0.6428474759427608,1.8180361319017304,0.3944049361259941,-0.5240870977120169,-0.41405378445243,1.3908933038827551,1.1318482836771282,-0.7771093923149619,0.2227209866602075,10.9980320817549,-1.2400973514760498,0.0867570956598337,-1.096341345023107
0.52,-1.814578269774432,0.6265975447868037,1.809148397781266,0.0910719474899932,0.2188045479599461,0.0328830096651162,0.3827988190396492,-0.4419451483879343,-0.2965422092110764,-1.823280539344505,0.6323657339885205,1.8097550562126816,0.4344049367220405,-0.5640870983080634,-0.4307954640612519,1.2020234386214117,0.9297344960092936,-0.7515148398523019,0.125218047450662,10.830607774079908,-1.253413202875259,0.0878066589733869,-1.0877560926693082
0.54,-1.8071567044288892,0.618062680252559,1.803529936166449,0.089940487220324,0.21105124770816,0.0316609781747753,0.3973839439362285,-0.4557518998246292,-0.2949741925298332,-1.815392440621985,0.6218839920342801,1.8014739805236333,0.474404937318087,-0.6040870989041098,-0.4475371436700738,1.0072374717465464,0.7292562448289658,-0.6903375718347426,0.0784008340621589,10.680225503578184,-1.264611324197379,0.0882785666202381,-1.078673520900566
0.56,-1.7990676299579038,0.6087904266997819,1.7976395928884958,0.0891289330861743,0.2038963563868057,0.0304982109072673,0.4106234972635219,-0.470705527802886,-0.294163049488093,-1.806504341884564,0.6104022500651387,1.7927743628443642,0.5144049379141334,-0.6440870995001562,-0.4642788232788956,0.9994432388241388,0.6619776663646715,-0.7476813989128389,0.040557152087009,10.605173552250562,-1.273470165821889,0.0883046422594945,-1.0704060255959442
0.58,-1.790733770155727,0.5992144023064798,1.791755821186788,0.0883236793357152,0.1978877367144758,0.0294425350526871,0.4219549305760636,-0.4860726051371015,-0.294269297970221,-1.796616243132242,0.597920508081096,1.7836562031748744,0.5544049385101798,-0.6840871000962027,-0.4810205028877174,0.9546723724036098,0.566571665627083,-0.7683538667107775,-0.0053124241063989,10.471584513195012,-1.2809122649814997,0.0883641210588295,-1.0628468349060824
0.6,-1.7821941279632727,0.5893272708228616,1.7858597647922536,0.0871644768384739,0.1932793556767787,0.028491459104299,0.4313555732867301,-0.501719445292997,-0.2952943213505401,-1.7696360236269242,0.5749107720496247,1.777042356288277,0.5219549320661797,-0.5804461442272582,-0.3375576368996357,0.9141202918215272,0.470032135533327,-0.7823420077947701,-0.0512511690159561,10.471584513195012,-1.2864229879256268,0.0887722644566165,-1.0566095365463886
0.62,-1.773891999933044,0.5795834412701227,1.7803924037526233,0.0839834423695698,0.1906068950543007,0.0276003559503596,0.4420104486472395,-0.5218621600069128,-0.2800528723791485,-1.7696360236269242,0.5749107720496247,1.777042356288277,0.5219549320661797,-0.5804461442272582,-0.3375576368996357,1.370727080550434,0.5327437680254704,-1.007135735695791,0.7620724485695812,10.41149383846914,-1.2844314885282624,0.0910425986665401,-1.046077014467525
0.64,-1.7649516114152917,0.5689795650771818,1.7749364796785942,0.0791588457791385,0.1901134485419329,0.0267693540631559,0.4517018520375095,-0.5372334737777787,-0.2666165584857526,-1.7696360236269242,0.5749107720496247,1.777042356288277,0.5219549320661797,-0.5804461442272582,-0.3375576368996357,1.129972475059918,0.4845701695135013,-0.768565688543299,0.6718156946697945,11.519796911565209,-1.283707667704788,0.0945390802182303,-1.051679511698704
0.66,-1.7558128262693364,0.5581002300295491,1.7697043918059614,0.0745122511219834,0.1916116262099645,0.0261170840827206,0.4618762824587375,-0.5498850041761484,-0.2574626232939267,-1.7644164743062625,0.5691063106073522,1.7736667799192805,0.5419549323642029,-0.5993208520452895,-0.3462153046855187,0.9318996530118308,0.5087215210613977,-0.6325765199184818,0.4576967595912945,11.23048545513302,-1.2817002281904606,0.0978964988335355,-1.0584137435117926
0.68,-1.746462644247764,0.5469878822142723,1.7646151231169898,0.0705346238126561,0.1943860356149925,0.025607444846892,0.4728427625782453,-0.5608299891076473,-0.251942584439319,-1.7539773756649388,0.557497387722807,1.7669156271812878,0.5819549329602494,-0.6370702676813521,-0.3635306402572846,0.822385570031897,0.5483240059753897,-0.5472492465749434,0.2760019427303833,10.96722648911873,-1.2788013927375703,0.101001733583555,-1.0655539830215426
0.7000000000000001,-1.7373669973939836,0.53623936201869,1.7598573053589093,0.0674968940698452,0.1976623363452968,0.0252180340506154,0.4841846822435479,-0.5701934217770795,-0.2491832475513695,-1.7435382770236152,0.5458884648382618,1.7601644744432952,0.6219549335562958,-0.6748196833174147,-0.3808459758290505,0.7482094511404702,0.5670959832651312,-0.4681716334716146,0.1379668443974774,10.77011648187272,-1.2756906385013789,0.1034862213736492,-1.0724284450071135
0.72,-1.72754995080289,0.5247403349413097,1.7548862026489378,0.0650939998588609,0.201374220073451,0.0248790769780624,0.4970366293647104,-0.579336016231416,-0.2481781699749796,-1.7310991783524892,0.5323920711719136,1.7525475549267142,0.6619549341523423,-0.7125690989534773,-0.3981613114008164,0.790205288352624,0.642597356058125,-0.4571297227168203,0.0502538788194908,10.626947049744558,-1.2728037836907284,0.1052858746943908,-1.0787537894557948
0.74,-1.7174640837746,0.5130632613508472,1.7499243888720692,0.0634793597242453,0.2050364769171719,0.024591246857001,0.5109986702082328,-0.5879982600676695,-0.2480985033832351,-1.7186600796813634,0.5188956775055653,1.7449306354101333,0.7019549347483888,-0.75031851458954,-0.4154766469725823,0.8215524930896666,0.6981020421761158,-0.433112191812679,0.0039833295872274,10.52349141706327,-1.2700508123840597,0.1063675257101488,-1.0843452235090434
0.76,-1.707609171208827,0.501806109912945,1.7452050915927797,0.0624622617911498,0.2080662501218571,0.0243265136537684,0.5256484865834058,-0.5965208331096865,-0.2486760668784528,-1.7052209809953365,0.5044555484483154,1.736880832504258,0.7419549353444351,-0.7880679302256026,-0.4327919825443482,0.8479164915748053,0.7324908187586521,-0.4261286521008489,-0.0288781747608837,10.487730458780788,-1.2679642463445415,0.1069030442406766,-1.0890921671608125
0.78,-1.6969259308831095,0.4897816764280687,1.74021996446758,0.0616896494608798,0.210427898419328,0.0240194649545757,0.5418835906146755,-0.605450198977699,-0.2498262896570671,-1.6907818822944078,0.489071684000164,1.7283981462090887,0.7819549359404816,-0.8258173458616652,-0.4501073181161141,0.928217633628316,0.8117552015634855,-0.4464682934006259,-0.0575111389307186,10.465491142239443,-1.2669246866736843,0.1071957317220181,-1.0929978021674869
0.8,-1.685912179742462,0.4775779896403766,1.7352056804000806,0.0610955280793882,0.211758762990235,0.0236648386013023,0.5586110166726864,-0.6144385100690014,-0.2515584660837204,-1.6698317513523755,0.4595091664791837,1.7277286499847266,0.6418835921047916,-0.6781677612955472,-0.2692395895156373,0.9534109213415082,0.836371302900546,-0.449415554565119,-0.0866088213326635,10.4429782252937,-1.2669524536295824,0.1073002917352013,-1.0957755453198832
0.8200000000000001,-1.6744421082511676,0.4650664837095785,1.730396174702758,0.0568244949500357,0.2100221371586986,0.022875245966641,0.5872465168472578,-0.6337439621881348,-0.2291221041450913,-1.6698317513523755,0.4595091664791837,1.7277286499847266,0.6418835921047916,-0.6781677612955472,-0.2692395895156373,2.059176224132599,1.4317750087285697,-0.9652726059566684,1.1218180969314566,10.4166535790755,-1.258558325231793,0.1099387966047959,-1.0918268994450158
0.84,-1.6630336422415135,0.4529172606904487,1.7262386786434658,0.0499007676309868,0.2040038096502807,0.0217175809916411,0.611456580684316,-0.6437433655737815,-0.2095770922139071,-1.6698317513523755,0.4595091664791837,1.7277286499847266,0.6418835921047916,-0.6781677612955472,-0.2692395895156373,1.6341073637107253,1.2105031918529074,-0.4999701692823377,0.9772505965592092,12.090516719807056,-1.2697502632525268,0.1166586185940649,-1.0931862018617875
0.86,-1.6505928913212915,0.4399770370009166,1.7222254145459954,0.0425673319761795,0.1948685676662138,0.0204389420928329,0.6307642732400476,-0.6496810965874015,-0.1929237575994114,-1.6634129154313275,0.4527274888662282,1.7250362540895705,0.6618835924028148,-0.6927112737591169,-0.2731222494873513,1.3089854804381136,0.9653846277865809,-0.296886550680997,0.8326667307247861,11.796222368752751,-1.2844318542018551,0.1235696782358933,-1.089679659997774
0.88,-1.637830408860689,0.4269481555385773,1.71849885265313,0.0362291495197739,0.1846491152226809,0.0192797416536326,0.6440807605094299,-0.6530055936877482,-0.1807329256507376,-1.650575243589232,0.4391641336403173,1.7196514622992576,0.7018835929988613,-0.7217982986862561,-0.2808875694307793,0.9178745798945528,0.6658243634691141,-0.1662248550173384,0.609541597433691,11.471280823961932,-1.3003258579707846,0.1295717860307963,-1.0855839623540533
0.9,-1.6248605410944168,0.4138718490275779,1.7149691438769763,0.0312445377317674,0.1748056689519669,0.0183136004921656,0.6520738057822165,-0.654745883847078,-0.1728101340909421,-1.637737571747136,0.4256007784144063,1.7142666705089449,0.7418835935949077,-0.7508853236133954,-0.2886528893742074,0.5694032153743133,0.3996522636393329,-0.0870145079664874,0.3961395779897708,10.895267986278668,-1.313926409138151,0.1340187415473575,-1.0786887146261468
0.92,-1.6124322369468091,0.401425952134427,1.7117310865254671,0.0277416906920285,0.1667551543462844,0.0175822549454036,0.6557629138183577,-0.6555399762272275,-0.1684268084271499,-1.622899899875238,0.4105830719421384,1.7084936127214607,0.7818835941909542,-0.7799723485405348,-0.2964182093176354,0.2891956287938698,0.1844554018070598,-0.0397046190074745,0.2191662831896118,10.68688123711854,-1.3255275202884391,0.1373902721533637,-1.0710294001232876
0.94,-1.599305773853431,0.3883124766527265,1.7083974390084202,0.0252298763801259,0.16037336596487,0.0169951303186182,0.6565221957094782,-0.6559726778302778,-0.1652254460708736,-1.6080622280033396,0.3955653654698705,1.7027205549339766,0.8218835947870007,-0.809059373467674,-0.3041835292610635,0.1659251382676007,0.0379640945560255,-0.0216350801525155,0.1600681178138163,10.68688123711854,-1.3343973249683605,0.1395770864775735,-1.06423670626486
0.96,-1.5861902949428983,0.3751865609783256,1.7051155613878677,0.0235977612670701,0.1568875188376722,0.0165701883040363,0.6549029780282397,-0.6566578723227966,-0.1631670565451111,-1.5922245561165405,0.3798204833744241,1.696753364147907,0.861883595383047,-0.8381463983948133,-0.3119488492044915,0.1353543943836154,-0.0809608840619258,-0.0342597246259401,0.1029194762881227,10.602314115456466,-1.3391552485051743,0.1408704606212023,-1.0603543034792553
0.98,-1.5731150897228796,0.3620487474363034,1.701865555978368,0.02263464722037,0.1566345606054054,0.0162862096520129,0.6531383367617953,-0.657138330650684,-0.1619589974335995,-1.57538688421484,0.3633484256557993,1.6905920403632513,0.9018835959790936,-0.8672334233219525,-0.3197141691479195,0.1095924931391409,-0.0882320633222188,-0.0240229163943728,0.0604029555755808,10.538756950586505,-1.3377005430094835,0.1413402277414686,-1.0603743068753757
1.0,-1.5607087697497437,0.3495611254515802,1.6987957049029816,0.0223380284359031,0.1586063901884279,0.0161219555288996,0.6531407175198989,-0.6573692865366164,-0.1612624730028941,-1.54045817288479,0.3291918309037692,1.693767606106688,0.739115287586056,-0.6917329298082558,-0.1898325172416535,0.0366910265536881,0.0001190379051774,-0.011547794296618,0.0348262215352682,10.455867187142758,-1.3342026426201206,0.1412787218013718,-1.0634379799692475
1.02,-1.5475645638825704,0.336268510213614,1.6956901807300182,0.0181275738291225,0.1607617892006821,0.0156904762618809,0.6613989924252659,-0.6697409113968202,-0.1486593674494163,-1.54045817288479,0.3291918309037692,1.693767606106688,0.739115287586056,-0.6917329298082558,-0.1898325172416535,0.9748005894621892,0.4129137452683507,-0.6185812430101911,0.6301552776738939,10.455867187142758,-1.3241132185034217,0.1441340605012283,-1.0618201852259797
1.04,-1.5349255952765386,0.3235103778031816,1.6929766909342328,0.0102669661443641,0.1615479172442059,0.0150017520402638,0.66846150122683,-0.6720493157855527,-0.1378030058094178,-1.54045817288479,0.3291918309037692,1.693767606106688,0.739115287586056,-0.6917329298082558,-0.1898325172416535,0.6577772218854189,0.3531254400782058,-0.1154202194366238,0.5428180819999225,11.079646231079096,-1.3242089350411494,0.1519906317179326,-1.068365025410798
1.06,-1.5214922853967654,0.3100985017974412,1.6903049953302476,0.0017548624464227,0.1617160663097685,0.0142773618447483,0.674416090469,-0.6689239404496998,-0.1301051000664715,-1.5330670200089294,0.3222745016056867,1.6918692809342717,0.7563106777509082,-0.6986518496397702,-0.1954072212032643,0.5110842808681589,0.297729462108498,0.1562687667926443,0.3848952871473146,11.079646231079096,-1.326734218739963,0.1603896396401534,-1.0739718574180166
1.08,-1.5079547465842216,0.2967866874746347,1.6877469443629205,-0.0055589711641471,0.1616654942132035,0.0136649874571872,0.6790414759587456,-0.6626829162612157,-0.1260774914303124,-1.5182847142572082,0.3084398430095216,1.6880726305894382,0.7907014580806124,-0.7124896893027989,-0.2065566291264859,0.4375105860892321,0.2312692744872835,0.3120512094242078,0.2013804318079542,10.855307070528395,-1.3298686412583829,0.1674002823014309,-1.0777760917247476
1.1,-1.4950182926033675,0.2842735864702069,1.6853652622670416,-0.0110244714704914,0.161722481193456,0.013211914202828,0.6824957041950477,-0.655135518239697,-0.124825511958771,-1.503502408505487,0.2946051844133565,1.6842759802446052,0.8250922384103168,-0.7263275289658276,-0.2177060370497074,0.4197093107165127,0.1727114118151018,0.3773699010759357,0.0625989735770722,10.658885330967678,-1.3329912284498997,0.1733076001266225,-1.0806825872491723
1.12,-1.481336925912278,0.2712643769442106,1.6828647002748909,-0.0152494741890556,0.1621246629365296,0.0128617112385376,0.6854898966356717,-0.6464251682141041,-0.1253790519251323,-1.4870005637372807,0.2800786338340399,1.679921859503611,0.8594830187400211,-0.7401653686288564,-0.228855444972929,0.4613615513732008,0.1497096220312022,0.4355175012796419,-0.0276769983180678,10.510177244022088,-1.335582930718975,0.1776797043064564,-1.0831433297080773
1.14,-1.4675982755535564,0.2584347351209602,1.6803418642240562,-0.0180480562425456,0.1630102666706014,0.0126247035417868,0.6882906743293028,-0.6372299673931905,-0.1269093255351658,-1.4704987189690744,0.2655520832547233,1.6755677387626169,0.8938737990697254,-0.754003208291885,-0.2400048528961506,0.4866667523769133,0.1400388846815536,0.4597600410456814,-0.0765136805016705,10.359721012763655,-1.3371946190262605,0.1805201396089279,-1.0855673714995189
1.16,-1.4537983377229535,0.2457900320125816,1.6777819304613155,-0.0196262751073624,0.1642656241032188,0.0124848385304119,0.6916259104654463,-0.6279282721102066,-0.1290086352851791,-1.4531371046926254,0.2506795866838311,1.6709348828235422,0.9282645793994296,-0.7678410479549138,-0.2511542608193722,0.5051050302853428,0.1667618068071752,0.4650847641491928,-0.1049654875006689,10.359721012763655,-1.3379368074577096,0.1823318749397243,-1.088591147398046
1.18,-1.440621151021636,0.2339525142014739,1.6753076768332282,-0.0200765460011037,0.1655584396614518,0.01243938774389,0.6953081082819089,-0.6187414126982368,-0.131336778536249,-1.434915720907934,0.2354611441213631,1.6660232916863869,0.962655359729134,-0.7816788876179425,-0.2623036687425938,0.5083729379411415,0.1841098908231309,0.4593429705984919,-0.1164071625534932,10.33529969031406,-1.3386415985187377,0.1830727197205365,-1.0919606302600706
1.2,-1.426670663445908,0.2216821754469047,1.6726525203812588,-0.0193145732955091,0.1668569009764889,0.0124953209732866,0.6995702085158803,-0.6088903948098425,-0.1340691357089822,-1.405855745607541,0.2030154435665621,1.6687408379064157,0.7821065079687223,-0.6289767101918734,-0.1389924587158449,0.5537910877787506,0.2131050116985666,0.4925508944197132,-0.1366178586366589,10.321072850388193,-1.339655588220494,0.1825984727185247,-1.0954010849426845
1.22,-1.412548528858284,0.2095105284320002,1.6701323287095329,-0.0204426366476036,0.1664698370789629,0.0124687242618493,0.7121555179063677,-0.607584636578818,-0.117842605177902,-1.405855745607541,0.2030154435665621,1.6687408379064157,0.7821065079687223,-0.6289767101918734,-0.1389924587158449,1.0288285937028752,0.6292654695243705,0.0652879115512261,0.8113265265540064,10.30924932801463,-1.3338466932556123,0.1831812894595089,-1.0938164776471075
1.24,-1.398910481509692,0.1980190052594105,1.668030807921913,-0.0241824033823096,0.1634173116374744,0.0123386533784503,0.7225789294764144,-0.6015570062095041,-0.1042337526151463,-1.405855745607541,0.2030154435665621,1.6687408379064157,0.7821065079687223,-0.6289767101918734,-0.1389924587158449,0.9085437588560096,0.521170578502339,0.3013815184656931,0.6804426281377861,11.511714236541591,-1.3401889949690868,0.1879271728501562,-1.0996386060600165
1.26,-1.3843710367990798,0.1860917050078367,1.666066054149214,-0.0284016681466987,0.1581104093912531,0.0122759094237814,0.7303765973849857,-0.5914870685833283,-0.0930754849566453,-1.3980346805278534,0.1967256764646433,1.6673509133192572,0.7994661879060849,-0.6310237696906007,-0.1405235947517641,0.8466318647236573,0.3898833954285641,0.5034968813087903,0.5579133829250494,11.322483797871428,-1.3511583540482055,0.1931550392100731,-1.100813785496334
1.28,-1.3697221637111174,0.1743880889164724,1.664287806953331,-0.0318166934315777,0.1519568415204228,0.0123413096164192,0.733913307035434,-0.5796340578951517,-0.0852760184190405,-1.382392550368479,0.1841461422608059,1.6645710641449405,0.8341855477808103,-0.6351178886880554,-0.1435858668236025,0.7311529521871983,0.1768354825224138,0.592650534408834,0.389973326880242,10.922567646693096,-1.3637175151291427,0.1977792732746167,-1.102059412354491
1.3,-1.3550428752061696,0.162930021908228,1.6626371991178193,-0.0341412136561916,0.1461961489681137,0.01251121518029,0.7337282739142909,-0.5670782793751873,-0.0801546253686337,-1.3667504202091043,0.1715666080569684,1.6617912149706235,0.8689049076555356,-0.63921200768551,-0.1466481388954409,0.678067987511344,-0.0092516560571576,0.6277889259982183,0.2560696525203402,10.76659481468414,-1.3747908218822469,0.2010508122261632,-1.1016810125356722
1.32,-1.3411336504186664,0.1522817858211508,1.6611441698253906,-0.0352779868424386,0.1421029873441561,0.0127279732607745,0.7303358617722477,-0.5546332399168473,-0.0772493437491555,-1.349372322055994,0.1587823679032582,1.6588582521927149,0.9036242675302608,-0.6433061266829646,-0.1497104109672793,0.6611129414661274,-0.1696206071021555,0.6222519729169984,0.1452640809739093,10.76659481468414,-1.384269605999784,0.2032283105079891,-1.1010694136210912
1.34,-1.326589249271074,0.1413320783005877,1.659625496272408,-0.0351573861745416,0.1403519879096446,0.0129767812599008,0.7243393436695733,-0.541125137520024,-0.074797023956043,-1.3319942239028832,0.145998127749548,1.655925289414806,0.9383436274049864,-0.6474002456804193,-0.1527726830391176,0.749067640614747,-0.2998259051337215,0.6754051198411659,0.1226159896556257,10.65429490571296,-1.3887739812660929,0.2038021609503469,-1.1022503924311156
1.36,-1.3121605817649606,0.1306551121317688,1.65815252975292,-0.0334251736147099,0.1414349711034753,0.0132525615329492,0.7191925587346755,-0.527476658663692,-0.0726348993560096,-1.3137481417529042,0.1331115346209014,1.6529157698351011,0.9730629872797116,-0.6514943646778739,-0.155834955110956,0.7373010800275273,-0.257339246744892,0.6824239428166012,0.1081062300016692,10.608755409979494,-1.3883554722012337,0.2027243745629845,-1.1070401208216631
1.38,-1.2985298460074772,0.1207571491413861,1.6567951417685245,-0.0303231922305918,0.1442384289471478,0.0135714566062646,0.7161184760946809,-0.5155845568766014,-0.0703612334182585,-1.2946340756060573,0.1201225885173185,1.6498296934536003,1.007782347154437,-0.6555884836753286,-0.1588972271827944,0.6245831125409322,-0.1537041319997267,0.5946050893545274,0.1136832968875546,10.608755409979494,-1.386542794714363,0.200085485383718,-1.1149389655441173
1.4,-1.2842230144756626,0.1105545152732059,1.655417505950281,-0.0264606461691467,0.1482390901625189,0.01393730035008,0.7149376884357785,-0.5054739382675747,-0.0675175014750423,-1.262723922202743,0.094977921297556,1.653277080097611,0.7997284966725885,-0.5060997535725252,-0.0926413844427193,0.5284545380576314,-0.0590393829451196,0.5055309304513367,0.142186597160808,10.622637070216117,-1.3830558100490569,0.1967298881744633,-1.1241860361466718
1.42,-1.2698776757315653,0.1004539219935772,1.6541366373658233,-0.0253873401778376,0.1515605353337439,0.0141457791223002,0.7196710822952619,-0.5041628957522417,-0.0605509351817711,-1.262723922202743,0.094977921297556,1.653277080097611,0.7997284966725885,-0.5060997535725252,-0.0926413844427193,0.4261950721927366,0.2366696929741674,0.0655521257666491,0.3483283146635638,10.653831764638198,-1.3771300929569414,0.1959092349685257,-1.1305676512051572
1.44,-1.2554411336926166,0.0904127144098224,1.65299064964684,-0.0283884469277149,0.1532106017389043,0.0141250921769003,0.7236137064710552,-0.4994570918964337,-0.0544961606278376,-1.262723922202743,0.094977921297556,1.653277080097611,0.7997284966725885,-0.5060997535725252,-0.0926413844427193,0.4311298244724174,0.1971312087896637,0.2352901927903994,0.3027387276966726,10.93029942164776,-1.3773663274284855,0.1995520355267355,-1.1374492046070217
1.46,-1.2416643925904849,0.0810086469701523,1.6519935821620546,-0.0327897228388623,0.1539448744376635,0.0140340289013287,0.726327056049895,-0.490443366531556,-0.0507699997517569,-1.2547266372360173,0.0899169237618308,1.6523506662531842,0.81645050078817,-0.50420279291171,-0.0970974146476115,0.5061960730904195,0.135667478941992,0.4506862682438856,0.1863080438040339,10.849131300348745,-1.3786655423544685,0.2052198649255363,-1.1435195182367088
1.48,-1.2271176195541948,0.071327502237271,1.651002466139492,-0.0372077653436104,0.1543499025076373,0.013982517037639,0.7281724758738408,-0.4781872398879108,-0.0486212296241347,-1.2387320673025657,0.0797949286903803,1.6504978385643296,0.849894509019333,-0.5004088715900795,-0.1060094750573958,0.6289583207435988,0.0922709911972907,0.6128063321822586,0.1074385063811137,10.737482238521808,-1.381243820929833,0.2108483573598532,-1.1493850214272012
1.5,-1.212543184035459,0.0619098429160354,1.6500361887753732,-0.0406893547261326,0.1547921093865784,0.0140131395201932,0.7292215191325262,-0.4644491664447657,-0.0481118521538405,-1.2227374973691136,0.0696729336189298,1.648645010875475,0.8833385172504961,-0.496614950268449,-0.1149215354671801,0.6893740260103455,0.0524521629342689,0.6869036721572547,0.0254688735147081,10.563206029763023,-1.3838850784722458,0.2153383083664729,-1.1546067387766783
1.52,-1.1986828470586863,0.053224506623581,1.6491170233936427,-0.042990372316156,0.1554854498163083,0.0141167211770179,0.7297765991590426,-0.4507518012825159,-0.0486680509768263,-1.2050707270241037,0.0597406346135608,1.6463465801661317,0.9167825254816592,-0.4928210289468185,-0.1238335958769644,0.6859943209578019,0.0277540013258192,0.6848682581124893,-0.0278099411492878,10.563206029763023,-1.3863043766819447,0.2189611101315379,-1.159849192616928
1.54,-1.1840831428545304,0.0443654869017415,1.6481323264188492,-0.0443990931966582,0.1566507656614073,0.014291996722833,0.730233901195894,-0.4359924614417805,-0.0498006337519395,-1.1874039566790937,0.0498083356081918,1.644048149456788,0.9502265337128222,-0.4890271076251881,-0.1327456562867487,0.7404896714838648,0.0228651018425729,0.7379669920367732,-0.0566291387556615,10.509398566747224,-1.387594391985756,0.2214395102869721,-1.165307746266066
1.56,-1.169468531027456,0.0358098245301558,1.647120620498924,-0.0445504359619538,0.1581856657609694,0.0145518599266222,0.7312760297573857,-0.4205231866619336,-0.0513194164042345,-1.168901086128305,0.0399708846358636,1.6415269172371998,0.9836705419439852,-0.4852331863035576,-0.1416577166965331,0.7789274595525502,0.0521064280745831,0.7734637389923443,-0.0759391326147503,10.485703034669314,-1.3879397129140612,0.2225744344781958,-1.1714181108138062
1.58,-1.154826268312641,0.0275674238101829,1.6460765884694806,-0.0431553902425463,0.159837731611791,0.0149268729075379,0.7329425641930257,-0.4047245434375784,-0.0530120335783549,-1.1495621153717368,0.0302282816965761,1.638782883507367,1.017114550175148,-0.4814392649819271,-0.1505697771063174,0.7988107060714791,0.083326721782001,0.7899321612177601,-0.084630858706021,10.47475767506603,-1.3882600904556,0.222149526095555,-1.177644188200912
1.6,-1.140879748916402,0.020026396558464,1.64505305751615,-0.0402662212739253,0.1613424593755665,0.0154058579482614,0.7350510937142549,-0.3902945562250521,-0.0546361670404189,-1.1181791401029897,0.007331196638304,1.6434259867905627,0.8036363178527509,-0.388269772276499,-0.0731806397702285,0.7336692667649406,0.1054264760614598,0.7214993606263126,-0.0812066731032009,10.473894819146151,-1.3892953858234438,0.2199966887902858,-1.1845982708732747
1.62,-1.1260706212867426,0.0123411192944611,1.644035581731516,-0.0370179819410828,0.1607225426121882,0.0160183798753664,0.7459077824810973,-0.378840274292851,-0.0465532443973002,-1.1181791401029897,0.007331196638304,1.6434259867905627,0.8036363178527509,-0.388269772276499,-0.0731806397702285,0.8865690949061367,0.5428344383421213,0.572714096610058,0.4041461321559383,11.142340865668302,-1.3842767370180922,0.2168240835598853,-1.1863685667408443
1.64,-1.111051316845917,0.0048817268198932,1.6431853135948489,-0.0343650420400025,0.1558316842808897,0.0167438982133208,0.7548008964409624,-0.3676637746056138,-0.0389845681343285,-1.1181791401029897,0.007331196638304,1.6434259867905627,0.8036363178527509,-0.388269772276499,-0.0731806397702285,0.808217918533781,0.4446556979932514,0.5588249843618609,0.3784338131485845,11.026422927616297,-1.3951903808385864,0.2159832306409994,-1.1941590252478047
1.66,-1.0966686771693683,-0.0020008458624573,1.642493544743816,-0.0321614356415513,0.1488658056509023,0.0174796573987,0.7583604335115166,-0.3573937316699005,-0.0341801307783475,-1.110142776924462,0.003448498915539,1.6426941803928603,0.817775068584696,-0.3849788180442831,-0.0772143610086032,0.5941942114443496,0.1779768535277115,0.5135021467856632,0.2402218677990477,11.026422927616297,-1.4090623719998563,0.2152330480940645,-1.1963488651992342
1.68,-1.0815063309221398,-0.0090398778545102,1.6418418996166022,-0.0300616827642233,0.14088076637967,0.0182452316973608,0.757383474629667,-0.3470871991232428,-0.0313266341068335,-1.094070050567407,-0.0043168965299909,1.641230567597456,0.846052570048586,-0.3783969095798513,-0.0852818034853526,0.5369392541211729,-0.0488479440924782,0.5153266273328849,0.1426748335756997,10.867053487520025,-1.4225718653095138,0.2144100867085018,-1.1940424398121063
1.7,-1.0664093203672236,-0.0158782121437009,1.6412215633088243,-0.0281472947119446,0.133650730243423,0.0189614212305724,0.7523323957916499,-0.337287424451597,-0.0308292049590219,-1.077997324210352,-0.0120822919755208,1.6397669548020513,0.8743300715124761,-0.3718150011154196,-0.093349245962102,0.5518070695451183,-0.2525539419008571,0.4899887335822916,0.0248714573905812,10.72282685790833,-1.4340595158969855,0.2135020786464427,-1.1895064929256145
1.72,-1.051449996907153,-0.0225257015761003,1.64059219073688,-0.0263960763399878,0.1282415252281292,0.019604746732578,0.7437875651352444,-0.3279741177741705,-0.0321203333298849,-1.0605107227801025,-0.0195185919978292,1.6378999698828092,0.9026075729763662,-0.3652330926509878,-0.1014166884388514,0.6352535412819252,-0.4272415328202772,0.4656653338713207,-0.0645564185431477,10.588998324232309,-1.4433948820036155,0.2127072147644612,-1.18546185093004
1.74,-1.037426939146755,-0.0286727772628541,1.6399618871008128,-0.0248887750296785,0.1258995166802221,0.0201262986719743,0.7328349130065495,-0.3195703542739369,-0.0341576631763292,-1.043024121349853,-0.0269548920201376,1.636032984963567,0.9308850744402564,-0.358651184186556,-0.1094841309156009,0.6977365952192796,-0.5476326064347448,0.420188175011682,-0.1018664923222188,10.491155076729228,-1.448365693186528,0.2117776293343657,-1.182538532990327
1.76,-1.0228882694621622,-0.0349743004476065,1.6392527345023202,-0.0234834901014958,0.1267644703256679,0.02058007355332,0.7219952798532631,-0.311052113812926,-0.036669621219485,-1.0248305823830062,-0.0342266443308352,1.6339643139824065,0.9591625759041464,-0.3520692757221243,-0.1175515733923503,0.7006568358690362,-0.5419816576643199,0.4259120230505453,-0.1255979021577875,10.448060700015958,-1.4461251206212606,0.2106734102832524,-1.1821140797732068
1.78,-1.0085449531965751,-0.04110816995231,1.6384930773577115,-0.0222770776053311,0.1301261786568856,0.020965585231196,0.7132386536742078,-0.3027858228391448,-0.0391788940881765,-1.0059301058795622,-0.041333848929922,1.631693956939327,0.9874400773680364,-0.3454873672576925,-0.1256190158690997,0.6150335739463421,-0.437831308952763,0.4133145486890616,-0.1254636434345746,10.41608898915365,-1.441568353918314,0.2098445203543968,-1.1851061535965937
1.8,-0.9950574153599298,-0.0467840348168402,1.637727223697346,-0.0213223340375873,0.1347327962669031,0.0212925751982701,0.7071869218600921,-0.2951076329604335,-0.0413252449911802,-0.9728830205128648,-0.0562474610942672,1.6365341326533027,0.7564142317915784,-0.2753379379367867,-0.0635166980331218,0.5004619864743698,-0.3025865907057834,0.3839094939355636,-0.1073175451501869,10.413533762162842,-1.4351416141308022,0.2091971992340542,-1.1903972228042048
1.82,-0.9808639716839368,-0.0526373580593877,1.6369530275544082,-0.0217558925466414,0.1376431127348364,0.0215822952254211,0.7125740380995054,-0.2903208339745997,-0.0356140213059418,-0.9728830205128648,-0.0562474610942672,1.6365341326533027,0.7564142317915784,-0.2753379379367867,-0.0635166980331218,0.4597622806694713,0.2693558119706618,0.239339949291692,0.2855611842619187,10.428223645586511,-1.4226614927051513,0.2093304315636741,-1.189594404734611
1.84,-0.9665596826106982,-0.0583849793150926,1.6362945763322512,-0.0244735183290086,0.1357384260228563,0.0218250320089149,0.7172154979110081,-0.2843608928330125,-0.0306334972804279,-0.9728830205128648,-0.0562474610942672,1.6365341326533027,0.7564142317915784,-0.2753379379367867,-0.0635166980331218,0.4524092924601032,0.2320729905751384,0.2979970570793577,0.2490262012756988,10.961296555382432,-1.4281216910685262,0.2136354661452936,-1.195350543146234
1.86,-0.9522026892150132,-0.0639793650904479,1.6357079484811818,-0.028278103540341,0.1303220201992214,0.0221016139904726,0.7177234934478938,-0.2751685805468231,-0.0282516744412202,-0.9653188781949492,-0.0590008404736351,1.6358989656729714,0.7650493474150525,-0.2698483609563151,-0.0683842588221109,0.4754727770064637,0.0253997768442815,0.4596156143094693,0.1190911419603837,10.857608777921996,-1.43861234164776,0.2190360725527019,-1.19631291766183
1.88,-0.9386019077536044,-0.0691011734948977,1.6351708014123536,-0.0316670089915241,0.1237087595702229,0.0224543660045616,0.7136681232038519,-0.2645236967742874,-0.0283852222998169,-0.9501905935591176,-0.0645075992323708,1.634628631712309,0.7823195786620007,-0.2588692069953719,-0.078119380400089,0.5695994500032263,-0.202768512202095,0.5322441886267876,-0.0066773929298357,10.70229744443077,-1.4513556248549315,0.2243847685064011,-1.192685566801831
1.9,-0.9244112071472208,-0.0742647558893129,1.6345816555728336,-0.0345918702447603,0.116726697882644,0.0229047650521833,0.7054074232646208,-0.2524906924529274,-0.0306036613289212,-0.935062308923286,-0.0700143579911066,1.6333582977516463,0.799589809908949,-0.2478900530344286,-0.0878545019780671,0.7381629701660297,-0.4130349969615532,0.6016502160680004,-0.1109219514552142,10.553647632366848,-1.4633173068193883,0.2288177845902245,-1.1863660949446984
1.92,-0.910423725310064,-0.0791820397672603,1.6339282579590708,-0.0367654198560188,0.1109141812511176,0.0233934618286902,0.69358006525661,-0.239973043619332,-0.0346866622699573,-0.919070512725107,-0.0749721590517951,1.6316012077120852,0.8168600411558973,-0.2369108990734854,-0.0975896235560453,0.8849418433651041,-0.5913679004005412,0.6258824416797689,-0.204150047051806,10.428904287580735,-1.4733592690556645,0.2321421240307348,-1.179864702283997
1.94,-0.8967093261681032,-0.0838450169879003,1.633180514061127,-0.0381519844750493,0.1075332724175583,0.0238636045624313,0.6784361527524343,-0.227102593894265,-0.0398604776731794,-0.903078716526928,-0.0799299601124837,1.6298441176725238,0.8341302724028455,-0.2259317451125422,-0.1073247451340234,1.026833637799013,-0.7571956252087841,0.6435224862533464,-0.2586907701611032,10.285507636315742,-1.4806003036603608,0.2345941477728811,-1.1738349729061228
1.96,-0.8839752176794421,-0.0880305112825844,1.6323699059264365,-0.0385886785993224,0.107394606661753,0.0242611464463996,0.6632019149309396,-0.2142537577251183,-0.0451948821294249,-0.8866551645475753,-0.0846132823241487,1.6278436495935131,0.8514005036497937,-0.214952591151599,-0.1170598667120016,1.0315406727393803,-0.7617118910747345,0.6424418084573377,-0.2667202228122771,10.285507636315742,-1.4805085930216249,0.2356049126562509,-1.17047657310668
1.98,-0.8708652046861209,-0.0921696295052971,1.6314067573655844,-0.0378835282070615,0.1099397205537747,0.024659924652672,0.6489225928677689,-0.2004364574431078,-0.050834430496709,-0.869799856787049,-0.0890221256867901,1.6255998034750527,0.868670734896742,-0.2039734371906558,-0.1267949882899797,1.0327406879923178,-0.7139661031585365,0.6908650141005251,-0.2819774183642032,10.253812740504143,-1.476329818099108,0.23528484506386,-1.1716458390236215
2.0,-0.8580185308889524,-0.0960307596059247,1.6303338589618543,-0.0357751131825867,0.1143828716363357,0.0250896894034872,0.6367898041348588,-0.1865613826981576,-0.056170811271749,-0.8384190750427325,-0.1021914523774525,1.6288650358407488,0.6962814410223137,-0.1622381391106741,-0.0561324615250691,0.959425897857152,-0.6066394366455063,0.6937537372475072,-0.2668190387520006,10.245343775020046,-1.4704200625705468,0.2336212809925319,-1.1759170538178707
2.02,-0.8459754127715546,-0.0994653684329991,1.629351319481817,-0.0332001300513474,0.1188544921478713,0.0255370001573916,0.631498322870171,-0.175676189124293,-0.0470279753351034,-0.8384190750427325,-0.1021914523774525,1.6288650358407488,0.6962814410223137,-0.1622381391106741,-0.0561324615250691,0.758417203917909,-0.2645740632343851,0.5442596786932332,0.4571417968322798,11.161702506380609,-1.4590581867509582,0.2305923795044598,-1.1777642771815984
2.04,-0.8333978331059708,-0.1028687086296121,1.628506818582237,-0.0308327442455523,0.1228468507287673,0.0260154738189801,0.6265759339139291,-0.1651952055668637,-0.038039176694909,-0.8384190750427325,-0.1021914523774525,1.6288650358407488,0.6962814410223137,-0.1622381391106741,-0.0561324615250691,0.7329383165751334,-0.2461194478120987,0.5240491778714648,0.4494399320097181,11.161702506380609,-1.455773475299765,0.2294391915174833,-1.1932100495261524
2.06,-0.8209141405249103,-0.1060670498842958,1.6278239925813325,-0.028870426767542,0.1262851220859644,0.0264876001456774,0.6220863487520162,-0.1551361955107623,-0.030781874329887,-0.8314562606325093,-0.1038138337685593,1.628303711225498,0.7057532106532227,-0.1545984754441873,-0.0571920677307411,0.6595613994393751,-0.2244792580956445,0.5029505028050676,0.3628651182511011,11.082406693873963,-1.452812240179028,0.2285932777097319,-1.206787111445596
2.08,-0.8085165853245497,-0.1090685192227539,1.6272691518182705,-0.0272814829386889,0.129277287168689,0.026948983925555,0.6179411606877759,-0.1454810549936291,-0.0250824056274215,-0.8175306318120631,-0.1070585965507727,1.627181061994997,0.7246967499150406,-0.1393191481112139,-0.0593112801420852,0.5976793998120808,-0.2072594032120123,0.4827570258566629,0.284973435123274,10.994296585428856,-1.4504944011677217,0.2280713551169438,-1.2178890752491638
2.1,-0.7968128448920727,-0.1117450189630998,1.6268360251698069,-0.0261456085949187,0.1318051290022482,0.0273705069190638,0.6142820147114545,-0.1367177954563899,-0.0208104404819949,-0.8036050029916169,-0.1103033593329862,1.6260584127644953,0.7436402891768585,-0.1240398207782404,-0.0614304925534292,0.5206576447071094,-0.1829572988160721,0.4381629768619555,0.2135982572713329,10.92081750608122,-1.4483803879281087,0.2278625734866853,-1.2279636246890566
2.12,-0.7845654740011192,-0.1143865071843868,1.626458453693582,-0.0254443341406844,0.1342324830630007,0.0277853469480179,0.6106952192787943,-0.1278775622993438,-0.0172230934254011,-0.7887321972080796,-0.112784155748551,1.6248298029134267,0.7625838284386764,-0.1087604934452669,-0.0635497049647733,0.5096172157883353,-0.179339771633008,0.4420116578523064,0.1793673528296908,10.861897187727664,-1.446475955139256,0.2281473353392608,-1.2367118461175164
2.14,-0.7723858910342155,-0.1168527817979849,1.626148905773292,-0.0253277166825411,0.1364959346351694,0.0281621755517366,0.6074949443248102,-0.1191647457452408,-0.0139291248201319,-0.7738593914245425,-0.1152649521641158,1.623601193062358,0.7815273677004945,-0.0934811661122934,-0.0656689173761173,0.4924559910769911,-0.1600137476992058,0.4356408277051519,0.1646984302634563,10.817040274074316,-1.444582685082772,0.2289636918036431,-1.2440635704993497
2.16,-0.7602636286163982,-0.1191402689917297,1.6259027829460624,-0.0256822924317165,0.1385555488535386,0.0285092917825147,0.6049189646748496,-0.1100262199171258,-0.0108647616532544,-0.7585129971594599,-0.1173637653963563,1.622319602901006,0.8004709069623124,-0.0782018387793199,-0.0677881297874614,0.4988452843483932,-0.1287989824980295,0.4569262914057493,0.1532181583438782,10.81337486009852,-1.4425125212669645,0.2303396132971241,-1.2516083513488314
2.18,-0.748790487640985,-0.1211389377092672,1.625723210495282,-0.0262335452645443,0.1402377318849056,0.0288291226518129,0.6029164239229047,-0.1008476366796798,-0.0082040953728086,-0.7426930144128319,-0.1190805954452724,1.62098503242937,0.8194144462241303,-0.0629225114463465,-0.0699073421988054,0.4882000224442465,-0.1001270375972473,0.4589291618722971,0.1330333140222897,10.809954797617138,-1.441016050070098,0.2320321426944956,-1.258964475573754
2.2,-0.7367515813080228,-0.1230495445153835,1.625585974120431,-0.0268237520765213,0.1416910631923281,0.0291714170460044,0.6010888348545962,-0.0907118005806342,-0.0056806178689581,-0.7186446664448397,-0.1261813195432512,1.6253130057266414,0.6270264300913894,-0.0689520662226982,-0.0205968286188966,0.5301961758202256,-0.0913794534154244,0.506791804952282,0.1261738751925215,10.80411432109304,-1.4401394414142594,0.2337779140115156,-1.2660546548300338
2.22,-0.7246570703088825,-0.1247039971363891,1.6255277389126066,-0.0257575605601903,0.1401562949051501,0.0297055403203818,0.6081328182571825,-0.0759086042319698,-0.0002526351063654,-0.7186446664448397,-0.1261813195432512,1.6253130057266414,0.6270264300913894,-0.0689520662226982,-0.0205968286188966,0.8634455993055192,0.3521991701293137,0.740159817433221,0.2713991381296389,10.796899877264876,-1.432097643058269,0.2328762653427133,-1.2701374218439117
2.24,-0.7130602334480274,-0.1260226313514079,1.6255652906455975,-0.0226549035523612,0.1340657786860813,0.0304601189779514,0.6115242787586765,-0.0641479349229112,0.0039772250292188,-0.7186446664448397,-0.1261813195432512,1.6253130057266414,0.6270264300913894,-0.0689520662226982,-0.0205968286188966,0.6475088101656075,0.169573025074704,0.58803346545293,0.2114930067792129,11.026964043767292,-1.4486100102701815,0.2312574685474725,-1.2740818971863466
2.26,-0.7008443775090644,-0.1272073989300476,1.6256779303957969,-0.018689290067751,0.1250288404907808,0.0313209646401881,0.6093772430843136,-0.0551134729247448,0.0070152304442566,-0.7123744021439258,-0.1268708402054782,1.6251070374404524,0.6318484313250863,-0.0625729521313019,-0.0230753752681142,0.4885200678710608,-0.1073517837181459,0.4517230999083188,0.1519002707518894,10.929322460381629,-1.4649416869627652,0.228467758321004,-1.2712888929016022
2.28,-0.6893326703194476,-0.1281870046220206,1.6258231227005522,-0.0151682705220348,0.1158489396198893,0.0320850670250295,0.6022809164500322,-0.0484129296413594,0.0081392470038301,-0.699833873542098,-0.1282498815299322,1.6246951008680746,0.6414924337924802,-0.0498147239485092,-0.0280324685665494,0.4912192616824175,-0.3548163317140695,0.3350271641692687,0.0562008279786746,10.70619230397824,-1.4808114506928651,0.2254319663655183,-1.2639140778591844
2.3000000000000003,-0.6774051761678795,-0.1290933469456846,1.6259841069716872,-0.0120441124202979,0.1070200219564515,0.0327908393293014,0.5906632551350907,-0.0425183012892359,0.007838977484535,-0.6872933449402703,-0.1296289228543861,1.6242831642956963,0.651136436259874,-0.0370564957657165,-0.0329895618649846,0.651549805507159,-0.5808830657470787,0.2947314176061786,-0.0150134759647528,10.70619230397824,-1.4936576242211013,0.2227483083975146,-1.254253275209073
2.32,-0.6657478378297988,-0.1298901913575827,1.6261245348125382,-0.0095950511078455,0.1001189756238284,0.0333909999105034,0.5755226108387068,-0.0373781701297881,0.006169100080094,-0.6742706162150728,-0.1303700527697004,1.6236233730583969,0.6607804387272679,-0.0242982675829239,-0.0379466551634198,0.8038167524252795,-0.7570322148191921,0.2570065579723887,-0.0834938702220512,10.53944593110282,-1.5026125978706175,0.2205768794173014,-1.2441849083751988
2.34,-0.654427621493586,-0.1305904091473126,1.626221234143566,-0.0078135480154764,0.0963017585876723,0.0338919737697469,0.5572742870625869,-0.0327716298779259,0.0035988052890759,-0.6612478874898753,-0.1311111826850148,1.6229635818210972,0.6704244411946618,-0.0115400394001312,-0.042903748461855,0.9497735901819796,-0.9124161888059978,0.2303270125931109,-0.1285147395509072,10.505140643504092,-1.5072911509920988,0.2190977776428012,-1.236322040140756
2.36,-0.6440214908945767,-0.1311719473891786,1.626262108044063,-0.0066552015334502,0.0962191156663598,0.0342905869316967,0.539506339013038,-0.0286182892091354,0.0008476995265604,-0.647984058702993,-0.1315333568957593,1.622179863251337,0.6800684436620557,0.0012181887826614,-0.0478608417602903,0.9226575739664212,-0.8883974024774421,0.2076670334395238,-0.1375552881257706,10.505140643504092,-1.5035585819694397,0.2177172664718407,-1.2311707259912534
2.38,-0.6334109342448807,-0.1317009533045023,1.6262493748391071,-0.0060127122758108,0.0991140245332904,0.0346424826362513,0.5228345104928586,-0.0244696577712359,-0.0019652877173801,-0.6344791298544258,-0.131636575401934,1.6212722173491152,0.6897124461294496,0.013976416965454,-0.0528179350587255,0.8704508978804743,-0.8335914260089727,0.2074315718949724,-0.1406493621970322,10.471674234359853,-1.4962243806930142,0.2169878499673274,-1.2300949618883166
2.4,-0.6231083296207564,-0.1321477216419437,1.6261835478420823,-0.0060172995582801,0.1040788602254647,0.0349298506143087,0.5086255467298902,-0.0203555184553665,-0.0044762351109952,-0.6072692087202378,-0.1329244361930641,1.6261511104532382,0.5407883589591357,0.0096822949424919,-0.0188604738734146,0.7502093880064945,-0.7104481881484159,0.2057069657934703,-0.125547369680755,10.462473395940831,-1.4867891171497534,0.2170153338160186,-1.2322367207838762
2.42,-0.6135283032114753,-0.1324881394054987,1.6261186990311864,-0.0064601269785814,0.1090715761016216,0.0351626529733952,0.5006739628573105,-0.0156777873558919,-0.0019874040407544,-0.6072692087202378,-0.1329244361930641,1.6261511104532382,0.5407883589591357,0.0096822949424919,-0.0188604738734146,0.477763368253204,-0.3975791936289885,0.2338865549737315,0.1244415535120384,10.470825954305838,-1.4750319593397192,0.2173248574019876,-1.2352303299303466
2.44,-0.6035926056362058,-0.1327538843854379,1.6261039532341048,-0.007406481840391,0.1133380684810538,0.0353710653327805,0.4933290248879146,-0.011076845274503,0.0002962811359672,-0.6072692087202378,-0.1329244361930641,1.6261511104532382,0.5407883589591357,0.0096822949424919,-0.0188604738734146,0.4481406023698009,-0.3672468984697946,0.2300471040694434,0.1141842588360891,10.791505202258122,-1.46953970547965,0.2189018540552462,-1.2423624646533606
2.46,-0.5937984561930862,-0.1329239475439792,1.626123000023867,-0.0089685919858001,0.1167706467304217,0.0355324273249299,0.4864781421283521,-0.0060874377330212,0.0014412769260156,-0.6018613251306465,-0.1328276132436391,1.6259625057145042,0.5443791286523911,0.0165126854852375,-0.0222395111046215,0.4276090432845559,-0.3425441379781208,0.2494703770740898,0.0572497895024151,10.740455594265768,-1.4653019348995673,0.2210428017820896,-1.247687575736815
2.48,-0.5841380657933423,-0.132986631003311,1.626153224313617,-0.0109998067611597,0.11951558324722,0.0356573758635725,0.4799135181069219,-0.000293790839654,0.0015197453421569,-0.5910455579514637,-0.1326339673447893,1.6255852962370358,0.5515606680389019,0.0301734665707287,-0.0289975855670353,0.4377978704839005,-0.3282312010715132,0.2896823446683636,0.0039234208070661,10.681118449330825,-1.4616453330832482,0.2238257575529628,-1.2521447202930485
2.5,-0.5750809606715601,-0.1329263570061524,1.626175088062153,-0.0129722456844088,0.1216405246867518,0.0357703656944471,0.4738106764916428,0.0063547171960292,0.0007743261623459,-0.580229790772281,-0.1324403214459395,1.6252080867595675,0.5587422074254128,0.0438342476562199,-0.035755660029449,0.4527774967778225,-0.3051420807639537,0.3324254017841604,-0.0372709589905498,10.628972213789892,-1.4587135568170615,0.2266931930433727,-1.2557802690381556
2.52,-0.565671487434171,-0.1327192157821976,1.6261757448459453,-0.0148097444809925,0.1235222115250805,0.0359035257957526,0.4674815242968356,0.0139968722271103,-0.0007015798545061,-0.5690549466237728,-0.1315636364928151,1.6244929735589786,0.5659237468119237,0.057495028741711,-0.0425137344918628,0.5015949551049411,-0.3164576097403587,0.3821077515540562,-0.0737953008426035,10.585387713252205,-1.4564515714311796,0.2292895481719925,-1.2585827100540554
2.54,-0.5563874127012527,-0.1323532051172331,1.6261423437432072,-0.0162875694047623,0.1251744279530806,0.0360589877435733,0.4612729416233925,0.0222015962482332,-0.0025799281221059,-0.5578801024752644,-0.1306869515396907,1.6237778603583894,0.5731052861984345,0.0711558098272023,-0.0492718089542766,0.5229536004517134,-0.3104291336721548,0.4102362010561453,-0.0939174133799883,10.548882730145124,-1.4544675356593193,0.2314643116750298,-1.2609405444512298
2.56,-0.547225105474728,-0.1318137180853081,1.626067749448023,-0.0171474628760048,0.1266682794385537,0.0362545211348381,0.4553009104995042,0.0312388988564502,-0.0047867377945823,-0.5465257198420934,-0.129468747059429,1.62289379529624,0.5802868255849454,0.0848165909126934,-0.0560298834166904,0.5527386432748153,-0.2986015561944166,0.4518651304108528,-0.1103404836238228,10.53163083909294,-1.4527001588873882,0.2328801011993109,-1.2633401064868583
2.58,-0.5386295126383781,-0.1311283274786784,1.625953184894027,-0.0171169115605958,0.1279608338151109,0.0364964694740355,0.4498246518986551,0.0403396338920125,-0.0071628632036373,-0.5349917987242596,-0.12790902305203,1.6218407783725306,0.5874683649714562,0.0984773719981846,-0.0627879578791042,0.5441938037373283,-0.2738129300424552,0.4550367517781121,-0.11880627045275,10.504855579953984,-1.4511850171618763,0.2333676181068907,-1.2659096048020424
2.6,-0.5296919165520632,-0.1302196794672769,1.6257808980625912,-0.0160279091367493,0.1292120218623558,0.0368210342502781,0.4442521459876585,0.0499500302427107,-0.0099534121896993,-0.5161382800434453,-0.1291113457840778,1.6255950417338452,0.4608496410863725,0.0611063224027881,-0.0190025277448222,0.572712196022613,-0.2786252955498308,0.4805198175349113,-0.1395274493030992,10.504855579953984,-1.4499545539580354,0.2325991765888145,-1.2684236256357095
2.62,-0.5208151884656791,-0.129056239937025,1.6256317148992736,-0.0117800345348928,0.1291449649565567,0.0373762725532609,0.4435384222515965,0.0641721162340747,-0.0047981130416309,-0.5161382800434453,-0.1291113457840778,1.6255950417338452,0.4608496410863725,0.0611063224027881,-0.0190025277448222,0.7572222936879979,-0.0356861868030966,0.7111042995681993,0.2577649574034214,10.490028917666676,-1.4444660578908133,0.2280695340400553,-1.2724467992898
2.64,-0.5124012327173025,-0.1277584876844866,1.6255803628945342,-0.0057644579331156,0.1270086561753748,0.03804297969417,0.4420295141310918,0.0714055005868871,-0.000881318583709,-0.5161382800434453,-0.1291113457840778,1.6255950417338452,0.4608496410863725,0.0611063224027881,-0.0190025277448222,0.4181504864795815,-0.0754454060252346,0.361669217640622,0.1958397228960931,10.892628789168157,-1.4494637230649088,0.2216152671164497,-1.2772246573277932
