t,x,y,z,roll,pitch,yaw,v_x,v_y,v_z,ref_x,ref_y,ref_z,ref_v_x,ref_v_y,ref_v_z,a_com,a_x,a_y,a_z,thrust,wind_x,wind_y,wind_z
0.0,0.7041134259481056,-2.4641841453154383,2.883441689139842,0.0109203647237213,0.1363218574572712,0.0256708307750803,0.0040433344167828,-0.0009967416633344,0.0076536702114186,0.7042383460024905,-2.4643050391057124,2.8836736732613795,-0.0709376525781562,0.0967573158027278,-0.0922868666138891,0.4356624692767462,0.2021667208391421,-0.0498370831667249,0.3826835105709327,10.547253052135602,-1.2860800676704054,0.1654098202643354,-1.1687875762935958
0.02,0.7042914205660478,-2.4644416015160995,2.883371749375968,0.0020748499092912,0.132482329953565,0.025050183563556,0.0133689472534195,-0.0203701747236549,-0.0156176287749494,0.7042383460024905,-2.4643050391057124,2.8836736732613795,-0.0709376525781562,0.0967573158027278,-0.0922868666138891,1.5841798507701823,0.466280641831837,-0.9686716530160204,-1.1635649493184037,10.54675801673966,-1.2873726184548762,0.1735363421293153,-1.150584060432792
0.04,0.7046018358292051,-2.4648328709666085,2.88280416304576,-0.0130411073346104,0.1218671849204016,0.024117200880042,0.0177249336002839,-0.0191956564698848,-0.0427197938796925,0.7042383460024905,-2.4643050391057124,2.8836736732613795,-0.0709376525781562,0.0967573158027278,-0.0922868666138891,1.3737553125896065,0.2177993173432204,0.0587259126885047,-1.3551082552371587,9.177884315759911,-1.3120397064475091,0.1906634474218248,-1.1243436132208118
0.06,0.70492799394897,-2.465139577331157,2.8816518056815985,-0.0294057600072156,0.1062928288509554,0.02343152241833,0.0138623677918006,-0.0111600647529802,-0.0710199061961305,0.703528969476709,-2.463337465947685,2.8827508045952404,-0.0859519016645362,0.116757316100751,-0.1122868669119123,1.4835653895166314,-0.1931282904241655,0.4017795858452258,-1.415005615821899,8.946179347261932,-1.3370963997543452,0.2072646724199522,-1.087745426068171
0.08,0.70509264500916,-2.465246665181942,2.8799423613307957,-0.045121738945351,0.089326084560967,0.0231573957415231,0.0023446249754679,0.0003754111547215,-0.0984659965681525,0.7021102164251458,-2.4614023196316306,2.8809050672629626,-0.1159803998372963,0.1567573166967974,-0.1522868675079588,1.5960995275276166,-0.5758871408166377,0.5767737953850939,-1.3723045186010987,8.912852945050872,-1.3571364615627002,0.2214570067330948,-1.0507569025633403
0.1,0.7049739951633357,-2.465107826364663,2.877817325204345,-0.0593263806587052,0.0740182366615779,0.0232059319879716,-0.0144142447162764,0.0139331564296987,-0.1238364817174871,0.7006914633735827,-2.459467173315576,2.879059329930685,-0.1460088980100563,0.1967573172928439,-0.1922868681040052,1.6645822952009903,-0.8379434845872176,0.677887263748857,-1.2685242574667293,8.960338645401407,-1.3726843406857554,0.2347315246297284,-1.0129469921765692
0.12,0.7044588082423713,-2.464657031029692,2.8750625980928564,-0.0735428945405424,0.060113105940385,0.0234495104448322,-0.0363640128905463,0.0307322637803263,-0.1502880555238266,0.6977712854133815,-2.455532026969719,2.875213592568605,-0.1760373961828163,0.2367573178888903,-0.2322868687000517,1.912908837029567,-1.097488408713494,0.8399553675313791,-1.322578690316973,8.960338645401407,-1.3821688006946151,0.2464225617200501,-0.9777929126502776
0.14,0.7034683923821049,-2.463832693216617,2.871773241089334,-0.0866668407002005,0.0492273771031519,0.0237724630380579,-0.0615622672903169,0.0509334075109417,-0.1773317793995016,0.6948511074531803,-2.451596880623862,2.8713678552065245,-0.2060658943555763,0.2767573184849368,-0.2722868692960982,2.106182111003404,-1.2599127199885325,1.0100571865307744,-1.3521861937837512,8.94864690500799,-1.3869190884869906,0.2565115397193069,-0.9469592871339751
0.16,0.7019410862236166,-2.46255966340095,2.8679359255815653,-0.0977846787623899,0.0420178449373087,0.0240732082368515,-0.0897832777686287,0.0748823898592522,-0.2049787993604109,0.6911802170386603,-2.4466617342631043,2.8665221178295432,-0.2360943925283363,0.3167573190809832,-0.3122868698921446,2.3099442096377496,-1.411050523915587,1.1974491174155246,-1.382350998045466,8.94864690500799,-1.3891813422417925,0.2642985063909929,-0.9234451221887092
0.18,0.6999440036165838,-2.460887500930046,2.863775064442055,-0.1061249400227484,0.0393603631065737,0.0241834345565762,-0.1186979911971121,0.0994412807836224,-0.2315349975919201,0.6867586141698211,-2.440726587887445,2.860676380437661,-0.2661228907010963,0.3567573196770296,-0.352286870488191,2.315400311284016,-1.4457356714241731,1.2279445462185088,-1.3278099115754616,8.943227132966513,-1.3848400311939753,0.2700565305313847,-0.9050661325550244
0.2,0.6972608266186621,-2.458617063629653,2.8588482299473394,-0.1127929835899921,0.0409182746755722,0.0240131120769327,-0.1475994083100897,0.1260165198265343,-0.2596886025046587,0.6940091040567282,-2.455915436890865,2.852198314562459,-0.1686676829803019,0.1994412822737385,-0.3315349990820363,2.4156576283223576,-1.4450708556488805,1.328761952145592,-1.4076802456369288,8.940008380713152,-1.3755473859064702,0.2741864719822615,-0.8962939573585434
0.22,0.693985219258433,-2.4556671559745498,2.8535145395246686,-0.1136665689872292,0.0472654276813217,0.0237101720179215,-0.1777583832301247,0.1661653209372705,-0.2711382970858951,0.6940091040567282,-2.455915436890865,2.852198314562459,-0.1686676829803019,0.1994412822737385,-0.3315349990820363,2.5751628612868096,-1.507948746001747,2.0074400555368133,-0.5724847290618174,8.913718248977148,-1.3584708168694015,0.274766788863035,-0.9046805717024008
0.24,0.6903703314245189,-2.45219257812963,2.848249609207064,-0.1085397902614258,0.0573479596655433,0.0234093571385835,-0.2005998863221524,0.1962941490773442,-0.2824171742468667,0.6940091040567282,-2.455915436890865,2.852198314562459,-0.1686676829803019,0.1994412822737385,-0.3315349990820363,1.972747841596521,-1.1420751546013852,1.5064414070036836,-0.5639438580485795,10.027813523514396,-1.3406895704961883,0.2705057446231071,-0.9206782183092508
0.26,0.686151853204571,-2.44799698926481,2.8424475768176016,-0.1014795187879538,0.0699383316851418,0.0230711994482544,-0.2195206680329977,0.221370577518112,-0.2973385226558565,0.6923224272269252,-2.4539210240681277,2.8488829645716387,-0.1786616213369398,0.2194412825717618,-0.3515349993800595,1.7388716759991736,-0.9460390855422676,1.2538214220383896,-0.7460674204494894,9.539377311224598,-1.324400387537558,0.2648469759679894,-0.9389966292260514
0.28,0.6815991376598647,-2.4433395172153194,2.8363130017397404,-0.0945262924423833,0.0832606010402172,0.0227463605352269,-0.2343857778914913,0.2430451530784982,-0.3155203345602043,0.6889490735673192,-2.4499321984226525,2.842252264589998,-0.1986494980502158,0.2594412831678082,-0.3915349999761059,1.597918177624451,-0.7432554929246784,1.083728778019312,-0.9090905952173906,9.539377311224598,-1.3099521584061795,0.2594128749470748,-0.9558251271563174
0.3,0.6767845655879958,-2.4382731053489053,2.8297814660674456,-0.0883389410191184,0.0965974721981763,0.0224578071607633,-0.2459622837465841,0.2626146828300718,-0.3367407413886804,0.6855757199077132,-2.4459433727771778,2.8356215646083576,-0.2186373747634917,0.2994412837638547,-0.4315350005721524,1.5550624171369736,-0.5788252927546395,0.9784764875786778,-1.0610203414238044,9.35332975932306,-1.2956225231695266,0.2541623882236803,-0.9719840779003648
0.32,0.6720232904613376,-2.433111332229277,2.8231597527231367,-0.0833241322351842,0.1089324488195971,0.0222257985235706,-0.2543710177347619,0.2798904271470518,-0.3592498692933579,0.6812029724124433,-2.439954547101901,2.8269908645969144,-0.2386252514767676,0.3394412843599011,-0.4715350011681988,1.4797119550935736,-0.4204366994088881,0.8637872158490018,-1.1254563952338783,9.202993434169912,-1.282946850625615,0.2496956287948039,-0.9866995479192074
0.34,0.6668647395961119,-2.4273335438212365,2.815712020628613,-0.0789866948042891,0.1213745653787647,0.0220230783401337,-0.2607632037642027,0.2970912024976979,-0.3844309789359008,0.6768302249171735,-2.4339657214266235,2.8183601645854712,-0.2586131281900435,0.3794412849559476,-0.5115350017642454,1.5578952128819004,-0.319609301472043,0.8600387675323007,-1.2590554821271442,9.079878046774866,-1.271336269161076,0.2460138367207118,-0.9996117112905868
0.36,0.6616023316086023,-2.421209279888962,2.807747887164126,-0.0752758701102079,0.1331697814716944,0.0218779792366385,-0.2648985561950353,0.3144417566240814,-0.4107381825563665,0.6719577805040718,-2.4269768957364453,2.808729464559127,-0.2786010049033194,0.419441285551994,-0.5515350023602917,1.5891914851178268,-0.2067676215416258,0.8675277063191794,-1.315360181023284,9.00977608647372,-1.2615514522732334,0.2430155852575641,-1.010309089188399
0.38,0.6565460702019054,-2.4150722210427045,2.799685862149177,-0.0719678593876424,0.1437460056205895,0.021811939273478,-0.266926078472332,0.3306185492925766,-0.4365925646214584,0.6665856391731382,-2.418988070031366,2.798098764517882,-0.2985888816165953,0.4594412861480405,-0.5915350029563382,1.5282739770670684,-0.1013761138648372,0.8088396334247572,-1.2927191032545942,8.968945595399418,-1.2525769596951195,0.2400610055166492,-1.0201032767262366
0.4,0.6512008909142122,-2.408286673140752,2.790658144910208,-0.0686255553827084,0.1542186688700887,0.0218172055882976,-0.2672702688380005,0.3470084177737635,-0.4648817067709012,0.6431997662782888,-2.3985412935780754,2.7778562339181043,-0.2850591841824808,0.4306185507826927,-0.5365925661115745,1.6347949560952613,-0.0172095182834258,0.8194934240593449,-1.414457107472139,8.931468979019883,-1.2440409738988338,0.2373376263150989,-1.0301116043611456
0.42,0.6459049991240626,-2.401169121885092,2.781263632971461,-0.0655537055529249,0.163931346172936,0.0218889522319797,-0.26191787189867,0.36399888351037,-0.4721252895215644,0.6431997662782888,-2.3985412935780754,2.7778562339181043,-0.2850591841824808,0.4306185507826927,-0.5365925661115745,0.9615008710457053,0.2676198469665242,0.8495232868303254,-0.3621791375331612,8.881363696907101,-1.2281592864034336,0.2343019677543962,-1.0394847966172145
0.44,0.6407334659440577,-2.3937292880361265,2.7717218974854614,-0.0632150696249613,0.1728728758681312,0.0219862086819047,-0.2553501448631325,0.3794071098750325,-0.4818573292344542,0.6431997662782888,-2.3985412935780754,2.7778562339181043,-0.2850591841824808,0.4306185507826927,-0.5365925661115745,0.9685828244028448,0.3283863517768742,0.7704113182331274,-0.4866019856444914,9.88247079390112,-1.2259018844253,0.2332125598074026,-1.0499027302365227
0.46,0.63594865824587,-2.386375573326186,2.7624337248452964,-0.0616360203258394,0.180783695166671,0.0220869755505621,-0.2484922021824901,0.3939734850393428,-0.4953758075771911,0.640349174436464,-2.3942351080702484,2.7724903082569887,-0.2886858053245106,0.4506185510807159,-0.5565925664095976,1.051142140651608,0.3428971340321204,0.7283187582155126,-0.6759239171368447,9.88247079390112,-1.2238654936820847,0.2326258115628945,-1.059348952109625
0.48,0.6310608024585215,-2.3783404926514726,2.7523432754478283,-0.0605209028319486,0.1885807608517012,0.0221991997533175,-0.2405198600504003,0.4087847472716874,-0.51312930108511,0.6346479907528143,-2.385622737054595,2.761758456934757,-0.2959390476085701,0.4906185516767624,-0.5965925670056441,1.2228228200787008,0.3986171066044902,0.7405631116172318,-0.8876746753959441,9.653162973153483,-1.2207389882874096,0.2324587485745318,-1.0679891994104604
0.5,0.6263491900881142,-2.3700136428010574,2.741863684888177,-0.0600489960837501,0.1956138842034565,0.0223198366969071,-0.230975570317664,0.4232148400668362,-0.5339442415377873,0.6289468070691647,-2.377010366038941,2.751026605612525,-0.3031922898926296,0.5306185522728089,-0.6365925676016906,1.3533133327388758,0.4772144866368177,0.7215046397574365,-1.0407470226338644,9.331759400597548,-1.2175737351736815,0.2327389887656965,-1.0744013071666727
0.52,0.6220631997342408,-2.361838078629188,2.7315012254411477,-0.0602477921592828,0.2012240415347889,0.0224562800599244,-0.2206761659629083,0.4367074111792842,-0.5558006614902925,0.6228829612713122,-2.366397994993485,2.738294754260492,-0.3104455321766892,0.5706185528688553,-0.676592568197737,1.3836819526425623,0.5149702177377826,0.6746285556224002,-1.09282099762526,9.331759400597548,-1.2154541596170436,0.2336623034647093,-1.079115995638692
0.54,0.6177724153813722,-2.352956613094256,2.720134642543224,-0.0612392642590369,0.205814719649468,0.0226244683569051,-0.2089586075115698,0.4507999345782408,-0.5797500258022151,0.6168191154734596,-2.3557856239480284,2.725562902908458,-0.3176987744607487,0.6106185534649018,-0.7165925687937835,1.5078730407065684,0.5858779225669255,0.7046261699478334,-1.1974682155961314,9.2292513882212,-1.213432891235297,0.2354851363523695,-1.083951816959325
0.56,0.6137231230461663,-2.343779668457118,2.708284157475605,-0.0627395386132084,0.2090088638703026,0.0228419433119182,-0.1966072275982327,0.4661886622226051,-0.6041033730429576,0.6105739386185055,-2.3441732528876718,2.7118310515415227,-0.3249520167448082,0.6506185540609482,-0.7565925693898299,1.5672069471708143,0.6175689956668534,0.7694363822182138,-1.2176673620371226,9.18986444195616,-1.212515764026057,0.2378798743926791,-1.087697815480621
0.58,0.6099246116292214,-2.3342811014083336,2.6959437619503173,-0.0640989906306748,0.2108190566089999,0.0231575002363526,-0.1839912223511901,0.4827853615377219,-0.6286999244791671,0.6041474307064499,-2.3315608818124125,2.6970992001596867,-0.3322052590288677,0.6906185546569946,-0.7965925699858764,1.6121448128998124,0.6308002623521338,0.8298349657558407,-1.2298275718104767,9.183949710167326,-1.2133206810117323,0.2401400609152462,-1.0903179784100443
0.6,0.6065491073179392,-2.32493996267664,2.6837624310133843,-0.064787305296343,0.2113587493718469,0.0235782872406691,-0.1720617571642059,0.4995177877383161,-0.6522954283618546,0.6007250505116619,-2.310141833331448,2.664508765726359,-0.2222175176137652,0.5827853630278381,-0.7286999259692832,1.5644759743151362,0.5964732593492075,0.8366213100297087,-1.1797751941343748,9.180300889739556,-1.2156676469498178,0.2420185543706189,-1.0924140261696522
0.62,0.6032932780366945,-2.314713343107916,2.6706653596716183,-0.0635311277989822,0.2104511490691248,0.0242578165553307,-0.1539671851184958,0.5219913579664248,-0.6550252848681225,0.6007250505116619,-2.310141833331448,2.664508765726359,-0.2222175176137652,0.5827853630278381,-0.7286999259692832,1.4490747158617625,0.904728602285504,1.1236785114054348,-0.1364928253133945,9.172965194114113,-1.2185825518523894,0.240855274399858,-1.083370998261708
0.64,0.6004062005878614,-2.3040605265864835,2.6575200710979807,-0.0599174651764061,0.2074046128829973,0.0252292208117628,-0.1358132938316362,0.5416352174876461,-0.6596704797645374,0.6007250505116619,-2.310141833331448,2.664508765726359,-0.2222175176137652,0.5827853630278381,-0.7286999259692832,1.3574082117865949,0.9076945643429812,0.9821929760610636,-0.2322597448207453,10.256684707883323,-1.2270265047766633,0.2395346973502201,-1.0893231919227186
0.66,0.5979875728627387,-2.2936079569586183,2.64489708372215,-0.0557073049260321,0.2020564715846959,0.0263286537665274,-0.1201756571079789,0.5574376675499326,-0.6687283066568543,0.5985028753355243,-2.304313979701169,2.657221766466666,-0.2298627766662802,0.6027853633258613,-0.7486999262673064,1.2003096874174946,0.7818818361828628,0.7901225031143266,-0.4528913446158467,10.256684707883323,-1.2395902625930866,0.2372510739419329,-1.0914602123434387
0.68,0.5957248189564328,-2.2823047502503173,2.6313885523364906,-0.0513214741005168,0.1943641122441407,0.0275563714884825,-0.1073705538348596,0.5719659446861382,-0.6817593598030861,0.594058524983249,-2.2926582724406126,2.6426477679472806,-0.2451532947713103,0.6427853639219078,-0.7886999268633529,1.1671009515906932,0.6402551636559672,0.7264138568102763,-0.6515526573115882,9.980963982929095,-1.2531735442034129,0.2347101942875927,-1.0890654577040424
0.7000000000000001,0.593679171664237,-2.2707257701170764,2.617587455543481,-0.0473141870152346,0.1853914314923886,0.0287738768700813,-0.0982227453096568,0.5851673179008612,-0.6977765861674514,0.5896141746309737,-2.281002565180056,2.628073769427895,-0.2604438128763404,0.6827853645179542,-0.8286999274593994,1.1341408598312404,0.4573904262601375,0.6600686607361517,-0.8008613182182656,9.752800935168125,-1.2663666955390485,0.2322449811305453,-1.0832504602023345
0.72,0.5917792287708638,-2.2588946229643723,2.603437604854052,-0.0437960341040457,0.1758477774977931,0.0299342546988905,-0.0925419849924051,0.5973192957272733,-0.716345763058508,0.5844052983734468,-2.2673468578896965,2.611499770878707,-0.2757343309813704,0.7227853651140007,-0.8686999280554458,1.1453775941660258,0.2840380158625893,0.6075988913206043,-0.9284588445528263,9.569982314111256,-1.2782325772970151,0.2301345518715618,-1.0755551330565996
0.74,0.5900504519910783,-2.24743811907523,2.589641046113309,-0.0409456142376429,0.1667969523954017,0.0309589309786441,-0.089929670909492,0.6080843659805557,-0.7349595032220737,0.57919642211592,-2.2536911505993373,2.594925772329519,-0.2910248490864005,0.7627853657100472,-0.9086999286514924,1.0830307536060937,0.1306157041456514,0.5382535126641219,-0.930687008178288,9.421117394997964,-1.2895306649223983,0.2281746005736534,-1.065499075695795
0.76,0.588256160767815,-2.235156815065273,2.574727562016743,-0.0382394183466261,0.1577475476552541,0.0319579533967165,-0.0898434715081038,0.6193982097738124,-0.7554287051624777,0.5736052829057674,-2.2390354432940773,2.5773517737654297,-0.3063153671914305,0.8027853663060935,-0.9486999292475388,1.169400187908371,0.0043099700694132,0.5656921896628364,-1.0234600970202012,9.350312009033589,-1.2992804872829256,0.2263936349684153,-1.055436110619574
0.78,0.5864383844261452,-2.2226523829316998,2.559396218345623,-0.0355772084261532,0.1495492321916597,0.03288392993834,-0.0920798141315141,0.6303636371854985,-0.7766963442570233,0.5676318807429891,-2.223379735973916,2.558777775186439,-0.3216058852964606,0.84278536690214,-0.9886999298435852,1.2016179710145811,-0.1118171311705176,0.5482713705843023,-1.0633819547272771,9.285901750658011,-1.3072483994372115,0.2245435897410896,-1.04592352771995
0.8,0.5845551603404634,-2.2099343939874783,2.5436305519825453,-0.0328758057901186,0.1424398503692488,0.0337385383801226,-0.0962193284771793,0.6407687012853805,-0.7988283372891503,0.5818343937195695,-2.1911342010724244,2.520561401132772,-0.1772244903996149,0.7303636386756146,-0.8544577782756352,1.24018753976439,-0.2069757172832614,0.5202532049941033,-1.1065996516063492,9.17429603776418,-1.312998218825156,0.222641174109426,-1.03758868241972
0.8200000000000001,0.5827580782856667,-2.197644109423051,2.5285516076975134,-0.0299938358642517,0.1356047380659882,0.0345410380427526,-0.0931661257356267,0.6520966230795331,-0.787282576016736,0.5818343937195695,-2.1911342010724244,2.520561401132772,-0.1772244903996149,0.7303636386756146,-0.8544577782756352,0.8230256109548494,0.1526601370776314,0.566396089707627,0.5772880636207123,9.17429603776418,-1.316252753913393,0.2189059750965878,-1.010281119929648
0.84,0.5809050193156923,-2.184502766796216,2.512892265688141,-0.0270964852188877,0.1273403380307963,0.0353682324465528,-0.0927303496601581,0.661482760588618,-0.7796653677471697,0.5818343937195695,-2.1911342010724244,2.520561401132772,-0.1772244903996149,0.7303636386756146,-0.8544577782756352,0.6047961225680756,0.0217888037734322,0.4693068754542451,0.3808604134783178,11.182484243678118,-1.3283322439978589,0.2178055725013216,-1.009631360725426
0.86,0.579023663533737,-2.171184257078582,2.497317647037605,-0.0247879394820092,0.1183928882271077,0.0361336728603743,-0.0957884069589529,0.6699540965925374,-0.778409545144696,0.5800621488155733,-2.1838305646856684,2.5120168233500157,-0.194253425653235,0.7503636389736378,-0.8700100650793575,0.454676639335299,-0.1529028649397419,0.423566800195968,0.0627911301236849,10.744301699352944,-1.3388800770624911,0.2168652997974786,-1.005638001395962
0.88,0.577045399835296,-2.1577050630312087,2.4817086149974865,-0.023111432416077,0.1092233967528495,0.0368268207686783,-0.1021689317516843,0.6776502819882341,-0.7825060071603218,0.576517659007581,-2.169223291912156,2.494927667784503,-0.2283112961604753,0.7903636395696843,-0.9011146386868024,0.5401929454395463,-0.3190262396365703,0.384809269784836,-0.2048231007812928,10.375745140153413,-1.3482406319554254,0.2163584773856331,-1.0007080215151694
0.9,0.5750190584697847,-2.1447647052374874,2.466766884018808,-0.0222133032952787,0.1007059934186892,0.0374081799583126,-0.1109988564067517,0.6841985744407663,-0.7900755590844608,0.5729731691995887,-2.154616019138644,2.47783851221899,-0.2623691666677156,0.8303636401657307,-0.9322192122942472,0.6673563886528207,-0.4414962327533709,0.3274146226266095,-0.3784775962069497,10.091552209972178,-1.3563219988952933,0.2161551914955811,-0.992776898375574
0.92,0.5726791620484024,-2.131016939487266,2.450853189152593,-0.0222795512776983,0.0922694278786411,0.0379224181491332,-0.1227243649205053,0.6903170427663758,-0.8010149004603695,0.5677257858662345,-2.138008746335329,2.459194127973105,-0.2964270371749559,0.8703636407617772,-0.9633237859016918,0.8581847037442805,-0.5862754256876795,0.3059234162804791,-0.5469670687954342,9.875830531686915,-1.3623419604905422,0.2166056494364647,-0.9832061397331616
0.94,0.5700824274405363,-2.1171511946659782,2.434707577685124,-0.0236784166609987,0.0846272281218264,0.0383231401720728,-0.1365000196086375,0.6960799399590994,-0.8130132867280723,0.5624784025328802,-2.1214014735320146,2.44054974372722,-0.3304849076821963,0.9103636413578235,-0.9944283595091366,0.957785100074068,-0.6887827344066066,0.2881448596361802,-0.5999193133851388,9.651797270415043,-1.3661968124528896,0.2179429705005525,-0.9717465101862264
0.96,0.5671869615731543,-2.103159065220805,2.418316118820498,-0.0262541934538202,0.0781198076508056,0.0386240795407528,-0.1524027804867408,0.7030778416539187,-0.8255202347527759,0.5563795724368448,-2.103794200713798,2.421127745141149,-0.3645427781894365,0.95036364195387,-1.0255329331165812,1.070387991068107,-0.7951380439051664,0.3498950847409643,-0.6253474012351823,9.651797270415043,-1.3681748920478731,0.2200673261872879,-0.9617163559563476
0.98,0.564122344275331,-2.089716844931231,2.4025078940375586,-0.0289882866187462,0.073396894573589,0.0388634218376454,-0.1694429521718657,0.711565650721989,-0.8378721417212134,0.5494292955781285,-2.085186927880682,2.400928132214892,-0.3986006486966768,0.9903636425499166,-1.056637506724026,1.1346584944284814,-0.8520085842562475,0.4243904534035114,-0.6175953484218732,9.625491174841954,-1.3688563632679138,0.2225694295355804,-0.9534158050773974
1.0,0.5605280977225703,-2.0753824946216737,2.385606732808116,-0.0315929754645406,0.07054839218541,0.0390795567255914,-0.189159839113619,0.7213967970243472,-0.8516266698537946,0.5556501966667378,-2.054138562395132,2.360614286951498,-0.2264448222973979,0.8115656522121051,-0.880203051241601,1.298647481461213,-0.985844347087661,0.4915573151179131,-0.6877264066290634,9.56613806066798,-1.3674289180513832,0.2248427367843451,-0.9487838233239776
1.02,0.5564828844389428,-2.0607773408134697,2.368747287578724,-0.0318515158075935,0.0725485307275427,0.039302322167038,-0.2135567397898969,0.738113942153162,-0.8319186465922224,0.5556501966667378,-2.054138562395132,2.360614286951498,-0.2264448222973979,0.8115656522121051,-0.880203051241601,1.7769903522140318,-1.2198450338138975,0.8358572564407363,0.985401163078614,11.811206964435767,-1.3554858628407205,0.2234861634835819,-0.9339495282422698
1.04,0.552006716008875,-2.045860808265641,2.3523001867904223,-0.0288782664423788,0.0799422040769654,0.0395770149774341,-0.2321114404266701,0.7522807956964025,-0.813951738241846,0.5556501966667378,-2.054138562395132,2.360614286951498,-0.2264448222973979,0.8115656522121051,-0.880203051241601,1.4729107667359924,-0.9277350318386598,0.7083426771620271,0.8983454175188199,11.37734601673492,-1.3469201646369524,0.2218656374451717,-0.9526874992249582
1.06,0.547459162848137,-2.0314651670170205,2.336948376448916,-0.0247225845804651,0.0894553655076556,0.0398767421857645,-0.2451822863190297,0.7620901711082316,-0.8029221668093752,0.5533857484437638,-2.04602290587301,2.351812256439082,-0.2378451963225043,0.8315656525101283,-0.8886692331456786,0.9858020900464588,-0.65354229461798,0.4904687705914567,0.5514785716235371,10.968446085756112,-1.3365610137797403,0.2188392160642033,-0.9744474791125728
1.08,0.542444554366886,-2.0161396859050797,2.320962638711123,-0.0204221912527945,0.1006123669047401,0.0401905395369513,-0.2551723371973631,0.7699362071378959,-0.7964810510298878,0.5488568519978159,-2.029791592828768,2.33420819541425,-0.2606459443727172,0.8715656531061747,-0.9056015969538336,0.7121259902840953,-0.4995025439166675,0.3923018014832136,0.3220557889743736,10.968446085756112,-1.3240783072534978,0.2155346947816284,-0.9954517395247704
1.1,0.5372639333682452,-2.0006717616546594,2.305056169009182,-0.0167128551289464,0.1121032886974127,0.0404880096100523,-0.2620424844832653,0.7765292212633905,-0.7946929797282712,0.5443279555518679,-2.0135602797845262,2.316604134389418,-0.2834466924229301,0.9115656537022212,-0.9225339607619888,0.4844170671245649,-0.3435073642951119,0.3296507062747311,0.0894035650808255,10.657664911535903,-1.3120819091639149,0.2127471758453155,-1.0142455698758397
1.12,0.5319741837966289,-1.985081543548724,2.289142265349464,-0.0137532713113447,0.1234626404329249,0.0407598980447894,-0.2662682186597547,0.7823333260359627,-0.796805493051147,0.5386590217034093,-1.9953289667104817,2.2981534551741785,-0.3062474404731429,0.9515656542982676,-0.9394663245701438,0.3741897048312301,-0.2112867088244679,0.2902052386286102,-0.1056256661437882,10.41011626261752,-1.299370452544725,0.2103227870351406,-1.0321805713466383
1.14,0.526895164484035,-1.970167939480924,2.27396982897189,-0.0116417325476159,0.1338982504412047,0.0409886464269584,-0.2679084978835465,0.7874058930472037,-0.800215454953197,0.5329900878549506,-1.9770976536364373,2.2797027759589388,-0.3290481885233558,0.991565654894314,-0.9563986883782988,0.3164225505118321,-0.0820139611895892,0.2536283505620462,-0.1704980951025003,10.22264516695759,-1.2872700268559107,0.2084897954453118,-1.0475659110015585
1.16,0.5215391828843136,-1.9543595287133624,2.257918054112112,-0.0098722153480612,0.1443625989516755,0.0412112196409913,-0.2673460932194917,0.7931752765645386,-0.80485216676689,0.5267511353052367,-1.957866340547492,2.260828787648495,-0.3518489365735686,1.0315656554903605,-0.973331052186454,0.3711508507988572,0.0281202332027385,0.2884691758667457,-0.2318355906846481,10.163793068843916,-1.2761200438864737,0.2071068548974657,-1.0619534353142064
1.18,0.5162258796472147,-1.938434080696765,2.241761060670705,-0.0082596366501018,0.1539229828822997,0.0414349351263567,-0.2638754164047943,0.7990372098056009,-0.8106470902444887,0.5199421640542674,-1.937635027443645,2.241531490242848,-0.3746496846237815,1.0715656560864069,-0.9902634159946088,0.4471828400832645,0.1735338407348685,0.2930966620531161,-0.2897461738799345,10.08159571197666,-1.2663896040625742,0.2059136700801087,-1.0745819982759175
1.2,0.5112657487107202,-1.923197258153104,2.226294182437071,-0.0067620907515582,0.1617335732827281,0.0416559534817667,-0.2583814837580396,0.8044903859938862,-0.8171774504811791,0.5030321088269749,-1.898482220206485,2.2012287061584805,-0.2864884686835514,0.899037211295717,-0.822501107397871,0.5063744446763355,0.274696632337737,0.2726588094142668,-0.3265180118345201,10.08159571197666,-1.2582927228674028,0.2047361803025031,-1.0860972329460767
1.22,0.50618848916451,-1.9070187555644988,2.210116323632525,-0.0042807184799701,0.1691968582962542,0.0419574761426027,-0.2492180222098431,0.812536872750911,-0.7990460017161365,0.5030321088269749,-1.898482220206485,2.2012287061584805,-0.2864884686835514,0.899037211295717,-0.822501107397871,1.0925479520318715,0.4581730774098236,0.4023243378512398,0.906572438252129,10.041836463252366,-1.2522429664131132,0.202152255222428,-1.0828561130445982
1.24,0.5013155347531048,-1.8907144121945385,2.194318314772943,-0.0012129769671325,0.1765742709675637,0.0423064835733043,-0.238364616768561,0.817454087466159,-0.7820276353053255,0.5030321088269749,-1.898482220206485,2.2012287061584805,-0.2864884686835514,0.899037211295717,-0.822501107397871,1.0387494952120602,0.5426702720641066,0.2458607357623987,0.8509183205405502,11.698419597867542,-1.2494520410874457,0.2001378471962083,-1.1002366540653912
1.26,0.4966840954756246,-1.8743298088771465,2.178810690472757,0.0013725262488437,0.1833022383373645,0.0426269966702443,-0.2252706184435381,0.8209265802317295,-0.7696037196248081,0.5001672241401394,-1.889491848093528,2.193003695084502,-0.2910110791393028,0.9190372115937402,-0.8248719108285474,0.9190547847914804,0.6546999162511419,0.1736246382785244,0.6211957840258686,11.451024744839742,-1.2465878560468648,0.1985037221846401,-1.115379262597
1.28,0.492545185151663,-1.858707587138544,2.164274881338953,0.003101528672991,0.1883868548625435,0.0428770937199269,-0.2111411080616541,0.8235282475156712,-0.7611134087622985,0.4944374547664684,-1.871511103867613,2.1765536729365444,-0.3000563000508057,0.9590372121897868,-0.8296135176899003,0.8344116412630962,0.7064755190942004,0.1300833641970866,0.424515543125481,11.028076698930818,-1.2450173060925849,0.1975083247434882,-1.1299978725039683
1.3,0.4884886404949923,-1.842216076562428,2.149123433201729,0.0039441481052283,0.1919339102189291,0.0430580468584933,-0.195358761867551,0.825578654618779,-0.7545801660190857,0.4887076853927973,-1.8535303596416992,2.160103650788587,-0.3091015209623085,0.9990372127858332,-0.8343551245512533,0.8601887604193871,0.7891173097051535,0.1025203551553888,0.3266621371606382,11.028076698930818,-1.2458451571479423,0.1974896614206286,-1.1409190234993398
1.32,0.4847543105214519,-1.8256909899507057,2.1340811365086405,0.0033877862657475,0.1933736190382036,0.0431206212819787,-0.1791041978456457,0.8270402161059641,-0.749955233306801,0.4825256549735512,-1.8335496153859825,2.143416548297562,-0.3181467418738113,1.0390372133818797,-0.8390967314126062,0.8481406370941722,0.8127282010952669,0.0730780743592562,0.231246635614235,10.903173953243822,-1.2489764672735062,0.1988601365337974,-1.1479988092995912
1.34,0.4815119903019614,-1.809966759769526,2.119875167374163,0.0012883475464387,0.1926160584414779,0.0430539007129194,-0.163171333758178,0.8282988422770551,-0.74562381050394,0.476343624554305,-1.8135688711302655,2.1267294458065367,-0.3271919627853142,1.079037213977926,-0.8438383382739592,0.8279515706933245,0.7966432043733845,0.0629313085545479,0.2165711401430514,10.81328534523618,-1.253583789875158,0.2016706475414035,-1.1503428348534424
1.36,0.4784266023263863,-1.793365378539688,2.105014257099978,-0.0021551003721062,0.1892166192473525,0.0428955132621586,-0.1463642271213566,0.8321298310363622,-0.7406576352856035,0.4699354636122713,-1.792588126859648,2.1099238031439778,-0.336237183696817,1.1190372145739724,-0.848579945135312,0.8969646100524866,0.8403553318410708,0.1915494379653548,0.2483087609168266,10.84754553534458,-1.261320885619814,0.2059413679326586,-1.1499075598336153
1.38,0.4756646503743372,-1.7766611093345726,2.090259215528381,-0.0056543021834503,0.1829916891312343,0.0427540929658896,-0.1312135564646784,0.8381172016537587,-0.7350160827236906,0.46330117214745,-1.770607382574129,2.092999620309885,-0.3452824046083199,1.1590372151700188,-0.8533215519966649,0.8620013682791047,0.7575335328339108,0.2993685308698257,0.2820776280956449,10.84754553534458,-1.27445226598372,0.2105190677160959,-1.1466934591353082
1.4,0.4731727121110862,-1.7598237606807012,2.0756239679959725,-0.0086723728297304,0.1746928368215092,0.0426805120048372,-0.1192283333876715,0.84520619310532,-0.7287401794917137,0.4691039725511032,-1.7347552492518843,2.0535084113921966,-0.1936048636696402,0.9381172031438748,-0.7322860945324138,0.7636856902271121,0.5992611538503417,0.3544495725780638,0.3137951615988454,10.875307333458297,-1.2886674250836838,0.2144026677683821,-1.141950676145466
1.42,0.4710400214538151,-1.7436240353674823,2.0619693315032386,-0.0088998596513316,0.16491338253753,0.0428240074021817,-0.1064709117445279,0.8585818537088249,-0.7088427881858517,0.4691039725511032,-1.7347552492518843,2.0535084113921966,-0.1936048636696402,0.9381172031438748,-0.7322860945324138,1.3579085797097097,0.6378710821571834,0.6687830301752462,0.9948695652930994,10.890507951247857,-1.2997424997440317,0.2146598772058783,-1.124334841038476
1.44,0.4690150946963815,-1.726342528047516,2.047998990053892,-0.0059588311489189,0.1526949694353136,0.0431815704998794,-0.0973037719937894,0.8685002092807742,-0.6893555663712929,0.4691039725511032,-1.7347552492518843,2.0535084113921966,-0.1936048636696402,0.9381172031438748,-0.7322860945324138,1.1854978305663422,0.4583569875369224,0.4959177785974655,0.9743610907279376,11.834807191617983,-1.3224181353966975,0.2133095534618598,-1.1243382500791903
1.46,0.4671221062177981,-1.708907836543829,2.034388555195682,-0.0018380501598022,0.1393481580147623,0.0435586225240124,-0.092999620830106,0.8742257168070248,-0.6727561153028621,0.4671679239144068,-1.7253740772204458,2.0461855504468724,-0.2060831251106325,0.958117203441898,-0.7317400968941584,0.9039481863555834,0.2152075581841703,0.2862753763125281,0.829972553421543,11.64271254115829,-1.3448565280064355,0.2104602696493407,-1.1214629757671877
1.48,0.4652636581590909,-1.6913907499211975,2.021079518981122,0.0019231725279044,0.125672755164247,0.043833626338594,-0.0935208030454361,0.8773107167635906,-0.6589294551541358,0.463295826641014,-1.7066117331575683,2.0315398285562245,-0.2310396479926172,0.9981172040379443,-0.7306481016176477,0.7088113051122319,-0.0260591107665048,0.1542499978282929,0.6913330074363122,11.438189913777933,-1.3642184079682895,0.2076778258239203,-1.1149141718454478
1.5,0.4634449446494359,-1.6747075279951256,2.0086722935018453,0.0046802700934388,0.1130367680226863,0.0439770280551499,-0.0982057896366729,0.87887786603991,-0.6477589121446989,0.4594237293676212,-1.6878493890946908,2.016894106665576,-0.2559961708746019,1.0381172046339908,-0.729556106341137,0.6107087835867769,-0.2342493295618412,0.07835746381597,0.5585271504718436,11.264999955684289,-1.3820053254806226,0.2052611113241139,-1.105419927248832
1.52,0.4613942701436817,-1.6571232033481298,1.99582679286146,0.0065597837593382,0.1006532992212124,0.0440135795120858,-0.1069279902556,0.8796389661605111,-0.6374317764375356,0.4543038059501292,-1.667087045002011,2.002302984538753,-0.2809526937565866,1.0781172052300372,-0.7284641110646263,0.6769523412777275,-0.4361100309463517,0.0380550060300521,0.5163567853581685,11.132159278342442,-1.3968192403514883,0.2036332239885487,-1.094876363229985
1.54,0.4591317793609951,-1.6395341310747875,1.983179047077342,0.0071497262041905,0.0896702612591224,0.043940893651354,-0.1190392299986078,0.8794587908741223,-0.6278394017534575,0.4491838825326372,-1.6463247009093311,1.9877118624119303,-0.3059092166385714,1.1181172058260838,-0.7273721157881156,0.7725416547445508,-0.605561987150393,-0.0090087643194403,0.4796187342039015,11.000501770770825,-1.4083593600035684,0.2030396665827994,-1.0834031833102369
1.56,0.4565944829964763,-1.6219459585820386,1.9707195430548423,0.006444888413975,0.0804927202386124,0.0437822242297323,-0.1341173782349487,0.879493010175129,-0.6185807421750942,0.4434400460430955,-1.6245623568017502,1.9731480401670205,-0.3308657395205561,1.15811720642213,-0.7262801205116048,0.8846955724791027,-0.7539074118170446,0.0017109650503388,0.462932978918168,10.982074413158443,-1.415914365388284,0.2034710167272432,-1.0736996828716667
1.58,0.4538806957967525,-1.6052337944479464,1.9590523983980728,0.0046926544037081,0.0737994862300973,0.0435734181603663,-0.1508247456811816,0.8797917028499963,-0.6099983233678872,0.4370722964815042,-1.6018000126792682,1.9586115178040235,-0.3558222624025408,1.1981172070181765,-0.7251881252350941,0.939259358324104,-0.8353683723116456,0.0149346337433631,0.4291209403603502,10.982074413158443,-1.420535138228734,0.2049016271874602,-1.0656357874593725
1.6,0.4506583976680954,-1.5876270046448762,1.9469457375219883,0.0018892392719539,0.0694088715788334,0.0433094349525288,-0.1706406452258595,0.8812086098996281,-0.601128038404703,0.4463394585126934,-1.5612442093054466,1.9285524822296785,-0.2018947205804736,0.9797917043401124,-0.5823768008220727,1.0878412748192532,-0.9907949772338914,0.070845352481591,0.4435142481592102,10.976073381115384,-1.420677418059263,0.2071133735807709,-1.060974040398829
1.62,0.4469786129728708,-1.5699148976922228,1.935157488475203,0.0007162185811686,0.0700629070591394,0.0431715914259384,-0.1956063144751717,0.8893471631167734,-0.5773906826917051,0.4463394585126934,-1.5612442093054466,1.9285524822296785,-0.2018947205804736,0.9797917043401124,-0.5823768008220727,1.7698748160390827,-1.2482834624656105,0.4069276608572647,1.186867785649892,10.97888520563447,-1.4033579385507715,0.206358009990728,-1.0558197744300757
1.64,0.4428419317172273,-1.5520691312886188,1.9238569131941636,0.0019301242474803,0.076352214778609,0.0432000568331081,-0.216012247359055,0.8947280758462379,-0.5539316496916693,0.4463394585126934,-1.5612442093054466,1.9285524822296785,-0.2018947205804736,0.9797917043401124,-0.5823768008220727,1.577721892445269,-1.0202966441941643,0.2690456364732252,1.1729516500017911,12.081185669816476,-1.3912028403829697,0.2048037395997594,-1.0713907553059927
1.66,0.4385867225357784,-1.5350341058549577,1.91353007867574,0.0039775754686597,0.0853106752790252,0.0432997139131378,-0.2303812110010883,0.8982112780705621,-0.534286163728594,0.4443205113068887,-1.5514462922620456,1.9227287142214575,-0.212108715560332,0.9997917046381356,-0.5768524963129098,1.2293747726049604,-0.7184481821016664,0.1741601112162094,0.9822742981537624,11.89739438833294,-1.3778177993946257,0.2024534071443297,-1.09100951551222
1.68,0.433859740998332,-1.517048658712746,1.903039379194472,0.0062314134350147,0.0961857578804681,0.0434308232533912,-0.2410938357590921,0.9001384492936124,-0.5159425314143468,0.4402826168952792,-1.5318504581752432,1.9110811782050163,-0.2325367055200488,1.039791705234182,-0.565803887294584,1.066493277767195,-0.5356312379001887,0.0963585611525152,0.9171816157123648,11.69290449068376,-1.3642846066030545,0.2000710550241037,-1.11156960769697
1.7,0.4289658595798906,-1.4990397817031276,1.8928908138308496,0.007771861283885,0.1073052170486039,0.0435261989652276,-0.2474144017352035,0.9007995548604106,-0.4999532634190716,0.4362447224836698,-1.512254624088441,1.899433642188575,-0.2529646954797656,1.0797917058302289,-0.5547552782762581,0.8602954519430515,-0.3160282988055707,0.0330552783399107,0.7994633997637585,11.543559526995525,-1.3512429650561115,0.1984276860356512,-1.131182994085719
1.72,0.4239878987702924,-1.4810278055944894,1.8830401138648505,0.0080497673308746,0.1175943543815029,0.0435292350634293,-0.2499097306434996,0.9006095655529776,-0.4859500927952169,0.4311854285740745,-1.4906587899718364,1.8883385366230496,-0.2733926854394824,1.119791706426275,-0.5437066692579323,0.7112516253378666,-0.1247664454148048,-0.009499465371654,0.7001585311927322,11.320878449135307,-1.3402841303133812,0.1981062794309379,-1.1481298116999583
1.74,0.4192439240652285,-1.4639242216992845,1.8739341203836677,0.0067464358776451,0.1259339721012384,0.0434007944161156,-0.2493141066013148,0.9000318869618249,-0.4733070740985867,0.4261261346644792,-1.469062955855232,1.8772434310575248,-0.2938206753991992,1.1597917070223216,-0.5326580602396065,0.6335108568873286,0.0297812021092372,-0.0288839295576326,0.632150934831513,11.320878449135307,-1.3304143782723108,0.1994796508145313,-1.1633064756232865
1.76,0.4142833134343135,-1.4459185078584258,1.8646064490454315,0.0037845059869361,0.1328592949357582,0.043121068596219,-0.2467563655258346,0.9009508146586188,-0.460149619385726,0.4205561410058909,-1.4464671217237262,1.8664245407174576,-0.314248665358916,1.199791707618368,-0.5216094512212808,0.6717608987618165,0.1278870537740131,0.0459463848396957,0.6578727356430336,11.306616980193212,-1.3236268830322926,0.2027354214257637,-1.1762873514783436
1.78,0.4093897731510657,-1.4278628108151177,1.8555422860517885,0.0002567317212001,0.1377572059125911,0.0427719019960705,-0.2428486587549048,0.9046768428318682,-0.4469586495323623,0.4144754475983098,-1.4228712875773193,1.8558818656028488,-0.3346766553186328,1.2397917082144143,-0.510560842202955,0.7126625144971631,0.1953853385464901,0.1863014086624703,0.6595484926681827,11.319781864291144,-1.3201808655988294,0.2065876160029078,-1.1876790712464995
1.8,0.4048200654092363,-1.4106229386352622,1.8471765243020315,-0.0028100006839994,0.140585050127019,0.0424458380664,-0.238513155473386,0.909787469329852,-0.4343315642757855,0.3972473402133204,-1.3826289686735245,1.8331943535751705,-0.2645654955948191,1.0046768443219842,-0.4169945862157787,0.7147698475432738,0.2167751640759357,0.2555313248991886,0.6313542628288427,11.341747167140966,-1.3194928898192078,0.2105062087689126,-1.198598311174618
1.82,0.4000554421827606,-1.3922914281609529,1.838654965956987,-0.0031661889698151,0.143215206209573,0.0422956877267514,-0.2380393851210525,0.9223309846275488,-0.4183894171429844,0.3972473402133204,-1.3826289686735245,1.8331943535751705,-0.2645654955948191,1.0046768443219842,-0.4169945862157787,1.0145396610953432,0.0236885176166781,0.6271757648848408,0.7971073566400533,11.36688703519485,-1.319876231896401,0.2114970819400846,-1.2132620575041917
1.84,0.3953172871375437,-1.373749899228281,1.830452097934696,7.595740371294067e-05,0.1465788968124338,0.0423926896797104,-0.2356122462757471,0.9307063107030124,-0.4027597932238118,0.3972473402133204,-1.3826289686735245,1.8331943535751705,-0.2645654955948191,1.0046768443219842,-0.4169945862157787,0.894877412972727,0.1213569422652688,0.4187663037731826,0.7814811959586304,11.58232064601998,-1.3182537023586034,0.2082979421128936,-1.2282056160739911
1.86,0.3906476335404066,-1.3550909722050777,1.8225468747148723,0.0043593608211254,0.1498369858834054,0.0425648638416997,-0.2314372845366323,0.9346576710009062,-0.3885741862735437,0.3946016852573722,-1.3725822002303043,1.829024407713013,-0.268908862962802,1.0246768446200074,-0.411001773552462,0.765302225062652,0.2087480869557401,0.197568014894689,0.7092803475134052,11.547668450742094,-1.3176384171774351,0.2041009732717613,-1.241447840185778
1.88,0.3863011346659381,-1.3373184826071487,1.815287014453138,0.0079301196065904,0.1523725934067601,0.0426921787504292,-0.2263390792409366,0.9361288815528483,-0.3763490401176848,0.3893103753454758,-1.3524886633438646,1.820684515988697,-0.2775955976987677,1.064676845216054,-0.3990161482258285,0.6663526773738468,0.2549102647847856,0.0735605275971107,0.6112573077929451,11.408443364082814,-1.3176418345179493,0.2001138078113794,-1.253261252368843
1.9,0.3818380703656812,-1.3185926111130917,1.8078877978279704,0.0106715048584314,0.154175868729801,0.0427452253385341,-0.2202867453076273,0.9365862522343588,-0.3642557228911072,0.3840190654335794,-1.332395126457425,1.8123446242643813,-0.2862823324347334,1.1046768458121003,-0.3870305228991951,0.6765505441636107,0.302616696665467,0.0228685340755208,0.6046658613288791,11.408443364082814,-1.318569952966551,0.1972115418580326,-1.2628644774254325
1.92,0.3775000299547861,-1.2998646570218757,1.8007244028979066,0.0122200854343705,0.1549578405777121,0.042697813312643,-0.2139128926406413,0.9363537875324832,-0.3527120132695081,0.3782934187848847,-1.310301589541183,1.8046040138063977,-0.2949690671706991,1.1446768464081467,-0.3750448975725616,0.6594263974960805,0.3186926333492976,-0.0116232350937883,0.5771854810799587,11.375743188771594,-1.3207740309821543,0.195631733995812,-1.2705320866502858
1.94,0.373290961946386,-1.2811499628598346,1.793790450494617,0.0123005013987712,0.1546597271510399,0.0425280579494474,-0.2074652752652867,0.9353791419345404,-0.3412611784159909,0.3725677721361901,-1.2882080526249409,1.7968634033484137,-0.3036558019066649,1.1846768470041933,-0.3630592722459281,0.6588689602323926,0.3223808687677285,-0.0487322798971401,0.5725417426758556,11.355577863137114,-1.3237712934834798,0.195642235013925,-1.275700388646894
1.96,0.3694092103512837,-1.263382964693031,1.7874176682527256,0.0110448293365103,0.153394169603703,0.0422586442124505,-0.201571518333772,0.9349991354384104,-0.3301323259056619,0.3666249571190963,-1.2651145156937975,1.7894224335235955,-0.3123425366426306,1.2246768476002396,-0.3510736469192947,0.6299447076957146,0.2946878465757377,-0.0190003248064951,0.5564426255164512,11.361611373629785,-1.3279129989427514,0.1972630308882851,-1.2796695175854722
1.98,0.3654398346592684,-1.244680914940547,1.7809429698776442,0.008548932193963,0.1510252305797696,0.0418846428523721,-0.1957873564220683,0.9354155447919844,-0.317897054580252,0.3604649737336033,-1.2410209787477533,1.782281104331943,-0.3210292713785964,1.264676848196286,-0.3390880215926612,0.677000351139026,0.2892080955851847,0.020820467678706,0.6117635662704957,11.382838336909115,-1.3331391607133378,0.2002982164628208,-1.282388332780764
2.0,0.3615785578214388,-1.225947824434329,1.7747191728813687,0.005504528016043,0.1475913727274157,0.041473883024544,-0.1907704214322947,0.93800637673172,-0.3050715000685469,0.355650466838165,-1.1979101377009471,1.7650481171486316,-0.2163224175579564,1.0354155462821006,-0.3056383516911672,0.7006727041998437,0.2508467494886812,0.1295415969867763,0.641277725585257,11.455498840734435,-1.339817019818484,0.2040439827650589,-1.2847106292764463
2.02,0.357749701641222,-1.2070777748444257,1.7686955220127352,0.0049608907320667,0.1445229214076823,0.0412480428663818,-0.1924003601263494,0.9477158915371534,-0.2979577447560457,0.355650466838165,-1.1979101377009471,1.7650481171486316,-0.2163224175579564,1.0354155462821006,-0.3056383516911672,0.6073238274377303,-0.0814969347027391,0.485475740271668,0.3556877656250595,11.455498840734435,-1.352936496092997,0.2058234920961415,-1.2949912968462387
2.04,0.354071170221766,-1.1890160936062064,1.76310120131356,0.0070183827269403,0.1434422209111221,0.0412166428014672,-0.1945472029909574,0.9529623788896414,-0.291271608491249,0.355650466838165,-1.1979101377009471,1.7650481171486316,-0.2163224175579564,1.0354155462821006,-0.3056383516911672,0.4382892366250974,-0.1073421432303989,0.2623243676244002,0.3343068132398347,11.103614621196355,-1.3542382980098528,0.2031457695490438,-1.2984588358957874
2.06,0.3501658309607408,-1.169924705405479,1.757346129656164,0.0101521382467536,0.143830792254835,0.0412531294663853,-0.195716755316421,0.955644617600182,-0.2846193387446949,0.3534872426625854,-1.1875559822381263,1.76199173363172,-0.220429429785134,1.0554155465801238,-0.3031866111133502,0.3633694742381303,-0.0584776162731795,0.1341119355270259,0.3326134873277042,11.089718262736824,-1.3538812374412716,0.1992354476057874,-1.3033087477662997
2.08,0.3462498304936048,-1.1508088017676823,1.7517174258735704,0.0128717851608925,0.1451244671016875,0.0412637229903706,-0.1957213442864831,0.9560344911116828,-0.2785940912781729,0.3491607943114263,-1.1668476713124845,1.7558789665978969,-0.2286434542394892,1.0954155471761704,-0.2982831299577163,0.3018924868493998,-0.0002294485031056,0.0194936755750441,0.3012623733260999,11.089718262736824,-1.3523934456867848,0.1957627268630521,-1.3082056037327543
2.1,0.3423457074311736,-1.1316971049780626,1.746204530848652,0.0146173488187916,0.1467855729988055,0.0412069657024505,-0.194639132438403,0.955394219557655,-0.2730043789835687,0.3448343459602672,-1.1461393603868424,1.7497661995640732,-0.2368574786938445,1.1354155477722168,-0.2933796488020824,0.2864699534134056,0.0541105924040066,-0.0320135777013896,0.2794856147302099,11.039058221179404,-1.350610081069664,0.1935195035240407,-1.3125790670660114
2.12,0.3386662467965506,-1.1135604755204422,1.7410690805990143,0.0150804709734716,0.1483322373106428,0.041065804277142,-0.192721579763217,0.9539775298691086,-0.2678532622965897,0.3400971963863903,-1.1234310494313982,1.7438986065880315,-0.2450715031481997,1.1754155483682631,-0.2884761676464484,0.2838046029340444,0.0958776337593003,-0.0708344844273234,0.2575558343489492,11.039058221179404,-1.348992359975304,0.1926516170411004,-1.3165611720530976
2.14,0.3348397221529104,-1.0945037391534458,1.7357680649276557,0.0139101651564358,0.1496609732690996,0.0407938002271947,-0.1900325176977796,0.9519576580880488,-0.2625222833904829,0.3353600468125134,-1.1007227384759537,1.73803101361199,-0.253285527602555,1.2154155489643097,-0.2835726864908145,0.3151597725799267,0.1344531032718685,-0.1009935890529944,0.2665489453053421,11.036820338289544,-1.3480428815248573,0.1938554901763392,-1.319687931332207
2.16,0.3310716427312029,-1.0754763631283335,1.730575849600446,0.0110516041381068,0.1505228131364826,0.040395960696323,-0.1869685829924806,0.9512220982434,-0.256965517614501,0.3304175466272776,-1.0770144275056082,1.7322860076648392,-0.2614995520569103,1.255415549560356,-0.2786692053351806,0.3193993975124177,0.1531967352649488,-0.0367779922324285,0.2778382887990926,11.037701777022448,-1.347751081879979,0.19692691247128,-1.3221037862701477
2.18,0.3275501232731511,-1.0573867249921869,1.7257509941328304,0.0077133363240942,0.1508660459784455,0.0399707657405363,-0.18393271692368,0.9530973304478269,-0.2511986995375453,0.3252696958306829,-1.0523061165203615,1.726663588746579,-0.2697135765112655,1.2954155501564024,-0.2737657241795467,0.3390765744670257,0.1517933034400301,0.0937616102213323,0.2883409038477863,11.053464792387786,-1.348378733362252,0.2010616458386107,-1.32505562266038
2.2,0.3239049301058597,-1.0382883692590308,1.7207954576672848,0.0044222256826714,0.1507420410344347,0.0395393462729033,-0.1807987042830925,0.9566383616541112,-0.244643447139891,0.3183534874269671,-1.0097318584697954,1.7131910591559532,-0.2101083537218234,1.0530973319379429,-0.2382593926301895,0.4041419033959286,0.1567006320293745,0.1770515603142175,0.3277626198827127,11.087115031142275,-1.3499998466889338,0.205020397138336,-1.3284262389893338
2.22,0.3203190309958679,-1.0190400389061844,1.7159803896581722,0.0038598404737435,0.1501696013520682,0.0393004003402666,-0.1779839236881638,0.9672691928360518,-0.2371695765420106,0.3183534874269671,-1.0097318584697954,1.7131910591559532,-0.2101083537218234,1.0530973319379429,-0.2382593926301895,0.664823854735922,0.1407390297464353,0.5315415590970374,0.3736935298940202,11.122481874393088,-1.3518225869541376,0.2058156622694766,-1.3340079456244376
2.24,0.3167896302869551,-0.99962057706214,1.7113142659506153,0.0066289376937319,0.1491448075763888,0.0392876162419109,-0.1751783122007854,0.9738431507259934,-0.2298274677956709,0.3183534874269671,-1.0097318584697954,1.7131910591559532,-0.2101083537218234,1.0530973319379429,-0.2382593926301895,0.5123351905733035,0.1402805743689242,0.3286978944970764,0.3671054373169877,11.192889828456828,-1.3557977974952973,0.20269475856937,-1.340197338329426
2.26,0.3134855359649329,-0.9810904515323404,1.707009294324077,0.0102364227872992,0.1477393604706818,0.0393297336305694,-0.1728269077767923,0.976265090128842,-0.2236971468260197,0.3162524038897489,-0.999200885150416,1.7108084652296514,-0.2153434810814521,1.073097332235966,-0.2356715312487183,0.3499133050742326,0.1175702211996504,0.1210969701424258,0.3065160484825593,11.180252389613996,-1.3598724058250746,0.1980372524010127,-1.344495074685111
2.28,0.3100511847453646,-0.961563992905242,1.7025957457765302,0.0135085128621955,0.1458193001360294,0.039318716723696,-0.1708155270973396,0.9763998483861368,-0.2180097627294589,0.3120502368153124,-0.9781389385116572,1.7060432773770475,-0.2258137358007095,1.1130973328320126,-0.230495808485776,0.30170411783483,0.1005690339726389,0.0067379128647404,0.2843692048280374,11.12794129748636,-1.363812074770934,0.1938700467553199,-1.3465548528370364
2.3000000000000003,0.3066504867693129,-0.9420472183552816,1.6982892948842252,0.0157124115637345,0.1434790130321163,0.039214531116302,-0.1694512869167777,0.9754994848390762,-0.2129351317913064,0.307848069740876,-0.9570769918728984,1.7012780895244437,-0.2362839905199668,1.153097333428059,-0.2253200857228337,0.2665693387544316,0.0682120090280957,-0.0450181773530233,0.2537315469076276,11.083458515224264,-1.3679960578278856,0.1909482574728666,-1.346981919234598
2.32,0.3032690246940816,-0.9225581997496872,1.694080801964869,0.0166033141197061,0.1408014086423069,0.0390046641136652,-0.1688677464783927,0.9736998288143762,-0.2081543482430208,0.3031223899304766,-0.9340150452043372,1.696771687809987,-0.2467542452392242,1.1930973340241051,-0.2201443629598914,0.2570757309919935,0.0291770219192452,-0.0899828012350001,0.2390391774142769,11.048757538546852,-1.3720553931909336,0.1896213606074292,-1.3461257917251237
2.34,0.3000590412651963,-0.9040841932830864,1.690171935380758,0.0158982537567813,0.1380830729063068,0.0386923513281678,-0.1691481950505781,0.9712763013579718,-0.2035317894287771,0.2983967101200773,-0.910953098535776,1.6922652860955305,-0.2572244999584815,1.233097334620152,-0.2149686401969491,0.2613435800088116,-0.0140224286092657,-0.1211763728202197,0.2311279407121849,11.033983659668593,-1.3761519302159153,0.1901681561603616,-1.3441085192354196
2.36,0.2966630588604549,-0.884679036876632,1.68615623568437,0.0135018794586931,0.1352754288436012,0.0382558548073337,-0.1705460688716839,0.9695238780957872,-0.1982554717059317,0.2934092739416965,-0.8868911518523136,1.6878882774501474,-0.2676947546777389,1.2730973352161985,-0.2097929174340068,0.2866381308461579,-0.0698936910552894,-0.0876211631092305,0.2638158861422726,11.039282438799091,-1.3798442565302262,0.1927911378014821,-1.3416986625032892
2.38,0.2932263872767675,-0.8652857220263053,1.6822522660782893,0.0100798712372401,0.1328651608964576,0.037766997116056,-0.1731512808981204,0.9701745312152766,-0.1923789339323726,0.2881600813953343,-0.8618292051539501,1.6836406618738378,-0.2781650093969963,1.3130973358122446,-0.2046171946710644,0.3230486626990503,-0.1302606013218285,0.0325326559744709,0.2938268886779546,11.061926378270073,-1.3825464256870212,0.1966614763217209,-1.3401829845090407
2.4,0.289725577015135,-0.8458555212019576,1.6784724971661664,0.0067420986311837,0.1312466298170202,0.037306481224687,-0.1768116081712761,0.9727870881340034,-0.1859020808151879,0.2845688232318615,-0.8167769954655414,1.6726333193816707,-0.1975205635460878,1.0466171901164911,-0.1588596398194518,0.3942495266382037,-0.1830163636577828,0.1306278459363374,0.3238426558592341,11.09527131995037,-1.3838326994238166,0.2002595701287478,-1.3404786959043982
2.42,0.2863218304470303,-0.8271960463005862,1.6750543573537326,0.0086070070397456,0.1309007761419017,0.0372343914727844,-0.1810282407030019,0.9889077423677772,-0.1742539193435194,0.2845688232318615,-0.8167769954655414,1.6726333193816707,-0.1975205635460878,1.0466171901164911,-0.1588596398194518,1.0165322775280738,-0.2108316265862914,0.8060327116886978,0.582408073583425,11.523944799642775,-1.3797619685095313,0.1975685386174819,-1.3463487721137015
2.44,0.2826676234360263,-0.8073476642571409,1.6716983855569012,0.0160051632671375,0.1316851622289165,0.0375407547986121,-0.1840149201433571,0.994156884986162,-0.1620095145072003,0.2845688232318615,-0.8167769954655414,1.6726333193816707,-0.1975205635460878,1.0466171901164911,-0.1588596398194518,0.6826404655879602,-0.1493339720177608,0.2624571309192358,0.6122202418159569,11.49242948421852,-1.378528807067957,0.188198320354525,-1.3571262287461037
2.46,0.2789652807322488,-0.7874760835438221,1.6685686068944277,0.0239520441102061,0.1330923468901847,0.0378897877754109,-0.1859792988377959,0.992759143236483,-0.1516014074287207,0.2825936175964006,-0.8063108235643764,1.6710447229834762,-0.2023944200756812,1.0619057218967345,-0.1521557809968677,0.5341843282310347,-0.09821893472194,-0.0698870874839552,0.5204053539239764,11.49242948421852,-1.3769662037154269,0.1779957513439075,-1.366056689376502
2.48,0.2752333932967618,-0.7676722471995726,1.665629812367582,0.0306614404188473,0.1347010293386336,0.0381541401092508,-0.1870717535202268,0.9880413449670084,-0.1428027180322467,0.2786432063254789,-0.7853784797620467,1.667867530187087,-0.2121421331348682,1.09248278545722,-0.1387480633516994,0.5021653433886266,-0.0546227341215427,-0.2358899134737246,0.4399344698237037,11.304024623585974,-1.3749904953850889,0.1695983845964891,-1.372545252612713
2.5,0.2716752482710524,-0.7489636001966656,1.662990781641145,0.0354011095186688,0.136126171887431,0.0382847024725344,-0.1874186001789982,0.9819513665074128,-0.1354228872521551,0.2746927950545571,-0.7644461359597168,1.664690337390698,-0.2218898461940551,1.123059849017706,-0.1253403457065311,0.4787223688784274,-0.0173423329385719,-0.3044989229797901,0.3689915390045803,11.304024623585974,-1.3727475203845705,0.1628032607492203,-1.377528496226624
2.52,0.2679287726453953,-0.7294014718407587,1.6603605058045376,0.0386855583503584,0.1373107152887791,0.0382868509681501,-0.1872171989899253,0.9749041892849454,-0.1279952140529405,0.270254998130676,-0.7419849389793627,1.6621835304765675,-0.231637559253242,1.1536369125781918,-0.1119326280613628,0.5120390570995339,0.010070059453647,-0.3523588611233641,0.3713836599607278,11.25409702779598,-1.3707024746981895,0.1581750768510829,-1.3809855949746628
2.54,0.2641916855228515,-0.7099870578356914,1.6578799807043385,0.0402590225564706,0.1380280999335517,0.0381453370352877,-0.1865614144162639,0.967281272648828,-0.1204158392951615,0.2658172012067949,-0.7195237419990085,1.6596767235624368,-0.241385272312429,1.1842139761386776,-0.0985249104161944,0.5384835957740601,0.0327892286830666,-0.381145831805868,0.3789687378889503,11.242586595263674,-1.3690165506877394,0.1556710730365918,-1.3833441181782868
2.56,0.2604689975565722,-0.6907218973333384,1.6555559850779642,0.0403117930763783,0.1382658743605425,0.0378729114502682,-0.1857982668032212,0.9598142908504133,-0.1123584815487535,0.2611357114564341,-0.6962981184296422,1.6575051095894353,-0.2511329853716159,1.2147910396991637,-0.0851171927710261,0.5505888332293687,0.0381573806521359,-0.3733490899207381,0.4028678873203996,11.26030796485611,-1.3678490589850822,0.1550589916994092,-1.3852637602151114
2.58,0.2569466638765096,-0.6725571701345687,1.6535033153319811,0.0390146992146484,0.1381047979592088,0.0375016654234827,-0.1850669637444916,0.9528021288569524,-0.1041132333200753,0.2562105288795936,-0.6723080682712638,1.655668688557563,-0.2608806984308028,1.2453681032596493,-0.0717094751258578,0.5424235852605563,0.0365651529364796,-0.3506080996730498,0.4122624114339078,11.293555919071878,-1.3670468014522896,0.15619569330817,-1.3872628579832578
2.6,0.2532528541114168,-0.6535740224271188,1.6515191784987338,0.0362802312359373,0.1375983008612527,0.0370031420639717,-0.1844042600864934,0.946190845461385,-0.0946938325855336,0.247693315689285,-0.6249170636917211,1.6482976536659777,-0.2013505783054534,0.9741678347344948,-0.0863771429729045,0.5763535253486188,0.0331351828999113,-0.3305641697783634,0.470970036727085,11.33511721458126,-1.3664566858380494,0.1591130791096924,-1.389539400923419
2.62,0.2495245310898571,-0.634477781551869,1.6496451337653797,0.0399021980722886,0.1375812732947089,0.0369649110954167,-0.1883806556812969,0.9609254081675196,-0.0937167675907443,0.247693315689285,-0.6249170636917211,1.6482976536659777,-0.2013505783054534,0.9741678347344948,-0.0863771429729045,0.7646465132193898,-0.1988197797401766,0.7367281353067301,0.0488532497394646,10.800818448736209,-1.373537906254198,0.1551816811419605,-1.401943591184404
2.64,0.2459166580434338,-0.6162065718697902,1.64786847077007,0.0504046243837427,0.1385694899803833,0.0374494265493006,-0.1910226038710178,0.960477301876008,-0.0933380471977146,0.247693315689285,-0.6249170636917211,1.6482976536659777,-0.2013505783054534,0.9741678347344948,-0.0863771429729045,0.1353155443930823,-0.1320974094860455,-0.0224053145755798,0.018936019651488,10.800818448736209,-1.372035598732333,0.140578847547585,-1.4024686447064665
