t,x,y,z,roll,pitch,yaw,v_x,v_y,v_z,ref_x,ref_y,ref_z,ref_v_x,ref_v_y,ref_v_z,a_com,a_x,a_y,a_z,thrust,wind_x,wind_y,wind_z
0.0,-1.9030716318177168,2.0785181255237224,2.549078798860723,0.010829167847924,0.1363603538304003,0.0257858734951045,0.0054699495434887,-0.0003663917633814,0.0115699344075813,-1.9029028237486572,2.0784049901289,2.549430515766138,0.0004003467015721,-0.1028823204808443,-0.0883151927873467,0.6401522731513216,0.2734974771744397,-0.0183195881690703,0.5784967203790673,10.547756862725691,-1.2867018935406287,0.1658421736381607,-1.1721789469034634
0.02,-1.9030260136265755,2.078772396560362,2.5490962559306074,0.0188149910494365,0.1370685561186442,0.0263594266429758,-0.000855894773012,0.0216284505221257,-0.0108701380405537,-1.9029028237486572,2.0784049901289,2.549430515766138,0.0004003467015721,-0.1028823204808443,-0.0883151927873467,1.6026121216302585,-0.3162922158250426,1.0997421142753598,-1.1220036224067569,10.547451026226554,-1.308286945088546,0.1592383505374092,-1.1863328637175845
0.04,-1.903113645363289,2.0792445582568484,2.548581954670296,0.0338043532921478,0.1392340152006668,0.0274476718073452,-0.0072748484885595,0.023699543226696,-0.039287903178776,-1.9029028237486572,2.0784049901289,2.549430515766138,0.0004003467015721,-0.1028823204808443,-0.0883151927873467,1.4603610574481465,-0.3209476857773751,0.1035546352285152,-1.4208882569111143,8.976521756227157,-1.3062960097281886,0.1438197719170562,-1.1706048851931363
0.06,-1.903300731542301,2.0796573129232603,2.547570189617345,0.0485325936736194,0.1423291508748693,0.0285649402413803,-0.0118918944359916,0.0193447297877728,-0.0657687198280407,-1.9028988202816417,2.0773761669240915,2.5485473638382645,-0.0006369473435185,-0.1228823207788676,-0.1083151930853699,1.3615388020365968,-0.2308522973716064,-0.2177406719461648,-1.324040832463235,8.976521756227157,-1.298951725990797,0.127229777137565,-1.1532351667681155
0.08,-1.9035751771724447,2.0799652819228647,2.545967922338628,0.063494866619822,0.1462436453927375,0.0297625722247567,-0.0151225354729741,0.0113547975271674,-0.093039394322863,-1.90289081334761,2.075318520514475,2.5467810599825174,-0.0027115354336999,-0.162882321374914,-0.1483151936814164,1.4300050231043309,-0.1615320518491222,-0.3994966130302651,-1.3635337247411143,9.003857475744553,-1.2914198832449366,0.1117262787585204,-1.1400398394314508
0.1,-1.9038963273400236,2.0800831215462554,2.5438291701917213,0.0777482059415068,0.1504391348834011,0.0309603204090845,-0.0166798130223308,0.0005275388618013,-0.1194729452600379,-1.9028828064135788,2.0732608741048577,2.54501475612677,-0.0047861235238812,-0.2028823219709605,-0.1883151942774629,1.4303734291442003,-0.0778638774678372,-0.5413629332683053,-1.3216775468587447,9.069074523552445,-1.2841093680065452,0.098091920896775,-1.1276316219346325
0.12,-1.904231826558552,2.079956691649852,2.541169162433062,0.091292964363785,0.1545812424673736,0.0321336757387917,-0.0166821491253768,-0.0129155519593943,-0.1452074085548752,-1.9029785288840564,2.0692032276654384,2.5412484522412213,-0.0068607116140626,-0.2428823225670069,-0.2283151948735093,1.4517052880643688,-0.0001168051522979,-0.6721545410597882,-1.2867231647418624,9.069074523552445,-1.2769117617486976,0.0848776891578891,-1.1143624651698798
0.14,-1.904539111257301,2.07956482855836,2.538162135307776,0.1035272159820611,0.1582462380736712,0.0332004091540866,-0.0156012624535394,-0.0278965436530152,-0.1700414888706987,-1.903074251354534,2.065145581226019,2.537482148355672,-0.0089352997042439,-0.2828823231630534,-0.2683151954695558,1.451146075740196,0.0540443335918676,-0.7490495846810445,-1.2417040157911772,9.10416976317356,-1.2717922756495923,0.0727041839013621,-1.1032327063338534
0.16,-1.904830481270697,2.078821977044448,2.5344824288407164,0.1157656949210333,0.161666237143228,0.0342462393904177,-0.0135333177538139,-0.045857891599816,-0.196645677406188,-1.903221838527266,2.060087934771699,2.5327158444552214,-0.0110098877944253,-0.3228823237590998,-0.3083151960656022,1.6083137621271435,0.1033972349862781,-0.8980673973400377,-1.3302094267744646,9.080789400404685,-1.2679057480684184,0.0614336436930104,-1.092815964747312
0.18,-1.90507104554312,2.077696943650912,2.530269659060836,0.1273747681067538,0.1645199106309418,0.0351855905607935,-0.0106156571941755,-0.0659917010663307,-0.223304176733942,-1.903421290402253,2.054030288302477,2.52694954053987,-0.0130844758846066,-0.3628823243551463,-0.3483151966616487,1.6767219605401549,0.1458830279819193,-1.0066904733257356,-1.332924966387701,9.059280643818056,-1.265085250118658,0.0510089851269497,-1.0822673683068402
0.2,-1.9052463720038288,2.076147194901411,2.525524805222093,0.1383814703016151,0.1667654097808235,0.0359978688410032,-0.0070705061274253,-0.0882084721270816,-0.2498515550414639,-1.9056018284028289,2.074397358597595,2.519104450224139,-0.0083636591384492,-0.1659917025564468,-0.3233041782240582,1.739911138143683,0.177257553337508,-1.1108385530375444,-1.3273689153760913,9.06294249110033,-1.263177196140459,0.0418650860228095,-1.0715033486304997
0.22,-1.905313699995983,2.074085393762406,2.5206531615717647,0.1437833265764421,0.1683858180653347,0.0363271299126682,-6.223556735150795e-05,-0.1258818119003666,-0.2605233478074766,-1.9056018284028289,2.074397358597595,2.519104450224139,-0.0083636591384492,-0.1659917025564468,-0.3233041782240582,1.9888963942079128,0.3504135280036934,-1.8836669886642488,-0.5335896383006355,9.072763652791764,-1.2490715197799804,0.0368899085985317,-1.05275802257582
0.24,-1.905236846462225,2.0712192400648277,2.51532957451034,0.1432471545010669,0.1695936895823497,0.0361422212334405,0.007315099667336,-0.158185128855701,-0.2714110227605384,-1.9056018284028289,2.074397358597595,2.519104450224139,-0.0083636591384492,-0.1659917025564468,-0.3233041782240582,1.7438970922658323,0.3688667617343782,-1.6151658477667223,-0.5443837476530905,10.126793417239242,-1.248188890519075,0.0377410816569171,-1.0473291396596325
0.26,-1.9050163781933165,2.0677452271885963,2.509757115984629,0.1394012647171713,0.1702725465023322,0.0356291424221161,0.0142998099952644,-0.186741635327681,-0.2851301253946295,-1.9056854649942132,2.0727374415720305,2.5158714084418983,-0.0079132595273039,-0.18599170285447,-0.3433041785220814,1.6220927973870922,0.3492355163964187,-1.427825323599001,-0.6859551317045576,9.951426490644735,-1.2483555780717204,0.0413640586049006,-1.0424377316335762
0.28,-1.9046831864160496,2.063962796808993,2.5041885023956265,0.1346157517668159,0.1704269692792591,0.034981323077892,0.0203683415123215,-0.2097645580163969,-0.3002945256168151,-1.9058527381769823,2.0694176075209016,2.509405324877417,-0.0070124603050134,-0.2259917034505165,-0.3833041791181278,1.411418681684076,0.303426575852856,-1.1511461344357958,-0.7582200111092757,9.766240254834884,-1.249580323280837,0.0463238001640629,-1.0362786768963297
0.3,-1.9042157261506736,2.0595392057557675,2.49799421769073,0.1296718320241985,0.1701671632398526,0.0342412458489815,0.0259916596171271,-0.2313354988583422,-0.3184248488243268,-1.9060200113597516,2.0660977734697727,2.502939241312936,-0.0061116610827229,-0.2659917040465629,-0.4233041797141743,1.436693960907624,0.2811659052402819,-1.0785470420972625,-0.9065161603755868,9.456803741664771,-1.25154372835886,0.0512285673494303,-1.0287239774548769
0.32,-1.9036439598393156,2.054702176616449,2.491414260026525,0.1253059061630167,0.1696077433214749,0.0334978162579203,0.030865505144412,-0.2513650029232991,-0.3386360158521125,-1.9061422445814056,2.060777939388841,2.4944731577186525,-0.0052108618604324,-0.3059917046426094,-0.4633041803102207,1.4434565077765684,0.2436922763642449,-1.0014752032478438,-1.0105583513892846,9.456803741664771,-1.2526200910765182,0.0553982406673031,-1.0209358392288568
0.34,-1.9029806819378967,2.049475388655294,2.484420043901712,0.1216188972587928,0.168885804391122,0.0327778470395904,0.0351939331046052,-0.2704213409575839,-0.3597586343533648,-1.90626447780306,2.05545810530791,2.486007074124369,-0.0043100626381419,-0.3459917052386559,-0.5033041809062673,1.4387879623427489,0.2164213980096588,-0.9528169017142402,-1.0561309250626176,9.336491041563022,-1.2530078967719576,0.0586979152155219,-1.0127649260364469
0.36,-1.9022740419244075,2.0441550677598164,2.477377296779102,0.1184701483282391,0.1681404011485475,0.0321082993151524,0.0389538220691224,-0.2885793623310955,-0.3804933226153789,-1.9063641910441576,2.049138271212078,2.4765409905151845,-0.0034092634158514,-0.3859917058347023,-0.5433041815023136,1.3908430919313883,0.1879944482258578,-0.907901068675579,-1.036734413100704,9.275625565758672,-1.253197874462474,0.0617715921225179,-1.003686939796156
0.38,-1.9014571925164372,2.0381874581611306,2.469530682272626,0.1152870805781398,0.167356163173526,0.031410254749854,0.042508574974706,-0.3071352328708581,-0.4030897877053847,-1.9064413843046972,2.041818437101344,2.4660749068910985,-0.0025084641935608,-0.4259917064307487,-0.5833041820983601,1.472715887630772,0.1777376452791811,-0.9277935269881328,-1.1298232545002895,9.229871257966806,-1.2531922855914066,0.0646302445243728,-0.9948238577445744
0.4,-1.9005727763972284,2.0318538451390364,2.461225222131377,0.1121460176500796,0.1666221405418728,0.0307192904040988,0.0457386195695937,-0.3251832239715047,-0.4263268274163227,-1.899331763767702,2.0228306965175875,2.4493761928873568,0.0649971708925269,-0.4071352343609742,-0.5030897891955008,1.4799689062457433,0.1615022297443848,-0.9023995550323266,-1.1618519855468994,9.172819908439124,-1.252873893425685,0.067313343289022,-0.9868526034511296
0.42,-1.8996352521663855,2.0251469334643097,2.452686278268097,0.1092526403927113,0.1675230874202787,0.0302260354993754,0.0482955535338747,-0.3447286300534349,-0.4252331687594763,-1.899331763767702,2.0228306965175875,2.4493761928873568,0.0649971708925269,-0.4071352343609742,-0.5030897891955008,0.9871130880792534,0.1278466982140506,-0.9772703040965114,0.0546829328423176,9.128071215369346,-1.246109020719408,0.069888041871398,-0.972236099993015
0.44,-1.898685913148229,2.018427984351157,2.4445921699768296,0.1071729812873445,0.1709804894433277,0.0300822765832753,0.0518635791924242,-0.3617482930265674,-0.4270197519634264,-1.899331763767702,2.0228306965175875,2.4493761928873568,0.0649971708925269,-0.4071352343609742,-0.5030897891955008,0.8740589430406306,0.1784012829274751,-0.8509831486566255,-0.0893291601975015,10.60265997449551,-1.2420416793896012,0.0712009053935961,-0.9777461822409552
0.46,-1.897591957175209,2.011009717196153,2.435982567864269,0.1056343926528854,0.1762079619389608,0.0301356370034535,0.0575918056541781,-0.3791883211085851,-0.4340922789535367,-1.8986817920587769,2.018759344173978,2.4443452949954017,0.0694948900760911,-0.4271352346589974,-0.523089789493524,0.9836002693225302,0.286411323087694,-0.8720014041008833,-0.3536263495055175,10.25027129508362,-1.236493440291705,0.0720058287933997,-0.9848206294296962
0.48,-1.8963630880626117,2.0032488902162044,2.427185089429318,0.1045852405550695,0.182028750537762,0.030274190981023,0.0651834145913993,-0.3960041922499774,-0.4454766189448739,-1.8973818486409264,2.0106166394867584,2.434283499211492,0.0784903284432195,-0.4671352352550439,-0.5630897900895705,1.0839848310031452,0.3795804468610622,-0.8407935570696162,-0.5692169995668572,9.956268235107018,-1.2311290693421622,0.0725126084572005,-0.9909197990906584
0.5,-1.894965353955829,1.9951593058765045,2.418121073158688,0.1040354120069994,0.1876771089480042,0.0304192836239159,0.0743113105891949,-0.4121444447202559,-0.4603511797751361,-1.896081905223076,2.002473934799539,2.4242217034275817,0.0874857668103479,-0.5071352358510903,-0.603089790685617,1.1885693028217523,0.4563947998897769,-0.8070126235139252,-0.7437280415131114,9.736401320868026,-1.2260630028403614,0.0727414781899473,-0.9957635692058686
0.52,-1.89345663136126,1.987180190583848,2.4092104359648987,0.1040474185805277,0.1924508699575243,0.0305252392562908,0.0840751467287861,-0.4270015527432435,-0.4768666566463928,-1.8943321898868688,1.992331230082517,2.4121599076138693,0.0964812051774762,-0.5471352364471368,-0.6430897912816634,1.213288023567079,0.4881918069795605,-0.742855401149381,-0.8257738435628326,9.57036656037235,-1.222287715856749,0.0725666732908582,-0.9987682939829372
0.54,-1.8916587362624844,1.978479920048496,2.3994801465392794,0.1047543931362223,0.1966232014842634,0.0305905197440134,0.095225420155875,-0.4423027026626436,-0.4953374807360101,-1.8925824745506616,1.9821885253654952,2.400098111800157,0.1054766435446046,-0.5871352370431833,-0.6830897918777099,1.3225213882054914,0.557513671354444,-0.7650574959700063,-0.9235412044808684,9.44514240875742,-1.219667240211883,0.0718294693557206,-0.9995514038301064
0.56,-1.889627281329476,1.969461183342294,2.389371839173194,0.1058768733617619,0.1997405119934543,0.0305687139730705,0.1072993913832433,-0.4587467386531405,-0.5145448254912693,-1.890607873255277,1.971045820633572,2.387036315971544,0.114472081911733,-0.6271352376392296,-0.7230897924737563,1.4009900012165135,0.6036985613684182,-0.8222017995248437,-0.9603672377629602,9.392892650263091,-1.217905580840363,0.0707913556052325,-0.9982157469924434
0.58,-1.887468864977036,1.9605791077533543,2.3794074353777006,0.1067870224914705,0.2016351608899388,0.0304175930614894,0.1192099419112237,-0.475283122425335,-0.5333487019353844,-1.8884083860007133,1.958903115886748,2.372974520128029,0.1234675202788614,-0.6671352382352761,-0.7630897930698027,1.3864513798420903,0.5955275263990158,-0.8268191886097231,-0.9401938222057538,9.367585271079406,-1.2173896333318135,0.0698414756516769,-0.9951660544562452
0.6,-1.884952890822979,1.9508843658786288,2.368525363212417,0.1071879686534585,0.2025533032140008,0.030096438457998,0.131676485941645,-0.4932495010291415,-0.5538739709345247,-1.8815083678814748,1.936814951632088,2.352740000280932,0.1456875377024443,-0.5752831239154511,-0.6333487034255005,1.4995767300181906,0.623327201521065,-0.8983189301903255,-1.0262634499570156,9.341574895878692,-1.218081809756734,0.0693892456100361,-0.990606107820125
0.62,-1.882142164264446,1.9407695460895087,2.35748643235346,0.1057726019502274,0.2027525964959437,0.0295635973781524,0.1490023032997469,-0.5171346389517117,-0.5475952517330732,-1.8815083678814748,1.936814951632088,2.352740000280932,0.1456875377024443,-0.5752831239154511,-0.6333487034255005,1.5083982195670231,0.8662908679050979,-1.194256896128512,0.3139359600725755,9.298933023535028,-1.212726793198214,0.0703486632362025,-0.9795943793913072
0.64,-1.878985650924592,1.93020103179253,2.346576074619449,0.1022240943739349,0.2025352954804198,0.0288354367714429,0.1656756083536133,-0.537969464100705,-0.5438342043155598,-1.8815083678814748,1.936814951632088,2.352740000280932,0.1456875377024443,-0.5752831239154511,-0.6333487034255005,1.3474369355235076,0.8336652526933191,-1.0417412574496632,0.1880523708756687,11.004581238917126,-1.2167002710034396,0.0729553630841541,-0.979654817140192
0.66,-1.875687552724479,1.9198077123806203,2.3362268940510726,0.0982543767973995,0.2017832876474317,0.0280500739037271,0.1805824542073203,-0.5548544859550582,-0.545694860455948,-1.8800514925044505,1.931062120392933,2.3464065132466767,0.1509830568606885,-0.5952831242134743,-0.6533487037235237,1.1300221873938228,0.7453422926853484,-0.8442510927176572,-0.0930328070194053,10.28480456043144,-1.219229862634576,0.0760301245384897,-0.9798440768988088
0.68,-1.8719206680545888,1.908544384318433,2.325248120298721,0.0941609356710725,0.2002066881505302,0.0271614728968125,0.1952234709732777,-0.5705177542516229,-0.5522728972791595,-1.8771377417504012,1.919556457914624,2.3337395391781666,0.1615740951771767,-0.6352831248095208,-0.6933487043195702,1.1213473080615388,0.7320508382978721,-0.7831634148282363,-0.3289018411605782,10.28480456043144,-1.2225877398029237,0.0791306420556956,-0.9773588137246798
0.7000000000000001,-1.8678719071150136,1.896982926524677,2.3140942642254325,0.0904323499561628,0.1976460636445677,0.0262193986197194,0.2088111166764162,-0.5848177699477087,-0.5629213304850949,-1.8742239909963525,1.908050795436315,2.3210725651096564,0.172165133493665,-0.6752831254055672,-0.7333487049156167,1.1208297087465908,0.6793822851569264,-0.7150007848042927,-0.5324216602967669,10.000494305569193,-1.2269604852611686,0.0819633976903657,-0.9723559302832449
0.72,-1.8635646096557783,1.885147866347068,2.302688828498307,0.0871661182894616,0.193958282055197,0.0252249666185562,0.2211167175494879,-0.5980291033434393,-0.5770373888847158,-1.8707806883264797,1.894545132928204,2.306405591011344,0.1827561718101533,-0.7152831260016137,-0.7733487055116631,1.1458951170176923,0.6152800436535835,-0.6605666697865276,-0.7058029199810467,9.76812523035278,-1.2321925719055715,0.0843065056277307,-0.9653072357943224
0.74,-1.85925741204266,1.8736673543105955,2.291577322808791,0.0845293859145203,0.189424042253222,0.0242411650658568,0.231495456654192,-0.609866945926901,-0.5918477043607379,-1.867337385656606,1.8810394704200923,2.291738616913032,0.1933472101266415,-0.7552831265976602,-0.8133487061077096,1.080738389867817,0.5189369552352024,-0.5918921291730883,-0.7405157738011037,9.485185642119175,-1.238689242365654,0.086378324392522,-0.955238051791936
0.76,-1.854531177681905,1.8613374711959811,2.279565120002146,0.0820141872656036,0.1838682648801236,0.0231780899382662,0.2403315177816956,-0.6224270708182655,-0.6086057596153289,-1.8636293070288203,1.86653380789708,2.276071642799818,0.2039382484431298,-0.7952831271937065,-0.853348706703756,1.1365134507030503,0.4418030563751826,-0.6280062445682244,-0.8379027627295532,9.400106287026574,-1.2457886573916752,0.0881938761849972,-0.9436567813808394
0.78,-1.849651596423546,1.8487582001688727,2.2672058023328385,0.079493804654415,0.1780261792675662,0.0221141941159949,0.2469946476195554,-0.6347548723480811,-0.6264977120612492,-1.8596564524431227,1.8510281453591664,2.259404668671704,0.214529286759618,-0.835283127789753,-0.8933487072998024,1.136325164864543,0.3331564918929885,-0.6163900764907804,-0.8945976222960117,9.400106287026574,-1.252481965723438,0.0899585909095256,-0.931308893200161
0.8,-1.844660629400641,1.8359372273303876,2.2544746766960437,0.076867803769399,0.1723107340514263,0.0210781402607471,0.2516466281961506,-0.6465799380877135,-0.6456651949311804,-1.837301864042568,1.8170204565514687,2.235880916729776,0.2795662278805474,-0.7347548738381973,-0.7264977135513653,1.1498537978812269,0.2325990288297608,-0.5912532869816189,-0.9583741434965598,9.319160681320682,-1.2583182742359775,0.0916797018549999,-0.9195019812919996
0.8200000000000001,-1.839840000480051,1.8235158581857949,2.2423231979307245,0.074141166348041,0.168671729785915,0.0202378818156199,0.2554885512541385,-0.6600887598764905,-0.6324622608610546,-1.837301864042568,1.8170204565514687,2.235880916729776,0.2795662278805474,-0.7347548738381973,-0.7264977135513653,0.9638025043603616,0.192096152899393,-0.6754410894388496,0.6601467035062869,9.235072545289768,-1.2588796440010743,0.0937785404239564,-0.8997755245235484
0.84,-1.834707449060779,1.8101892621694595,2.229769403300642,0.0714902283197806,0.168657626943506,0.019669423360313,0.2579886584298966,-0.6718875759109347,-0.6241280832901545,-1.837301864042568,1.8170204565514687,2.235880916729776,0.2795662278805474,-0.7347548738381973,-0.7264977135513653,0.7330093987941605,0.1250053587879079,-0.5899408017222108,0.4167088785450079,11.21484715353654,-1.2574126898701707,0.0950386378601926,-0.9055144456875508
0.86,-1.8295095580911152,1.7966368648423623,2.2173027297970918,0.0693566986349159,0.1715321223831213,0.0193518195342778,0.2619540170294418,-0.6827747100506582,-0.6232657411669242,-1.8345062017637628,1.809672907813087,2.2286159395942624,0.2860805439327459,-0.7547548741362204,-0.7464977138493885,0.5809418915365271,0.1982679299772582,-0.544356706986171,0.0431171061615109,10.693627734985055,-1.253869972684542,0.0960841805822241,-0.9124262333635548
0.88,-1.8242161898145333,1.7828757857368618,2.2047856391583056,0.0676702945709646,0.1759939039235115,0.0191784958873027,0.2674487559742414,-0.6928548187151248,-0.6284795983553655,-1.828914877206152,1.7949778103363232,2.214085985323235,0.2991091760371427,-0.7947548747322669,-0.7864977144454349,0.6304463766657968,0.2747369472399785,-0.5040054332233312,-0.2606928594220625,9.960803872754695,-1.249840269281016,0.0969101311896864,-0.918676540328603
0.9,-1.8190709252523425,1.769623662329853,2.1927558509756664,0.0665163194866586,0.1808431680358289,0.0190881931860566,0.2740399734147767,-0.701649307168392,-0.6375587520285932,-1.823323552648541,1.7802827128595593,2.199556031052208,0.3121378081415395,-0.8347548753283134,-0.8264977150414814,0.7127731159442549,0.3295608720267656,-0.4397244226633623,-0.4539576836613879,9.733157461428164,-1.245514554184883,0.0975253015946095,-0.9242436498289718
0.92,-1.8135068586846927,1.7555025215729805,2.179872525132043,0.0659943899539855,0.1859941100835535,0.0190478226687019,0.2821351548858336,-0.7100426730767867,-0.6504517832155392,-1.81708079648571,1.763587615352993,2.183026076751378,0.3251664402459363,-0.8747548759243599,-0.8664977156375279,0.8692105721703826,0.4047590735528433,-0.4196682954197339,-0.6446515593472979,9.733157461428164,-1.241772578230208,0.0976596238076514,-0.9285766918403486
0.94,-1.8077668003097729,1.741219581539548,2.166712758770708,0.066454528549149,0.190769733197085,0.0190575658121227,0.2915327369590072,-0.7179591265255872,-0.6648774900798115,-1.8108380403228796,1.7468925178464267,2.1664961224505483,0.3381950723503332,-0.9147548765204064,-0.9064977162335744,0.9474779714628888,0.4698791036586824,-0.3958226724400271,-0.7212853432136124,9.55342995522824,-1.2386889690769565,0.0970897491082737,-0.931023364838454
0.96,-1.8018245900567031,1.7267685159251087,2.15325463481512,0.0676917344371712,0.1948152210565983,0.0190817752851338,0.3022138048033224,-0.7267544497684654,-0.6802082289989518,-1.8042695683574383,1.7291974203249594,2.1489661681348173,0.35122370445473,-0.9547548771164528,-0.9464977168296208,1.0325629242913268,0.5340533922157609,-0.4397661621439064,-0.7665369459570193,9.492803587938395,-1.236442609222283,0.0958917994329244,-0.932149000285294
0.98,-1.7959730526269304,1.7128691999206724,2.140177301933165,0.0691993620421277,0.1977440912835846,0.0190739710419863,0.3131525771971654,-0.7358657332130005,-0.695573141976614,-1.797375380589388,1.7105023227885907,2.130436213804185,0.3642523365591268,-0.9947548777124992,-0.9864977174256672,1.047321319249843,0.5469386196921472,-0.4555641722267578,-0.7682456488831091,9.455277823944016,-1.235429379278396,0.0944154725500989,-0.9317516963607492
1.0,-1.7895858377203997,1.69804477794971,2.126086475692103,0.0708397885472334,0.1997864757665222,0.0190038427634035,0.3249406377930588,-0.7460982099240367,-0.7127306120559673,-1.7803154237670722,1.6760759132600225,2.1053986448343345,0.3527301470097016,-0.8358657347031166,-0.7955731434667301,1.1597852514347842,0.5894030297946717,-0.511623835551811,-0.8578735039676655,9.416790284029048,-1.2356721471042285,0.0929178000822373,-0.9297865686639624
1.02,-1.7829055782700318,1.6829486007815928,2.1119568182985886,0.0710350249366043,0.2010774622932032,0.0187840226135851,0.3428089362973599,-0.7627970381964179,-0.6977396469114886,-1.7803154237670722,1.6760759132600225,2.1053986448343345,0.3527301470097016,-0.8358657347031166,-0.7955731434667301,1.4342733291394114,0.8934149252150553,-0.8349414136190558,0.7495482572239365,9.363447894434104,-1.230023203960385,0.0924277476761673,-0.9183608240981715
1.04,-1.7758648863027735,1.6675337220584951,2.098125911736084,0.0690464830735532,0.2018773471696712,0.0183816812502553,0.3602775739632344,-0.7776664713668567,-0.686269717709726,-1.7803154237670722,1.6760759132600225,2.1053986448343345,0.3527301470097016,-0.8358657347031166,-0.7955731434667301,1.2823929006014525,0.8734318832937238,-0.7434716585219436,0.5734964600881298,11.441474999355703,-1.2311658422457328,0.093489046926389,-0.9251289604643927
1.06,-1.768861599257487,1.65263252209006,2.085130392870532,0.0658184284365617,0.2019883861776086,0.0178689391033984,0.3759343555052143,-0.7897097738632457,-0.6821945122485246,-1.7767881222969752,1.6677172559129914,2.097442913399667,0.3606456609722088,-0.8558657350011398,-0.8155731437647533,1.008443407960778,0.7828390770989985,-0.6021651248194482,0.2037602730600718,10.978320807071212,-1.2328749980147538,0.0958385158740667,-0.9293141041778886
1.08,-1.7611809280941757,1.63673283418262,2.071477154643352,0.062119454150478,0.2012705756276711,0.0172664921728563,0.3911950202268997,-0.7995364361287683,-0.6835819541819458,-1.7697335193567811,1.650999941218929,2.0815314505303326,0.3764766888972233,-0.8958657355971863,-0.8555731443607998,0.9101870331791077,0.7630332360842679,-0.4913331132761322,-0.0693720966710609,10.549557158737116,-1.2360087948789076,0.0985955659063006,-0.930292595756311
1.1,-1.7532069051102994,1.6206545780764363,2.0577416723241906,0.0587329772012733,0.199570558887578,0.0166426172740982,0.4053408833470907,-0.8077943805416203,-0.6900810819746539,-1.762678916416587,1.6342826265248669,2.065619987660998,0.3923077168222378,-0.9358657361932328,-0.8955731449568463,0.8811040679268318,0.7072931560095502,-0.4128972206425996,-0.3249563896354057,10.201562193062273,-1.2399379837966606,0.101031407004401,-0.9286392985480054
1.12,-1.7449625453427189,1.604423899705932,2.043827297115878,0.0558786516477209,0.1967136441265123,0.0160086926775144,0.4182778369333598,-0.8149644112910981,-0.7009822132021879,-1.7548327620801425,1.615565311801002,2.047708524761861,0.4081387447472523,-0.9758657367892792,-0.9355731455528928,0.9187066603133632,0.6468476793134531,-0.3585015374738876,-0.5450565613767,9.913716172910426,-1.2454186718863611,0.1032147454123707,-0.924390535479774
1.14,-1.7369013791593235,1.5888788745951463,2.030386911177457,0.0537233611988126,0.1928631964493091,0.0154023490637248,0.429499124456788,-0.8211247113771312,-0.7132160725527918,-1.7469866077436975,1.5968479970771374,2.029797061862724,0.4239697726722669,-1.0158657373853257,-0.9755731461489392,0.8853444321897898,0.5610643761714107,-0.3080150043016538,-0.6116929675301974,9.67979310668852,-1.251089621996439,0.1048601019570891,-0.9174792384561936
1.16,-1.72819924657754,1.5723857543884063,2.01597223691243,0.0517993870818811,0.1876405237640737,0.014747420970865,0.4398314014577758,-0.8278334083660109,-0.7276321605983911,-1.738744677709127,1.5771306823383715,2.0108855989486862,0.4398008005972813,-1.055865737981372,-1.0155731467449856,0.948137856342914,0.5166138500493883,-0.3354348494439885,-0.720804402279962,9.565737874384467,-1.2574462014388177,0.1061947194562503,-0.9078432022592304
1.18,-1.7193152154395932,1.5557591343639758,2.001252130632691,0.0499499181717156,0.1816126578926403,0.0140799751745262,0.447814163599003,-0.8344160330345564,-0.7435949617639965,-1.730106971976432,1.5564133675847045,1.9909741360197468,0.4556318285222958,-1.0958657385774184,-1.055573147341032,0.9511393956500396,0.3991381070613642,-0.3291312334272711,-0.7981400582802722,9.465181115998348,-1.2641141531035234,0.107446144239869,-0.8965807311962178
1.2,-1.710296134541522,1.5390042543034823,1.9861969408739404,0.0480861138749994,0.1752937534389334,0.013422628943691,0.4535073611924091,-0.8406571605411277,-0.7610742937943537,-1.696924507259643,1.514038332712248,1.964072382544491,0.4890016585922129,-0.9344160345246724,-0.7954854504779763,0.9706843199752364,0.2846598796703042,-0.3120563753285676,-0.873966601517856,9.367304859214528,-1.2702473651247437,0.1086211452047285,-0.8851467129748725
1.22,-1.701565510027189,1.5229318191428658,1.972014462891976,0.0455683631674434,0.1695402565289403,0.0127844819001746,0.4650596747560471,-0.8502621832363635,-0.7309136726710601,-1.696924507259643,1.514038332712248,1.964072382544491,0.4890016585922129,-0.9344160345246724,-0.7954854504779763,1.6847666575756637,0.5776156781819003,-0.4802511347617888,1.508031056164677,12.337476056806736,-1.2677456523495052,0.1099990664018691,-0.8632951377806966
1.24,-1.6921600561609018,1.505847212539692,1.957682886993165,0.0423918251760865,0.1641575810465372,0.0121410691739304,0.4746182790660216,-0.8575559203085833,-0.70436136608295,-1.696924507259643,1.514038332712248,1.964072382544491,0.4890016585922129,-0.9344160345246724,-0.7954854504779763,1.457386789756184,0.4779302154987258,-0.3646868536109904,1.327615329405507,12.337476056806736,-1.274827422941209,0.1121932272801153,-0.865979883825812
1.26,-1.6825934187789815,1.488638890916618,1.9437934940322767,0.039486770399387,0.1595829056042761,0.0115848105146401,0.481383346775032,-0.8629307598184615,-0.6862378844696357,-1.692034490673721,1.504694172367001,1.9561175280397112,0.4972391575908548,-0.9544160348226958,-0.8058635482207722,1.003886979012803,0.3382533854505182,-0.268741975493908,0.9061740806657116,11.742921940510314,-1.2806685467711538,0.1141459315232811,-0.8676139104080561
1.28,-1.6734042752927196,1.4722043103855904,1.9308611068736747,0.0373077651395365,0.1561037013444892,0.0111574411492447,0.4854832302342416,-0.8669071041913539,-0.6759308624252961,-1.6822544575018767,1.4860058516765078,1.940207819030152,0.5137141555881388,-0.9944160354187422,-0.826619743706364,0.5891838897437641,0.2049941729604792,-0.1988172186446202,0.5153511022169821,10.798639176971848,-1.285665941101931,0.1157757384677593,-0.868686690875087
1.3,-1.6636675816586866,1.454831620749981,1.917408427612131,0.0357620990039901,0.1535743888729478,0.0108234369985344,0.4878601457138957,-0.8702401168649508,-0.6700968926622591,-1.6724744243300325,1.4673175309860145,1.9242981100205925,0.5301891535854227,-1.0344160360147887,-0.847375939191956,0.3563492103113418,0.1188457739827036,-0.166650633679849,0.291698488151848,10.49471469216769,-1.2891684001103976,0.1168321340443968,-0.8689987373229932
1.32,-1.653898532007548,1.4374004182756952,1.9040263483438955,0.0352026214785118,0.1524274969607928,0.0106238004574073,0.4890244900983425,-0.872794945899761,-0.6685790636137325,-1.661870641258324,1.4466292102657186,1.9073505912367528,0.5466641515827066,-1.074416036610835,-0.8681321346775479,0.1595826922261091,0.0582172192223423,-0.1277414517405095,0.0758914524263298,10.49471469216769,-1.2904411761340775,0.117096897120649,-0.8700938432515039
1.34,-1.644103585292992,1.4199243488281612,1.890655965937429,0.0359260505543797,0.1524140583749659,0.0105652767053131,0.4905056828989734,-0.8748105483874358,-0.6685774599957554,-1.6512668581866157,1.4259408895454229,1.890403072452914,0.5631391495799907,-1.1144160372068816,-0.8888883301631397,0.1250658633735831,0.0740596400315429,-0.1007801243837369,8.018089885930557e-05,10.249956508509058,-1.2902133468097936,0.1164258176985638,-0.8710205779773094
1.36,-1.634764011231078,1.4032774184635868,1.8779459514268229,0.0377642858304244,0.1530316213240516,0.0106212309491604,0.4925958339846574,-0.877479493648094,-0.6693196671212781,-1.6402512001649752,1.404252568810226,1.872936648781935,0.5796141475772746,-1.154416037802928,-0.9096445256487316,0.1735142053446388,0.1045075542842,-0.1334472630329097,-0.0371103562761376,10.181448990034369,-1.28937934609495,0.1147932581943462,-0.8724186168727612
1.38,-1.624883412273102,1.385687773625954,1.8645449783983572,0.0405128568316715,0.153953346972682,0.0107553422745278,0.4953986006971821,-0.8816237454782315,-0.6707781649639021,-1.6288236671934024,1.3815642480601278,1.8549513202238164,0.5960891455745585,-1.1944160383989744,-0.9304007211343236,0.2605644854607694,0.1401383356262386,-0.2072125915068778,-0.0729248921311986,10.144569997792132,-1.2885539154745913,0.1125361947244533,-0.8737867871505606
1.4,-1.614941047412273,1.3679943361199918,1.851107528032264,0.043294406908241,0.1548740598498518,0.0108994460864256,0.4987169107170402,-0.8875213603890117,-0.6729193846118844,-1.6001134822382428,1.3416065863520426,1.8310060701501625,0.5450013588365541,-0.9816237469683476,-0.6936780888100277,0.3548868291605545,0.1659155009929025,-0.2948807455390112,-0.1070609823991153,10.108833106239215,-1.2874939576367008,0.1102453739967681,-0.8749370242835527
1.42,-1.6048710401072857,1.3500941431483786,1.837968973871248,0.043623365820568,0.1555778423900934,0.0108707865930216,0.508093221484817,-0.9011836797813324,-0.6408160324635731,-1.6001134822382428,1.3416065863520426,1.8310060701501625,0.5450013588365541,-0.9816237469683476,-0.6936780888100277,1.8063771712672505,0.4688155383888365,-0.6831159696160327,1.605167607415564,10.076700535052623,-1.2800697991758476,0.1095028909720446,-0.8667381737064398
1.44,-1.5951308661468675,1.3328636404157208,1.8260612177350568,0.0410250821552423,0.1559091003842999,0.0106359207727413,0.5166585474523968,-0.9115397761652452,-0.6143251058323143,-1.6001134822382428,1.3416065863520426,1.8310060701501625,0.5450013588365541,-0.9816237469683476,-0.6936780888100277,1.485246389514654,0.4282662983789931,-0.517804819195633,1.3245463315629424,12.30397137221462,-1.280516945589467,0.1114053337112735,-0.8776290746630804
1.46,-1.584711051315881,1.314557794153688,1.8140136534579288,0.0368838651545946,0.1558344055208849,0.0102883804721909,0.5247852766412874,-0.9181849731130444,-0.592076554297292,-1.5946634686498773,1.331790348882359,1.824069289262062,0.5549219104644285,-1.001623747266371,-0.6982580735792528,1.2300410716630037,0.4063364594445284,-0.3322598473899651,1.1124275767511127,11.884524886682811,-1.2811762057627478,0.1145442878466116,-0.8864790958993133
1.48,-1.5741394015201555,1.2961519714582297,1.80235318225975,0.0329011515823157,0.1553333758553647,0.0099547515729351,0.5318800753223706,-0.9220789799990328,-0.5753054561686518,-1.583763441473146,1.3121578739429922,1.810195727485861,0.5747630137201772,-1.0416237478624173,-0.7074180431177031,0.9310869862608226,0.3547399340541601,-0.1947003442994255,0.8385549064320097,11.50586391554225,-1.2829404202804322,0.1176996369538405,-0.8929798371892457
1.5,-1.5634375533345397,1.27768660404395,1.7909755308491844,0.0296833991762197,0.1544693545134525,0.0096819037650265,0.5378817285277085,-0.924458935641534,-0.5632808345896099,-1.572863414296415,1.2925253990036252,1.7963221657096609,0.594604116975926,-1.0816237484584637,-0.7165780126561533,0.6824140132217723,0.3000826602668982,-0.1189977821250631,0.6012310789520969,10.90966267694057,-1.2851439390532582,0.1202101910857347,-0.8973297872257862
1.52,-1.5531694213610447,1.2601091028249194,1.7803558924671814,0.0274782275024588,0.1534243749096514,0.0094924387975303,0.5426234373017685,-0.9259122482362052,-0.5551735066732075,-1.5609713319568963,1.270892924034456,1.7819906054565378,0.6144452202316747,-1.12162374905451,-0.7257379821946035,0.4751965002499075,0.2370854387029997,-0.0726656297335592,0.405366395820117,10.90966267694057,-1.2876790410857686,0.1221883500344284,-0.9004416581031873
1.54,-1.5422710477360548,1.2415828839888283,1.7693300049425833,0.0261372898743402,0.1522252879007374,0.0093743337789455,0.5469106262251249,-0.9267524194308226,-0.5478910850375011,-1.549079249617378,1.2492604490652863,1.7676590452034149,0.6342863234874235,-1.1616237496505566,-0.7348979517330537,0.4246161248145778,0.2143594461678166,-0.0420085597308661,0.3641210817853235,10.708421852926222,-1.2895763336400197,0.1233371200783408,-0.9019107547709044
1.56,-1.5312908432536747,1.2230369839272377,1.7584385517503838,0.0257451528917192,0.1509633042876329,0.0093337256647894,0.5508428731744727,-0.9278391638812388,-0.5416581278994828,-1.5366911396964658,1.226627974081216,1.7530984857118304,0.6541274267431723,-1.201623750246603,-0.744057921271504,0.3724692411983114,0.1966123474673897,-0.0543372225208005,0.3116478569009151,10.639945418136447,-1.2913849328383151,0.123732984592809,-0.9029791338791038
1.58,-1.520235914324927,1.2044682473152986,1.7476612761475327,0.0261283604202897,0.1495797177294732,0.0093541131757762,0.5543940290349948,-0.9290354321838168,-0.5363747219770341,-1.52380700219416,1.2029954990822445,1.7383089269817849,0.673968529998921,-1.2416237508426493,-0.7532178908099543,0.3238678123048043,0.1775577930261063,-0.059813415128912,0.2641702961224346,10.581619513093756,-1.2931132650879826,0.1235355615947918,-0.903560145706393
1.6,-1.5096719585900142,1.1868033767748951,1.737512770661378,0.0271345460964588,0.1481300042236489,0.0094214413176607,0.5573745519347569,-0.930412813780887,-0.532148892307323,-1.4925162128731773,1.1580164757061078,1.720842540048681,0.5924599021214473,-1.0290354336739331,-0.5355047131987414,0.2675739767679417,0.1490261449881069,-0.0688690798535063,0.2112914834855539,10.530465165070382,-1.2949534721883944,0.1227840507886052,-0.9036863690577605
1.62,-1.4984192478605582,1.1681207175839798,1.72715302103631,0.0271928552967497,0.1452486397804818,0.0093916962850194,0.5679641993336985,-0.9374643230973366,-0.5027889399863178,-1.4925162128731773,1.1580164757061078,1.720842540048681,0.5924599021214473,-1.0290354336739331,-0.5355047131987414,1.5998993843095122,0.5294823699470763,-0.35257546582248,1.4679976160502597,10.482256410683476,-1.28897821958534,0.1222417789116476,-0.8959249269822995
1.64,-1.486955356229444,1.1493168621444378,1.7173948074979568,0.0254525290602014,0.1394968919973725,0.0091754206530325,0.5773923576591624,-0.9424341161790086,-0.4748231212642181,-1.4925162128731773,1.1580164757061078,1.720842540048681,0.5924599021214473,-1.0290354336739331,-0.5355047131987414,1.49639235286237,0.4714079162731976,-0.2484896540836001,1.3982909361049844,12.208107494724572,-1.2965419562530525,0.1238965692015831,-0.8993565537393592
1.66,-1.4759315425884552,1.1313820099880458,1.7085906317233086,0.0231539612252476,0.1320940680332717,0.0089031615707205,0.5821496265729952,-0.9451196180410908,-0.4532799484397726,-1.4865916138519628,1.1477261213693684,1.7154874929166937,0.6000730767387378,-1.0490354339719563,-0.5353307114430829,1.1112513477086228,0.2378634456916384,-0.1342750931041136,1.077158641222273,11.5579062343013,-1.3057141680806286,0.1260249944156338,-0.8984152367143309
1.68,-1.4642762233448796,1.1124709641046444,1.699724064284718,0.0210321615753326,0.1235144704038616,0.0086533170834791,0.5827746278314232,-0.9459576163375732,-0.4346837156945974,-1.4747424158095337,1.1271454126958895,1.7047773986527188,0.6152994259733188,-1.089035434568003,-0.5349827079317657,0.931279684131829,0.0312500629214007,-0.0418999148241117,0.9298116372587624,11.5579062343013,-1.3151976037295137,0.1279934481116117,-0.8944714693704663
1.7,-1.4526514513588595,1.093555622895254,1.691187626132782,0.0197930094193554,0.1151565352237875,0.0084985782147314,0.5794289552572659,-0.9456463942032336,-0.420043539902475,-1.4628932177671048,1.1065647040224111,1.694067304388744,0.6305257752078998,-1.1290354351640493,-0.5346347044204487,0.7510411630107504,-0.1672836287078649,0.0155611067169714,0.7320087896061173,11.041800799541306,-1.3236595405531542,0.1292211974410945,-0.8891927948752303
1.72,-1.4411304326831686,1.0746580005834208,1.6829068324719307,0.0199290670545718,0.1078297454625416,0.0084760869154673,0.5727868898442345,-0.9443770009865888,-0.4087476286022452,-1.4502827022629468,1.08398399531913,1.683374610300335,0.6457521244424808,-1.1690354357600956,-0.5342867009091317,0.6582666712513094,-0.3321032706515681,0.0634696608322493,0.5647955650114916,11.041800799541306,-1.3301103988830325,0.1293407438146135,-0.8840123630264665
1.74,-1.430334441224668,1.0567331044808828,1.6752370333736903,0.0216979971013485,0.1024015670589501,0.0086004986803068,0.5638918099440873,-0.9427772655716352,-0.3991590620492927,-1.4376721867587887,1.0614032866158492,1.6726819162119262,0.6609784736770618,-1.2090354363561422,-0.5339386973978145,0.6588289010969782,-0.4447539950073631,0.0799867707476809,0.4794283276476269,10.795291770676158,-1.3347921121727595,0.1280798668390186,-0.8789338991099916
1.76,-1.4191751076150956,1.0378795317854086,1.6673551642455633,0.02507167861397,0.0990099108859057,0.0088784592022147,0.5524069714589654,-0.9431359085597556,-0.3895617180796263,-1.424681012523766,1.037822577897667,1.6619979222113002,0.6762048229116427,-1.2490354369521883,-0.5335906938864975,0.7485638768574698,-0.5742419242560914,-0.0179321494060247,0.4798671984833164,10.795291770676158,-1.337072300621482,0.1255856640674021,-0.8762908852077849
1.78,-1.4082555604553073,1.0189876482206224,1.65966201114639,0.02875298638784,0.0984854671183114,0.0092433852983088,0.5404706974555753,-0.9461007097558172,-0.3802493845478828,-1.4113091795578792,1.0132418691645837,1.651322628298457,0.6914311721462237,-1.289035437548235,-0.5332426903751804,0.7713368897936396,-0.5968137001695073,-0.1482400598030731,0.4656166765871772,10.75589798434521,-1.3342471319522438,0.1226904307826562,-0.8778845186111522
1.8,-1.3975595872710505,1.000019500041342,1.652154168678622,0.0320399932422213,0.1002774280653185,0.0096503795208134,0.530030956733444,-0.9504858629410652,-0.3710087700567367,-1.3812320255825286,0.9716826127328316,1.640649541918996,0.5890062903095983,-1.0461007112459333,-0.3888754097179706,0.7307645157254767,-0.5219870361065637,-0.2192576592624007,0.4620307245573052,10.75589798434521,-1.3296139768485895,0.1202095446937767,-0.8820554026951182
1.82,-1.3875736948483086,0.9818400175045464,1.645284989007999,0.0324511755599928,0.1037199274972935,0.0099113414953667,0.5219695285620648,-0.9617907026794976,-0.3525120188912925,-1.3812320255825286,0.9716826127328316,1.640649541918996,0.5890062903095983,-1.0461007112459333,-0.3888754097179706,1.1564123716805284,-0.4030714085689613,-0.565241986921633,0.9248375582722096,10.752639996301696,-1.3202451053982085,0.1195642760331845,-0.8856751222701321
1.84,-1.377208043562052,0.9625191407854436,1.6384222144109015,0.0296474090978487,0.1088185180966151,0.0100094299074612,0.5153039089709085,-0.9693714546402245,-0.334900400375107,-1.3812320255825286,0.9716826127328316,1.640649541918996,0.5890062903095983,-1.0461007112459333,-0.3888754097179706,1.0149721567409078,-0.3332809795578151,-0.3790375980363358,0.8805809258092739,11.428090014225743,-1.3124055924322249,0.1217704464547255,-0.8976496193052443
1.86,-1.3669548613835003,0.9430919943769608,1.631879774087968,0.02571099371742,0.1148090162181044,0.0100457631509997,0.5105959800122069,-0.972769059126321,-0.3203702923083261,-1.3753419626794323,0.9612216056203722,1.6367607878218162,0.5987134088804029,-1.0661007115439565,-0.3906006147519882,0.7823559799676513,-0.2353964479350823,-0.1698802243048247,0.7265054033390478,11.064833126908525,-1.3048629669703584,0.1250327497517012,-0.909908861790344
1.88,-1.3567755668569044,0.9236283015506744,1.625596140542818,0.0222432421933504,0.1211224049184846,0.010110459190344,0.5077849140111301,-0.9736285350989516,-0.3087402270395729,-1.3635618368732407,0.9402995913954536,1.6289832796274568,0.6181276460220121,-1.106100712140003,-0.3940510248200233,0.5997899823383959,-0.1405533000538361,-0.0429737986315348,0.5815032634376577,11.064833126908525,-1.298358811467833,0.1279185300055586,-0.9214091837173446
1.9,-1.3471397444897224,0.9051346851851584,1.6198215782932086,0.0198683924720562,0.1270070566143986,0.0102250312470393,0.5067887961329681,-0.9733032464386798,-0.299714833267875,-1.3517817110670487,0.9193775771705348,1.6212057714330974,0.6375418831636213,-1.1461007127360494,-0.3975014348880584,0.4543011013466152,-0.0498058939081003,0.0162644330135908,0.451269688584896,10.911432749273445,-1.292234481982489,0.1302703439094154,-0.9326827059093246
1.92,-1.337000979586988,0.8856815770373249,1.6139135185029387,0.0185087061363481,0.1327760357451288,0.0104135748407247,0.5072663622275055,-0.9721824024441156,-0.2916470559086236,-1.3390308734037764,0.8964555629158139,1.6132557427353362,0.6569561203052304,-1.1861007133320958,-0.4009518449560936,0.4079625967942737,0.0238783047268709,0.0560421997282067,0.4033888679625674,10.800304055110246,-1.2868682510774443,0.1317062492964105,-0.9431317406165752
1.94,-1.3268366966209997,0.8662601859259265,1.6081577615779876,0.0186689068509546,0.1378704819920518,0.0106988719174984,0.5091981829491985,-0.9702777595982094,-0.2843529153806327,-1.326280035740504,0.8735335486610928,1.605305714037575,0.6763703574468397,-1.2261007139281423,-0.4044022550241287,0.3891146415688601,0.0965910360846478,0.095232142295315,0.3647070263995494,10.72892344045522,-1.2825677910354865,0.1319108308202757,-0.9520780762115052
1.96,-1.317130872566481,0.8478387881136656,1.6028211923128437,0.0202145030090398,0.1418707272511255,0.0110593476093924,0.5123633480843566,-0.9690432311643568,-0.2777708587201009,-1.3130438421486912,0.8496115343914707,1.597269425088113,0.6957845945884489,-1.2661007145241887,-0.4078526650921638,0.370357262211981,0.1582582567579038,0.0617264216926261,0.3291028330265899,10.70353167335452,-1.2790010346761755,0.130878771978223,-0.960411194315806
1.98,-1.3068395926274945,0.8284636602649196,1.597337105963492,0.0230423532029453,0.1450401969218773,0.0115113504364947,0.5165947884168056,-0.968845592595129,-0.2710010945325537,-1.2993222926283383,0.8246895201069474,1.58914687588695,0.715198831730058,-1.306100715120235,-0.4113030751601989,0.3992926728795524,0.2115720166224521,0.0098819284613915,0.3384882093773578,10.696227499819544,-1.276900378602969,0.1287879941977797,-0.9672461345178988
2.0,-1.2964560388560682,0.8090669216431384,1.591986847693066,0.0262623916817546,0.1470720253189605,0.011972331098156,0.5214604053538532,-0.9709146806929444,-0.2643706444048549,-1.2810098532066545,0.7800213806351631,1.5837870512368644,0.5884861782040027,-1.068845594085245,-0.2768705427175207,0.4240230613731608,0.2432808468523783,-0.1034544048907737,0.3315225063849403,10.698171620536414,-1.2756170018897948,0.126311159426054,-0.9723383869302592
2.02,-1.286489327022997,0.7905256914961668,1.587144942403549,0.0271515401300262,0.1482706151109165,0.0122439173261935,0.527418138771125,-0.9796846561416144,-0.2456265007619072,-1.2810098532066545,0.7800213806351631,1.5837870512368644,0.5884861782040027,-1.068845594085245,-0.2768705427175207,1.07674274753653,0.2978866708635896,-0.4384987724334932,0.9372071821473856,10.701224176125834,-1.2713876861861635,0.1255790891838517,-0.9716957736058756
2.04,-1.275879270815075,0.7708695847115045,1.5824237785159243,0.0254312965738752,0.1491939504567732,0.0123392882442755,0.533248492123192,-0.9853088030774632,-0.2276461971691488,-1.2810098532066545,0.7800213806351631,1.5837870512368644,0.5884861782040027,-1.068845594085245,-0.2768705427175207,0.9860468627982883,0.2915176676033526,-0.2812073467924447,0.89901517963792,11.559470739442986,-1.2711092435813778,0.1274381401628357,-0.9792503009348008
2.06,-1.2651577538251095,0.7511277448672738,1.5780291448648869,0.0225105485998558,0.1499254074774215,0.0123516955057542,0.5385949937403482,-0.9883102378349649,-0.2128510928732873,-1.2751249914246143,0.7693329246943107,1.5810183458096891,0.6028644561614421,-1.0888455943832682,-0.2780444323545141,0.8007633877607208,0.2673250808578109,-0.1500717378750793,0.7397552147930725,11.387148339209489,-1.2711750101741262,0.1304030489922195,-0.985921537065364
2.08,-1.254334924783215,0.7313585480216321,1.5738971616604187,0.019792839095222,0.1505534930806675,0.0123826050196771,0.5434351658053229,-0.9886423444434184,-0.2010884448496515,-1.2633552678605342,0.7479560128126057,1.5754809349553387,0.631621012076321,-1.1288455949793148,-0.280392211628501,0.6361946418862002,0.2420086032487334,-0.0166053304226809,0.5881324011817929,11.022351392595738,-1.2719158362048004,0.1331349276713497,-0.9915290715975756
2.1,-1.2439673727758669,0.7125851777241933,1.5701675173865757,0.0180567602187239,0.1511345596353444,0.0124765244601583,0.5476652900975525,-0.9877491535048432,-0.1921027506946837,-1.251585544296454,0.7265791009309008,1.5699435241009885,0.6603775679911998,-1.1688455955753612,-0.2827399909024878,0.4985840977886434,0.2115062146114787,0.0446595469287602,0.4492847077483902,11.022351392595738,-1.272730826822596,0.1352569031115593,-0.9966080997237882
2.12,-1.2329700915891804,0.6928504971579579,1.5664100456877468,0.0174522613023696,0.151808933489649,0.012666855675906,0.5518555860339305,-0.985902558239056,-0.1841933588778828,-1.23837799293663,0.7032021890193936,1.5642887242829384,0.6891341239060786,-1.2088455961714075,-0.2850877701764746,0.456965461008077,0.2095147968188992,0.092329763289356,0.3954695908400432,10.891457324114526,-1.273196263465601,0.1362425255330866,-1.001066657320223
2.14,-1.2218892626304951,0.6731601038294781,1.562802124861713,0.0185438063406266,0.1525936481455797,0.0129808453035357,0.5560478785180121,-0.9834160449403432,-0.1770257931332605,-1.225170441576806,0.6798252771078864,1.5586339244648888,0.7178906798209576,-1.248845596767454,-0.2874355494504614,0.4333937682992392,0.2096146242040797,0.1243256649356427,0.3583782872311147,10.802911670441972,-1.2732338628432007,0.135673517259747,-1.0053262045325602
2.16,-1.2107194616982428,0.6535098605767068,1.5593337877080202,0.0213392344948596,0.1533688428595197,0.0134147250666386,0.5607273675297221,-0.9820351976404352,-0.1701762071150082,-1.21124397631911,0.655448365181478,1.5529204301649893,0.7466472357358364,-1.2888455973635005,-0.2897833287244482,0.4204794444970396,0.2339744505855001,0.0690423649953975,0.3424793009126167,10.758643301817756,-1.2734079269194518,0.1336905586768014,-1.0096245314256171
2.18,-1.200017201820401,0.6348416892164879,1.5561652462091615,0.0247075668211961,0.1539157526798039,0.0138715843003251,0.5655715247200781,-0.9832467247176152,-0.1637050813581924,-1.1965985971635422,0.6300714532401684,1.5471482413832405,0.7754037916507152,-1.3288455979595468,-0.292131107998435,0.4086842464058942,0.2422078595178012,-0.0605763538589876,0.3235562878407858,10.758643301817756,-1.2735060362368178,0.1308489701961467,-1.013518365040847
2.2,-1.1886500650086995,0.6151471223846467,1.5529629195503425,0.0280775371502102,0.1541950336492203,0.0143299801790947,0.5708670152071246,-0.9861546808328314,-0.1568673564365481,-1.1717386255843971,0.5856793529806071,1.5479799921412518,0.6466755425142103,-1.0274272818493824,-0.1606397814169656,0.4562151640687222,0.2647745243523236,-0.1453978057608163,0.3418862460822194,10.764491902657936,-1.2733993692158927,0.1280964403930066,-1.0164001716109246
2.22,-1.1771434890155863,0.5951371580137225,1.5500140116661665,0.0231043194971117,0.1538006935568164,0.0141893859389478,0.579554043421199,-1.0110624882046817,-0.1375643653854756,-1.1717386255843971,0.5856793529806071,1.5479799921412518,0.6466755425142103,-1.0274272818493824,-0.1606397814169656,1.6343720436172835,0.4343514107037205,-1.2453903685925027,0.9651495525536208,10.772714432269822,-1.2695108853143542,0.1326508852497152,-1.0126750233408708
2.24,-1.1660601933652843,0.5758400760701614,1.547577140987414,0.0102503443861279,0.1526858126258225,0.0135002270857875,0.5865636868847238,-1.0175915452148585,-0.1199466505423589,-1.1717386255843971,0.5856793529806071,1.5479799921412518,0.6466755425142103,-1.0274272818493824,-0.1606397814169656,1.002680860520002,0.350482173176242,-0.3264528505088404,0.8808857421558388,11.69457133400374,-1.2699293707462838,0.1447662844464711,-1.01491333672112
2.26,-1.1542701981054797,0.5555181044730633,1.545332189467063,-0.0043281078372147,0.151282497432864,0.012748741838753,0.5919418516881577,-1.0139863393007205,-0.1057022778369756,-1.165271870159255,0.5754050801621133,1.5463735943270822,0.6628963460730368,-1.036263393275736,-0.1600267214287202,0.782343147388178,0.2689082401716947,0.180260295706891,0.7122186352691614,11.466485999679207,-1.2728451865298058,0.1588209029692368,-1.0178175075361031
2.28,-1.1423929645926467,0.5353382698379048,1.5433190865888191,-0.0171961745108021,0.1501431294834112,0.0121659732818598,0.5955435504705004,-1.004543838357632,-0.0963209874932122,-1.1523383593089709,0.5548565345251256,1.5431607986987428,0.6953379531906897,-1.0539356161284428,-0.1588006014522295,0.689459329280823,0.1800849391171366,0.4721250471544258,0.4690645171881696,11.171877426624633,-1.276246521280236,0.1714900623833938,-1.020220846288204
2.3000000000000003,-1.1304563121800637,0.5153843320601609,1.5414565407188958,-0.0274798848631942,0.1495464494534812,0.0117941798413887,0.5980106874365978,-0.9918887344053936,-0.0904050379456238,-1.1394048484586865,0.534307988888138,1.5399480030704036,0.7277795603083426,-1.0716078389811496,-0.1575744814757388,0.7092899264423737,0.1233568483048674,0.6327551976119117,0.2957974773794197,10.905644758356177,-1.279181915903881,0.1813836880976192,-1.0221647157478266
2.32,-1.1190770719214909,0.4966807211472644,1.5397746078106342,-0.0347579241293471,0.1496157909911638,0.0116233598522732,0.5997715625639567,-0.978122494152232,-0.0869304316824391,-1.1248492572525195,0.5128758321085151,1.5367965134408887,0.7602211674259954,-1.0892800618338565,-0.156348361499248,0.7153372292249325,0.0880437563679448,0.6883120126580822,0.1737303131592343,10.7193210952164,-1.2814639658805054,0.1894102992152572,-1.024287516301445
2.34,-1.1070632632271813,0.4772817112673689,1.5380683583483157,-0.0400662521393609,0.1503883662487743,0.0116013453312166,0.6016016345228269,-0.9628996862474296,-0.0838935247709211,-1.1102936660463527,0.491443675328892,1.533645023811374,0.7926627745436484,-1.1069522846865634,-0.1551222415227573,0.7815143112419395,0.0915035979435097,0.761140395240123,0.1518453455759016,10.602937935530464,-1.2827506704789975,0.1951724118005845,-1.0268277412417517
2.36,-1.095005759201128,0.4581897210039922,1.5364203992176917,-0.0433469615529316,0.1516963641427102,0.0117123508950894,0.6041407504862043,-0.9475372153871604,-0.0810482423115093,-1.0949270346622446,0.4695697129779513,1.5305241871812716,0.8251043816613013,-1.1246245075392705,-0.1538961215462665,0.7914358045380847,0.1269557981688707,0.7681235430134659,0.1422641229705888,10.579569436099518,-1.2832285314555922,0.1989107641706432,-1.0301196527580854
2.38,-1.0834964471402209,0.4403373230271449,1.534908611657564,-0.0449988000886281,0.1531256911694882,0.0119218273407245,0.6072786078204314,-0.9327512055234934,-0.0782273024424529,-1.078749363100195,0.447253945055693,1.5274340035505811,0.8575459887789542,-1.142296730391977,-0.1526700015697758,0.7688139210551026,0.1568928667113556,0.7393004931833425,0.1410469934528237,10.577635487429689,-1.2836311947772352,0.2014684930397657,-1.034209598522906
2.4,-1.0713104110798926,0.4218504644408223,1.533377386471394,-0.0452823527612228,0.1545915173237042,0.0122553268265419,0.6111930448867497,-0.916858643337469,-0.0750336989755798,-1.0531325167491994,0.3936997627509703,1.5309972465354411,0.6914936229933898,-0.9193319452526,-0.0826583475909745,0.8338097107350747,0.1957218533159166,0.7946281093012209,0.1596801733436521,10.592562582216487,-1.28430161684435,0.2026975504564131,-1.038952378713594
2.42,-1.059012062363941,0.4035091220324412,1.5319523051832031,-0.0495964992119783,0.1551928694283003,0.0123584628477795,0.6183890409692884,-0.9156326572481956,-0.067536481680794,-1.0531325167491994,0.3936997627509703,1.5309972465354411,0.6914936229933898,-0.9193319452526,-0.0826583475909745,0.5231961120751918,0.3597998041269312,0.0612993044636689,0.374860864739291,10.614480135719532,-1.2840700431334051,0.2075163201754274,-1.0403647777120413
2.44,-1.046582469245947,0.3853166806273673,1.5306684461612328,-0.0585058163049845,0.1545703629121605,0.0122257699061077,0.6240400700458045,-0.9030054998394264,-0.0613421124093828,-1.0531325167491994,0.3936997627509703,1.5309972465354411,0.6914936229933898,-0.9193319452526,-0.0826583475909745,0.7578744033810431,0.2825514538258078,0.6313578704384593,0.3097184635705595,10.862762164807464,-1.2871282945737947,0.2165933955190645,-1.0419647292259209
2.46,-1.0346878261843395,0.3683359378213603,1.529539000647691,-0.0670182469374134,0.1536013713313038,0.0121512990683324,0.6276812553752033,-0.885191528335731,-0.0578508950332664,-1.0462175805192655,0.3845064432984443,1.5301706630595313,0.7083366260279814,-0.9166480931984212,-0.0835445566206789,0.925721894124795,0.1820592664699361,0.8906985751847729,0.1745608688058189,10.772609130339331,-1.2918951104386809,0.2264419641065936,-1.0432908342488612
2.48,-1.0221072301502074,0.3508602390228698,1.528403983830349,-0.0745604117359203,0.1527647217128779,0.0121941621063375,0.6301761432575953,-0.8635266458477845,-0.055896338507506,-1.0323877080593975,0.3661198043933923,1.528517496107712,0.7420226320971648,-0.9112803890900636,-0.0853169746800875,1.0947738236442164,0.1247443941196024,1.0832441243973256,0.0977278262880233,10.649152845464414,-1.296378670415458,0.2349675664031647,-1.044649801633094
2.5,-1.0094865907990012,0.3338395463180537,1.5272929754582238,-0.0801365391020801,0.152466191995115,0.012362975975259,0.6318424497947721,-0.8401260030191483,-0.0552735967428692,-1.01855783559953,0.3477331654883403,1.5268643291558923,0.7757086381663482,-0.9059126849817064,-0.0870893927394962,1.1734079315978132,0.0833153268588404,1.1700321414318091,0.0311370882318376,10.563392551841387,-1.300432879687938,0.241451123425725,-1.0471661109403263
2.52,-0.9968363782094096,0.3172951180871459,1.5261883962845395,-0.0838069196794931,0.1528490098552652,0.0126314740150877,0.6332022670723892,-0.8159868401860826,-0.055187801804137,-1.003043662836203,0.3296149117887061,1.5251225413011025,0.8093946442355315,-0.9005449808733489,-0.0888618107989049,1.2088792806575843,0.0679908638808568,1.206958141653286,0.004289746936608,10.50625471483272,-1.3039978630180056,0.2464832547589318,-1.0502317463345587
2.54,-0.9847926330111056,0.3020285368338934,1.5251416201518369,-0.0856948160173841,0.1538618224976719,0.0129584587948784,0.6346003188367535,-0.7926305549269383,-0.0549828758834446,-0.987529490072876,0.311496658089072,1.5233807534463124,0.8430806503047149,-0.8951772767649915,-0.0906342288583135,1.1699493626599102,0.0699025882182124,1.167814262957212,0.0102462960346213,10.48681101247712,-1.3066723269535672,0.2498621214495026,-1.0542053320576084
2.56,-0.9720781820680018,0.286440042844912,1.5240475956586388,-0.0860633580241137,0.1554243818448758,0.0133858080983439,0.6368544973722101,-0.7676196034809883,-0.0544077338097845,-0.9711731671578194,0.2935125969921469,1.5215946551400372,0.8767666563738982,-0.889809572656634,-0.0924066469177222,1.2559456611516635,0.1127089267728309,1.2505475722975,0.0287571036830056,10.503684838225126,-1.3085095238506457,0.2517730784517095,-1.0602031531318403
2.58,-0.959309622235133,0.2713592708397269,1.5229700317903343,-0.0844217666147964,0.1571771961336634,0.0139491982850925,0.6399481505177133,-0.7419354282141292,-0.0533432271153335,-0.9539746940910332,0.2756627284979306,1.519764246382277,0.9104526624430817,-0.8844418685482766,-0.0941790649771308,1.2945855740602408,0.1546826572751569,1.2842087633429589,0.0532253347225526,10.535815246554192,-1.3102088609494706,0.251888094267026,-1.0670894393202963
2.6,-0.9464703992084996,0.2567878573445156,1.5219221521762958,-0.0805465976451355,0.158844721315385,0.0146870073443861,0.6438450111133119,-0.7172967199600833,-0.0514424548510231,-0.9273122147092474,0.2342624994290204,1.5203028704345676,0.7116865649840943,-0.706764236074742,-0.0488878753789369,1.250864103460375,0.1948430297799341,1.2319354127022952,0.0950386132155183,10.576852075148963,-1.312961157137323,0.2498689861572581,-1.0741546275559295
2.62,-0.9341225233622876,0.2433109250210504,1.5210111509850752,-0.0779156863120573,0.158153639805262,0.0155026612958663,0.6554336433354571,-0.7015022286117918,-0.0446371222864306,-0.9273122147092474,0.2342624994290204,1.5203028704345676,0.7116865649840943,-0.706764236074742,-0.0488878753789369,1.036912369786012,0.5794316111072562,0.7897245674145736,0.3402666282296247,10.94441617258235,-1.3122994693651082,0.2485195473161028,-1.0794545737056762
2.64,-0.9209030844882308,0.2294775168688728,1.5201962721590303,-0.0771086596463638,0.1531916641193,0.01655763785016,0.6652322129425514,-0.6825647097557911,-0.0371789885151481,-0.9273122147092474,0.2342624994290204,1.5203028704345676,0.7116865649840943,-0.706764236074742,-0.0488878753789369,1.1294526839544896,0.4899284803547177,0.9468759428000352,0.3729066885641254,10.94441617258235,-1.32440696732772,0.2499849384136697,-1.080433722103063
