t,x,y,z,roll,pitch,yaw,v_x,v_y,v_z,ref_x,ref_y,ref_z,ref_v_x,ref_v_y,ref_v_z,a_com,a_x,a_y,a_z,thrust,wind_x,wind_y,wind_z
0.0,-2.1808115765789946,1.2384911143779254,1.9918577715307628,0.0222517145272668,0.1365187678839013,0.0266003811997922,0.0053029605255236,0.0030165953554417,0.006525805594074,-2.180653169501595,1.238654061808707,1.992058469127857,0.1020123059323425,-0.0951943767541365,-0.093353148860209,0.4466748720416854,0.26514802627618,0.150829767772086,0.326290279703703,10.547521483849778,-1.287480928853391,0.1536648413692496,-1.1715127317800496
0.02,-2.1808298351159414,1.2387832937323346,1.9917562241045723,0.0312713162092496,0.1390949059633228,0.0272835194843039,-0.0061510119492332,0.020777084042071,-0.0166734496545435,-2.180653169501595,1.238654061808707,1.992058469127857,0.1020123059323425,-0.0951943767541365,-0.093353148860209,1.5691031578029593,-0.5726986237378425,0.8880244343314646,-1.1599627624308817,10.54823064680295,-1.3102526351791497,0.1467782867672897,-1.186871872503855
0.04,-2.181027873455187,1.2391833779693304,1.991146420264584,0.0451914599362479,0.1448358262665841,0.0284435065605969,-0.0136706570959644,0.0199934657347329,-0.046280795401952,-2.180653169501595,1.238654061808707,1.992058469127857,0.1020123059323425,-0.0951943767541365,-0.093353148860209,1.5278694667664985,-0.3759822573365618,-0.0391809153669009,-1.4803672873704212,9.216276569119144,-1.299986755022063,0.1308936625800321,-1.1722856413058038
0.06,-2.1813485256392933,1.2395196206208838,1.989901764605153,0.0601874476139881,0.1525437716253875,0.0298448154018277,-0.0176191305799699,0.0133211907538667,-0.0765499258037008,-2.1796330464422717,1.2377021180411656,1.9911249376392544,0.1213577310016746,-0.1151943770521597,-0.1133531491582322,1.5623139501651564,-0.1974236742002749,-0.3336137490433111,-1.5134565200874404,8.824450629958392,-1.2854268582767103,0.1149432709261014,-1.158817845449038
0.08,-2.1817118763182624,1.2396858501331145,1.9880727513826293,0.0746402993486589,0.160902417575302,0.031345861348419,-0.0182130481221368,0.0033271375224778,-0.104759019663272,-2.1775928003236245,1.2357982305060828,1.9892578746620504,0.1600485811403389,-0.1551943776482062,-0.1533531497542787,1.4966519421836448,-0.0296958771083438,-0.499702661569445,-1.410454692978564,8.88895386871809,-1.2719825678842074,0.1001365465576546,-1.1485509578411444
0.1,-2.1820564816836123,1.2396224149752793,1.9857029405448012,0.0884190051110923,0.1693244521064959,0.0329019528707128,-0.0159766538142966,-0.0094577294620337,-0.1308412966651046,-2.1755525542049776,1.233894342971,1.9873908116848464,0.1987394312790031,-0.1951943782442526,-0.1933531503503251,1.4566566658894953,0.1118197153920115,-0.639243349225582,-1.3041138500916287,9.000218390332066,-1.2604960509561862,0.0871682076203294,-1.1397147253607218
0.12,-2.1823194488676463,1.2393006523651289,1.9829835510879,0.1008865892677886,0.1771055070840136,0.0343995367918887,-0.0116337826773128,-0.0240109237784993,-0.1541347412639423,-2.1715777655793973,1.229990455406115,1.98352374867784,0.2374302814176674,-0.2351943788402991,-0.2333531509463715,1.3903601653927395,0.2171435568491886,-0.7276597158232777,-1.164672229941882,9.10983547070009,-1.250443517680084,0.0745329699241123,-1.1326094737795491
0.14,-2.182487985561337,1.2386391802861594,1.9796454358229012,0.1133784384051716,0.1849265152413493,0.0359694728038463,-0.0052557522951006,-0.0416342392830402,-0.1784700124658171,-2.167602976953817,1.2260865678412298,1.979656685670833,0.2761211315563316,-0.2751943794363456,-0.273353151542418,1.535794538177072,0.3189015191106116,-0.881165775227045,-1.2167635600937392,9.19872845664213,-1.2429323590146268,0.0627922409582229,-1.1280442832292723
0.16,-2.1825107220188937,1.2376012256616993,1.9758242815507137,0.1252485676018438,0.1923110445956295,0.037510937808714,0.0028382658528179,-0.0615297049169483,-0.2024338621484818,-2.1626609170747706,1.2211826802614436,1.9747896226489252,0.3148119816949959,-0.315194380032392,-0.3133531521384645,1.6090437953814405,0.4047009073959264,-0.9947732816954056,-1.198192484133237,9.21821539980283,-1.236846650137666,0.0524076468952429,-1.123736358179137
0.18,-2.182354444018394,1.2361421785301332,1.9715296418298285,0.1365234542565968,0.1992404599758382,0.0390057268560411,0.0125385025117458,-0.0836141185498083,-0.2258683746392173,-2.156751585942257,1.2152787926667563,1.9689225596121167,0.3535028318336601,-0.3551943806284384,-0.3533531527345109,1.6815114424416673,0.4850118329463972,-1.1042206816429996,-1.1717256245367778,9.253517138190546,-1.231422294530204,0.0422398566217463,-1.1189526320758594
0.2,-2.18201175820508,1.234304162576734,1.9670173611932635,0.1459573312271441,0.2054139938029889,0.0403160750577344,0.0231639721693953,-0.1084283084803159,-0.2479055054817679,-2.181727518892808,1.2319614726026429,1.9602362230978676,0.1125385040018619,-0.1836141200399244,-0.3258683761293335,1.7423258615458757,0.5312734828824757,-1.2407094965253809,-1.10185654212753,9.33824144675782,-1.2264806383142015,0.0336025440729544,-1.1130825895085863
0.22,-2.181391239649425,1.2317028550698548,1.9619086921323308,0.1500120360851095,0.2114962526642617,0.0412333423691777,0.0385749067294523,-0.1485309098509042,-0.2609628369137494,-2.181727518892808,1.2319614726026429,1.9602362230978676,0.1125385040018619,-0.1836141200399244,-0.3258683761293335,2.245111046711985,0.7705467280028487,-2.0051300685294127,-0.65286657159907,9.33824144675782,-1.2131349206123894,0.0308094599338496,-1.1010696089520802
0.24,-2.1804485069408925,1.2283725576006357,1.9565623776168335,0.1476351918414404,0.217164446618103,0.0416075971826327,0.0550134868161195,-0.1817682201608515,-0.2730433312134567,-2.181727518892808,1.2319614726026429,1.9602362230978676,0.1125385040018619,-0.1836141200399244,-0.3258683761293335,1.9499256745006752,0.8219290043333618,-1.661865515497367,-0.6040247149853656,10.079119749931124,-1.208929223490376,0.033784372769126,-1.1016245718363695
0.26,-2.1791718112871266,1.224439691601276,1.950962038773564,0.1424395568028086,0.2224591569252713,0.0416821150076596,0.0719436051944975,-0.2092440771689555,-0.2863010467931298,-2.180602133852789,1.2301253314022436,1.956977539336574,0.1325385042998851,-0.2036141203379476,-0.3458683764273567,1.7445046926184915,0.8465059189188995,-1.373792850405199,-0.6628857789836545,9.99469015278737,-1.2066385503325352,0.0392570310213475,-1.1021941783541649
0.28,-2.1776408911487293,1.2202353943212547,1.9453842428118184,0.1370270910234077,0.2271683378455279,0.0416290291068655,0.0884527376945343,-0.2318262159797834,-0.3001641903374537,-2.178351363772752,1.2264530490014451,1.9504601718139876,0.1725385048959316,-0.2436141209339941,-0.3858683770234031,1.5610022406340436,0.8254566250018379,-1.1291069405413967,-0.6931571772161971,9.888083281995932,-1.2044320469622205,0.0454001718021686,-1.1028906700156362
0.3,-2.175685932517292,1.215372271506012,1.9392139437014075,0.1317368389681584,0.2318146059333265,0.0415162628920621,0.1062545441921421,-0.2532868007822674,-0.3162214794534096,-2.1761005936927145,1.2227807666006467,1.9439428042914009,0.212538505491978,-0.2836141215300405,-0.4258683776194496,1.6088019986905415,0.8900903248803889,-1.0730292401241972,-0.8028644557977971,9.79129314675538,-1.202678250934394,0.0509979682169593,-1.104089015019429
0.32,-2.173370088891839,1.2100950635563346,1.9327088737809148,0.1271644048667961,0.2361666444211273,0.0413765833998912,0.124517523145301,-0.2733931682727073,-0.3335460522861056,-2.1718498235828747,1.217108484170046,1.935425436739012,0.2525385060880245,-0.323614122126087,-0.465868378215496,1.6108563233103173,0.9131489476579484,-1.0053183745219962,-0.8662286416347975,9.696937252356292,-1.2017118592222369,0.0559010959342049,-1.1044852251753323
0.34,-2.170683025971094,1.2044267717945834,1.9258502849265948,0.1233638713909518,0.2402422823766465,0.0412225678040674,0.1433611629232072,-0.2925486102627716,-0.3514621976808411,-2.1675990534730354,1.211436201739445,1.9269080691866225,0.292538506684071,-0.3636141227221335,-0.5058683788115426,1.6147770617948374,0.942181988895306,-0.9577720995032152,-0.8958072697367758,9.627366010879086,-1.2013103658373845,0.0598498618682324,-1.1040376839560977
0.36,-2.167775208252749,1.198684705824868,1.9189995222103908,0.120136996508287,0.2438722301245876,0.0410459606973469,0.1618478557648894,-0.3108374276341544,-0.3687689644954116,-2.1623482833482948,1.2047639192939432,1.9173907016193323,0.3325385072801174,-0.4036141233181799,-0.5458683794075889,1.561860133495007,0.9243346420841124,-0.9144408685691412,-0.865338340728522,9.599358212862173,-1.2012790568273493,0.0635670493659259,-1.102988735274218
0.38,-2.164329391078494,1.1922703488638366,1.9114293233215107,0.1168768632337908,0.2474534706051549,0.0408144675134978,0.1818285555204044,-0.3295396760014327,-0.3873509113820987,-2.156097513208653,1.19709163683354,1.906873334037141,0.3725385078761638,-0.4436141239142263,-0.5858683800036354,1.6540036327129546,0.9990349877757472,-0.9351124183639148,-0.9290973443343564,9.587760018787776,-1.2008027137835622,0.0670463906438861,-1.1012775685182217
0.4,-2.160478286892951,1.1854871336457635,1.9034849018671096,0.1136536903015359,0.2508032770185283,0.0405335517774038,0.2023467217460572,-0.3477251603839958,-0.4061604725796504,-2.155237963302474,1.175793365063765,1.8920617777524056,0.2818285570105205,-0.4295396774915488,-0.4494443592759566,1.6624579543077276,1.0259083112826444,-0.909274219128156,-0.9404780598775864,9.565279978498438,-1.2003312722185897,0.0702292057028826,-1.0995579601508256
0.42,-2.156336023955493,1.178674899401939,1.8958680504993584,0.1102996686237984,0.2530706695970892,0.0401205986696126,0.2324772321774538,-0.3681343194561403,-0.394630613633198,-2.155237963302474,1.175793365063765,1.8920617777524056,0.2818285570105205,-0.4295396774915488,-0.4494443592759566,1.908742439548668,1.506525521569828,-1.0204579536072205,0.576492947322621,9.552654790165434,-1.1919923851484793,0.0736869575290834,-1.0861526439531055
0.44,-2.1513607388102067,1.171109845758773,1.8880863859040569,0.1068065487299282,0.2540077907922123,0.0395104348173126,0.2632683519586006,-0.3872723135033845,-0.3844105108007641,-2.155237963302474,1.175793365063765,1.8920617777524056,0.2818285570105205,-0.4295396774915488,-0.4494443592759566,1.883352313983503,1.5395559890573385,-0.95689970236221,0.5110051416216954,11.500918729158911,-1.197381058278629,0.0767087827471125,-1.0924456200780224
0.46,-2.1457800720640865,1.16317492633363,1.8804613817170737,0.103697194868299,0.253558946123026,0.0387675904517442,0.2931206880300602,-0.405277853949708,-0.3785602947982016,-2.1524196777323685,1.1714979682888496,1.8875673341596464,0.3018285573085437,-0.4495396777895721,-0.4618630488547283,1.7674745280796864,1.4926168035729823,-0.9002770223161788,0.2925108001281262,11.233185329693695,-1.2023638771929588,0.0790559702031136,-1.0971210193708858
0.48,-2.1396117829179744,1.154889760407874,1.872917968105304,0.1009301977106338,0.251511269256096,0.037876843710137,0.3220748839411737,-0.4223630636893987,-0.3760367203401882,-2.1467831065921583,1.1629071747390187,1.8785784469741271,0.3418285579045901,-0.4895396783856185,-0.4867004280122715,1.6856884949134998,1.447709795555671,-0.8542604869845344,0.1261787229006661,10.978283750161609,-1.2083858770171474,0.0811772137423005,-1.0985148213356155
0.5,-2.133226400129697,1.1467099569882753,1.865772556503599,0.0986124307609484,0.2478889175986212,0.0368821428167936,0.3484717008986896,-0.4378556830381737,-0.376197640694256,-2.141146535451948,1.1543163811891877,1.869589559788608,0.3818285585006366,-0.529539678981665,-0.5115378071698147,1.5303913675388658,1.3198408478757973,-0.7746309674387497,-0.0080460177033891,10.776350714939326,-1.216236797025748,0.0829624296049501,-1.0966310580381389
0.52,-2.125984131593677,1.1377888705585062,1.8582273488323255,0.0965386631577843,0.2423550366922283,0.0356945161643161,0.3739556476892093,-0.4534842193866025,-0.3783450105080033,-2.133509964281935,1.1437255876095545,1.859358803645212,0.421828559096683,-0.5695396795777115,-0.5363751863273578,1.4985775668389634,1.274197339525987,-0.7814268174214406,-0.107368490687365,10.606874242970662,-1.2274430025964969,0.084537114115248,-1.0907681110819534
0.54,-2.1182655466001945,1.1285595494781249,1.8506306282317404,0.0948877363244764,0.2357878683181287,0.0344433206494661,0.3963487551761596,-0.4687052878852514,-0.3811503113045476,-2.125873393111922,1.133134794029921,1.8491280475018157,0.4618285596927295,-0.6095396801737579,-0.5612125654849011,1.3610675054178616,1.1196553743475113,-0.7610534249324452,-0.1402650398272142,10.401162351083258,-1.2383252042353257,0.0855731234007292,-1.0833606387518049
0.56,-2.1105412861804544,1.1195039026935318,1.8433553696000016,0.0934605431515166,0.2291643312353268,0.0332349095616927,0.4153917454989574,-0.4836612953260136,-0.3844660932113176,-2.1172368219270084,1.1215440004353865,1.8382763568794804,0.501828560288776,-0.6495396807698043,-0.5860499446424442,1.2219984131081834,0.9521495161398912,-0.7478003720381071,-0.1657890953384977,10.401162351083258,-1.249055806615298,0.0864028019767536,-1.0747100031004626
0.58,-2.1020445186404704,1.1096646081942592,1.8356217665126495,0.0917937568974198,0.2221548233272968,0.0319575130431418,0.4330578413593728,-0.4993908950216923,-0.3887192538969233,-2.1076002507271934,1.1089532068259509,1.8268037317782069,0.5418285608848225,-0.6895396813658508,-0.6108873237999873,1.2016661613706052,0.8833047930207727,-0.786479984783936,-0.2126580342802858,10.267695779627502,-1.2590345957275129,0.0873355833256,-1.065607545965794
0.6,-2.0932183303426646,1.09951138714987,1.8277929708598704,0.0897687152387516,0.2154225099764851,0.0306943048122604,0.4484930635854197,-0.5149627494287451,-0.393948778189408,-2.080391626572501,1.0846950634431745,1.816185803817804,0.5242034685599763,-0.5993908965118084,-0.4312036155752852,1.127027793765074,0.7717611113023437,-0.7785927203526388,-0.2614762146242344,10.188842695692074,-1.2679997879046083,0.0885762647536518,-1.056302624420243
0.62,-2.084018363816983,1.0889985443292802,1.820130221259434,0.0863721770937538,0.2084923869048971,0.0293393169898062,0.4703451044678713,-0.534632886393883,-0.3719328985565295,-2.080391626572501,1.0846950634431745,1.816185803817804,0.5242034685599763,-0.5993908965118084,-0.4312036155752852,1.8365218042300877,1.0926020441225814,-0.9835068482568932,1.1007939816439245,10.188842695692074,-1.2678819354674613,0.0905617743997445,-1.0404175919673535
0.64,-2.07490580179079,1.078687373154956,1.8132466922344748,0.0824231770353989,0.2016201600201641,0.0280111332601845,0.4874795063429651,-0.5496449142418671,-0.3540528986477364,-2.080391626572501,1.0846950634431745,1.816185803817804,0.5242034685599763,-0.5993908965118084,-0.4312036155752852,1.4479667679752792,0.8567200937546898,-0.7506013923992083,0.8939999954396538,11.948861171072169,-1.2779796601528712,0.0934032828872364,-1.0397722512226208
0.66,-2.065001240445472,1.0675496057346716,1.8063139509299029,0.0785444168471744,0.1947548272136727,0.0267028569646929,0.5018541790994465,-0.5633236037489383,-0.3403572119536066,-2.075149591886902,1.0787011544780565,1.8118737676620509,0.542432594000097,-0.6193908968098316,-0.4397004879109575,1.2055181432796356,0.7187336378240677,-0.6839344753535592,0.6847843347064925,11.567649465324394,-1.2868633199761514,0.0960502799373386,-1.0377782829367148
0.68,-2.0548434514539444,1.0561525305042172,1.7996067060262462,0.075231471868642,0.1887157609288497,0.0255347433810213,0.5130104497937824,-0.5757251967557196,-0.3312265038185251,-2.064665522515702,1.0667133365478203,1.803249695350545,0.5788908448803385,-0.6593908974058781,-0.4566942325823023,0.9508308418945874,0.5578135347167945,-0.6200796503390671,0.4565354067540716,10.937542709562877,-1.294484536387072,0.0982559349666596,-1.035018941583762
0.7000000000000001,-2.044496350742854,1.044518382687568,1.7930382286019584,0.072563458596871,0.1840640875789733,0.0245437977177862,0.5210577707342713,-0.5871849738070591,-0.3260521723085244,-2.054181453144502,1.054725518617584,1.7946256230390394,0.6153490957605798,-0.6993908980019246,-0.4736879772536471,0.746424093530321,0.4023660470244439,-0.5729888525669746,0.258716575500037,10.937542709562877,-1.3006622243423065,0.0999096895138742,-1.0325141761378422
0.72,-2.034543038059877,1.033259880280845,1.786865826990791,0.0706134940238824,0.181561562999666,0.0238003292789878,0.5262344529281447,-0.5974642626433208,-0.3239286232263533,-2.041874471229291,1.0407377006575456,1.7851518634939665,0.6518073466408212,-0.739390898597971,-0.4906817219249918,0.5851736456387298,0.258834109693673,-0.5139644418130807,0.1061774541085525,10.533471670016295,-1.30456457574218,0.1011490574073026,-1.0307098490982718
0.74,-2.0239684610251096,1.0212040001567917,1.780399521981298,0.069223722495362,0.1813678347222997,0.0232481521702828,0.5312450717219587,-0.6076232823694917,-0.3228915478816134,-2.02956748931408,1.0267498826975072,1.7756781039488936,0.6882655975210626,-0.7793908991940175,-0.5076754665963367,0.568743148891306,0.2505309396906963,-0.5079509863085474,0.0518537672369978,10.533471670016295,-1.303053363834715,0.1016231076450188,-1.0312245007319565
0.76,-2.013277172546501,1.0089407171875284,1.773941792776375,0.0683529726682601,0.1830060667010832,0.0228664251569786,0.5378489126574909,-0.6181540269672863,-0.3229467518097974,-2.016349051126862,1.0117620647225676,1.765779500787037,0.724723848401304,-0.8193908997900639,-0.5246692112676814,0.6215109499427138,0.3301920467766117,-0.5265372298897286,-0.0027601964092016,10.45599235611826,-1.300036732915009,0.1016825289855122,-1.0336419432952688
0.78,-2.002435694907885,0.9964646909917856,1.7674750512451485,0.0676543092651921,0.1855706477783504,0.0225655236258739,0.5461070720816146,-0.6288480995208136,-0.3237359241104234,-2.002219156667638,0.9957742467327269,1.7554560540083968,0.7611820992815453,-0.8593909003861103,-0.5416629559390261,0.676725900521074,0.4129079712061834,-0.5347036276763639,-0.0394586150313014,10.403128457930508,-1.2963227952940546,0.101645529588672,-1.0371497207503804
0.8,-1.9919689281278763,0.9844133152816562,1.7613108566423834,0.0669555763064271,0.1882372161053007,0.0222972988796996,0.5553055326896239,-0.6391029871655661,-0.3250922720632586,-1.9751303413038044,0.9650222860157448,1.7512882550396274,0.6336478997731696,-0.7288481010109297,-0.3646578096306432,0.6921236846343982,0.4599230304004664,-0.5127443822376287,-0.0678173976417562,10.369714778693378,-1.2929309283457209,0.1016966162584341,-1.041051498947141
0.8200000000000001,-1.9806771520091413,0.971469212196505,1.7549836087850064,0.0648553210290162,0.1897685396667079,0.021838931262188,0.5735338814416886,-0.654309290395061,-0.3065066791205196,-1.9751303413038044,0.9650222860157448,1.7512882550396274,0.6336478997731696,-0.7288481010109297,-0.3646578096306432,1.507422154845344,0.9114174376032348,-0.760315161474745,0.9292796471369464,10.34250860582688,-1.283445072439563,0.1025719394822232,-1.0403142101284266
0.84,-1.969022807185931,0.9582614295637164,1.7490352765283883,0.0615195488563816,0.1889701296128665,0.0211527115594696,0.5907567343484923,-0.6655301661808286,-0.2895607831619703,-1.9751303413038044,0.9650222860157448,1.7512882550396274,0.6336478997731696,-0.7288481010109297,-0.3646578096306432,1.332007981852022,0.8611426453401849,-0.5610437892883791,0.8472947979274642,11.732978774828553,-1.2856941223289768,0.1048729953481271,-1.0471356824948337
0.86,-1.9576507204385232,0.945530032207511,1.743649457676971,0.0585567298755174,0.1864716425718929,0.0204249832701391,0.6053013104309937,-0.6741428991783579,-0.2781838315744936,-1.9687938623060728,0.9577338050056357,1.747641676943321,0.6511560653114806,-0.7488481013089529,-0.3728421867346872,1.0187724114469696,0.7272288041250685,-0.4306366498764646,0.5688475793738351,11.14069367081629,-1.2902963881477,0.1071983456468295,-1.0506179611285766
0.88,-1.945404458052588,0.931965051199996,1.7381758661657989,0.056065314481351,0.1823683883342429,0.0196387011080103,0.6183436604496853,-0.6820119660261594,-0.2699284700412032,-1.9561209043106091,0.9431568429854168,1.740348520750708,0.6861723963881026,-0.7888481019049993,-0.3892109409427751,0.8662795465531966,0.6521175009345792,-0.3934533423900765,0.4127680766645214,11.14069367081629,-1.2966716716487476,0.1089971497945832,-1.0502302844145432
0.9,-1.9329263594622017,0.9182515551054552,1.7328272475130606,0.05438520666992,0.1772818265422192,0.0188763043186595,0.6286113881855951,-0.6891149549384872,-0.2653069623158837,-1.943447946315146,0.9285798809651984,1.7330553645580953,0.7211887274647246,-0.8288481025010458,-0.405579695150863,0.6656519698810567,0.5133863867954946,-0.3551494456163873,0.2310753862659775,10.8968443101121,-1.3038353752793137,0.1100489966244237,-1.0471049973291564
0.92,-1.9209118259952267,0.9050986712720104,1.7278050649389898,0.0536619476395333,0.1722338293688552,0.0182180733045807,0.6354408554536911,-0.6951767214722366,-0.2635542851617112,-1.9290241717658516,0.9120029189151774,1.724943770655078,0.7562050585413467,-0.8688481030970923,-0.421948449358951,0.4649153521944535,0.3414733634047984,-0.3030883266874729,0.0876338577086216,10.682262556527348,-1.3113469166865892,0.110317927849494,-1.0423138824041107
0.94,-1.90815339659054,0.8911346092814213,1.7225408389399162,0.0540936346677886,0.1675270901804725,0.0176516261536544,0.6398440675783196,-0.7010262632297217,-0.2630080519715323,-1.9146003972165568,0.8954259568651565,1.716832176752061,0.7912213896179687,-0.9088481036931388,-0.4383172035670389,0.3670959904612481,0.2201606062314232,-0.2924770878742544,0.0273116595089467,10.50796477989752,-1.3178045892816157,0.1094578482959154,-1.0370338128503769
0.96,-1.895330092569892,0.877044022971765,1.7172752294630456,0.0556502910387047,0.164219074074767,0.0172426835887471,0.6421469472920343,-0.7078028267451381,-0.2636193550574164,-1.899301214390347,0.8778489948002344,1.7083113639938414,0.8262377206945907,-0.9488481042891852,-0.4546859577751268,0.3591613826579974,0.1151439856857339,-0.3388281757708167,-0.0305651542942042,10.355130045512851,-1.3218325999047822,0.1076487685058293,-1.0330427563063822
0.98,-1.8824778374970328,0.8628060584285319,1.711986988887276,0.0578583221726533,0.1628792982416388,0.0169900275753314,0.6430884264840812,-0.715715704885111,-0.26517609636696,-1.8831266232872208,0.8592720327204112,1.6993813323804197,0.8612540517712126,-0.9888481048852314,-0.4710547119832147,0.4059663379886292,0.047073959602345,-0.3956439069986495,-0.0778370654771792,10.301769941521345,-1.3228554602511549,0.1050932657208478,-1.0309062222621113
1.0,-1.8702455461357683,0.8491173724276623,1.7069271975248042,0.0599715184508787,0.1633346765377525,0.0168545033997153,0.644672220318131,-0.7247443400812298,-0.2673627072942686,-1.8503234161728288,0.8270202731842763,1.698728184068928,0.7355816252960891,-0.8157157063752272,-0.2968499747982802,0.4711844749161254,0.0791896917024914,-0.4514317598059369,-0.1093305463654326,10.262363626835397,-1.320653564263846,0.1024432605641743,-1.030857786975416
1.02,-1.857271512724652,0.8344455579062928,1.7017645759198494,0.0599240766818637,0.1645232274120158,0.0166023139423358,0.6529248718845594,-0.7414815887687319,-0.2476493060774904,-1.8503234161728288,0.8270202731842763,1.698728184068928,0.7355816252960891,-0.8157157063752272,-0.2968499747982802,1.3572582096250505,0.4126325783214202,-0.8368624343751074,0.9856700608389112,11.772760745167034,-1.310127313182279,0.1015217127348075,-1.0272145636854548
1.04,-1.8441266468917703,0.8194641378776703,1.697007537040787,0.0566740445173609,0.1657241276146765,0.0161364260202797,0.6611259951530519,-0.755333561520146,-0.2293491948619065,-1.8503234161728288,0.8270202731842763,1.698728184068928,0.7355816252960891,-0.8157157063752272,-0.2968499747982802,1.2186361664517285,0.4100561634246269,-0.6925986375707016,0.9150055607791946,11.772760745167034,-1.3078654377961163,0.1036788060239457,-1.0351559411826716
1.06,-1.831492992675541,0.8050192789586879,1.6927801892361372,0.0524294600983768,0.1669470242505112,0.0156276592058288,0.6683731516699304,-0.7643030862732959,-0.2165331938967372,-1.842967599919868,0.818863116120524,1.695759684320945,0.7540802650584907,-0.8357157066732503,-0.3031847504845442,0.8620086029395576,0.362357825843923,-0.4484762376574969,0.6408000482584636,11.490522851598143,-1.306181160472306,0.1072755425618483,-1.0425136033027331
1.08,-1.818050118665286,0.7896621947378161,1.6885558177799531,0.0482922690531013,0.1683273401883273,0.0151310113367081,0.6755559799281775,-0.7709878512689289,-0.2067591636002113,-1.8282559674139465,0.8025488019930195,1.6898226848249795,0.7910775445832938,-0.8757157072692968,-0.3158543018570723,0.6924788319358951,0.359141412912356,-0.3342382497816487,0.488701514826298,10.963289422687922,-1.3051836040266385,0.1107304422496834,-1.0485575678876873
1.1,-1.8044674284170497,0.7741889391234972,1.684487487833781,0.0450737772873679,0.1698286019246666,0.0147155056143034,0.6824226216675152,-0.7762404980616026,-0.2005683867802707,-1.8135443349080247,0.786234487865515,1.6838856853290138,0.828074824108097,-0.9157157078653432,-0.3285238532296003,0.5316643319316066,0.3433320869668854,-0.2626323396336838,0.3095388409970256,10.963289422687922,-1.304404652852364,0.1132965768641356,-1.0534214642463982
1.12,-1.7914378512234237,0.7593995262871089,1.6807121323112988,0.0429437688447811,0.1713586618793687,0.0144003898234323,0.6888285911729691,-0.780521638948537,-0.1971600417605077,-1.7969828384258628,0.7679201737082081,1.6773152082644218,0.8650721036329001,-0.9557157084613898,-0.3411934046021284,0.4212523838874109,0.3202984752726956,-0.2140570443467215,0.1704172509881515,10.621553887151094,-1.303499628755416,0.1151365092703253,-1.0577146664788328
1.14,-1.777589487718489,0.7437493433197843,1.6767974010510271,0.0417205889181598,0.1730812824834908,0.014155240800152,0.6957269520979699,-0.7843787542124777,-0.1945412563406144,-1.7804213419437007,0.7496058595509012,1.6707447311998298,0.9020693831577034,-0.9957157090574362,-0.3538629559746565,0.4163014493319336,0.3449180462500367,-0.1928557631970362,0.1309392709946663,10.621553887151094,-1.302137826580964,0.1159922784603289,-1.0614229005019704
1.16,-1.7635951929070603,0.7280185612086303,1.672926733957662,0.0414788400603797,0.1747576605972777,0.0139875481588638,0.7033935931986403,-0.7885490253005881,-0.1926902307711526,-1.762934913473419,0.7302915453786932,1.6638575153509247,0.9390666626825064,-1.0357157096534826,-0.3665325073471846,0.4460797080500844,0.3833320550335195,-0.2085135544055205,0.0925512784730894,10.572190237283394,-1.3007033021308694,0.1159394854716166,-1.064812281255988
1.18,-1.7494405377875974,0.7122013872353806,1.6690860347762655,0.0419770134886953,0.1760867088726431,0.0138677327432875,0.7116643084329617,-0.792995274768657,-0.1914734671463546,-1.7445235530150167,0.7099772311915841,1.6566535607177062,0.9760639422073096,-1.075715710249529,-0.3792020587197127,0.4734299804041023,0.4135357617160717,-0.2223124734034465,0.0608381812399,10.50807813317715,-1.2997395787666293,0.1152128726511927,-1.0677677776619534
1.2,-1.7358370020329037,0.6970884824541672,1.6654546045936085,0.0429713029751985,0.176879363050972,0.0137796828055334,0.7198264438618599,-0.7976311055580397,-0.1908412792004948,-1.7138573223659497,0.6725516234969477,1.6595123614189478,0.7832721291226399,-0.8884242631061738,-0.2262675295223769,0.4704015398209126,0.4081067714449105,-0.2317915394691339,0.031609397292992,10.50807813317715,-1.2995426549021714,0.1139626222707128,-1.0697512460642609
1.22,-1.7212410824105406,0.6810090924243136,1.6617946325581308,0.0422904138539261,0.1747050385368426,0.0134462590385676,0.7395956981917394,-0.8095919746244422,-0.17433364315352,-1.7138573223659497,0.6725516234969477,1.6595123614189478,0.7832721291226399,-0.8884242631061738,-0.2262675295223769,1.419848454450742,0.9884627164939764,-0.598043453320124,0.8253818023487375,10.48092943016036,-1.2941977057919054,0.1138321225346686,-1.0652770666166118
1.24,-1.7062697566655949,0.6647233657690221,1.6584695321511511,0.03894587727176,0.1672067645617791,0.01273041193738,0.7556440901296496,-0.817869200171641,-0.1591643546810935,-1.7138573223659497,0.6725516234969477,1.6595123614189478,0.7832721291226399,-0.8884242631061738,-0.2262675295223769,1.1791635375465008,0.8024195968955095,-0.4138612773599393,0.758464423621323,11.62359293420286,-1.304984850913807,0.116734368305831,-1.0617248528956462
1.26,-1.6918166907423544,0.6491393476315961,1.6555438433442098,0.0353470462718316,0.1573452514320425,0.0119645396172151,0.7644609183302397,-0.8221739012507934,-0.149488177575777,-1.706024601074723,0.6636673808658861,1.657249686123724,0.7975936932605755,-0.9075100607736772,-0.2332263419975814,0.689012543922509,0.4408414100295021,-0.2152350539576186,0.4838088552658257,11.3436288728235,-1.3193834003942968,0.1202619613911323,-1.0544126212434206
1.28,-1.6764874197461264,0.6326688045824924,1.6526202062985478,0.0322152624737579,0.1461135204222045,0.0112328207474208,0.7675714586123655,-0.8247984757993029,-0.1435613314728662,-1.69035915849227,0.6458988956037626,1.6527243355332764,0.8262368215364468,-0.945681656108684,-0.2471439669479903,0.3594835084360659,0.1555270141062936,-0.1312287274254753,0.296342305145543,11.001157199451882,-1.333526704461346,0.1231150286270074,-1.0437211529864243
1.3,-1.6611542950899816,0.6161560815930471,1.6497704678560694,0.0300971407488891,0.1356095270569917,0.0106443527947712,0.7653410006664868,-0.8265343498859433,-0.1418739147047653,-1.6746937159098174,0.6281304103416391,1.648198984942829,0.8548799498123181,-0.9838532514436906,-0.2610615918983993,0.1645871869425988,-0.1115228972939363,-0.0867937043320221,0.0843708384050415,10.450962177557813,-1.345842604697952,0.1249732872382399,-1.031962757355226
1.32,-1.645912783838188,0.5996175243882892,1.6469141069575215,0.0291700440060615,0.1270155133067464,0.0102286418346073,0.7589764667422666,-0.8274512310625686,-0.1438215805794995,-1.6575961169135711,0.6084533453127653,1.6429777531048608,0.8835230780881893,-1.0220248467786974,-0.2749792168488082,0.335936621716819,-0.3182266962110103,-0.0458440588312625,-0.0973832937367094,10.450962177557813,-1.35477683300224,0.1256785542370378,-1.0217136159292912
1.34,-1.6315818613007789,0.5838950928225984,1.6441474666008666,0.0296678136470241,0.1213623702735784,0.0100176363497162,0.7498478773835973,-0.8277112466221785,-0.1472963226941052,-1.6404985179173248,0.5887762802838914,1.637756521266893,0.9121662063640606,-1.060196442113704,-0.2888968417992171,0.4885503672433999,-0.4564294679334668,-0.0130007779804985,-0.1737371057302816,10.2515359021545,-1.3612767129143692,0.1251182654998022,-1.0125766160179213
1.36,-1.6167064465685763,0.5673315271970596,1.6411550123911671,0.0316278375446849,0.1188882037518377,0.0100038130284238,0.7382825933971295,-0.828743530104164,-0.1518020139196531,-1.6226848407141816,0.5681449253716424,1.6321873488051648,0.940809334639932,-1.0983680374487108,-0.3028144667496261,0.6227412309595507,-0.5782641993233861,-0.0516141740992737,-0.2252845612773973,10.162036715430077,-1.3626576619275603,0.1231536075249603,-1.0070155894105808
1.38,-1.6020551393694031,0.5507317918899897,1.6380682723217663,0.0346016843158894,0.1199229605845207,0.0101773842397404,0.7278077260926795,-0.8314949724291418,-0.156667871176436,-1.6041550853041415,0.5465592805760183,1.6262702357196763,0.9694524629158032,-1.1365396327837174,-0.316732091700035,0.5936536169284695,-0.523743365222501,-0.1375721162488907,-0.2432928628391423,10.110186656903352,-1.359138430841361,0.12022175786114,-1.006072360535582
1.4,-1.587590201120687,0.5340527227006366,1.634885374916181,0.0375894394660695,0.1234475582324,0.0104511108771906,0.7195733159149454,-0.8362384311940205,-0.1613861289090355,-1.5656647530647692,0.5091570432685326,1.6302348787629446,0.802741254992826,-0.8712024617408369,-0.172089321314528,0.5304900283240725,-0.4117205088867037,-0.2371729382439347,-0.2359128866299756,10.084973103556877,-1.353045210682277,0.1174161247370963,-1.008225918417342
1.42,-1.5739261294664215,0.5178625826255705,1.6319799681440623,0.0322988161866057,0.1274923933844253,0.0101796487519043,0.7192081596808323,-0.8628619781867983,-0.1440071670160305,-1.5656647530647692,0.5091570432685326,1.6302348787629446,0.802741254992826,-0.8712024617408369,-0.172089321314528,1.5897915822761797,-0.0182578117056575,-1.33117734963889,0.86894809465025,10.092960931756352,-1.3382406962217712,0.1213924655376416,-1.003605632913712
1.44,-1.5595403675694348,0.5004890668323894,1.6292809052438728,0.0186781265729755,0.1314064619371692,0.0093056826048161,0.7194432618820003,-0.871748254006666,-0.1270230927665976,-1.5656647530647692,0.5091570432685326,1.6302348787629446,0.802741254992826,-0.8712024617408369,-0.172089321314528,0.958488326874678,0.0117551100583979,-0.4443137909933836,0.849203712471644,11.592745462946368,-1.331513276804417,0.133566173026372,-1.012915587284346
1.46,-1.5451490932436351,0.4830611341638955,1.626869030312608,0.0039237250119075,0.1350363288582095,0.0083256820175249,0.7197247033120998,-0.8703063992550475,-0.1152745054296932,-1.557637340514841,0.5004450186511242,1.6285139855497994,0.8177279607728553,-0.8791439596031759,-0.1751736113421464,0.5920039248523,0.014072071504978,0.0720927375809254,0.5874293668452185,11.33281573099157,-1.328303308066133,0.1472488681196213,-1.0222894974010617
1.48,-1.5307530509596752,0.4657312830739694,1.6246351342194283,-0.0092346029726074,0.1384279742397388,0.0074410120987115,0.7199500044901104,-0.8630618841478023,-0.1087115328636812,-1.5415825154149845,0.4830209694163075,1.6250721991235089,0.8477013723329139,-0.895026955327854,-0.1813421913973832,0.4888925461237456,0.011265058900528,0.362225755362261,0.3281486283006007,11.000617571257862,-1.3267674797176974,0.159169282741942,-1.0297387933252142
1.5,-1.5170718890852062,0.4494365509944309,1.6225982940897168,-0.0194543828657594,0.1414820591936935,0.0067553740610355,0.720232888362263,-0.853016658444403,-0.1060294683422098,-1.5255276903151278,0.4655969201814908,1.6216304126972183,0.8776747838929725,-0.910909951052532,-0.18751077145262,0.5200482016474365,0.0141441936076291,0.5022612851699637,0.1341032260735702,10.729387661020157,-1.3257644496517644,0.1696631200382079,-1.0360347909410732
1.52,-1.5026627744901544,0.4325075139597597,1.6204841539920387,-0.0277543921710141,0.1445738033934644,0.0062089710324438,0.7207279830849651,-0.8407609470029466,-0.1056320848322649,-1.5079741946372682,0.4473787211604401,1.6178801972681658,0.9076481954530312,-0.92679294677721,-0.1936793515078569,0.6136071531824528,0.0247547361351074,0.6127855720728215,0.0198691754972425,10.53469913491881,-1.32504568906356,0.1778812338507613,-1.0415318523309514
1.54,-1.4882387705891318,0.4158390945271655,1.6183660799531523,-0.0336175108237079,0.1475620757068469,0.0058432010233393,0.7217273380016145,-0.8272739255611382,-0.1061863604292712,-1.4904206989594089,0.4291605221393895,1.6141299818391135,0.9376216070130896,-0.942675942501888,-0.1998479315630937,0.6767674620182812,0.0499677458324687,0.6743510720904178,-0.0277137798503142,10.409609565511346,-1.324276310248829,0.1838396266821098,-1.046316676407807
1.56,-1.4737842516027468,0.3994414746597751,1.6162341765922217,-0.0375182140438108,0.1502927553362013,0.0056359736532938,0.723701676983672,-0.8136012943064426,-0.1069733429452639,-1.472117867992548,0.4105452482252219,1.61022555190868,0.9675950185731484,-0.958558938226566,-0.2060165116183305,0.6918421086552741,0.0987169491028783,0.6836315627347822,-0.0393491257996321,10.379948525649525,-1.323653839827459,0.1878168440659365,-1.0506653061458324
1.58,-1.4600082937984369,0.3841175632984599,1.6141934444567916,-0.0398026058501825,0.152450469233026,0.0055701615081469,0.7262911616566952,-0.8004740671954116,-0.107795987829159,-1.4530657017366857,0.3915328994179374,1.606166907476866,0.997568430133207,-0.9744419339512442,-0.2121850916735673,0.6702728308334734,0.1294742336511556,0.6563613555515491,-0.041132244194756,10.382011335699644,-1.3236509570515531,0.1906593196898852,-1.0549029567255537
1.6,-1.4454496267719326,0.3682569599032753,1.6120275219804523,-0.0409473979582977,0.154170670870277,0.0056293377710104,0.7294310817187505,-0.7864079147978084,-0.1087554434748993,-1.423693735715602,0.3440938599386893,1.6088036450653336,0.8155797688964184,-0.8203163323692044,-0.1224093303005798,0.7222123932833738,0.1569960031027661,0.7033076198801613,-0.0479727822870153,10.382011335699644,-1.3242998613252326,0.1923458986278505,-1.0590842741041655
1.62,-1.4308021554161,0.3526314858824924,1.6099391176953102,-0.0424291853734717,0.1550690389804034,0.005718835801896,0.7351738725653594,-0.776450921678118,-0.0995619886112141,-1.423693735715602,0.3440938599386893,1.6088036450653336,0.8155797688964184,-0.8203163323692044,-0.1224093303005798,0.7359364290209993,0.2871395423304446,0.4978496559845169,0.4596727431842584,10.383805456830489,-1.3234289976672295,0.1939736061866196,-1.0599444484529257
1.64,-1.41604801061536,0.3372381818408912,1.608036430393816,-0.0447083277858939,0.1552203474328622,0.0058064162376933,0.7398618178128628,-0.7633288767758969,-0.0913277840589911,-1.423693735715602,0.3440938599386893,1.6088036450653336,0.8155797688964184,-0.8203163323692044,-0.1224093303005798,0.8092697598257129,0.2343972623751689,0.6561022451110565,0.4117102276111492,11.037141381850232,-1.3261966484719463,0.1972355753852882,-1.0667588637461562
1.66,-1.4019556431452638,0.3228773933172701,1.6063571926110864,-0.046315279496319,0.1551602160142569,0.0059587903487731,0.7433072893231681,-0.7492220121141537,-0.0858352271769004,-1.4155379380266375,0.3358906966149973,1.6075795517623277,0.833437490344363,-0.824284785403963,-0.1253319987948639,0.7762781164248835,0.1722735755152693,0.7053432330871579,0.2746278441045358,10.91554462629574,-1.3298413469768644,0.2000309620381418,-1.0730452232979657
1.68,-1.387059386720933,0.3080590411713652,1.6046851277315637,-0.0469063211607812,0.1551909277648525,0.0062121887011252,0.7461315363170452,-0.733483088467005,-0.0817321817530823,-1.3992263426487093,0.3194843699676132,1.6051313651563162,0.8691529332402523,-0.8322216914734801,-0.1311773357834322,0.8254166681184641,0.1412123496938533,0.7869461823574342,0.2051522711909073,10.78734991877809,-1.3333343177781285,0.2017209455727484,-1.078928481534773
1.7,-1.3721129455812446,0.2935650488299827,1.6030794811648252,-0.0458152304601499,0.1555455683166464,0.0065859417227558,0.7484334738858321,-0.7169951867546864,-0.0790276531806504,-1.382914747270781,0.3030780433202291,1.6026831785503046,0.9048683761361416,-0.8401585975429973,-0.1370226727720005,0.8433034659076954,0.1150968784393469,0.824395085615931,0.1352264286215959,10.695554190549956,-1.3363434046708578,0.2017304036427024,-1.084836704139671
1.72,-1.3571225470145962,0.2794000187145199,1.6015199396519828,-0.0427196323137261,0.1563192677407389,0.0070955922615254,0.7505733716920293,-0.7008819273466401,-0.0770440200484099,-1.364817379748058,0.2862748713693692,1.5999427250948646,0.9405838190320308,-0.8480955036125144,-0.1428680097605688,0.8187659796536527,0.1069948903098583,0.8056629704023155,0.0991816566120212,10.628421265091674,-1.3389479579896575,0.1998519659947538,-1.0904377726182346
1.74,-1.3428401923600572,0.2662154772262043,1.600077151205809,-0.0385800306799967,0.1574531750525054,0.0076589646116079,0.7528061480207465,-0.6881187814956335,-0.074923837909268,-1.346720012225335,0.2694716994185092,1.5972022716394243,0.9762992619279202,-0.8560324096820315,-0.1487133467491371,0.6564646876475587,0.1116388164358606,0.6381572925503287,0.1060091069570973,10.591022834395517,-1.340561134843092,0.1964799155170122,-1.0961088664092211
1.76,-1.327752070711547,0.2525738741809846,1.59860513010874,-0.0339962696242222,0.1588930877351636,0.0082712371166755,0.7559481581418206,-0.6768482113351119,-0.0723840731113313,-1.3277297586302153,0.2524701048159113,1.5943156847592703,1.0120147048238095,-0.8639693157515487,-0.1545586837377054,0.5986409286312875,0.1571005060537034,0.5635285080260843,0.1269882398968344,10.60473786975126,-1.3411278057899805,0.1927756404788942,-1.1019755089450922
1.78,-1.312592937297331,0.239141837759629,1.5971863030084312,-0.0296428648018243,0.1602930806944106,0.0088813115490457,0.7598366535163551,-0.6669825547396477,-0.069626532554876,-1.3078466189626978,0.2352700875615756,1.5912829644544018,1.0477301477196987,-0.8719062218210658,-0.1604040207262737,0.5478494461480654,0.1944247687267253,0.4932828297732061,0.137877027822765,10.62466353174932,-1.3416718371810614,0.1892999373900523,-1.1081897145424993
1.8,-1.2973497758168304,0.2258954545061195,1.595823334145264,-0.0256968574300166,0.1614257836264673,0.0094815377132614,0.7642633003813741,-0.6581536941372389,-0.0668223865467343,-1.274601104621513,0.2057927100226466,1.5937049763806874,0.8389042637205749,-0.6782316452845272,-0.0632763938645534,0.5133400842505069,0.2213323432509517,0.4414430301204419,0.1402073004070865,10.64117541628002,-1.34265374629665,0.1864087878371706,-1.114428513221402
1.82,-1.2826943032283802,0.2134034655670562,1.5947048247367603,-0.0245334053544712,0.1600225683430333,0.0099412316409845,0.7779105473586048,-0.6560756045278766,-0.0510875099973877,-1.274601104621513,0.2057927100226466,1.5937049763806874,0.8389042637205749,-0.6782316452845272,-0.0632763938645534,1.0466042070731023,0.6823623488615316,0.1039044804681144,0.7867438274673288,10.64879125130301,-1.337406326526585,0.1851681046319729,-1.1126759602936362
1.84,-1.2670079968137828,0.2003357442825745,1.5938490911119862,-0.0264948427783124,0.1540438072476783,0.0103305795838443,0.7892130705847088,-0.6505774672844371,-0.0353893158157032,-1.274601104621513,0.2057927100226466,1.5937049763806874,0.8389042637205749,-0.6782316452845272,-0.0632763938645534,1.00549719665222,0.5651261613052017,0.2749068621719752,0.7849097090842225,11.430700820239508,-1.3502156114834187,0.1888720371754898,-1.1172626153508134
1.86,-1.2511595023403048,0.1874124687578845,1.593275060149099,-0.0300104703938027,0.1455238646727101,0.0107189069946551,0.7946164311164068,-0.6416637675189336,-0.022768276161752,-1.2662120619843076,0.1990103935698013,1.5930722124420418,0.8547177857614189,-0.680481463393503,-0.0620063661264888,0.8184451577406685,0.2701680265848993,0.4456849882751745,0.6310519826975638,11.430700820239508,-1.364014553275456,0.1938428366993763,-1.117326481333322
1.88,-1.2352625834580189,0.1747020754493196,1.5929207843062494,-0.0333146446590083,0.136423071377965,0.0111905560572597,0.794562608893795,-0.6299930102193921,-0.0132659664173895,-1.249433976709896,0.1854457606641108,1.5918066845647507,0.8863448298431068,-0.6849810996114548,-0.0594663106503598,0.7525014339757992,-0.0026911111305871,0.5835378649770739,0.4751154872181238,11.227148684321037,-1.378778203579858,0.1988340133069165,-1.1146163628064965
1.9,-1.220205923983349,0.1628561199127359,1.5927345086786209,-0.0356067821252096,0.1285920050293781,0.0117109812796362,0.7903117214151434,-0.6178087986738765,-0.0068003920542136,-1.2326558914354846,0.1718811277584203,1.5905411566874597,0.9179718739247948,-0.6894807358294066,-0.0569262551742307,0.7216798237234281,-0.2125443739325827,0.6092105772757817,0.3232787181587949,11.035299724419929,-1.3913411447902728,0.2027045915905804,-1.110247540832583
1.92,-1.2044800200776649,0.1506410296538811,1.5926525113924876,-0.0369693854332081,0.1222286807219301,0.012293497346793,0.782320685617755,-0.6044923999693156,-0.0018135398412471,-1.2142964539569887,0.1580915130418321,1.589402631583975,0.9495989180064828,-0.6939803720473584,-0.0543861996981017,0.8155547537841076,-0.3995517898694178,0.6658199352280458,0.2493426106483241,10.876748600535391,-1.401573815779358,0.2053471649642729,-1.1063744147507488
1.94,-1.1889490334157844,0.1386986148177329,1.5926597192882894,-0.0370153841166288,0.1189285351712177,0.0128701304226988,0.7710821034803504,-0.5905587521772401,0.0022579128808612,-1.1959370164784928,0.144301898325244,1.5882641064804903,0.9812259620881706,-0.6984800082653102,-0.0518461442219726,0.9179174752138176,-0.5619291068702292,0.6966823896037755,0.203572636105419,10.775767894982891,-1.407693328224214,0.2065295894357608,-1.105473700353975
1.96,-1.173647916807001,0.1270367939504905,1.5927454623572868,-0.0354756987846376,0.1192674242289239,0.0134299657407787,0.7600102280024146,-0.5764790647078264,0.0061035990906695,-1.1767869028979547,0.1303997927032071,1.587189082763909,1.0128530061698586,-0.7029796444832619,-0.0493060887458436,0.9159876203579288,-0.5535937738967933,0.7039843734706841,0.192284310490418,10.742314848161186,-1.4067468694741263,0.2059222171757681,-1.1088394657057212
1.98,-1.1592972667557038,0.1162142910887631,1.592902048613945,-0.0324822331103607,0.1221334096670956,0.0139859952437113,0.7514708305886694,-0.5638973426739037,0.0101864897908256,-1.1568461132153744,0.1163851961757213,1.586177560434231,1.0444800502515466,-0.7074792807012137,-0.0467660332697145,0.7872277846948043,-0.4269698706872604,0.6290861016961358,0.2041445350078035,10.725078675411169,-1.4035685524428103,0.2036975967420668,-1.116458911062691
2.0,-1.1443395091896431,0.1050522405322621,1.5931586709177026,-0.0286065075180376,0.1268028046464376,0.0145832163029124,0.7450460060040319,-0.5531625383042981,0.0152821634404934,-1.1217237252262704,0.0880194239550679,1.593411373103486,0.820940379350514,-0.5392749023357689,-0.0245789437292529,0.6754263204469158,-0.3212412292318722,0.5367402184802805,0.2547836824833884,10.746844566907384,-1.398108756950305,0.2006259429888933,-1.1264986794192438
2.02,-1.1294558631131637,0.0939484089272742,1.5934661949259985,-0.0291708734691094,0.1312181864016689,0.0148920413710265,0.7436574126995965,-0.5563975270557336,0.0148837794367823,-1.1217237252262704,0.0880194239550679,1.593411373103486,0.820940379350514,-0.5392749023357689,-0.0245789437292529,0.1771443860347432,-0.0694296652217707,-0.1617494375717787,-0.0199192001855552,10.442328994176933,-1.3936282894428458,0.2019343674498165,-1.1364598332205735
2.04,-1.114600660157633,0.0828561661664575,1.5937449774575785,-0.0357109319535466,0.1342477174534238,0.0148231841843508,0.7418733607648548,-0.5513976313012394,0.0129799396988524,-1.1217237252262704,0.0880194239550679,1.593411373103486,0.820940379350514,-0.5392749023357689,-0.0245789437292529,0.2819858356787885,-0.0892025967370868,0.249994787724711,-0.0951919868964927,10.442328994176933,-1.3891199800200584,0.2091260034310747,-1.138929121409116
2.06,-1.1005260400763095,0.0724876863839468,1.593959413483838,-0.0431542855939555,0.1364384032840846,0.0146941809796473,0.7397592311748898,-0.5401432624771171,0.0096748515166826,-1.1135143214327652,0.0826266749317102,1.5931655836661935,0.8348342891028829,-0.534350414268142,-0.0315320304332687,0.5959319790136729,-0.1057064794982465,0.562718441206117,-0.1652544091084936,10.386060962565352,-1.388503778885792,0.218247272276111,-1.1423796362205774
2.08,-1.0857584164408651,0.0618436431468899,1.594103815235753,-0.0503228972445044,0.1383983980303388,0.0146224187400037,0.7371300803517158,-0.5249203433511661,0.0048796066214877,-1.097095513845755,0.0718411768849949,1.5926740047916084,0.8626221086076208,-0.5245014381328881,-0.0454382038413001,0.8087707870143628,-0.1314575411587026,0.7611459562975487,-0.2397622447597408,10.31236084086413,-1.3895322876364269,0.2268619802550744,-1.145726185310051
2.1,-1.0710464856110675,0.0515284829214618,1.5941402628116836,-0.0560714055859468,0.1403126640600983,0.014657759224749,0.7342652122076615,-0.5076925188051934,-0.0009878362398139,-1.0806767062587448,0.0610556788382795,1.5921824259170234,0.8904099281123586,-0.5146524619976341,-0.0593443772493316,0.9211844193757802,-0.1432434072027144,0.8613912272986357,-0.2933721430650851,10.250319409428812,-1.3909403779298166,0.2337456089174208,-1.1489080647122774
2.12,-1.0571234688200042,0.0420584863553587,1.5940605142290416,-0.0601194120256129,0.1422630630037341,0.0147888392207371,0.7315401419593813,-0.4903453110754495,-0.00710569489919,-1.0628685076964977,0.0507626295983268,1.5909955383720369,0.9181977476170964,-0.5048034858623802,-0.0732505506573631,0.9297577889604536,-0.1362535124140085,0.8673603864871954,-0.3058929329688091,10.18540020671935,-1.3923701872154737,0.2394849325625258,-1.1524050311042129
2.14,-1.0425219627683824,0.0324482437696659,1.5938459684082966,-0.0630729496790541,0.1445616296839257,0.0150101266483251,0.7288367478134312,-0.4718047465542769,-0.0140446386256012,-1.0450603091342503,0.0404695803583741,1.58980865082705,0.9459855671218343,-0.4949545097271263,-0.0871567240653945,0.999011777596264,-0.1351697072975055,0.9270282260586266,-0.3469471863205555,10.18540020671935,-1.3935746777135665,0.2438441209135016,-1.156402421086885
2.16,-1.027966987692489,0.023214981104668,1.5934896123598277,-0.0647676250875072,0.147037280876508,0.0153154893775632,0.7268740145359817,-0.4526521839527755,-0.0212462939999277,-1.0265574150843848,0.0304227555218028,1.5882741089468628,0.9737733866265722,-0.4851055335918724,-0.101062897473426,1.0277850167391591,-0.0981366638724778,0.9576281300750722,-0.3600827687163256,10.158131724418126,-1.3940734333564446,0.2467476660141356,-1.1605582325518728
2.18,-1.0134434203549565,0.0143725174205261,1.5929881197654063,-0.0650005822463529,0.1494752501194329,0.0157335446187934,0.7256297189104557,-0.4328100869135385,-0.0285379649055897,-1.007359825546901,0.0206221550886128,1.5863919127314745,1.00156120613131,-0.4752565574566185,-0.1149690708814575,1.058803040129134,-0.0622147812762985,0.9921048519618504,-0.3645835452830993,10.158131724418126,-1.3947529204355138,0.2483645155271414,-1.1653342482064648
2.2,-0.999663074550076,0.0063439373627048,1.5923768940608494,-0.06360214683887,0.151620660658088,0.016263305611534,0.7250208212079641,-0.4135447572624228,-0.0354299324580355,-0.9771619344094334,-0.0072679869251507,1.591561221520127,0.7771755363154411,-0.4006605261640077,-0.0386911830780803,1.023502442256762,-0.0304448851245808,0.963266482555783,-0.3445983776222936,10.1623986230461,-1.3954532232055534,0.2481829497382079,-1.1705936449914407
2.22,-0.9850543671365196,-0.0017068895519075,1.5917413096440571,-0.0603199899237769,0.1509084066812465,0.0171393613568102,0.7361352148635044,-0.3929894963922619,-0.0269574410020631,-0.9771619344094334,-0.0072679869251507,1.591561221520127,0.7771755363154411,-0.4006605261640077,-0.0386911830780803,1.2428109341752387,0.5557196827770172,1.027763043508048,0.4236245727986221,10.17203074162626,-1.388706875349384,0.2450805738098325,-1.169879795632148
2.24,-0.9702365187882348,-0.0093771848147925,1.5912980299815824,-0.0561452251151564,0.1446560159592419,0.0183963613734331,0.7442039449397565,-0.3753037690639051,-0.0179054026746153,-0.9771619344094334,-0.0072679869251507,1.591561221520127,0.7771755363154411,-0.4006605261640077,-0.0386911830780803,1.0721809013151464,0.4034365038126042,0.8842863664178385,0.4526019163723888,11.119412957688835,-1.404650877576605,0.2438386227400154,-1.1796067998797868
2.26,-0.9553260001988348,-0.0167153260815852,1.591009768216011,-0.0519459471242817,0.13535820812233,0.0197876046168769,0.7459287650239024,-0.3595059490018305,-0.0113330746907802,-0.969390179046279,-0.0112745921867908,1.591174309689346,0.7874846997964382,-0.3942306140141015,-0.0407218267125784,0.8598569912541585,0.0862410042072936,0.7898910031037293,0.3286163991917566,11.119412957688835,-1.4212811871025954,0.2421776009145647,-1.1818969843993052
2.28,-0.9411869630202702,-0.0234083233913885,1.5908338348112665,-0.04821721191407,0.1257412262986847,0.0210879588712984,0.7420629374242057,-0.3458412767773101,-0.0074943357623456,-0.9538466683199702,-0.0192878027100709,1.5904004860277845,0.8081030267584324,-0.3813707897142892,-0.0447831139815746,0.7355334910709951,-0.1932913799848334,0.6832336112260196,0.1919369464217264,10.951031774421608,-1.438240007536512,0.2402137829627241,-1.1788951912302983
2.3000000000000003,-0.9264326530509308,-0.0301851443368115,1.5907059873907334,-0.044698022108094,0.1163818932972691,0.0223481112188596,0.7333621460531023,-0.3325844317971437,-0.0055852308594563,-0.9383031575936612,-0.0273010132333511,1.589626662366223,0.8287213537204265,-0.3685109654144769,-0.0488444012505709,0.7985806015078653,-0.4350395685551678,0.6628422490083191,0.0954552451444695,10.790987083178152,-1.4526348133448186,0.2382184041165408,-1.1727750531149816
2.32,-0.9118943500909727,-0.0367062930062047,1.5905951644924947,-0.0416296828690986,0.1089745160320034,0.0234541102349797,0.720770408750524,-0.3202014302380868,-0.0056700850014123,-0.9217287305192527,-0.0346712325416406,1.5886497743412116,0.8493396806824207,-0.3556511411146646,-0.0529056885195671,0.883031392610361,-0.6295868651289172,0.6191500779528486,-0.0042427070978007,10.547959166525288,-1.4637328751423695,0.2365055021016646,-1.1666042989400267
2.34,-0.8983505244327062,-0.042679233464848,1.5904785113196331,-0.039128646654678,0.1048224127840825,0.0243336482154909,0.7055375845532372,-0.3091113361358232,-0.0065956201680288,-0.9051543034448444,-0.0420414518499302,1.5876728863162002,0.8699580076444149,-0.3427913168148522,-0.0569669757885633,0.9432467009843576,-0.7616412098643388,0.5545047051131763,-0.0462767583308259,10.518773332241835,-1.4714481876026204,0.2349106026343227,-1.161573642643516
2.36,-0.8844197067205375,-0.0487421270224755,1.5903340940062465,-0.0368365182865542,0.104267056177904,0.0250747231112655,0.6887960662849022,-0.2977657662486785,-0.0078073052215662,-0.8880644181963858,-0.0490901755507244,1.586594466109464,0.8905763346064091,-0.3299314925150399,-0.0610282630575596,1.0130011977560136,-0.8370759134167516,0.5672784943572373,-0.0605842526768727,10.494388805253948,-1.471521663429812,0.2333457690231378,-1.1610727425698446
2.38,-0.8708036254617947,-0.0545809881448903,1.5901665662139666,-0.0347909519135728,0.1069402118306243,0.0256762576854735,0.6740136156141879,-0.2867022116042446,-0.0088791947236191,-0.8704590747738776,-0.0558174036440233,1.5854145137210027,0.9111946615684032,-0.3170716682152276,-0.0650895503265558,0.924759477252176,-0.7391225335357132,0.5531777322216963,-0.053594475102643,10.496281460656064,-1.467721001813119,0.2319792830113272,-1.164883839320564
2.4,-0.8574572790050506,-0.0602012378745951,1.5899821205580795,-0.0329265134049945,0.1118151090582644,0.0261904389985337,0.6617312323317648,-0.2758922835356662,-0.0095213059242002,-0.8371029446810853,-0.0689160987251025,1.5897226064777856,0.7058412852048995,-0.2517627995766471,-0.0048801281845104,0.8187242984333895,-0.6141191641211574,0.5404964034289195,-0.0321055600290556,10.496281460656064,-1.4612160795410658,0.2307465414467809,-1.1707097449268455
2.42,-0.8449016056410678,-0.0653470904489784,1.5898873778402285,-0.0315810381838609,0.1155132469838711,0.0266812482033947,0.6601118030105627,-0.2662147406408023,-0.0004665069676285,-0.8371029446810853,-0.0689160987251025,1.5897226064777856,0.7058412852048995,-0.2517627995766471,-0.0048801281845104,0.6675829011295727,-0.0809714660601035,0.4838771447431916,0.452739947828586,10.515708045265455,-1.4470107300736477,0.2291989148187325,-1.1750973590984377
2.44,-0.8317251420285827,-0.0705684986829299,1.58997584214193,-0.030878256249034,0.1165323855833495,0.0272367956315199,0.6574288615318964,-0.2564005691264948,0.0087545473905257,-0.8371029446810853,-0.0689160987251025,1.5897226064777856,0.7058412852048995,-0.2517627995766471,-0.0048801281845104,0.6865565908325248,-0.1341470739333161,0.4907085757153789,0.4610527179077165,11.138859843909811,-1.4487596191647574,0.2301480745841039,-1.1864185213568883
2.46,-0.8186174462475451,-0.0755941321131801,1.590234010689024,-0.0309298595393549,0.115502003244868,0.0277991135810357,0.6533203286791971,-0.2466211733355668,0.0165321912241288,-0.8300445318290363,-0.071433726720869,1.5896738051959405,0.7122068191230418,-0.2447749171711276,-0.0040803148766886,0.6576632265827853,-0.2054266426349649,0.4889697895463979,0.388882191680151,11.097130300080607,-1.4523202492271212,0.2318212740119671,-1.1940266539801738
2.48,-0.8056110609243928,-0.0804223249777053,1.5906308724739848,-0.0316514325465318,0.1131554947189816,0.0283532545694316,0.6473823997181773,-0.236650278171397,0.0227651888774718,-0.8159277061249383,-0.0764689827124019,1.5895762026322504,0.7249378869593265,-0.2307991523600887,-0.0024806882610451,0.6586501546108574,-0.2968964480509872,0.4985447582084912,0.3116498826671539,11.017657503298324,-1.4573161016807596,0.2340512774815865,-1.1984919232102824
2.5,-0.7933855876147168,-0.0848203921391818,1.5911105484327612,-0.032821435096164,0.1104374135028662,0.0288621217660642,0.6397025013417247,-0.2267840037184642,0.02741518716218,-0.8018108804208403,-0.0815042387039349,1.58947860006856,0.7376689547956111,-0.2168233875490497,-0.0008810616454016,0.6669833107001664,-0.3839949188226332,0.4933137226466363,0.2324999142354069,10.93748279533702,-1.4632271301548274,0.2368954583153934,-1.2011081213511905
2.52,-0.780696843468428,-0.0892420830796652,1.591700492378199,-0.0343887091138741,0.107903375011697,0.0293664260114655,0.6294313364508989,-0.2158750490181156,0.0312872788224074,-0.787057501324928,-0.0858407064549159,1.5894609788356522,0.7504000226318958,-0.2028476227380107,0.0007185649702418,0.7737816466775264,-0.5135582445412901,0.5454477350174305,0.1936045830113728,10.866157953922992,-1.4685780250616485,0.2400331256783446,-1.2028375806285725
2.54,-0.7682366602451253,-0.0934366896969733,1.5923608720033529,-0.0360280377285006,0.1066434549165525,0.0298243393645594,0.6172033670850552,-0.204149038044181,0.0345548829583002,-0.7723041222290158,-0.0901771742058969,1.589443357602744,0.7631310904681804,-0.1888718579269717,0.0023181915858853,0.8626989697480651,-0.6113984682921847,0.586300548696729,0.163380206794636,10.791373886646396,-1.4707780011195737,0.2430424840820566,-1.2052112007522964
2.56,-0.7560223916916482,-0.0973842123687086,1.5930831126776548,-0.0373138459765424,0.106976625420391,0.0302492670067607,0.6050501691956109,-0.1912784920650254,0.0374992903255898,-0.7572324664371964,-0.0941642478366019,1.589465727035227,0.775862158304465,-0.1748960931159328,0.0039178182015288,0.8972467713596144,-0.6076598944722122,0.6435272989577814,0.1472203683644836,10.791373886646396,-1.469841044317293,0.245413218374555,-1.209223474610525
2.58,-0.7446370478569707,-0.1008867573455692,1.593822662991327,-0.0377858838442316,0.1084820049734943,0.0306579711929586,0.5941878192802572,-0.1781794456107542,0.0401939433075614,-0.74184253394947,-0.0978019273470309,1.5895280871331012,0.7885932261407497,-0.1609203283048938,0.0055174448171723,0.8614476455188498,-0.5431174957676865,0.654952322713559,0.1347326490985793,10.778203754679453,-1.4673615367220971,0.2470658633063782,-1.215567933784357
2.6,-0.732864439140918,-0.104300631563189,1.5946568720716914,-0.0371893437082145,0.1109617375787288,0.0311266358017297,0.5838025793083619,-0.1639966678220051,0.0430815439954388,-0.7149276568929579,-0.1097957296261069,1.595832360156705,0.623947896875968,-0.1473755714757368,0.0264460528276987,0.8907056652052909,-0.5192619985947666,0.7091388894374592,0.1443800343938713,10.778760894366314,-1.46395399392197,0.247499122551857,-1.22369132013478
2.62,-0.7212696081443077,-0.1073996805184291,1.5955296798952878,-0.0342940137393492,0.1133709105486344,0.0317544480343916,0.5762392284584521,-0.1472182549571674,0.0439777102080933,-0.7149276568929579,-0.1097957296261069,1.595832360156705,0.623947896875968,-0.1473755714757368,0.0264460528276987,0.9213068547211656,-0.3781675424954889,0.8389206432418805,0.044808310632723,10.789367006523207,-1.4601179450788897,0.2453988175391024,-1.2337349347934938
2.64,-0.7098256268403342,-0.1102091645512097,1.5964153290399088,-0.0295132870205791,0.115106254259751,0.0325330116713555,0.5685322053970421,-0.1349379327871293,0.044544846114651,-0.7149276568929579,-0.1097957296261069,1.595832360156705,0.623947896875968,-0.1473755714757368,0.0264460528276987,0.7254759820379002,-0.3853511530705011,0.6140161085019052,0.0283567953278843,10.6720380072029,-1.4606963295393756,0.241470966801523,-1.24005105497804
