t,x,y,z,roll,pitch,yaw,v_x,v_y,v_z,ref_x,ref_y,ref_z,ref_v_x,ref_v_y,ref_v_z,a_com,a_x,a_y,a_z,thrust,wind_x,wind_y,wind_z
0.0,1.4908600477312854,-0.5210577108618459,3.003006955614197,0.0229654518544158,0.1364880933053887,0.0266665731849928,0.0053183060642259,-0.0024607997466285,0.0157107587955085,1.491016005045232,-0.5210214139310523,3.003483617046842,-0.0947703563471929,0.1002391050202404,-0.0841586934000923,0.8384030306428382,0.2659153032112958,-0.1230399873314267,0.7855379397754273,10.55398472741581,-1.2859060605389985,0.1528025937910831,-1.1755946341333647
0.02,1.491093192992125,-0.5213721427200826,3.003075852694811,0.0138314513254765,0.1316488092056727,0.0259367936540597,0.0178824967957131,-0.0246678910677822,-0.0081500082387089,1.491016005045232,-0.5210214139310523,3.003483617046842,-0.0947703563471929,0.1002391050202404,-0.0841586934000923,1.746675411420545,0.6282095365743625,-1.1103545660576848,-1.1930383517108765,10.554482250398904,-1.2869935419198817,0.1619881506796743,-1.154636166020781
0.04,1.4915326583204505,-0.5218922267645171,3.0026040893429986,-0.0026686105674277,0.1176429686502409,0.0247549446087226,0.0240889334100417,-0.0254265902666517,-0.0377739696825653,1.491016005045232,-0.5210214139310523,3.003483617046842,-0.0947703563471929,0.1002391050202404,-0.0841586934000923,1.513831704276544,0.3103218307164266,-0.0379349599434758,-1.4811980721928173,8.875737665393899,-1.317022318044358,0.180052319336851,-1.1245400220553452
0.06,1.4919854162833843,-0.5223425347862303,3.0015439069110887,-0.019577420578738,0.0981341002742606,0.023905874039669,0.0199237652420602,-0.0192030241054508,-0.0666353950475676,1.49006830148176,-0.5200190228808499,3.002642030112842,-0.1147703566452161,0.1202391053182636,-0.1041586936981155,1.4908582056403048,-0.2082584083990727,0.3111783080600429,-1.443071268250118,8.875737665393899,-1.3458379537918717,0.196495683448862,-1.084480636605487
0.08,1.4922465712615036,-0.5226199832885055,3.000015567525658,-0.0349970178939209,0.0780255257780121,0.0235531667549089,0.0072919772735935,-0.0100248760479755,-0.0927621424127733,1.4881728943548165,-0.518014240780445,3.00095885624484,-0.1547703572412626,0.1602391059143101,-0.144158694294162,1.5218470660110028,-0.6315893984233357,0.4589074028737671,-1.3063373682602824,8.869552559611293,-1.3709855960873354,0.2118826756504198,-1.0392369200344398
0.1,1.492184705038623,-0.5226944767924065,2.997876412079626,-0.0504339959814184,0.0577932928157281,0.0235937872321552,-0.0132304476354026,0.0024115503541373,-0.119758144550606,1.4862774872278723,-0.5160094586800402,2.999275682376838,-0.194770357837309,0.2002391065103565,-0.1841586948902084,1.8059753301377244,-1.0261212454498088,0.6218213201056455,-1.3498001068916348,8.906268366500171,-1.3893437127353536,0.2253880170803999,-0.9954546361930104
0.12,1.4916457375496863,-0.5224922340456235,2.9952034203043323,-0.06509301708526,0.0403432165184575,0.0238992291600885,-0.0396403032130014,0.0174982696610517,-0.1461871658196236,1.4823820800711265,-0.5120046765498331,2.995592508479034,-0.2347703584333555,0.2402391071064029,-0.2241586954862549,2.0146852957183103,-1.3204927788799388,0.7543359653457175,-1.3214510634508785,8.92437400568042,-1.3999432719338514,0.2370956982256876,-0.9546475987056336
0.14,1.4906050930557322,-0.5219969894659487,2.9921715233255948,-0.0783438684789647,0.027243681761803,0.0242739878939804,-0.0684187916272682,0.034135503972254,-0.1716283048063908,1.47848667291438,-0.507999894419626,2.99190933458123,-0.274770359029402,0.2802391077024495,-0.2641586960823014,2.092994573499861,-1.438924420713339,0.8318617155601171,-1.272056949338364,8.961572047506706,-1.404106394636504,0.2468589840052212,-0.9204972008080042
0.16,1.4888914779567013,-0.5211100458869833,2.9884526702307905,-0.0916166230522474,0.0175668265284123,0.0245979706625861,-0.1014033923767995,0.0539583868471087,-0.1989339408343542,1.4735912657427326,-0.5029951122745177,2.9872261606685244,-0.3147703596254484,0.3202391082984959,-0.3041586966783478,2.3593051577571527,-1.649230037476565,0.9911441437427349,-1.3652818013981702,8.952133326481544,-1.4039083777972614,0.2560280189055504,-0.8905773738131793
0.18,1.4864901455399198,-0.5197756681547722,2.984181770257181,-0.1033574460973772,0.0127452664023991,0.0247172343173035,-0.1370613587706282,0.0782730820201339,-0.2267597621909526,1.467695858556184,-0.4969903301145082,2.981542986740918,-0.3547703602214948,0.3602391088945423,-0.3441586972743942,2.5675724443868564,-1.7828983196914372,1.2157347586512577,-1.3912910678299182,8.946888784894327,-1.4007373497620226,0.2640253599629026,-0.8705607430175499
0.2,1.4833707631823712,-0.5179246001066138,2.9793529445944853,-0.11270227317791,0.0132354586034291,0.0245086502188916,-0.1723384264324897,0.1050900178992612,-0.254598893438443,1.4796370776013883,-0.5158620140537654,2.972843782147633,-0.2370613602607443,0.17827308351025,-0.3267597636810687,2.616599310832562,-1.7638533830930738,1.3408467939563684,-1.3919565623745176,8.946572414477032,-1.3899945009299548,0.2696253503040543,-0.8606659675800715
0.22,1.4797416035737112,-0.5155078507407255,2.9744010435956896,-0.1152235794937408,0.0188044890794979,0.0241827247817676,-0.2069156019764388,0.1451625999764327,-0.264861105672174,1.4796370776013883,-0.5158620140537654,2.972843782147633,-0.2370613602607443,0.17827308351025,-0.3267597636810687,2.695693743203619,-1.7288587771974575,2.003629103858572,-0.5131106116865514,8.946572414477032,-1.3698147002503207,0.2714323196881336,-0.8683487681389546
0.24,1.4752750205969802,-0.5122442227347115,2.96898540464342,-0.1113363232069736,0.0292575282729028,0.0237880478264897,-0.2371698189871696,0.1779673106846116,-0.2761880861765151,1.4796370776013883,-0.5158620140537654,2.972843782147633,-0.2370613602607443,0.17827308351025,-0.3267597636810687,2.30204646940794,-1.5127108505365403,1.640235535408946,-0.5663490252170528,10.033201323888989,-1.350244522585722,0.2685467645118108,-0.8856466365584668
0.26,1.4702652433864096,-0.5084006590259923,2.963314016202772,-0.1051601411468518,0.0421181022514166,0.0233500786278172,-0.2617255098581975,0.204340194519003,-0.2904909908848003,1.477266463998781,-0.5140792832186629,2.9695761845108226,-0.2570613605587676,0.1982730838082732,-0.346759763979092,1.938481389509628,-1.2277845435513923,1.3186441917195688,-0.7151452354142634,9.806405957671814,-1.3328063661800569,0.2640953703618451,-0.904188345408942
0.28,1.4651010181723374,-0.5042996242460632,2.957627161659704,-0.0990809148269917,0.0549994277888322,0.0229592320598597,-0.2803113710133871,0.2259680197130908,-0.3073959965206557,1.472525236793566,-0.5105138215484579,2.9630409892372014,-0.297061361154814,0.2382730844043196,-0.3867597645751384,1.6575405523352262,-0.9292930577594782,1.0813912597043909,-0.8452502817927698,9.577466706820816,-1.3162710506297508,0.2591526270705453,-0.923394633973076
0.3,1.4593280873687018,-0.4995638766427249,2.9512631229564845,-0.0932697518642759,0.0680419003894425,0.0226397924519371,-0.2957109555947575,0.2464862525208351,-0.3282853482098689,1.467784009588351,-0.5069483598782529,2.95650579396358,-0.3370613617508605,0.2782730850003661,-0.4267597651711848,1.6541690488181742,-0.7699792290685209,1.025911640387217,-1.0444675844606566,9.375335966075909,-1.3017851313547586,0.2545367914347285,-0.9399802059212896
0.32,1.453283695733003,-0.494432815765792,2.944450734677853,-0.0883080948552799,0.0797199173698882,0.0224567326419169,-0.3077881677692488,0.2656514407214673,-0.3520500713342753,1.4610427823533338,-0.5013828981782457,2.9479705986601563,-0.3770613623469069,0.3182730855964125,-0.4667597657672312,1.6415888323915262,-0.6038606087245657,0.958259410031606,-1.1882361562203236,9.055371139825183,-1.2900029954432493,0.2506907135721944,-0.9544082601182114
0.34,1.4470267883359005,-0.4889293793847291,2.937142588485587,-0.0842229723212003,0.089506450158821,0.0224291352208798,-0.3172947523470477,0.283883026709899,-0.3775995323448933,1.4543015551183167,-0.4958174364782383,2.9394354033567325,-0.4170613629429534,0.358273086192459,-0.5067597663632778,1.6397719627447531,-0.4753292288899452,0.9115792994215888,-1.277473050530897,9.055371139825183,-1.2808907911020284,0.2476251244746362,-0.964551378704926
0.36,1.4409195135702055,-0.4833609635714443,2.9297147486860244,-0.0808059236186248,0.0970020109045085,0.0225537498293793,-0.3251115266975327,0.3012962845106152,-0.4030031935800489,1.4465603278683985,-0.4892519747633298,2.929900208038408,-0.4570613635389998,0.3982730867885055,-0.5467597669593242,1.5887648603798712,-0.3908387175242472,0.8706628900358088,-1.2701830617577792,8.980225955178867,-1.2739248760049833,0.2448182277196045,-0.9720289980519474
0.38,1.434338630341438,-0.4771470864567206,2.921363150802818,-0.0774196920600628,0.1032103355668164,0.022829147236716,-0.3325559086139098,0.3190989126089844,-0.4308671962133408,1.4378191006035788,-0.4816865130335201,2.919365012705182,-0.4970613641350462,0.4382730873845519,-0.5867597675553706,1.6946644447159938,-0.372219095818857,0.8901314049184567,-1.3932001316645986,8.929013934815885,-1.2690927742771196,0.2421689300900394,-0.9765409919324104
0.4,1.4276145430266067,-0.470581813808628,2.912444465136688,-0.0741298842896809,0.1079359335340446,0.0232289797195175,-0.3395127733922482,0.3364234562758652,-0.4595922770980477,1.4177108349107426,-0.4611921408262714,2.8998197909921517,-0.4325559101040259,0.4190989140991005,-0.5308671977034569,1.712941952199997,-0.34784323891692,0.8662271833440399,-1.436254044235341,8.871266388749063,-1.2659326195644784,0.2397169013947888,-0.9787363084188396
0.42,1.4211296051369178,-0.4640237238211846,2.9036564264640536,-0.0713953222246652,0.1112172440318264,0.0236805730540847,-0.3428207466051568,0.3531744785643486,-0.4640533117785708,1.4177108349107426,-0.4611921408262714,2.8998197909921517,-0.4325559101040259,0.4190989140991005,-0.5308671977034569,0.8823835120108188,-0.1653986606454299,0.8375511144241704,-0.2230517340261556,8.831332169375855,-1.252291789719413,0.2370173246754019,-0.9834114956149184
0.44,1.4142432236783362,-0.4567924375255558,2.894291296484932,-0.0694418529622793,0.1132985837147323,0.0241934563148695,-0.3457651569341316,0.3692524844541484,-0.4725679942823097,1.4177108349107426,-0.4611921408262714,2.8998197909921517,-0.4325559101040259,0.4190989140991005,-0.5308671977034569,0.9215091476991564,-0.14722051644874,0.8039002944899926,-0.4257341251869467,10.183278366470404,-1.2535040789191825,0.2363049855261139,-0.9871204839535904
0.46,1.4072930545880684,-0.4492391174633525,2.8847025261291392,-0.0684148268506966,0.1138920935066257,0.0247453726330051,-0.349221096456834,0.385304258690314,-0.4860707348824804,1.4133852758097023,-0.4570011516852804,2.8945111190151165,-0.4525559104020492,0.4390989143971237,-0.5508671980014801,1.0629287109549077,-0.17279697613512,0.8025887118082803,-0.6751370300085352,9.867740181190127,-1.256281493439046,0.2362933316753383,-0.9873982731941228
0.48,1.400267963997203,-0.4413683668258023,2.8747992662078183,-0.0681288088103892,0.1130546886055641,0.0253425535602981,-0.3532220500620281,0.4010249054162829,-0.5035481671707017,1.4047341576076218,-0.4486191734032984,2.8838937750610474,-0.4925559109980956,0.4790989149931701,-0.5908671985975266,1.1922740903657525,-0.2000476802597073,0.786032336298445,-0.8738716144110648,9.40717822436818,-1.2598026691759805,0.2367963540627377,-0.9849676187203104
0.5,1.393514305988467,-0.4336019438012049,2.8650406306252374,-0.0685317155198476,0.1109230674576322,0.0259540271530309,-0.3575904464567918,0.4157616178540575,-0.5227814470345653,1.3960830394055412,-0.4402371951213164,2.8732764311069783,-0.5325559115941421,0.5190989155892166,-0.630867199193573,1.2310286703171702,-0.2184198197381803,0.736835621888729,-0.9616639931931792,9.40717822436818,-1.2641377351290772,0.2378341031347011,-0.9797810759393568
0.52,1.3863074015231196,-0.4251261836182557,2.8543517029169534,-0.0697290727183389,0.1072419908239988,0.0266460048602663,-0.3630021163782295,0.431103358822597,-0.5451826246839254,1.3854319211736583,-0.4298552168095321,2.860659087123107,-0.5725559121901885,0.5590989161852631,-0.6708671997896195,1.3842578764111726,-0.2705834960718883,0.7670870484269732,-1.1200588824680058,9.258263941272162,-1.2692771949373645,0.2395235053519698,-0.972474261690727
0.54,1.3789791277341263,-0.4163401540216577,2.8432065575153427,-0.0717249633199986,0.1021811003758156,0.0273886432828131,-0.3698603618839806,0.4468291090644097,-0.5682104069494274,1.3747808029417754,-0.4194732384977477,2.8480417431392357,-0.612555912786235,0.5990989167813096,-0.710867200385666,1.4358042242523823,-0.3429122752875546,0.786287512090636,-1.1513891132750975,9.102763086257257,-1.274640390980748,0.2417731176975703,-0.9642499341192032
0.56,1.3714846631950877,-0.4072178340551357,2.831598424367692,-0.0738809431336919,0.0964848313699519,0.0281813142595338,-0.379410774724248,0.4645428499231929,-0.591429068239421,1.3631296846949914,-0.4080912601710623,2.8344243991404627,-0.6525559133822814,0.6390989173773559,-0.7508672009817123,1.5363050093740496,-0.4775206420133709,0.8856870429391622,-1.1609330644996807,9.102763086257257,-1.2800728443256344,0.2442990696663531,-0.9553262922389044
0.58,1.3641657896290138,-0.3982113219829951,2.8201388426902203,-0.0753522263773143,0.09124893839534,0.0289742044228619,-0.3905788129238092,0.4824320304934884,-0.6136587886300803,1.3504785664333063,-0.3957092818294756,2.8198070551267893,-0.6925559139783278,0.6790989179734024,-0.7908672015777588,1.5320805521825425,-0.5584019099780568,0.8944590285147713,-1.1114860195329646,9.0953341985105,-1.2840870880552009,0.2462863486137807,-0.9476074373389896
0.6,1.3562132166529386,-0.388359117630924,2.807614479171027,-0.0759948289278865,0.0864875086466318,0.0298216105291013,-0.404229337068404,0.5017507980777894,-0.63762272681464,1.344636848982823,-0.3740897204583207,2.7894559032587165,-0.4905788144139253,0.5824320319836045,-0.7136587901201964,1.6836136163857565,-0.6825262072297417,0.9659383792150532,-1.1981969092279887,9.086125200803508,-1.2869752143547313,0.2474558481958084,-0.9412637291286036
0.62,1.3479333888051863,-0.378070910094484,2.7948380255665395,-0.0744943286162342,0.0848375953228788,0.0305794734878446,-0.4229969080672439,0.5258331777561082,-0.6375995035928625,1.344636848982823,-0.3740897204583207,2.7894559032587165,-0.4905788144139253,0.5824320319836045,-0.7136587901201964,1.526583826297481,-0.9383785499419928,1.204118983915936,0.001161161088875,9.05514127291326,-1.2773874596172072,0.2457537795938887,-0.9373425044154928
0.64,1.339292318160634,-0.3673282354938111,2.782061904638508,-0.0706270895189253,0.0879317279890178,0.0311442383185494,-0.4395271687585216,0.5466349506755558,-0.6401104520956353,1.344636848982823,-0.3740897204583207,2.7894559032587165,-0.4905788144139253,0.5824320319836045,-0.7136587901201964,1.3344176047038694,-0.8265130345638888,1.0400886459723813,-0.125547425138639,10.21593183450841,-1.2723691041723664,0.2437811719813984,-0.948274850347942
0.66,1.330809222013193,-0.3567708525431863,2.7698229254163165,-0.0663216176326496,0.0935071760063249,0.0315460187519076,-0.4522274867525928,0.5634633831539403,-0.6480609419389919,1.339731060838684,-0.3682654001384847,2.7823193153575145,-0.5105788147119485,0.6024320322816277,-0.7336587904182196,1.1266149581593847,-0.635015899703556,0.8414216239192251,-0.3975244921678278,10.21593183450841,-1.2658646356960324,0.2408815635961344,-0.9608088535476056
0.68,1.3216507889175797,-0.3453350542211159,2.756726707091069,-0.0619030095156224,0.1007381077912094,0.0318887044052905,-0.4626496927752516,0.5791693460136896,-0.661369175773559,1.3299194845504054,-0.3566167594988126,2.7680461395551106,-0.550578815307995,0.6424320328776741,-0.773658791014266,1.1536991977180284,-0.5211103011329404,0.7852981429874673,-0.665411691728357,9.87065231973429,-1.2585829674166376,0.2377872423188187,-0.972436119171412
0.7000000000000001,1.3123110684073482,-0.3335992973126788,2.743313498332729,-0.0578914885022112,0.1083075833948711,0.0322023702296705,-0.470596577075298,0.5936355455329718,-0.6792754310658448,1.320107908262127,-0.3449681188591405,2.753772963752706,-0.5905788159040415,0.6824320334737206,-0.8136587916103125,1.21763898303491,-0.3973442150023237,0.7233099759641093,-0.8953127646142867,9.586954740145302,-1.2519256084164363,0.2350140049091136,-0.982019345125214
0.72,1.3033113741184703,-0.3221915904158919,2.73020563780233,-0.0545152244555382,0.1151579250232296,0.0325057559023966,-0.4762403461694205,0.6064933091809067,-0.6996086888946318,1.3082963319440462,-0.3313194781896661,2.7374997879205005,-0.630578816500088,0.7224320340697671,-0.853658792206359,1.2355318587007955,-0.2821884547061226,0.6428881823967447,-1.0166628914393516,9.360621421490578,-1.2446730245236142,0.232394286432493,-0.9913904498892692
0.74,1.2937404643375638,-0.3099279222628389,2.7159703577746037,-0.0514796938611199,0.1215543236603697,0.0328447345710199,-0.4804686670491876,0.6192442549785803,-0.7229385127479304,1.296484755625965,-0.3176708375201916,2.7212266120882944,-0.6705788170961344,0.7624320346658136,-0.8936587928024055,1.3460553454663604,-0.2114160439883577,0.6375472898836776,-1.1664911926649313,9.183818452142075,-1.2374602904500265,0.2301216448171146,-0.999207212697132
0.76,1.2840954664487436,-0.2974057438599846,2.7012539291200413,-0.0487016517239038,0.126952557796499,0.0332231572342383,-0.4837652504542406,0.632235825628388,-0.7475825450689464,1.2836731792929832,-0.3030221968358161,2.703953436241187,-0.7105788176921808,0.8024320352618599,-0.933658793398452,1.4026552491031927,-0.1648291702526477,0.6495785324903858,-1.2322016160507987,9.089000781048526,-1.2313495121316838,0.228043207261177,-1.0054137319928849
0.78,1.2743923356558136,-0.2846258415863311,2.686032185785688,-0.045850278097026,0.1314163279062461,0.0336544759575851,-0.4863583446568181,0.6449389008015564,-0.7733499831389213,1.2698616029451002,-0.2873735561365393,2.6856802603791783,-0.7505788182882273,0.8424320358579064,-0.9736587939944984,1.4422665505105168,-0.1296547101288764,0.6351537586584188,-1.2883719034987473,9.031756469456925,-1.2265282887375486,0.2259869241295454,-1.0101063827230377
0.8,1.2651313670057778,-0.2722545907067659,2.671084673447362,-0.0430147836163055,0.1348757181325586,0.0341084073003094,-0.4883401660030565,0.6565119416308325,-0.7987750655165679,1.2500744184229726,-0.2523788965462533,2.647364686628742,-0.5863583461469343,0.6756817826211622,-0.8733499846290375,1.400265781730927,-0.0990910673119183,0.5786520414638063,-1.2712541188823256,8.980997529449269,-1.2222896613393766,0.2236616062020157,-1.0137469621490205
0.8200000000000001,1.2553582412987927,-0.2587904589990173,2.655065742704709,-0.0334665034403154,0.1382846712058645,0.0350557558568154,-0.4884500604080933,0.6857009019873943,-0.8003026995361906,1.2500744184229726,-0.2523788965462533,2.647364686628742,-0.5863583461469343,0.6756817826211622,-0.8733499846290375,1.4614557375910369,-0.005494720251839,1.459448017828091,-0.0763817009811373,8.931401356859169,-1.2150088966864356,0.2145237140367681,-1.01191917638206
0.84,1.245606512799195,-0.2448957653072281,2.63901681583525,-0.0170538654639246,0.1415479784951621,0.0364999839943368,-0.4866530244573251,0.7006526107028206,-0.804603695413295,1.2500744184229726,-0.2523788965462533,2.647364686628742,-0.5863583461469343,0.6756817826211622,-0.8733499846290375,0.7830732680505965,0.0898517975384066,0.7475854357713141,-0.2150497938552209,10.100686201224562,-1.2144773484274811,0.2004064105228753,-1.023778035118717
0.86,1.2363822629000916,-0.2315181133468354,2.6236241599806887,-0.0001458938097366,0.1439200641522915,0.0379854892182171,-0.4844485481951344,0.7062698735709679,-0.8154454215797178,1.2442108349615033,-0.2456220787200416,2.6386311867824515,-0.6063583464449575,0.6818303589850834,-0.8933499849270606,0.6203958091173036,0.1102238131095389,0.2808631434073672,-0.542086308321138,10.100686201224562,-1.214846920362461,0.1854915808719837,-1.0338598036115203
0.88,1.2267182619130643,-0.2173784502695264,2.607139160925362,0.0171277205097927,0.1453697204983641,0.039503323246174,-0.4821528232717431,0.7070602149777994,-0.8327403378037971,1.2324836680385645,-0.2321084430676184,2.621164187089871,-0.6463583470410039,0.6941275117129256,-0.9333499855231072,0.8732255144880297,0.1147862461695625,0.0395170703415714,-0.8647458112039652,9.381273311936638,-1.2152235967866245,0.1698443948402748,-1.0397071199771182
0.9,1.2170980176200634,-0.2032686174002675,2.590250779583965,0.033099846483381,0.1455924249876328,0.0408765503728336,-0.4800962453875215,0.7038082162595946,-0.8551966255249185,1.2207565011156258,-0.2185948074151951,2.60369718739729,-0.6863583476370504,0.706424664440768,-0.9733499861191536,1.1391771882271684,0.1028288942110794,-0.1625999359102403,-1.1228143860560702,9.381273311936638,-1.2155204503445045,0.1558456525444699,-1.041019177048314
0.92,1.2075170360067924,-0.189257576286954,2.572874984421844,0.0474512531981897,0.144464535444549,0.0420363348070543,-0.4781956562862978,0.6974970784485535,-0.8812321020626384,1.2070293341628848,-0.2044663141263798,2.584230187674907,-0.7263583482330969,0.7187218171686104,-1.0133499867152,1.3428409603782243,0.0950294550611852,-0.3155568905520545,-1.3017738268859935,8.960512354612547,-1.2158849111124463,0.1424394307191185,-1.0382128380105415
0.94,1.198451222035953,-0.1760895260644659,2.555870646487806,0.0594694049807038,0.1419070298348089,0.0428849638277926,-0.4762998458608907,0.6890580590006283,-0.9073606219099728,1.1933021672101438,-0.1903378208375644,2.564763187952524,-0.7663583488291433,0.7310189698964527,-1.0533499873112466,1.3761456098684517,0.0947905212703575,-0.4219509723962567,-1.3064259923667163,8.960512354612547,-1.216622154329253,0.1306091443868965,-1.0311645830362963
0.96,1.1889408944328108,-0.1624195405784428,2.537427200510564,0.0705193598466644,0.1375063532991736,0.0434744839738866,-0.4750240887985896,0.6783960217394367,-0.935608087158794,1.1785750002425015,-0.175901898730553,2.54429618821524,-0.8063583494251897,0.743316122624295,-1.093349987907293,1.5109813761463236,0.063787853115052,-0.5331018630595818,-1.4123732624410634,8.8924930294761,-1.219438434669489,0.1204580210152107,-1.0206988923111302
0.98,1.1794369963333693,-0.1489825146071634,2.518415423035165,0.0800502353541008,0.1317234258875175,0.0437584666262257,-0.4757155417115195,0.665886992432617,-0.9641284850381152,1.1628478332599586,-0.1611585478053455,2.5228291884630543,-0.8463583500212362,0.7556132753521373,-1.1333499885033391,1.5575357271379526,-0.0345726456464912,-0.6254514653409871,-1.426019893966057,8.849201174351947,-1.2234472819841775,0.1122305100500049,-1.0086484833876943
1.0,1.1698968281164164,-0.1358142714212683,2.498831516950744,0.0880977231577279,0.1252802664709101,0.0437842562199771,-0.4784865452193454,0.6517453436288461,-0.9927838721083756,1.1556512192477932,-0.1156881649855325,2.47020899878326,-0.5757155432016356,0.6386858130176294,-1.0309511926911608,1.6037424196828156,-0.1385501753912971,-0.7070824401885445,-1.4327693535130304,8.828461630061156,-1.2273290077239785,0.1048822665791421,-0.995196539147714
1.02,1.1607497227839454,-0.1235076072393477,2.4800108796958167,0.0976991979362674,0.1206415662635326,0.0439901006565007,-0.4841699208186028,0.6422922519845792,-0.9870738707951704,1.1556512192477932,-0.1156881649855325,2.47020899878326,-0.5757155432016356,0.6386858130176294,-1.0309511926911608,0.6210189506648517,-0.2841687799628706,-0.4726545822133443,0.2855000656602657,8.813921119318366,-1.2265188274925656,0.0962011287627543,-0.975465839276
1.04,1.1510005158434504,-0.1108453612167542,2.460295778137444,0.1096406024802469,0.1191624153084846,0.0445846755027104,-0.4901404799998602,0.6240524818189161,-0.985142535751842,1.1556512192477932,-0.1156881649855325,2.47020899878326,-0.5757155432016356,0.6386858130176294,-1.0309511926911608,0.9644517194793856,-0.298527959062872,-0.9119885082831514,0.096566752166427,10.779943936034217,-1.2248735633370933,0.0852402016093407,-0.9748584267075322
1.06,1.1411519459926616,-0.0985837095783487,2.4405517316542795,0.1214123539202869,0.1199087339853361,0.0453573634236944,-0.4942065172322038,0.6027440874547902,-0.989363655296022,1.1498940638157769,-0.1093013068553562,2.459899486856348,-0.5957155434996588,0.6332455771346319,-1.04431573422177,1.1049866281523242,-0.2033018616171777,-1.0654197182062952,-0.2110559772090126,10.10297011793682,-1.221345328579702,0.0750378175468497,-0.9753090491857068
1.08,1.1317372244160735,-0.0873527359098691,2.4216726763269856,0.1320055373861886,0.1214640534847709,0.0461215398673406,-0.496533306634043,0.5803852306720475,-0.9976977929708069,1.1383797529517443,-0.0965275905950036,2.439280463002525,-0.6357155440957053,0.6223651053686369,-1.071044817282988,1.1987392088502578,-0.1163394700919584,-1.117942839137137,-0.4167068837392318,10.10297011793682,-1.2171015498686064,0.0649880425480981,-0.9750919693224448
1.1,1.121792794426599,-0.0760214184736595,2.4015922741041766,0.141957377402765,0.1231570186293807,0.0468214380362758,-0.4977566387175222,0.5540120830444829,-1.0100263931176905,1.1268654420877116,-0.083753874334651,2.4186614391487016,-0.6757155446917518,0.6114846336026418,-1.0977739003442064,1.4569092617194133,-0.0611666041739594,-1.31865738137823,-0.6164300073441764,9.86914213804812,-1.2127045406796235,0.0561573024886336,-0.9730765800807892
1.12,1.1118340275894627,-0.06524133273179,2.381233540418473,0.1501061320528522,0.1243444645344617,0.0472909173991967,-0.4981300286205422,0.5256737099997344,-1.0251572832076987,1.1133511311938766,-0.0715241816625982,2.3967059611418176,-0.7157155452877982,0.6006041618366468,-1.1245029834054248,1.606351955331491,-0.0186694951509996,-1.4169186522374255,-0.7565445045004227,9.692421138351165,-1.2086173541287315,0.0491959670183129,-0.9704442181150742
1.14,1.1018755383450185,-0.0550439324302767,2.360566758029264,0.156339546032737,0.124706571399276,0.0474637701405393,-0.4978274850423316,0.495908242319137,-1.0406832287334802,1.0998368203000417,-0.0592944889905454,2.374750483134933,-0.7557155458838447,0.5897236900706517,-1.151232066466643,1.6786375303582777,0.0151271789105261,-1.4882733840298672,-0.776297276289073,9.569686621606706,-1.2047335130531365,0.0434743129800287,-0.9663080807124652
1.16,1.0924211235016643,-0.0459201307839327,2.34064726694752,0.1604441131204693,0.1242260424553257,0.0473326223144168,-0.4974680706072744,0.4664618345535055,-1.0552415390111225,1.0853225093913053,-0.0473368081126424,2.3521267780515185,-0.7957155464798911,0.5788432183046568,-1.1779611495278612,1.6425319686204591,0.0179707217528607,-1.4723203882815783,-0.7279155138821158,9.564775839914546,-1.2015183059073062,0.0393227397225134,-0.9616854202354348
1.18,1.082476948808623,-0.0369236214643834,2.319382445968688,0.1629599270130564,0.1228293390631121,0.0468840564747039,-0.4970246580071037,0.4351033105887291,-1.0703941265139494,1.069808198467668,-0.0356511390288893,2.3288348458915737,-0.8357155470759375,0.5679627465386617,-1.2046902325890794,1.7415184093301104,0.0221706300085361,-1.5679261982388195,-0.7576293751413443,9.58398423676499,-1.1990796546806295,0.0367044040663281,-0.956180001559702
1.2,1.0725427965867464,-0.0285679636642816,2.2978171993841565,0.1634001006460926,0.1203660032800452,0.0460785908078771,-0.4965263295789275,0.4024678742261658,-1.0852775023226366,1.0576257159082678,-0.015168455934947,2.26586273964299,-0.5970246594972198,0.3956744916178104,-1.0480496583524856,1.7936240640529018,0.0249164214088076,-1.6317718181281609,-0.744168790434363,9.591395229204863,-1.1979617198731294,0.0359226950078074,-0.9491960686633436
1.22,1.0626486983379402,-0.0209126821773605,2.276359982003541,0.1620381939076754,0.1172850012688568,0.0450191542418739,-0.4930839208603558,0.3648139324526344,-1.059667991007213,1.0576257159082678,-0.015168455934947,2.26586273964299,-0.5970246594972198,0.3956744916178104,-1.0480496583524856,2.2833728225396093,0.1721204359285882,-1.8826970886765717,1.2804755657711775,9.610677718166698,-1.189792403918627,0.03776666694476,-0.9259593962174852
1.24,1.05331263943546,-0.0143565770303022,2.256463817375524,0.1587455039282534,0.1141784669172486,0.0438302620791663,-0.4899860831326789,0.3280066861989505,-1.0358973743822648,1.0576257159082678,-0.015168455934947,2.26586273964299,-0.5970246594972198,0.3956744916178104,-1.0480496583524856,2.196253736534449,0.1548918863838455,-1.8403623126841933,1.188530831247414,12.132859181622734,-1.1922393993049116,0.0401145052482305,-0.9197671338408504
1.26,1.0435491102077687,-0.0081879268781415,2.2359894798447133,0.1531309140117397,0.1101130714351763,0.0423052327030206,-0.4866553407732519,0.2915438599519849,-1.0127449709686287,1.0516554693132956,-0.0112117110187689,2.255382243059465,-0.617024659795243,0.3877887278236267,-1.043580764720193,2.166024772716736,0.1665371179713493,-1.823141312348281,1.1576201706818057,11.945488196009135,-1.1949852559603502,0.0441803775237679,-0.912624047612938
1.28,1.0338495414344164,-0.0027244594358626,2.215961603500571,0.145768941300625,0.1044571820963229,0.0404406123652733,-0.4838330508188042,0.2573400124619885,-0.9911316851138668,1.0397149761233513,-0.0032982211864127,2.234421249892415,-0.6570246603912895,0.3720172002352592,-1.0346429774556074,2.0279315996512097,0.141114497722386,-1.710192374499822,1.0806642927380985,11.78195873974073,-1.199409142208084,0.0493762148258278,-0.90373012625043
1.3,1.024185137133207,0.0020797370750837,2.196354020579371,0.1369258385075678,0.0970781943515413,0.0382777513106826,-0.4832390640779682,0.2256219519076181,-0.9705344887430352,1.0277744829334068,0.0046152686459434,2.2134602567253654,-0.697024660987336,0.3562456726468918,-1.025705190191022,1.891185265856832,0.0296993370417969,-1.585903027718517,1.0298598185415786,11.651374057196335,-1.205247057562172,0.0558840558772422,-0.8922457387981224
1.32,1.0149887869366794,0.0060827740636265,2.178103678777065,0.1275373112033502,0.0888395159234684,0.0360665548371721,-0.4852298927763541,0.1980024569682763,-0.9514615269765304,1.01383398971366,0.0117401820988813,2.192946152921545,-0.7370246615833824,0.3404741450585243,-1.0167674029264364,1.6812032671253625,-0.0995414349192924,-1.380974746967091,0.9536480883252374,11.555612519555323,-1.2105558918920738,0.0628553844921259,-0.8803257393405516
1.34,1.0052386193507874,0.0097609728781196,2.1592963971672248,0.1170455722867903,0.0792785579849025,0.0336928376909496,-0.4900779815878566,0.1717889704174141,-0.9301432646533416,0.9998934964939132,0.0188650955518191,2.1724320491177243,-0.7770246621794289,0.3247026174701568,-1.007829615661851,1.7066920861396906,-0.2424044405751252,-1.31067432754311,1.0659131161594393,11.485827073524888,-1.2150732920953482,0.0701042224715792,-0.8671621786848345
1.36,0.9953549535926182,0.0129411912423451,2.1409268537072097,0.1061820010170747,0.0693783040548047,0.0313812525950833,-0.4983918766517494,0.1480588293217933,-0.9077848199876934,0.9849530032592656,0.0255957208150478,2.1521413899955184,-0.8170246627754753,0.3089310898817894,-0.9988918283972654,1.682364775708841,-0.4156947531946425,-1.1865070547810386,1.117922233282409,11.535367733506064,-1.2194001279826805,0.0770670661587088,-0.855389157791085
1.38,0.9857792142755804,0.0155480036298104,2.123896610136737,0.0956454346398387,0.0603045406946497,0.0293299134709557,-0.5093675299291671,0.1280135843727694,-0.8859444549969371,0.9690125100097164,0.0319320578885672,2.1320741755549277,-0.8570246633715217,0.2931595622934219,-0.98995404113268,1.5805682149640965,-0.5487826638708837,-1.002262247451198,1.0920182495378183,11.573922296589444,-1.2225846386228127,0.0842733262438405,-0.845489946372145
1.4,0.9754451646298704,0.0179119293565617,2.106421924517301,0.0846020383910253,0.0515851824866414,0.027380579460315,-0.5236571522596734,0.1098334476398316,-0.8626439839075724,0.960310837779122,0.0219486828484489,2.07959938738689,-0.6093675314192832,0.1292207915859253,-0.832003056137913,1.6413581502547954,-0.7144811165253118,-0.909006836646889,1.1650235544682364,11.593154568696264,-1.224478489316616,0.0913468231198929,-0.8374845125944057
1.42,0.9647422126353512,0.0199163499421971,2.0895194163599644,0.0733129659890085,0.0460946548568372,0.0257906882866052,-0.5462345533729228,0.092111809943935,-0.8281959136175457,0.960310837779122,0.0219486828484489,2.07959938738689,-0.6093675314192832,0.1292207915859253,-0.832003056137913,2.2419104745505534,-1.1288700556624731,-0.8860818847948287,1.7224035145013306,12.535470081520543,-1.2195276595571576,0.0984001319161841,-0.831390459987615
1.44,0.9535824815756468,0.0216045499900619,2.073317695197032,0.0618080374324984,0.0460815033022198,0.0246455875933913,-0.5679155553321691,0.0781126351014464,-0.7937273237573462,0.960310837779122,0.0219486828484489,2.07959938738689,-0.6093675314192832,0.1292207915859253,-0.832003056137913,2.1529784190616352,-1.0840500979623136,-0.6999587421244304,1.7234294930099758,12.535470081520543,-1.211531771935384,0.1051019651247588,-0.8396760389402327
1.46,0.9426117152434078,0.0229828088674526,2.0585469909945577,0.0510751870882712,0.0494011029879411,0.0237809752545039,-0.5854204219167833,0.0680179570645514,-0.7627944640854867,0.9542171624649292,0.0232408907643081,2.071279356825511,-0.6293675317173064,0.1294622330285565,-0.8212147763661082,1.8474067542725063,-0.8752433292307127,-0.5047339018447519,1.5466429835929774,12.379304141615648,-1.202351129081994,0.1125010786095411,-0.8512428264942429
1.48,0.9307392907193266,0.0242607694269909,2.0436175863144808,0.0402437682563467,0.0548524538044433,0.0229738139914877,-0.6005536507559913,0.0606056580408525,-0.731855431153153,0.9420298118365434,0.0258253065960266,2.054639295702753,-0.6693675323133529,0.1299451159138188,-0.7996382168224986,1.7615196214523074,-0.756661441960399,-0.370614951184945,1.5469516466166844,12.212738570508918,-1.19265955127026,0.1199341353691644,-0.8641737115842753
1.5,0.9185962420970252,0.025423339063044,2.0292864480534667,0.0301213971564762,0.06112910278317,0.0222059001835157,-0.6127292100556394,0.0562226983634796,-0.7029098998329002,0.9298424612081578,0.0284097224277451,2.0379992345799947,-0.7093675329093994,0.1304279987990812,-0.778061657278889,1.585322020288354,-0.6087779649824043,-0.2191479838686449,1.4472765660126397,11.949282099338234,-1.182977722457979,0.1271333654129702,-0.8782821868716206
1.52,0.9062384685989348,0.0265286101393401,2.015512788174231,0.0209250455948365,0.0673579001215385,0.02145822966971,-0.6222806990525395,0.0545748008901711,-0.6759296580379747,0.9156551105499698,0.0310182824037267,2.0224380014344168,-0.7493675335054458,0.1309108816843436,-0.7564850977352794,1.433422439001397,-0.4775744498450029,-0.0823948736654221,1.3490120897462765,11.949282099338234,-1.1745409263683593,0.1335772675763424,-0.8911023575301225
1.54,0.8943434115257046,0.027571469826962,2.002916262458896,0.0131822620577441,0.0726641751399556,0.0207730964945325,-0.6292941798545117,0.055230061249368,-0.6513989153440242,0.901467759891782,0.0336268423797084,2.006876768288839,-0.7893675341014923,0.131393764569606,-0.7349085381916697,1.2761030681480772,-0.3506740400986141,0.0327630179598418,1.2265371346975251,11.837216521877052,-1.1674131511595087,0.1398117232005043,-0.9030525659798112
1.56,0.8816913760606677,0.0287021669110177,1.990152179823032,0.0061540467302746,0.0773563288928541,0.0200976673748568,-0.6354683361099214,0.0577746992606966,-0.6263559535183937,0.8862804092186927,0.0362474744278216,1.991854949131852,-0.8293675346975387,0.1318766474548683,-0.7133319786480601,1.295902508943958,-0.3087078127704812,0.127231900566432,1.2521480912815242,11.744696767161258,-1.161745908906188,0.1453061496041014,-0.9135105592931488
1.58,0.8689261391996769,0.0299027285022343,1.9778786874194147,0.0003692335411119,0.0811225423859972,0.0194938222504269,-0.640728070637376,0.0619595257733044,-0.6022739220562635,0.8700930585307024,0.0388801785480663,1.9773725439634544,-0.8693675352935851,0.1323595303401307,-0.6917554191044505,1.2501218136475252,-0.2629867263727325,0.2092413256303892,1.2041015731065086,11.70157764765463,-1.1575322800991328,0.1497150961818138,-0.9224740287471906
1.6,0.8567081599129714,0.0311328163492,1.966657295285644,-0.0039874432747698,0.0838884693256273,0.0189992468468614,-0.6451152364870236,0.0670932945638968,-0.5801507508731529,0.8368897356678081,0.0330007047908995,1.9477649913166013,-0.6769921064881393,0.060885485231879,-0.5803334858420549,1.156543891714436,-0.21935829248238,0.25668843952962,1.106158559155529,11.666987916105429,-1.1540139499937143,0.1534741848181287,-0.93111265702863
1.62,0.8436694197969712,0.0325908150915338,1.9552275560001904,-0.0057695245234579,0.0886975693644168,0.0186685591448152,-0.6581261238319948,0.077667498864795,-0.5643573503163605,0.8368897356678081,0.0330007047908995,1.9477649913166013,-0.6769921064881393,0.060885485231879,-0.5803334858420549,1.1516602008057293,-0.6505443672485567,0.528710215044912,0.7896700278396229,11.666987916105429,-1.1550630232739718,0.1552598523679744,-0.9392597012304128
1.64,0.8304091234015074,0.034241400826761,1.944088963013453,-0.004084724750834,0.0971049870582883,0.0185729631746841,-0.6666419403192907,0.0865436099175344,-0.550311948737928,0.8368897356678081,0.0330007047908995,1.9477649913166013,-0.6769921064881393,0.060885485231879,-0.5803334858420549,0.9335118951643004,-0.4257908243647967,0.4438055526369701,0.7022700789216241,11.220679752050271,-1.144526288552186,0.1536227412184624,-0.9556310232988198
1.66,0.8170265035580844,0.0360465632376528,1.9332193196701732,4.595372466903036e-05,0.1071595587794591,0.0186779521144054,-0.6707452445231226,0.0928103564943804,-0.537423405109537,0.8301198146029267,0.0336095596432183,1.941961656458181,-0.684244913658292,0.060670677123594,-0.5759453985992132,0.7453585964294857,-0.2051652101915935,0.3133373288423002,0.644427181419549,11.138597020276393,-1.1340882873901763,0.1500633685270384,-0.9715341839242226
1.68,0.8042717882887185,0.0378435912999811,1.9231204429990167,0.0047807853567452,0.1172486032119972,0.0188852956449717,-0.6713255143885674,0.0958093668915795,-0.5262925772218849,0.8165799724731639,0.0348272693478558,1.93035498674134,-0.6987505279985974,0.0602410609070238,-0.5671692241135298,0.5771180683876227,-0.0290134932722396,0.1499505198599517,0.5565413943826036,11.066604545643711,-1.1235940261396324,0.145525967571253,-0.9878072245355148
1.7,0.7908652874068057,0.0397749387469446,1.912709644904545,0.0097735467086172,0.1278688048318431,0.0191622384050493,-0.6689687453424294,0.0970483825089254,-0.5154402074775319,0.8030401303434012,0.0360449790524934,1.9187483170244988,-0.7132561423389027,0.0598114446904537,-0.5583930496278463,0.5587115738576777,0.1178384523068953,0.0619507808672981,0.5426184872176498,11.012114182272851,-1.1136405501054003,0.1409229659896914,-1.0031532244903685
1.72,0.7775340898299644,0.0417152819882321,1.9025055701927416,0.0144259904830607,0.1381835797398294,0.0194684261062164,-0.6639821817376753,0.096893891333496,-0.5055531154109966,0.7887750074966231,0.0372412079463025,1.9075804560319416,-0.727761756679208,0.0593818284738836,-0.5496168751421628,0.5537243755689533,0.2493281802377067,-0.0077245587714706,0.4943546033267687,10.979462578423409,-1.1048800856846563,0.1368014496632792,-1.0165806560329351
1.74,0.764984749873752,0.0435450656754175,1.8929851739202024,0.0184028973354764,0.1475363406434381,0.0197674373635023,-0.6570329138021972,0.0957403963590301,-0.4971252685163044,0.774509884649845,0.0384374368401116,1.8964125950393849,-0.7422673710195133,0.0589522122573134,-0.5408407006564794,0.5492073351102343,0.347463396773906,-0.0576747487232978,0.4213923447346057,10.946071400278925,-1.0964190119121209,0.1328599534301173,-1.0295163451339933
1.76,0.7519509240488399,0.0454392770253515,1.8831282939549248,0.022088218901952,0.1564558278644398,0.0200693258284759,-0.6465432330517633,0.0937416876912551,-0.4890630690760828,0.7598821214445594,0.0396229253285064,1.88546413840897,-0.7567729853598186,0.0585225960407433,-0.532064526170796,0.6690054155210028,0.5244840375216941,-0.0999354333887474,0.4031099720110814,10.90812403783366,-1.0886484021493728,0.1293467158528422,-1.0411916753376411
1.78,0.7391555654545343,0.0472857816711496,1.8734246887671049,0.0252464103931262,0.1637700188728652,0.0203290967063807,-0.6334617214243324,0.0910313043074768,-0.4817426034442423,0.744891717880766,0.040797673411487,1.8747350861406973,-0.771278599700124,0.0580929798241731,-0.5232883516851126,0.7616779857863626,0.6540755813715438,-0.1355191691889148,0.3660232815920233,10.866548731284638,-1.083061795731926,0.1263378238023994,-1.0504993131120477
1.8,0.7266434560067491,0.0490713679465504,1.8638629018469777,0.0278637224175667,0.1690410887721277,0.0205190484790853,-0.6185336943578913,0.0877358513580502,-0.4748084750093224,0.7074824793833177,0.0518373468865235,1.8493375585948928,-0.6307408145594807,0.0767710206361573,-0.4458178595832823,0.8393273190332977,0.746401353322057,-0.1647726474713284,0.3467064217459986,10.866548731284638,-1.080012172135794,0.123958525413915,-1.0568833645721745
1.82,0.7149952415183034,0.0507064114077022,1.8549394005295672,0.0300758836502621,0.1737247852259087,0.0206840852332509,-0.6079676096466986,0.0844879947859687,-0.4648953824033095,0.7074824793833177,0.0518373468865235,1.8493375585948928,-0.6307408145594807,0.0767710206361573,-0.4458178595832823,0.7423949815500848,0.5283042355596346,-0.1623928286040785,0.4956546303006431,10.866286541910084,-1.0787736352035413,0.121832644197311,-1.0618851976202712
1.84,0.7029814899311095,0.0523548479940427,1.8457551777829024,0.0322151246462805,0.1792974399719261,0.0208756553930531,-0.5937364812110442,0.0805096971933025,-0.4540657527185172,0.7074824793833177,0.0518373468865235,1.8493375585948928,-0.6307408145594807,0.0767710206361573,-0.4458178595832823,0.9160141202482104,0.7115564217827219,-0.1989148796333079,0.5414814842396171,11.088907165704768,-1.0737957051439584,0.1196822267125065,-1.0700947411871724
1.86,0.691282641134041,0.0539182443668452,1.8367883393598108,0.0340913832626927,0.1844165331447361,0.021045077825335,-0.5767672021490673,0.0760352433313778,-0.4431692323951468,0.7011750712377228,0.0526050570928851,1.84487937999906,-0.6301966331865104,0.0739189639018934,-0.4386329108110903,1.0328496071589548,0.8484639530988436,-0.2237226930962371,0.5448260161685176,11.145782681043784,-1.070271865172568,0.1178440702806056,-1.0773805784633317
1.88,0.6799470440461416,0.0553872609610797,1.8280412957738743,0.0356477055424667,0.1883055557796187,0.0211576742298943,-0.5577364523313467,0.0711145224155446,-0.432086704910456,0.6885602549465333,0.0541404775056082,1.8359630228073944,-0.6291082704405697,0.0682148504333656,-0.4242630132667063,1.1282789420231114,0.9515374908860286,-0.2460360457916588,0.5541263742345398,11.176011928027036,-1.068686061576151,0.1164142249967567,-1.08285331793473
1.9,0.6695436003453136,0.0566870607596336,1.8199400860342008,0.0367540733381826,0.1904773566731668,0.0211878321514005,-0.5384773060260764,0.0659737945297161,-0.4212172198156706,0.6759454386553436,0.0556758979183314,1.8270466656157285,-0.628019907694629,0.0625107369648378,-0.4098931157223223,1.1352174965944917,0.9629573152635184,-0.2570363942914225,0.5434742547392707,11.176011928027036,-1.0698637955323629,0.1153582185630211,-1.0864371954147751
1.92,0.6589932160528632,0.0579457799035158,1.811641583114475,0.0374099943039985,0.1909982536373407,0.0211200445111947,-0.5176869881494077,0.0601796521334646,-0.4091614968315248,0.6633850405014511,0.0569261126576281,1.818848803301282,-0.6269315449486883,0.0568066234963101,-0.3955232181779383,1.2360722674983715,1.0395158938334317,-0.2897071198125749,0.6027861492072878,11.21282857813003,-1.07326719770001,0.1148244628158247,-1.087948367903364
1.94,0.648864977679561,0.0590847615549369,1.8035929353724705,0.0374079346282149,0.1894700565577585,0.0209299471633247,-0.4963602185468171,0.0540691455180911,-0.3962836142212219,0.6508246423475585,0.0581763273969249,1.810650940986836,-0.6258431822027476,0.0511025100277822,-0.3811533206335543,1.2825845520893036,1.0663384801295277,-0.3055253307686755,0.6438941305151491,11.311836000865696,-1.0781799064312816,0.1148830347280497,-1.0877593051682657
1.96,0.6396395240795236,0.0600516731092091,1.79619368525515,0.0366781018019699,0.1857963091493706,0.0206182778954933,-0.4760031186017499,0.0481002007586053,-0.3831953587325228,0.6382914532623144,0.0592839392995084,1.8028123261109987,-0.624754819456807,0.0453983965592545,-0.3667834230891703,1.24633688408543,1.0178549972533617,-0.2984472379742923,0.6544127744349537,11.364361034341528,-1.0859160367266052,0.1156917651145735,-1.085091112563801
1.98,0.6303322777820005,0.0609489379102849,1.7886853578482496,0.0350919372556232,0.1795235849229989,0.0201553138783543,-0.4562987237302441,0.0420164107310301,-0.3682121539747575,0.6257854732457189,0.0602489483653788,1.7953329586737716,-0.6236664567108663,0.0396942830907267,-0.3524135255447863,1.2745313875744346,0.9852197435752884,-0.3041895013787571,0.7491602378882634,11.364361034341528,-1.098370787593706,0.1174696193092209,-1.0783628031933887
2.0,0.6213858799148061,0.0617297932013301,1.781490404576012,0.0327336629012132,0.1716055617024043,0.0196025666204699,-0.4397221965840909,0.0365683581146476,-0.3519408643236799,0.6075173415954883,0.0630497584468364,1.7702747501495115,-0.4847176074115414,0.0367169785278565,-0.3357379975056508,1.192913865758228,0.8288263573076632,-0.2724026308191293,0.8135644825538829,11.423355259596065,-1.1112686710006705,0.1199078247829719,-1.0707389170743191
2.02,0.6127431575103107,0.0623959187497149,1.7745524451327082,0.0292870315526437,0.1622807948439634,0.0189640834770265,-0.4258886639079199,0.0308501698982022,-0.3429722944679593,0.6075173415954883,0.0630497584468364,1.7702747501495115,-0.4847176074115414,0.0367169785278565,-0.3357379975056508,0.8724957708182955,0.6916766338085495,-0.2859094108222664,0.4484284927860293,11.474035837287374,-1.1268542315759529,0.1233408594199597,-1.060874764813163
2.04,0.6043390412233822,0.0629798770459468,1.7677983973184366,0.0252664582809557,0.1517431181005946,0.0183041061104999,-0.4156620360050398,0.0279470421471883,-0.332779530649288,0.6075173415954883,0.0630497584468364,1.7702747501495115,-0.4847176074115414,0.0367169785278565,-0.3357379975056508,0.7363839067800946,0.5113313951440018,-0.145156387550694,0.5096381909335645,10.944901992206724,-1.140658473239747,0.1272511919234498,-1.0491654044795644
2.06,0.5965086935441141,0.0634975445681533,1.7615898408854362,0.0217150195195457,0.141471719291691,0.0177437725276989,-0.409384792974375,0.0266533789287246,-0.3212375857899355,0.6026701655213729,0.0634169282321149,1.7669173701744552,-0.4904013841478009,0.0356570920872218,-0.3292431662118295,0.6601019537260328,0.3138621515332424,-0.0646831609231891,0.5770972429676252,11.041572813152923,-1.15339633891663,0.1308128413155384,-1.0381867610164428
2.08,0.5883607344511158,0.0640255057892684,1.7553064333253583,0.0185089602423,0.1311181277622998,0.0172528609491979,-0.4060127697414853,0.0261718543119759,-0.3076418302360615,0.5929758133731421,0.0641512678026721,1.7602026102243422,-0.5017689376203198,0.0335373192059523,-0.3162535036241868,0.7007977163924988,0.1686011616444827,-0.0240762308374326,0.6797877776936967,11.136483659047371,-1.1643859240656589,0.1337907017155954,-1.0290160088627651
2.1,0.5802477710551187,0.0645513194497642,1.7493068683700177,0.0159265365698124,0.1218037009927936,0.0168679596766499,-0.4055906834034873,0.0263232624501542,-0.2929960652133009,0.5832814612249112,0.0648856073732292,1.7534878502742293,-0.5131364910928388,0.0314175463246829,-0.3032638410365442,0.7326314121080101,0.0211043168999003,0.0075704069089148,0.732288251138033,11.211997704017447,-1.1729367240960658,0.1360383605058271,-1.0223220131719246
2.12,0.5725248368331084,0.0650576473698324,1.743884451477788,0.0140181970078295,0.1142524169247183,0.0165914906999602,-0.4074189410238534,0.0268611441873341,-0.2785231976107913,0.5730187314030545,0.0655139582997229,1.7474225734534985,-0.5245040445653577,0.0292977734434134,-0.2902741784489015,0.7298899563108642,-0.0914128810183018,0.026894086858995,0.7236433801254799,11.26261407698621,-1.1797806572978438,0.1378520787667726,-1.017714126326375
2.14,0.5643373947187014,0.065604701720531,1.7384746569591385,0.0125443314221657,0.107904058266606,0.0163833843210773,-0.4113891990264864,0.0277799617644746,-0.2632227507112463,0.5627560015811977,0.0661423092262165,1.7413572966327675,-0.5358715980378767,0.027178000562144,-0.2772845158612588,0.7916925692358912,-0.1985129001316504,0.0459408788570247,0.7650223449772509,11.294262747313953,-1.1850291561464292,0.1391799438165505,-1.0150589213771883
2.16,0.556045300716259,0.0661746083175441,1.7333688169344967,0.0116981251402239,0.1037225015094309,0.016262164553819,-0.4177501025775898,0.0291312464759938,-0.2481475403612882,0.5522090829225279,0.0667176658306785,1.7356167613767275,-0.5472391515103955,0.0250582276808745,-0.2642948532736162,0.8208974227233078,-0.3180451775551707,0.0675642355759622,0.753760517497902,11.300793424027688,-1.1880740379223154,0.139923786586106,-1.0147096057233385
2.18,0.5476071563883239,0.066775536986324,1.7285604070506448,0.0116357031149009,0.1024069061568724,0.0162385391882948,-0.4254035599737298,0.0308115102288642,-0.2334700210820907,0.5413779754270452,0.0672400281131086,1.7302009676853791,-0.5586067049829144,0.022938454799605,-0.2513051906859735,0.8319078503430479,-0.382672869807002,0.0840131876435161,0.7338759639598776,11.297465220216507,-1.1862999571157171,0.1398965117598465,-1.0193116995816291
2.2,0.5394601676269546,0.0673782108105469,1.7242591558452292,0.0123861597787674,0.1034940241434112,0.0163055006878305,-0.4315129850486478,0.0324597964263764,-0.2200466051261354,0.5263369783896374,0.0683161124977672,1.7168869059965404,-0.4394120764194858,0.0236572233897962,-0.2060435267966264,0.7420074427887169,-0.3054712537458981,0.0824143098756093,0.671170797797764,11.274185557977034,-1.1818205041593393,0.1390597582698452,-1.0271551673407924
2.22,0.5307357216985266,0.068044056713261,1.7199684358734868,0.0140631879641669,0.1074772049176668,0.0164810366441067,-0.440206258044604,0.0339543839518109,-0.2099497724039735,0.5263369783896374,0.0683161124977672,1.7168869059965404,-0.4394120764194858,0.0236572233897962,-0.2060435267966264,0.6703596390608625,-0.434663649797809,0.0747293762717281,0.5048416361080929,10.99091956607208,-1.1788007435227652,0.1376174436354341,-1.0349135906927025
2.24,0.5218731955835478,0.068732751962045,1.7158690146083593,0.01656217788698,0.114337228691568,0.0167692544675748,-0.4451188470587546,0.0345821147452935,-0.2005093748615406,0.5263369783896374,0.0683161124977672,1.7168869059965404,-0.4394120764194858,0.0236572233897962,-0.2060435267966264,0.5330306804730213,-0.2456294507075324,0.0313865396741268,0.4720198771216446,10.972578698258076,-1.1681680326412254,0.1351877370675021,-1.047612846650706
2.26,0.5134016512177472,0.0693819006159358,1.712146294977132,0.0191413321137521,0.1220482854499194,0.0170977930680685,-0.4460758743506571,0.0336657352633382,-0.1918617969575448,0.5219428576254426,0.0685526847316652,1.714826470728574,-0.442213779708637,0.0222263660219826,-0.2005582279395335,0.4374250112821395,-0.047851364595125,-0.0458189740977645,0.432378895199792,10.972578698258076,-1.1574801857603816,0.1324964265133779,-1.0611579759342105
2.28,0.5045017944737972,0.0700359622543163,1.7084021615015408,0.0216391756699008,0.1302599022675096,0.0174531987972214,-0.4436118814604926,0.0317896435270188,-0.1830399054271496,0.5131546160970529,0.0690258291994611,1.7107056001926415,-0.4478171862869394,0.0193646512863555,-0.1895876302253478,0.4674846289984424,0.1231996445082261,-0.0938045868159664,0.4410945765197571,10.960734082684212,-1.1480354850505694,0.1300749943808493,-1.0737232289217955
2.3000000000000003,0.4956846236502408,0.0706453266143973,1.7048308086241035,0.0237543758609624,0.137675290767838,0.0177844231168511,-0.4381549189469604,0.0293049132214512,-0.1745647201877156,0.5043663745686632,0.0694989736672571,1.7065847296567092,-0.4534205928652418,0.0165029365507283,-0.1786170325111621,0.5190883581053982,0.2728481256766113,-0.1242365152783839,0.4237592619717026,10.960734082684212,-1.140703506660572,0.1281591392167244,-1.08409426398986
2.32,0.4874318116730836,0.0711742008923055,1.701593051612267,0.025377756558262,0.1434546921350174,0.0180552498408153,-0.4308594881060104,0.0265507852276375,-0.166691644275333,0.4952979627113583,0.0698290323982716,1.703012389006486,-0.4590239994435441,0.0136412218151011,-0.1676464347969764,0.5540619470860896,0.3647715420475012,-0.1377063996906839,0.3936537956191283,10.959357545029889,-1.1350964796613028,0.1265701678965395,-1.092882231804423
2.34,0.478909245463739,0.0716707699929451,1.6983455374706475,0.0266501732614531,0.1479352100580669,0.0182776811091237,-0.4218002048491061,0.0232564925450487,-0.1584806043372325,0.4862295508540535,0.0701590911292862,1.6994400483562626,-0.4646274060218465,0.0107795070794739,-0.1566758370827906,0.6331353612626308,0.4529641628452124,-0.164714634129438,0.4105519969050245,10.967210663689912,-1.1318788543014722,0.1254566918539378,-1.0992235653235602
2.36,0.4705765200344637,0.0720959669095348,1.6952620478635676,0.0273255299583824,0.15072288145395,0.0184178222799956,-0.4120028837892137,0.0194570369758834,-0.1502756072448278,0.4770210538322911,0.0704176069919101,1.696141972648894,-0.4702308126001489,0.0079177923438468,-0.1457052393686049,0.6666058427943816,0.4898660529946225,-0.1899727784582649,0.4102498546202357,10.978438145939435,-1.1309391794856454,0.1249720700585886,-1.1030413962376795
2.38,0.4624431077601462,0.0724414035618677,1.69234452316954,0.0272229564499221,0.1519082721479352,0.0184620282685352,-0.4019977915849432,0.0153591931375315,-0.1418782490610177,0.4676724716460712,0.0706045799861433,1.69311816188438,-0.4758342191784513,0.0050560776082196,-0.1347346416544192,0.684488529134484,0.5002546102135241,-0.2048921919175963,0.4198679091905063,11.006042638548024,-1.131968850176631,0.125238722435268,-1.1050435736316424
2.4,0.4548999240742681,0.072693802655218,1.6897313898380677,0.0263338149949602,0.1517377005851488,0.018415819549282,-0.3926461118816994,0.0114963669680453,-0.1335984389311194,0.442343218180899,0.0732093632187443,1.685250610716489,-0.3853398524042114,-0.0019976496187398,-0.1329433265446717,0.6537021398827132,0.4675839851621871,-0.1931413084743113,0.4139905064949156,11.006042638548024,-1.1343681970314603,0.1263567340187652,-1.1056197876979028
2.42,0.4470742305957346,0.0729158777874138,1.6870763762031562,0.0255785905891805,0.1521997538611496,0.0183998723747669,-0.3903668634307737,0.0107526841669044,-0.1327720088031647,0.442343218180899,0.0732093632187443,1.685250610716489,-0.3853398524042114,-0.0019976496187398,-0.1329433265446717,0.1267973221932476,0.1139624225462876,-0.0371841400570409,0.0413215063977345,11.026438928912285,-1.1443457884256811,0.1278776847401587,-1.1029356684603122
2.44,0.4393022519746992,0.0731235311341962,1.6844274418556546,0.0258342910490245,0.1548638817325803,0.0185133258564724,-0.3866170923581513,0.0099023560154201,-0.1321448167821106,0.442343218180899,0.0732093632187443,1.685250610716489,-0.3853398524042114,-0.0019976496187398,-0.1329433265446717,0.1947897000200255,0.187488553631121,-0.0425164075742163,0.0313596010527064,10.539689318577077,-1.140771530095516,0.1276419718835268,-1.1064976571491711
2.46,0.4320106747486057,0.0733013264826703,1.68192840483669,0.0268339338641202,0.1585113629310897,0.0187056901773596,-0.3809188967312959,0.0087934443823482,-0.1309249266977475,0.4384898196568569,0.0731893867225569,1.6839211774510423,-0.3820082645680651,-0.005469018169994,-0.1311563420414025,0.2965942102848732,0.2849097813427681,-0.0554455816535963,0.0609945042181508,10.539689318577077,-1.136660954681032,0.1266558937633282,-1.111358717864522
2.48,0.4244742121379609,0.0734615096329848,1.6793290919663784,0.0286018971951755,0.1627716359730859,0.0189746345859868,-0.3728670511851278,0.0072025289500249,-0.1290617232224607,0.4307830226087727,0.0731494337301821,1.681262310920149,-0.3753450888957723,-0.0124117552725026,-0.1275823730348641,0.4208169311068427,0.4025922773084056,-0.0795457716161636,0.0931601737643408,10.628157199824273,-1.1331078358678102,0.1249880282359382,-1.116392634889659
2.5,0.4174826141015473,0.0735761216350737,1.6768990154119885,0.0307850827291857,0.1666576586468295,0.019266961205044,-0.3634436886966788,0.0047730382546733,-0.1268472910028941,0.4230762255606884,0.0731094807378073,1.6786034443892557,-0.3686819132234796,-0.0193544923750111,-0.1240084040283257,0.4990137665499856,0.4711681244224469,-0.1214745347675804,0.1107216109783315,10.628157199824273,-1.1305835179803485,0.1229250267604739,-1.1205591829702108
2.52,0.4103312276856541,0.0736325056115441,1.674390380522552,0.033111456877036,0.1701770055477735,0.019564986991359,-0.352144363110681,0.0009607579825359,-0.1241172676371382,0.4157025872962189,0.0727223908903071,1.6761232763086888,-0.3620187375511869,-0.0262972294775197,-0.1204344350217873,0.6116806093650666,0.5649662792998944,-0.190614013606871,0.1365011682877934,10.663738825482142,-1.129096548076641,0.1207508888923692,-1.12398544004368
2.54,0.4034171748011804,0.0736036784782198,1.6719377794054275,0.0351538086281371,0.1728575599932415,0.0198188827282076,-0.3398338910070885,-0.0036283361702545,-0.1212747414171045,0.4083289490317492,0.0723353010428069,1.6736431082281225,-0.3553555618788942,-0.0332399665800282,-0.1168604660152489,0.6721001857388561,0.6155236051796215,-0.2294547076395226,0.1421263110016841,10.712062939318455,-1.1289789346493362,0.118976228303468,-1.126118040212135
2.56,0.3970836222442983,0.0734846729905423,1.6696618609041114,0.0366738377898741,0.1744881798579277,0.0199990755355002,-0.3275120774063408,-0.0086315914057803,-0.1184228667432121,0.401121890159087,0.0717746427677439,1.6712522893727193,-0.3486923862066015,-0.0401827036825368,-0.1132864970087106,0.6800603695977591,0.6160906800373844,-0.25016276177629,0.142593733694623,10.712062939318455,-1.1302003653864696,0.1175681600879197,-1.1269989835058467
2.58,0.3906724299505461,0.0732511137337858,1.667327708110993,0.0376617432403475,0.1751980462682343,0.0201075099446924,-0.3143378789078525,-0.0144278130954885,-0.1151178163697732,0.394081410678232,0.0710404160651183,1.6689508197424798,-0.3420292105343088,-0.0471254407850453,-0.1097125280021722,0.738374989292,0.6587099249244166,-0.28981108448541,0.1652525186719433,10.727537850410044,-1.1327669479503732,0.1168129076828763,-1.1264706902356283
2.6,0.3845243857373759,0.0728964342700944,1.6650633393259742,0.0378370163185167,0.1749454707864722,0.0201208588491001,-0.3012138290650289,-0.0206921265193024,-0.1114574566130962,0.3749555360051534,0.0725297230790114,1.6615718172925042,-0.3050984157722524,-0.0207314066118383,-0.1090654494462324,0.7498008743943209,0.6562024921411808,-0.3132156711906986,0.1830179878338514,10.768283995794263,-1.136003429174432,0.1168581482266054,-1.1254688842778122
2.62,0.3786529119359851,0.0723610167141653,1.66283252494402,0.0352434879929017,0.1730763238571883,0.0198823618484062,-0.2867448918537686,-0.031572864813357,-0.1117444987413669,0.3749555360051534,0.0725297230790114,1.6615718172925042,-0.3050984157722524,-0.0207314066118383,-0.1090654494462324,0.9052941552756468,0.7234468605630123,-0.5440369147027274,-0.0143521064135343,10.768283995794263,-1.139613122367569,0.1194331082336062,-1.1231541762900028
2.64,0.3733392368837869,0.0716992865875403,1.660715790765014,0.0303148393168034,0.1691103062379306,0.0194269023061501,-0.2734976175868659,-0.0370244691347489,-0.1109972529738685,0.3749555360051534,0.0725297230790114,1.6615718172925042,-0.3050984157722524,-0.0207314066118383,-0.1090654494462324,0.7172319035998863,0.6623637133451377,-0.2725802160695935,0.0373622883749202,10.539902148819236,-1.1472543391717342,0.1249384389008163,-1.117439905133661
