t,x,y,z,roll,pitch,yaw,v_x,v_y,v_z,ref_x,ref_y,ref_z,ref_v_x,ref_v_y,ref_v_z,a_com,a_x,a_y,a_z,thrust,wind_x,wind_y,wind_z
0.0,-0.959666579005332,0.8973867805621168,2.2988102895766884,0.0109548218458951,0.1363569603341261,0.025757975275402,0.0050560581034148,-0.0024993828993171,0.0065791085562491,-0.9595114666889994,0.897220987795157,2.299010303135858,0.0385394403102636,-0.104740863920441,-0.0933548487000239,0.4332877445111294,0.2528029051707433,-0.1249691449658553,0.3289554278124575,10.545656299819711,-1.28614607623449,0.1655130968696778,-1.1677740323777803
0.02,-0.9596908475380548,0.897625826973096,2.298706509871108,0.0192073392900361,0.1388345638206328,0.0263764269869457,-0.0065043973560178,0.0205491563483117,-0.0168911259083191,-0.9595114666889994,0.897220987795157,2.299010303135858,0.0385394403102636,-0.104740863920441,-0.0933548487000239,1.7433668559004052,-0.5780227729716352,1.1524269623814425,-1.1735117232284162,9.213371013473534,-1.3099658455979977,0.1597174380492663,-1.1849404514962547
0.04,-0.9598935355298684,0.8980506251617797,2.29811817300514,0.0334736345111102,0.1444872734896114,0.027511653829536,-0.0137941152867203,0.022464125154235,-0.0437911567831546,-0.9595114666889994,0.897220987795157,2.299010303135858,0.0385394403102636,-0.104740863920441,-0.0933548487000239,1.3967987991331905,-0.3644858965351256,0.0957484402961637,-1.345001543741776,9.213371013473534,-1.2988674585425688,0.1431449451009305,-1.1707783537393226
0.06,-0.9602150474259874,0.8984592020772416,2.2969467773710264,0.0490118786476237,0.1521398608341898,0.0288844199206548,-0.0175984273026321,0.0179219147448816,-0.0719062717703275,-0.9591260722858967,0.8961735791559526,2.2980767546488585,0.045218999809289,-0.1247408642184642,-0.1133548489980471,1.4366316125395566,-0.1902156007955922,-0.2271105204676694,-1.405755749358644,8.990115200436321,-1.2852787865248578,0.1264258383854881,-1.1592874844677197
0.08,-0.9605782008864752,0.898738273154073,2.2952226682869474,0.064014392584543,0.1604735250279589,0.0303566521373051,-0.018227380224184,0.0098932494051834,-0.0990661359958829,-0.9583552834796916,0.8940787618775438,2.296209657674858,0.0585781188073397,-0.1647408648145107,-0.1533548495940936,1.4164332614572772,-0.0314476460775918,-0.4014332669849096,-1.3579932112777664,8.990115200436321,-1.2728433445305016,0.1108415493931592,-1.1511408048846716
0.1,-0.960925402341161,0.898826501420629,2.2929668957971967,0.0783215242837122,0.168896584287691,0.0318890134648564,-0.0162169580685293,-0.0009675619906957,-0.1251759780655516,-0.9575844946734864,0.891983944599135,2.2943425607008576,0.0719372378053904,-0.2047408654105571,-0.19335485019014,1.417500330091538,0.1005211077827361,-0.5430405697939572,-1.3054921034834357,9.043919640975218,-1.2621937432125554,0.0971556416644233,-1.143654470706679
0.12,-0.9611963127447348,0.898684192103565,2.290348327320257,0.0912685025253493,0.1766977410036664,0.0333714561826799,-0.0122144133667882,-0.0137164751964768,-0.1491777493765669,-0.9561457499173784,0.8878891272909238,2.290475463697055,0.0852963568034411,-0.2447408660066035,-0.2333548507861864,1.373535745880183,0.2001272350870539,-0.6374456602890543,-1.2000885655507652,9.100967404987388,-1.2523548869231895,0.0838623984119219,-1.1358613424633612
0.14,-0.9613814873594708,0.8982484665490652,2.2870949064664536,0.1042418933116462,0.1845553125658659,0.0349342365630282,-0.006327294248275,-0.0294543859264565,-0.1749513484686422,-0.9547070051612706,0.8837943099827127,2.286608366693252,0.0986554758014918,-0.2847408666026501,-0.273354851382233,1.538358228615332,0.2943559559256611,-0.7868955364989861,-1.2886799546037664,9.15213232712358,-1.2454248738561562,0.0715276025303601,-1.1314978197683343
0.16,-0.961429105258043,0.8974738980495766,2.2833238218903893,0.1165691638394159,0.191903541541617,0.0364677251405626,0.0014308352230825,-0.0474707388173211,-0.2008870590665765,-0.9529342824302116,0.8786994926596003,2.281741269674548,0.1120145947995424,-0.3247408671986965,-0.3133548519782794,1.6259140726083232,0.3879064735678791,-0.9008176445432324,-1.2967855298967128,9.131187006141772,-1.2393193187331295,0.0606413824300263,-1.1262508950338523
0.18,-0.9612963896863602,0.896315968958574,2.279034390244341,0.1282678816746417,0.1983540563249693,0.037904333907096,0.011483482847782,-0.0676647008579416,-0.2267798729280545,-0.9508275817242012,0.8726046753215869,2.275874172640943,0.1253737137975931,-0.3647408677947429,-0.3533548525743258,1.7170393391165677,0.5026323812349759,-1.0096981020310227,-1.2946406930738994,9.139192461017956,-1.2342861756353585,0.0499634073683032,-1.12039904761653
0.2,-0.9609671174664244,0.8948219895498608,2.27448128116102,0.1388108520151708,0.2032967267874879,0.039106245873416,0.0226350215977024,-0.0887891914217412,-0.2512099473068345,-0.9607222155439712,0.892932733915677,2.2676953965979387,0.0625440178614577,-0.1676647023480577,-0.3267798744181706,1.7083833382936604,0.557576937496016,-1.0562245281899807,-1.221503718939,9.158603255503294,-1.231720611219226,0.0401149680848597,-1.1134038194959517
0.22,-0.96036637746329,0.8926297017158722,2.269318789584282,0.1446083979271027,0.2077976830920258,0.0399089160148034,0.0370824057439723,-0.1273061084128333,-0.2627068664010591,-0.9607222155439712,0.892932733915677,2.2676953965979387,0.0625440178614577,-0.1676647023480577,-0.3267798744181706,2.13568428836504,0.7223692073134965,-1.9258458495546027,-0.5748459547112339,9.183395228944391,-1.2199410164688906,0.0355541500014943,-1.0983762391420653
0.24,-0.9594653410622666,0.8897412991180519,2.263949457482892,0.144491713889287,0.2121640894451136,0.0402552348537265,0.0523674836121735,-0.1591132132397017,-0.2737798993204377,-0.9607222155439712,0.892932733915677,2.2676953965979387,0.0625440178614577,-0.1676647023480577,-0.3267798744181706,1.8492820099554947,0.7642538934100589,-1.5903552413434232,-0.5536516459689278,10.162628501553629,-1.2173323291496017,0.036204433172598,-1.0966758427149836
0.26,-0.9583176654868572,0.8864364595928135,2.258618980407705,0.1413660512957861,0.2158939872854429,0.0402811954405512,0.0676858414094972,-0.1865346270675723,-0.2866592194047563,-0.9600967753653564,0.8912560868921964,2.264427597853757,0.0727561248641929,-0.1876647026460809,-0.3467798747161938,1.6973972043694503,0.7659178898661849,-1.3710706913935264,-0.6439660042159318,10.023179370559774,-1.215817160379154,0.0398477887679289,-1.096338995922107
0.28,-0.9567915215772556,0.8824440213461006,2.2527262670266337,0.1367342828434674,0.2191069727506236,0.0400786485350759,0.0841124106705679,-0.210998120843858,-0.3019956669859682,-0.9588458950081272,0.8879027928452352,2.257892000365393,0.0931803388696632,-0.2276647032421274,-0.3867798753122402,1.6609495250024786,0.8213284630535375,-1.2231746888142851,-0.7668223790605944,9.871815613289982,-1.2153962146620638,0.0448239669566977,-1.0952756493799467
0.3,-0.9549351438946796,0.8779911730089975,2.246508139640053,0.1320828872757337,0.2214805058799314,0.0397288682929383,0.1006670681168516,-0.2329941169141174,-0.3191084451728612,-0.9575950146508982,0.884549498798274,2.2513564028770303,0.1136045528751334,-0.2676647038381738,-0.4267798759082867,1.6207465128455951,0.827732872314181,-1.099799803512974,-0.855638909344647,9.737552204906024,-1.2156989822565838,0.0497183867906734,-1.093140987885075
0.32,-0.952748969941214,0.8731165532193054,2.239929855902631,0.1278960846380124,0.2229929567928542,0.0392731802532386,0.117054252972463,-0.2534281435783499,-0.3378398765026118,-0.9553229235933955,0.8791962047215106,2.2428208053588645,0.1340287668806037,-0.3076647044342203,-0.4667798765043331,1.61008989878493,0.8193592427805714,-1.021701333211622,-0.9365715664875318,9.627323292564142,-1.2174962195354515,0.0539223876340996,-1.0901026323933585
0.34,-0.9503707353153348,0.8681170691438281,2.233327219376738,0.1244874270679205,0.2237212232187365,0.0387716418297924,0.1324036353045058,-0.2719073375680371,-0.3562234699726052,-0.953050832535893,0.8738429106447472,2.2342852078406987,0.154452980886074,-0.3476647050302668,-0.5067798771003796,1.5124819481184757,0.7674691166021388,-0.9239596994843612,-0.9191796734996704,9.49171919957098,-1.2202728117603272,0.0577654928074666,-1.0851056493134412
0.36,-0.947553964238728,0.8624744599076636,2.225993245101696,0.1212705419568383,0.2238106941560347,0.0381705094527173,0.1483910095940412,-0.2913146174603083,-0.3762060546610114,-0.9502681361282536,0.8674896165530825,2.224749610307632,0.1748771948915443,-0.3876647056263132,-0.546779877696426,1.6058816428367126,0.799368714476771,-0.9703639946135572,-0.9991292344203097,9.449174812309138,-1.223580942922755,0.0611428839214944,-1.079047666192886
0.38,-0.9444183805771684,0.8564461729425481,2.218254117151198,0.1181206853759936,0.2231629641809743,0.0374728384460384,0.1642961642068711,-0.3104107655638249,-0.3966579645513624,-0.9469748343704774,0.8601363224465167,2.214214012759664,0.1953014088970145,-0.4276647062223596,-0.5867798782924725,1.6092835624995567,0.7952577306414965,-0.9548074051758336,-1.0225954945175502,9.449174812309138,-1.2260496701496737,0.0641300091527768,-1.0719681657704418
0.4,-0.9411462745000008,0.8503706529524971,2.2105189851234743,0.1150778050571212,0.2217543702804182,0.0367056310382797,0.1792717102099729,-0.3280326029405629,-0.4164990927262784,-0.9362035723668248,0.8409256346643569,2.19842121892363,0.2152513703626481,-0.4104107670539411,-0.4966579660414785,1.5235374116481846,0.7487773001550887,-0.8810918688368974,-0.9920564087457978,9.380842440383276,-1.2293448149185986,0.0672161951092934,-1.0636232232157212
0.42,-0.9373551436106088,0.8436024151086717,2.2021912688467697,0.1120198368985022,0.2195956923109259,0.0358273588276328,0.1991704812299083,-0.3479674274001964,-0.4140565731863667,-0.9362035723668248,0.8409256346643569,2.19842121892363,0.2152513703626481,-0.4104107670539411,-0.4966579660414785,1.413616121904276,0.9949385509967698,-0.9967412229816758,0.1221259769955851,9.380842440383276,-1.228513122645876,0.0703469461906282,-1.0448853988458338
0.44,-0.9331780409753204,0.8364507021946084,2.1939176318403737,0.1095647099788975,0.217210001779176,0.0349652663986962,0.2173603775115088,-0.3663107243054941,-0.413805755671395,-0.9362035723668248,0.8409256346643569,2.19842121892363,0.2152513703626481,-0.4104107670539411,-0.4966579660414785,1.2917156977418685,0.9094948140800238,-0.9171648452648868,0.0125408757485817,10.819894120029858,-1.2349780561482957,0.0720791546417655,-1.0447999508423664
0.46,-0.9288900666011533,0.8293202951169713,2.186009532115201,0.1077756615449418,0.2148535766603182,0.0341729510144469,0.2330313327117634,-0.3833897813600543,-0.4185941965045997,-0.9340510586631984,0.8368215269938175,2.1934546392632157,0.2254424115938035,-0.4304107673519643,-0.5166579663395018,1.1834295420243754,0.7835477600127302,-0.8539528527280071,-0.2394220416602338,10.19509324439514,-1.240142412500863,0.0733597776723247,-1.0422422542663747
0.48,-0.9240704711987664,0.8214710058375829,2.177548347616853,0.1062834267802846,0.2122678235411205,0.0333525372928823,0.2479855025203618,-0.4006240351920437,-0.4274204552559257,-0.9297460312559456,0.8286133116527387,2.1835214799423857,0.2458244940561143,-0.4704107679480107,-0.5566579669355481,1.2232636095249425,0.7477084904299214,-0.86171269159947,-0.4413129375662988,10.19509324439514,-1.2450945128230568,0.0743332187071149,-1.037805114431161
0.5,-0.9189681019827924,0.8132844393114984,2.1688728127288,0.1052616547326345,0.2096475559224402,0.0325582107308456,0.2614324438335604,-0.4171960503909158,-0.4396461467787699,-0.9254410038486924,0.8204050963116598,2.173588320621556,0.2662065765184251,-0.5104107685440572,-0.5966579675315946,1.2297555159908828,0.6723470656599312,-0.828600759943604,-0.6112845761422125,9.961886789661548,-1.2497494872666228,0.0749179910854383,-1.0318743920304445
0.52,-0.913611772504069,0.8047720769854521,2.159925945414881,0.1047813068147891,0.2071221306434781,0.0318073650447229,0.2734616512056322,-0.4332494431338735,-0.4543969826904082,-0.920116872318324,0.8101968809407787,2.1616551612709243,0.2865886589807359,-0.5504107691401037,-0.6366579681276411,1.2449903700953182,0.6014603686035902,-0.8026696371478848,-0.7375417955819141,9.77408102917343,-1.2537527078363329,0.0750413255025677,-1.025262089924558
0.54,-0.9083114959258236,0.7963906222430412,2.151142143293631,0.104908447912825,0.204995752948681,0.0311579217142474,0.283812954935409,-0.4482575513524122,-0.4694517813445323,-0.9147927407879556,0.7999886655698976,2.1497220019202925,0.3069707414430467,-0.5904107697361501,-0.6766579687236876,1.1822010866617374,0.5175651864888386,-0.7504054109269354,-0.7527399327062062,9.554559098980462,-1.2570784556065209,0.0746440774014257,-1.0173286741028718
0.56,-0.9025272911891948,0.7872515739424485,2.1415768801255743,0.1054236304876889,0.203188188224919,0.0305387563753569,0.2940067735352297,-0.4648345306897865,-0.486306539421492,-0.9089590571960292,0.7887804501841152,2.1367888425547594,0.3273528239053574,-0.6304107703321965,-0.7166579693197339,1.2872383728651646,0.5096909299910357,-0.8288489668687143,-0.8427379038479843,9.554559098980462,-1.2597201974097108,0.0738697300750211,-1.0099426066523234
0.58,-0.8965446827482123,0.7777718312981933,2.1316648764772137,0.105824376877279,0.2018424951467315,0.0299527462642399,0.3037072554172434,-0.482244605622879,-0.504062039373439,-0.9026158215425452,0.7765722347834318,2.122855683174325,0.3477349063676682,-0.670410770928243,-0.7566579699157804,1.3346046572513148,0.4850240941006833,-0.8705037466546273,-0.8877749975973459,9.43891969078959,-1.2615308693354284,0.073183582881859,-1.0030229435455158
0.6,-0.8903715207806444,0.767935695156441,2.1213874907897496,0.1056029241671028,0.2009186032311639,0.0293621153835589,0.3131454381401478,-0.5003278151431658,-0.5227513365788367,-0.8813593199773502,0.7536596010170493,2.1064617745085417,0.3487760446907438,-0.5822446071129952,-0.6040620408635551,1.3832674991638536,0.471909136145221,-0.90416047601434,-0.9344648602698846,9.43891969078959,-1.2624425217295798,0.0730320082332024,-0.9967046439808532
0.62,-0.8842700448992012,0.7581979254265039,2.1115491952038896,0.1036161797080447,0.2002025467731653,0.0286913578353289,0.3286057406425158,-0.5232479654028542,-0.5118681478418126,-0.8813593199773502,0.7536596010170493,2.1064617745085417,0.3487760446907438,-0.5822446071129952,-0.6040620408635551,1.485595872433945,0.7730151251184009,-1.1460075129844205,0.5441594368512048,9.38697400595629,-1.256826103248477,0.0745083291281588,-0.981932495039728
0.64,-0.8775382367276995,0.74751883013073,2.1013929164674154,0.0998205441285238,0.1994637014668293,0.0278716556011368,0.3436498804233862,-0.5430408751668734,-0.504696900576519,-0.8813593199773502,0.7536596010170493,2.1064617745085417,0.3487760446907438,-0.5822446071129952,-0.6040620408635551,1.293746696626653,0.7522069890435162,-0.9896454882009575,0.3585623632646806,11.226910944739757,-1.2583602382724766,0.0769165264486685,-0.9854927254000532
0.66,-0.8705197311933264,0.7364754697803426,2.0913055842344703,0.0957608487382936,0.1986271039137173,0.0270322251406258,0.357393761927948,-0.560174313381613,-0.5043363093534323,-0.8778715595304427,0.7478371549459194,2.100421154099906,0.3577898025454439,-0.6022446074110184,-0.6240620411615783,1.0983840515729286,0.6871940752280897,-0.8566719107369836,0.0180295611543312,10.79461733635526,-1.260346473771396,0.0795963970452478,-0.9869857338159116
0.68,-0.8636091082448151,0.7256852613469351,2.0816785827828976,0.092065381587191,0.1976007909009552,0.0262335205377103,0.3693041064287919,-0.5747525619862767,-0.5090198330186343,-0.8708960386366279,0.7361922628036595,2.0883399132826352,0.3758173182548441,-0.6422446080070648,-0.6640620417576247,0.969944627840511,0.595517225042197,-0.7289124302331806,-0.2341761832600986,10.406580153556206,-1.2630568422167237,0.0823886055501234,-0.9870350724871604
0.7000000000000001,-0.8561027851545918,0.714043324660544,2.0714064886374577,0.0885823324940733,0.1962497517971903,0.0254077384429501,0.3806167321220715,-0.5886725010104346,-0.518118857895221,-0.863920517742813,0.7245473706613995,2.076258672465364,0.3938448339642443,-0.6822446086031113,-0.7040620423536712,1.0056496112181277,0.565631284663981,-0.6959969512078945,-0.4549512438293379,10.099688266052908,-1.266051871880038,0.0849146269390294,-0.984988749669572
0.72,-0.848382423165016,0.7021334588013318,2.0609136264139654,0.0856043480458694,0.1946535735313898,0.0246076740315255,0.3907765677634361,-0.6016372452408036,-0.5308418334553792,-0.856043621063528,0.7109024784893373,2.0621774316182906,0.4118723496736445,-0.7222446091991578,-0.7440620429497177,1.0406499895772006,0.5079917820682289,-0.6482372115184543,-0.6361487780079056,9.848947762935495,-1.2691181257214617,0.087054591690304,-0.9811288391499168
0.74,-0.8404690264638903,0.6899725058819185,2.0501441155549345,0.0831504945309972,0.1928782177389993,0.0238408504819886,0.4000066207965995,-0.6139022749194308,-0.545441630063746,-0.8481667243842431,0.6972575863172751,2.048096190771217,0.4298998653830447,-0.7622446097952043,-0.7840620435457641,1.059220105806975,0.4615026516581716,-0.6132514839313596,-0.7299898304183428,9.645847353635872,-1.271807875111898,0.0886937279896996,-0.9757563286736788
0.76,-0.8327855647128932,0.6781886988360992,2.039629785052578,0.0810114975583513,0.1910430806402125,0.0231242039901443,0.4082684579154166,-0.6257860843417736,-0.5605675366386836,-0.8398391398122232,0.6826126941303117,2.0330149499092425,0.4479273810924448,-0.8022446103912506,-0.8240620441418105,1.0467520344835362,0.4130918559408558,-0.5941904711171397,-0.756295328746881,9.54881387046953,-1.274401484718297,0.0902197258621579,-0.9693294823481354
0.78,-0.8245351712030576,0.665544798312413,2.028238392870707,0.0787359502813437,0.1889198150936437,0.0223648511914541,0.4162636998251341,-0.6378795116881618,-0.5778127349065753,-0.8310608673474684,0.6669678019284472,2.0169337090323665,0.465954896801845,-0.8422446109872971,-0.864062044737857,1.1264676443158108,0.3997620954858755,-0.6046713673194093,-0.8622599133945807,9.385780255169266,-1.277164590495068,0.0917697611942531,-0.9622535899006672
0.8,-0.8161328009444608,0.6526634854881336,2.016488471630524,0.0763780300086565,0.1866163973588482,0.0215995239931458,0.4235003654419246,-0.6495321834833048,-0.5963434151018686,-0.8037219862118009,0.6336508227280049,1.9993477561253783,0.4433765563324355,-0.705968736086298,-0.6279909349130602,1.1527577778037277,0.3618332808395241,-0.5826335897571477,-0.926534009764668,9.385780255169266,-1.2795205197399415,0.0933442018826826,-0.9547294386254008
0.8200000000000001,-0.807437467349177,0.6393967720205578,2.0048247877446026,0.069877777166738,0.1822318049637614,0.0204145755782285,0.4452779275103071,-0.6735843316656555,-0.5688189856752486,-0.8037219862118009,0.6336508227280049,1.9993477561253783,0.4433765563324355,-0.705968736086298,-0.6279909349130602,2.127417599514134,1.088878103419122,-1.2026074091175345,1.3762214713310017,12.242727052735972,-1.2684007741919252,0.0973659878626423,-0.932928013470535
0.84,-0.7988002598155889,0.6264508637868158,1.9942401643187424,0.0604577208900737,0.1747422679739178,0.0189058129029572,0.4621678785766863,-0.6872745535633077,-0.546736016381304,-0.8037219862118009,0.6336508227280049,1.9993477561253783,0.4433765563324355,-0.705968736086298,-0.6279909349130602,1.5494758432038738,0.8444975533189625,-0.6845110948826116,1.10414846469723,12.242727052735972,-1.2807336889549683,0.1049976553330142,-0.932569336518017
0.86,-0.789422487030895,0.6126078654448132,1.98347979429582,0.0501458366821024,0.164703833973464,0.0172873858274984,0.474146319465602,-0.6960203433119431,-0.5307530734310089,-0.7992882206484766,0.626591135367142,1.993067846776248,0.4487991276338958,-0.7195865809659252,-0.6380265749143572,1.0902136829642293,0.5989220444457849,-0.437289487431769,0.799147147514756,11.692091071488903,-1.2949976502390683,0.1131369383586569,-0.9276377072925752
0.88,-0.7798670414436384,0.5986322549712824,1.9729552640732475,0.0405930187517447,0.1536799294147722,0.0158191514260474,0.4804053903998795,-0.7010945413101533,-0.5224130066193798,-0.7904206895218279,0.612471760645416,1.9805080280779863,0.4596442702368163,-0.7468222707251796,-0.6580978549169513,0.5798279242753688,0.3129535467138733,-0.2537098999105092,0.417003340581451,10.702251073360458,-1.3084441435252951,0.1203275012740014,-0.9193154054566378
0.9,-0.7707226809855198,0.5852874747295518,1.9630537645909936,0.0326221007517211,0.1432651776302976,0.0146328501881493,0.4816228350900267,-0.7034854469730594,-0.5202276009351416,-0.7815531583951791,0.59835238592369,1.9679482093797251,0.4704894128397368,-0.7740579604844341,-0.6781691349195452,0.1730216710934262,0.0608722345073586,-0.1195452831453058,0.1092702842119097,10.335661840524152,-1.3212287442347603,0.1269169790108171,-0.9077056136659052
0.92,-0.7611150050858234,0.5712101522719015,1.9526289840851092,0.0255282961373319,0.1331602972820336,0.0136182071866511,0.478844301717163,-0.7042137466686531,-0.5225612877813263,-0.7721433701383844,0.5828712267140014,1.9543848266813344,0.4813345554426573,-0.8012936502436886,-0.6982404149221392,0.1850456865666838,-0.1389266686431828,-0.0364149847796868,-0.1166843423092311,10.335661840524152,-1.3318884427573436,0.1323422231604494,-0.8949573687810557
0.94,-0.7515973380897506,0.5571332672543284,1.9421309157513584,0.0197941620250482,0.1245265246057691,0.0128290241338114,0.472950148564999,-0.7035877997150164,-0.5271946063762298,-0.7627335818815897,0.5673900675043126,1.9408214439829437,0.4921796980455779,-0.828529340002943,-0.7183116949247332,0.3761664929649213,-0.2947076576082008,0.0312973476818356,-0.2316659297451784,9.929414455183178,-1.3396085373666409,0.1365546793101731,-0.881984678702829
0.96,-0.7422238203042467,0.5430738836007019,1.9315218578199809,0.0151977841667178,0.1177780565884844,0.0122246602935985,0.4646723900773533,-0.7025154656779283,-0.5334596402870897,-0.7530526650597219,0.5512280160506426,1.926756279284488,0.5030248406484984,-0.8557650297621975,-0.7383829749273272,0.5218281224960774,-0.4138879243822863,0.0536167018544031,-0.3132516955429931,9.929414455183178,-1.3448920190583018,0.1396704606537012,-0.8711023539391969
0.98,-0.7334929466434089,0.5297421853490084,1.9213150338174971,0.0116060708851023,0.1134952747015518,0.0117822798000885,0.4547578492535369,-0.7009760871064038,-0.540619102115572,-0.7431006196727812,0.5343850723529913,1.9121893325859671,0.513869983251419,-0.8830007195214519,-0.7584542549299211,0.6162907183446054,-0.495727041190816,0.0769689285762265,-0.357973091424113,9.770447349118513,-1.348125718244907,0.1422816266181347,-0.8618848779763745
1.0,-0.7245229733701158,0.5157452910081395,1.9104128739688977,0.0085068714019503,0.1117749743638041,0.0114287840883439,0.4429008049691051,-0.6988532056734362,-0.5492701557518581,-0.710755054180732,0.4946933809936882,1.8942840787117188,0.4888646775258796,-0.7366439945530266,-0.5771270438980465,0.7415134081041876,-0.5928522142215897,0.1061440716483785,-0.4325526818143077,9.770447349118513,-1.347547422359307,0.1442732723402109,-0.8565849698440006
1.02,-0.715771806528266,0.5017063022788758,1.8995861332373087,0.0032106897655558,0.1133990533198985,0.0109706900840556,0.4333564442929098,-0.703669446084087,-0.5316539405762962,-0.710755054180732,0.4946933809936882,1.8942840787117188,0.4888646775258796,-0.7366439945530266,-0.5771270438980465,1.030317947919701,-0.4772180338097648,-0.2408120205325381,0.8808107587780944,9.700996718746865,-1.3359165711190653,0.1471940423061076,-0.8472472698414496
1.04,-0.7071882161434713,0.4876474494446061,1.8891153471702369,-0.0042627234651013,0.1180614266391049,0.0103738955220507,0.4259376388381241,-0.7015633288603786,-0.516481984701483,-0.710755054180732,0.4946933809936882,1.8942840787117188,0.4888646775258796,-0.7366439945530266,-0.5771270438980465,0.8509739261623112,-0.3709402727392868,0.1053058611854174,0.7585977937406618,11.039820401543691,-1.3303654494662047,0.1525436815020192,-0.859527579710054
1.06,-0.6991484866503241,0.4743740307913939,1.8793972553905072,-0.0111375986637998,0.1242492641103802,0.0098002392100196,0.4210506089939965,-0.6958037050981535,-0.5072499921499718,-0.7058664074054732,0.4873269410481579,1.8885128082727385,0.4956860431803481,-0.7437775760423512,-0.5844286322545413,0.5964185045983663,-0.2443514922063794,0.2879811881112581,0.4615996275755596,11.039820401543691,-1.3244909861830505,0.1582489225054864,-0.8732857815432057
1.08,-0.6907609967170646,0.4605440085665298,1.8693156261162356,-0.0173434440700294,0.1316919606327132,0.0092351178746618,0.4182336322389177,-0.6876115010128502,-0.5015935791988048,-0.6960891138549556,0.4725940611570974,1.8769702673947772,0.5093287744892853,-0.7580447390210003,-0.5990318089675312,0.5173069042842086,-0.1408488377539402,0.409610204265165,0.2828206475583517,10.724733297543937,-1.318669903428947,0.1632849037672469,-0.8865909302106293
1.1,-0.6824058845910775,0.4468947194078704,1.8593080026195568,-0.022188879771713,0.1393534429951414,0.0087418865014771,0.4176397469018985,-0.6780315943333193,-0.499460226857325,-0.686311820304438,0.4578611812660368,1.8654277265168164,0.5229715057982223,-0.7723119019996495,-0.613634985680521,0.4916261384297631,-0.0296942668509631,0.4789953339765451,0.1066676170739855,10.497948986669144,-1.3133499769260686,0.1673534902010035,-0.8989586648418247
1.12,-0.6740407304289832,0.4334456482150153,1.8493169246361536,-0.025687052844849,0.1466769233273204,0.00834046926194,0.4190531222266161,-0.6676834644449449,-0.4997685976399118,-0.6758523901884737,0.4424149432260438,1.853155026803206,0.5366142371071594,-0.7865790649782987,-0.6282381623935108,0.5224378301165166,0.0706687662358818,0.5174064944187207,-0.0154185391293387,10.3290126327729,-1.3090234463898212,0.1702805028727177,-0.9095263369966832
1.14,-0.6660490281137507,0.4208652548602957,1.839812112110732,-0.0278375812632688,0.1529580350372791,0.0080588968577906,0.4221777464541776,-0.6573992069943853,-0.5007305308691271,-0.6653929600725091,0.4269687051860509,1.8408823270895955,0.5502569684160964,-0.8008462279569478,-0.6428413391065007,0.5395705315580253,0.1562312113780772,0.5142128725279804,-0.0480966614607641,10.212011471582628,-1.3049966156297248,0.1723689985986673,-0.9188267006155556
1.16,-0.6575555452668903,0.40783322776741,1.8297828361113264,-0.0290335069839915,0.1585717489485614,0.0078739881239562,0.4270669969986401,-0.6464352889071575,-0.5021719211529828,-0.6545924616738213,0.4111657880715916,1.8282445479581604,0.5638996997250335,-0.8151133909355969,-0.6574445158194904,0.6045450286379821,0.2444625272231215,0.5481959043613871,-0.0720695141927851,10.193717316587936,-1.3020934437352625,0.1736100671754885,-0.926877540200316
1.18,-0.6489497691384252,0.3950274525577992,1.8197196967101836,-0.0289552843530118,0.1629170230579613,0.0078305059334551,0.4332136745724514,-0.6348864665023729,-0.504072523769645,-0.64345089499241,0.3950061918826662,1.8152416894089003,0.5775424310339705,-0.829380553914246,-0.6720476925324802,0.6610015779862272,0.307333878690566,0.5774411202392304,-0.0950301308331069,10.18446508920897,-1.300811792312651,0.1738724522886466,-0.9331745173890243
1.2,-0.640653000110285,0.3830787833853082,1.8101204846756644,-0.0274574538204186,0.1657891819739938,0.0079428462816687,0.4397383685025182,-0.6236518105179817,-0.5062690693577937,-0.6272890854098025,0.3632831292326806,1.7945160705217011,0.4737488526079491,-0.6438160683728501,-0.4880313138484041,0.6588132104198503,0.3262346965033413,0.5617327992195609,-0.1098272794074373,10.159088221087586,-1.3010919416154123,0.172953045908363,-0.9382050389213584
1.22,-0.6316942753552989,0.3706205817994892,1.8002493639298611,-0.0279522063635658,0.1662846584939054,0.0080044048324966,0.4559941426147481,-0.6219490398716133,-0.4793034493861322,-0.6272890854098025,0.3632831292326806,1.7945160705217011,0.4737488526079491,-0.6438160683728501,-0.4880313138484041,1.576621609897287,0.8127887056114946,0.0851385323184183,1.3482809985830737,10.159088221087586,-1.2948078748591714,0.1727939101162985,-0.9324642281137816
1.24,-0.6224039007333019,0.3582443490261715,1.7909485954208155,-0.0322884709598375,0.162844845960151,0.0079385373725955,0.471862886282146,-0.6149012066686208,-0.4524441685647077,-0.6272890854098025,0.3632831292326806,1.7945160705217011,0.4737488526079491,-0.6438160683728501,-0.4880313138484041,1.5991481675277366,0.7934371833698939,0.3523916601496257,1.3429640410712262,12.15017884107965,-1.302553487943387,0.1776037401397374,-0.9386299910582412
1.26,-0.6128334420347696,0.3460685847573626,1.7821361030099871,-0.0372206728248802,0.1560506848013107,0.0079934481728489,0.4837736196890658,-0.603035808872049,-0.430080452901923,-0.6225515968837231,0.3568449685489521,1.7896357573832171,0.4818558882150486,-0.6456019887469455,-0.4848230718641559,1.3989183441211732,0.5955366703459919,0.5932698898285904,1.118185783139236,11.624730693640233,-1.31513798696252,0.1828345740355843,-0.939158751423814
1.28,-0.6035682246931996,0.3347461234196193,1.7741426593405514,-0.0411516210906023,0.1478127423877602,0.0082246859432034,0.4905310646998457,-0.5896417827707691,-0.4124025835164491,-0.613076619831564,0.343968647181495,1.779875131106249,0.4980699594292477,-0.6491738294951365,-0.4784065878956596,1.1592778617369492,0.3378722505389953,0.6697013050639966,0.8838934692736944,11.624730693640233,-1.3294350214818522,0.1876755848606733,-0.9362384214702116
1.3,-0.5937235314816428,0.3231122201166408,1.7660631109257812,-0.0441275654740892,0.1384971902345927,0.0086333956547876,0.4932152412414314,-0.5746802112160464,-0.396578594276404,-0.6036016427794051,0.3310923258140381,1.770114504829281,0.5142840306434467,-0.6527456702433273,-0.4719901039271633,1.0971007959191208,0.1342088270792824,0.7480785777361332,0.7911994620022539,11.380353495900636,-1.3427434721260345,0.1913129791430781,-0.9301626853459932
1.32,-0.5838686395805277,0.311783817636843,1.758272164497351,-0.0458161967686131,0.1295192911743638,0.0091618530118009,0.4918854281280265,-0.5591320124068904,-0.3833945488811398,-0.5933159621665361,0.3180374124091715,1.7606747027507377,0.5304981018576458,-0.6563175109915181,-0.465573619958667,1.0214376414030533,-0.0664906556702454,0.7774099404578017,0.6592022697632122,11.03010114197332,-1.3549166941814037,0.1938194517898081,-0.9239659805011792
1.34,-0.5740761676535521,0.3007745516078995,1.7507319074978362,-0.0459621793772466,0.1216587281862119,0.00977351532148,0.4873639498470019,-0.542861029341696,-0.3712604605622293,-0.5830302815536672,0.3049824990043049,1.7512349006721943,0.5467121730718449,-0.6598893517397091,-0.4591571359901707,1.0397412599833882,-0.226073914051228,0.8135491532597183,0.606704415945522,10.980081803414578,-1.364409547490756,0.1949010113744204,-0.9186298084565574
1.36,-0.5648806025808701,0.2906201500448926,1.7437885178734425,-0.0443878620748188,0.1156721496268378,0.0104138629526315,0.4807379169185119,-0.5271073904344503,-0.3602132436646067,-0.5723392491604433,0.2918382895807336,1.7419555106928637,0.562926244286044,-0.6634611924878999,-0.4527406520216743,1.0174999414894792,-0.3313016464245005,0.7876819453622841,0.5523608448811307,10.980081803414578,-1.3725788983578988,0.1945116243259644,-0.9146548758627528
1.38,-0.5553598897381353,0.2802459707447904,1.736704706148754,-0.0408667085446115,0.1114612173998329,0.0111199186485854,0.4715560451920093,-0.5117417210654136,-0.3487321370705153,-0.5612428649868645,0.2786047841384576,1.732836532812745,0.579140315500243,-0.6670330332360909,-0.446324168053178,1.0632807392516217,-0.4590935863251294,0.7682834684518358,0.5740553297045703,10.954304883755867,-1.3788813759484737,0.1925091045934327,-0.9131106536442718
1.4,-0.5460408187219595,0.2701483012803077,1.7298499274483166,-0.036408484784122,0.1100102477953018,0.0117714007604125,0.4610326891458411,-0.499067343480773,-0.3373284605382935,-0.5317820874785348,0.2546588846915197,1.7192680992952285,0.4783243970784308,-0.5057871462718364,-0.3417785311541642,1.0017793021469483,-0.526167802308411,0.6337188792320286,0.5701838266110898,10.947474386135582,-1.3796151190667545,0.1895462246652089,-0.9158211824255382
1.42,-0.5368597782277491,0.2602084592602544,1.7232576068499166,-0.0342481190209419,0.1092756935948805,0.0122353452134576,0.4576968101633223,-0.4946384558265004,-0.3223482303120022,-0.5317820874785348,0.2546588846915197,1.7192680992952285,0.4783243970784308,-0.5057871462718364,-0.3417785311541642,0.7986714469556123,-0.1667939491259401,0.2214443827136286,0.7490115113145623,10.933751342960022,-1.3726394490477376,0.1880506381097025,-0.9206807381788248
1.44,-0.5281992014747486,0.2508765597882043,1.717265320583174,-0.035223737859846,0.1071912785979438,0.0125226290278687,0.4539544931714911,-0.4876206329208301,-0.3091953780152195,-0.5317820874785348,0.2546588846915197,1.7192680992952285,0.4783243970784308,-0.5057871462718364,-0.3417785311541642,0.7685250456941561,-0.187115849591557,0.3508911452835189,0.6576426148391351,11.145567435474732,-1.3756082109595953,0.1896915726990565,-0.9228627142331248
1.46,-0.5191754676053515,0.2412205033392347,1.7112113853753523,-0.0379316703493436,0.1039919609712965,0.0127632427045385,0.4484551222981838,-0.478090418890556,-0.2969671628356823,-0.5269988435077505,0.2496010132288014,1.7158503139836867,0.479678067455715,-0.5045962313131209,-0.340387809970894,0.8224921062570736,-0.2749685436653687,0.4765107015137049,0.6114107589768603,11.058547736195578,-1.379629767891893,0.1927833272035019,-0.9229161266528016
1.48,-0.5102823301390985,0.2317869767076504,1.7053831234030457,-0.0410564024868198,0.1002884656356435,0.0130214566396193,0.4409643405614845,-0.465703255370213,-0.2865408396539496,-0.517432355566182,0.2394852703033646,1.709014743360603,0.4823854082102836,-0.5022144013956901,-0.3376063676043536,0.8919947396096591,-0.3745390868349657,0.6193581760171485,0.5213161590866378,10.961475394070476,-1.3845269769742308,0.1960996425365818,-0.9217624424340866
1.5,-0.5015630773018447,0.222620065232375,1.6997455697715862,-0.0435762115324218,0.0967765069814521,0.0133407198752475,0.4312291510467628,-0.4518224872889489,-0.277721042614718,-0.5078658676246133,0.2293695273779279,1.7021791727375202,0.4850927489648522,-0.4998325714782592,-0.3348249252378131,0.9555606433223198,-0.4867594757360843,0.6940384040632047,0.4409898519615818,10.862990543935666,-1.389955400711608,0.1991604831436857,-0.920512276093708
1.52,-0.4934809078250794,0.2141762160056316,1.6945422571508588,-0.0451261769745376,0.094328153734318,0.0136835325360635,0.4199582803107567,-0.4379158125349597,-0.2704278635245548,-0.4981640126453162,0.2193728759483627,1.695482674232764,0.4878000897194208,-0.4974507415608283,-0.3320434828712727,0.9664607999062728,-0.5635435368003011,0.6953337376994578,0.3646589545081569,10.78349725528551,-1.394249018212242,0.2014439463187931,-0.9200193957181768
1.54,-0.4852194007998857,0.2055778762373818,1.6892089735489035,-0.0456984349052646,0.0933544041116363,0.0140595614338537,0.4069428494644767,-0.4227524648687718,-0.2633054279793863,-0.4884621576660191,0.2093762245187975,1.6887861757280078,0.4905074304739893,-0.4950689116433974,-0.3292620405047323,1.0607280997681083,-0.650771542314002,0.7581673833093966,0.3561217772584252,10.728285713809782,-1.394697305787374,0.2026716684492618,-0.921699374459234
1.56,-0.4772144831748046,0.1972893351254536,1.6840137551734535,-0.0448511442698435,0.0939958967596742,0.0144699112506722,0.3943685956713644,-0.4070111451354745,-0.2565841345076463,-0.4786926191678579,0.1994391188371681,1.682159213282415,0.4932147712285579,-0.4926870817259666,-0.3264805981381918,1.061928424297923,-0.6287126896556139,0.7870659866648644,0.3360646735869999,10.700243630214572,-1.3932645316941423,0.2027072502927458,-0.9257936221617492
1.58,-0.4694526597188647,0.1893176801993004,1.6789511620026556,-0.0422388007907934,0.0959019388763067,0.0149543900338838,0.3826489017441741,-0.3912934248914005,-0.2500022959904091,-0.4688553971508324,0.1895615589034745,1.6756017868959858,0.4959221119831265,-0.4903052518085357,-0.3236991557716514,1.0340678818203644,-0.585984696359515,0.7858860122036987,0.329091925861863,10.681374719625635,-1.3911514950026314,0.2013923444211786,-0.9314366985897892
1.6,-0.4622849872216701,0.1820154007136576,1.674264849584748,-0.0385312465642491,0.0985297153409863,0.0154747050466184,0.3725904835841649,-0.3785262310637802,-0.243617734352617,-0.4503202146316559,0.1697530089547303,1.666451047203135,0.385069676172348,-0.3939101705440315,-0.2436313520194308,0.8731203259293592,-0.5029209080004593,0.6383596913810186,0.3192280818896026,10.675742598797116,-1.3881669147557518,0.1988821568209676,-0.938536648212842
1.62,-0.4549043337022003,0.1745776769501661,1.6695098870252705,-0.0340577517951589,0.1010525159452951,0.0160815387565328,0.3660608704383007,-0.3662069423872587,-0.2319741931625386,-0.4503202146316559,0.1697530089547303,1.666451047203135,0.385069676172348,-0.3939101705440315,-0.2436313520194308,0.9082576352213694,-0.3264806572932127,0.6159644338260745,0.5821770595039188,10.680153330016765,-1.3815065605265635,0.1955489709331148,-0.945206687206507
1.64,-0.4476507413647321,0.1673662003771587,1.6649902843800064,-0.0293908439922805,0.1025613783208326,0.0167435898491456,0.3595639592121164,-0.3557217967276153,-0.2206444613562643,-0.4503202146316559,0.1697530089547303,1.666451047203135,0.385069676172348,-0.3939101705440315,-0.2436313520194308,0.837423067790352,-0.3248455613092144,0.5242572829821712,0.566486590313714,10.947456452036022,-1.3813824099756469,0.1925490765966286,-0.9528914161625694
1.66,-0.4405308974119118,0.1603487258833508,1.6606857412982072,-0.0248813609385611,0.1034151468512046,0.0174159262091367,0.3527147847882171,-0.3466466713115281,-0.210381006967748,-0.4464695178699324,0.16581390724929,1.6640147336829407,0.3855538310579828,-0.3944335196745577,-0.2423571632252351,0.7658452643841659,-0.3424587211949659,0.4537562708043563,0.513172719425814,10.947456452036022,-1.3813504806217616,0.1897124131664452,-0.9588862150132228
1.68,-0.4338975450512494,0.153838875917334,1.6567778008255385,-0.0208805270072953,0.1038838846308083,0.0180422392835244,0.3458681733867397,-0.3390982630530648,-0.2014997476685773,-0.4387681243464855,0.1579357038384094,1.6591421066425522,0.3865221408292524,-0.39548021793561,-0.2398087856368438,0.6758907486761173,-0.3423305700738704,0.3774204129231656,0.4440629649585387,10.89259896319436,-1.381215111593012,0.1868727495017928,-0.964102254991717
1.7,-0.4270584787721503,0.1471313103975952,1.6528393027578103,-0.0170287190409489,0.1042300881284064,0.018676558964632,0.3383976622758493,-0.3321006486753539,-0.1928535103298111,-0.4310667308230385,0.1500575004275288,1.6542694796021635,0.3874904506005219,-0.3965269161966624,-0.2372604080484525,0.6699488102746314,-0.3735255555445183,0.3498807188855479,0.4323118669383077,10.84403754288087,-1.3807903056469872,0.1842565959687479,-0.9685775284751
1.72,-0.4203712439337378,0.1405547642753436,1.6490662585870774,-0.0135683210768359,0.1045875443794212,0.0192797400587587,0.3307139021957967,-0.3259308826771533,-0.1849174642569129,-0.4233169218110281,0.1421269621035955,1.6495242714411944,0.3884587603717915,-0.3975736144577148,-0.2347120304600612,0.6326274747264858,-0.3841880040026307,0.3084882999100258,0.3968023036449095,10.768979595731253,-1.3801022378524348,0.181915362399618,-0.972755916387561
1.74,-0.4141618399668765,0.1344141257305799,1.6456242386420232,-0.0106526475771292,0.1050504175652438,0.0198217424391305,0.3233334762758151,-0.3207470225079484,-0.1778020177154118,-0.4155671127990176,0.1341964237796623,1.6447790632802255,0.389427070143061,-0.3986203127187671,-0.2321636528716699,0.5743967977347315,-0.3690212959990779,0.2591930084602484,0.3557723270750559,10.768979595731253,-1.3784807485349624,0.1799068488158688,-0.9764303452563492
1.76,-0.4077759503958781,0.1280503978934556,1.642143969562833,-0.007965357324651,0.1057123572100777,0.0203604607873686,0.3156857895427706,-0.3158963715457474,-0.1706190212083541,-0.4077930960427255,0.1262397179992027,1.6400975645589662,0.3903953799143306,-0.3996670109798195,-0.2296152752832786,0.5779519139692534,-0.3823843366522278,0.2425325481100471,0.3591498253528835,10.735286427011488,-1.3757552881557849,0.1780325506262853,-0.9803662592299124
1.78,-0.4015413942232798,0.121777788979886,1.6388031574656168,-0.0056714129252223,0.1065650979845443,0.0208670963545411,0.3082116862459461,-0.3115672131269019,-0.163830258646599,-0.3999948715421516,0.1182568447622169,1.6354797752774168,0.3913636896856002,-0.4007137092408719,-0.2270668976948873,0.5492975737861775,-0.3737051648412232,0.2164579209422784,0.3394381280877587,10.735286427011488,-1.3726940674647203,0.1764657267626115,-0.9844584482493056
1.8,-0.395453704944375,0.1155875415799581,1.6355940113272387,-0.0037330716326258,0.1075956043962701,0.0213449815993912,0.3009913422327259,-0.3076344451574198,-0.1574353245136571,-0.3861308099109825,0.1061994283235409,1.6306116445332868,0.3152127877509574,-0.3015009814142029,-0.1466095249593174,0.5208051798314187,-0.3610172006610124,0.1966383984741054,0.3197467066470921,10.717163787268872,-1.3697839891873334,0.1752784116445677,-0.9890500437172084
1.82,-0.3897836025101832,0.1097122768784644,1.6327311311878585,-0.0042688391816341,0.1084789611539659,0.0216316372814425,0.2961846129936631,-0.3101116556850796,-0.144260631454812,-0.3861308099109825,0.1061994283235409,1.6306116445332868,0.3152127877509574,-0.3015009814142029,-0.1466095249593174,0.7120634718386976,-0.2403364619531389,-0.1238605263829906,0.6587346529422569,10.699000362513289,-1.359382326360412,0.1755065230234679,-0.9913641255296852
1.84,-0.3839141588793272,0.1035082619508411,1.6299847942399668,-0.0082493446282577,0.1091407357859612,0.0216975206491924,0.2909882531445383,-0.3093856506782014,-0.1311576064594178,-0.3861308099109825,0.1061994283235409,1.6306116445332868,0.3152127877509574,-0.3015009814142029,-0.1466095249593174,0.7057239243881668,-0.2598179924562377,0.0363002503439097,0.6551512497697115,11.1756395080738,-1.356937778637505,0.1796831082837496,-0.9983539613847376
1.86,-0.3781523371451243,0.0973734394861164,1.6274833748170106,-0.0134359503129066,0.109671653372798,0.0216846608090255,0.2854633950756516,-0.303925826339913,-0.1196536768814361,-0.3829786820334729,0.1031844185093988,1.6291455492836937,0.3166130080519597,-0.2994877350716631,-0.143165378221861,0.6940355434368438,-0.2762429034443375,0.2729912169144199,0.5751964788990815,11.100153323908671,-1.3558872089952123,0.1848331018949376,-1.0046930365620936
1.88,-0.3727835169077518,0.0916753738574079,1.6253072796446872,-0.0180406695068221,0.1101623782178807,0.0217000688680148,0.2799771824805773,-0.2962367663669449,-0.1099943655579322,-0.3766744262784537,0.0971543988811148,1.6262133587845071,0.3194134486539642,-0.2954612423865836,-0.1362770847469484,0.675504380353343,-0.2743106297537157,0.3844529986484019,0.482965566175194,11.017138183453426,-1.3552014891638666,0.1900650309613346,-1.011138086422821
1.9,-0.3672458328120458,0.0858499178141836,1.6232055026559065,-0.0220679148983939,0.1107439940924704,0.0217771052075331,0.274104365284848,-0.286813086751884,-0.1007374003851152,-0.3703701705234346,0.0911243792528307,1.623281168285321,0.3222138892559688,-0.291434749701504,-0.1293887912720357,0.7228193472654785,-0.2936408597864648,0.4711839807530482,0.4628482586408522,10.949939274726605,-1.354379067582109,0.1945710151349692,-1.0172751446756128
1.92,-0.3618260053299608,0.080222897521366,1.621280184143881,-0.0251267998624864,0.1114426082010552,0.0219230286785535,0.268205998845822,-0.2765092619892494,-0.0922943295357242,-0.3639258927383152,0.0852956842588006,1.6206933924598803,0.3250143298579733,-0.2874082570164244,-0.1225004977971231,0.7284314943011888,-0.2949183219512985,0.5151912381317264,0.422153542469552,10.90590367545883,-1.353526336212434,0.1982338943399039,-1.023427974183021
1.94,-0.3565233014911254,0.0748083777750629,1.6195195542266203,-0.0272031918320768,0.1122873647808479,0.0221365543996005,0.2624145941375557,-0.2657042477622103,-0.0841964151174489,-0.3574816149531958,0.0794669892647705,1.6181056166344396,0.3278147704599778,-0.2833817643313449,-0.1156122043222104,0.7346171092262239,-0.2895702354133139,0.5402507113519583,0.4048957209137616,10.861095458294583,-1.3523466145590224,0.2008711202498747,-1.0293261272762222
1.96,-0.351590857728042,0.0698693272304693,1.6179948093638672,-0.028290150463628,0.1132100102349969,0.0223995012959381,0.2571217846699907,-0.2548901889984744,-0.0767205291541909,-0.3509673261530264,0.0737389565878675,1.6156900481458716,0.3306152110619824,-0.2793552716462653,-0.1087239108472978,0.7086017392391805,-0.2646404733782526,0.5407029381867934,0.3737942981628994,10.861095458294583,-1.351407501915962,0.2029274097988927,-1.0371884752670115
1.98,-0.3465046694820587,0.0648965064317908,1.6165416544329323,-0.0283265201137331,0.1142656315419767,0.0227518949312855,0.2518146229466087,-0.2430602304270052,-0.0690047140326821,-0.3443830263378067,0.0681115862280914,1.6134466869941766,0.3334156516639869,-0.2753287789611857,-0.1018356173723852,0.754399907791142,-0.2653580861690985,0.5914979285734603,0.3857907560754436,10.857584292000864,-1.350673295989849,0.2040067999483893,-1.046249244631272
2.0,-0.3415218507185208,0.0601634260996663,1.61524082789911,-0.0269923102506739,0.115365507296223,0.023198307151175,0.2467691610806324,-0.2309789592359591,-0.0614801166922355,-0.3339139383347282,0.0527434949104405,1.6130914187312984,0.2731486713071949,-0.229993974008181,-0.062956753661903,0.7550386814072447,-0.2522730932988146,0.604063559552305,0.3762298670223263,10.860242232331077,-1.3501532116748385,0.2038491802574308,-1.0552570207023289
2.02,-0.3366573992161233,0.0556640626638599,1.614069584820416,-0.0242732151966954,0.1170287723961443,0.0237255080808718,0.2401531292737469,-0.2198594920783268,-0.0560283861581855,-0.3339139383347282,0.0527434949104405,1.6130914187312984,0.2731486713071949,-0.229993974008181,-0.062956753661903,0.7020252711891437,-0.3308015903442735,0.5559733578816131,0.2725865267025024,10.860046184987368,-1.3516339853623909,0.2025141264255713,-1.0650837334709395
2.04,-0.3321509019769261,0.0515742551914671,1.613054550370127,-0.0210698853292453,0.1194231752757643,0.0242505114310028,0.2347088755478513,-0.2113570029188261,-0.0510983813003439,-0.3339139383347282,0.0527434949104405,1.6130914187312984,0.2731486713071949,-0.229993974008181,-0.062956753661903,0.5617765757792358,-0.2722126862947829,0.425124457975036,0.2465002428920778,10.7438604073468,-1.3481427179684888,0.1999895743826353,-1.0735513946216662
2.06,-0.3275061948137851,0.0474271066046978,1.6120868788344742,-0.0177788939149296,0.1224787770273563,0.0247889289265601,0.2301903997711469,-0.2038440261710329,-0.0459443486508376,-0.3311824516216563,0.0504435551703587,1.612461851194679,0.2774154809793121,-0.2273807227244162,-0.0617471615877472,0.508491630977647,-0.225923788835218,0.3756488373896624,0.2577016324753149,10.737112434343544,-1.3439495018436285,0.1974616663033828,-1.082451909259574
2.08,-0.3229388682831239,0.0434203066023507,1.6112214982865805,-0.0148331868148811,0.1257662009303528,0.0253022506460712,0.2268844952937145,-0.1972085073324726,-0.0408708290811492,-0.3257194781955124,0.0458436756901951,1.6112027161214413,0.2859491003235466,-0.2221542201568865,-0.0593279774394356,0.4491651018690312,-0.1652952238716185,0.3317759419280142,0.2536759784844196,10.74555608035189,-1.3400538636506103,0.1953526939181357,-1.0910828022952062
2.1,-0.3186500896995901,0.0397303884343212,1.610492637090766,-0.0124307535484124,0.1288569602525776,0.0257647423460681,0.2247992886321749,-0.191485456723721,-0.0361258072543236,-0.3202565047693685,0.0412437962100314,1.6099435810482032,0.294482719667781,-0.2169277175893568,-0.056908793291124,0.3860590214873673,-0.1042603330769817,0.2861525304375806,0.2372510913412832,10.74555608035189,-1.336361543926932,0.1935315767275484,-1.1000632301300368
2.12,-0.3141685283427322,0.0359596012818982,1.6098220334721336,-0.0102997113971808,0.1318907167083179,0.0262270703548012,0.2235340625490723,-0.1858677775538717,-0.031201710236638,-0.3143668503760128,0.0369052418582443,1.6088054051823808,0.3030163390120155,-0.2117012150218271,-0.0544896091428124,0.3788332342083432,-0.0632613041551294,0.2808839584924616,0.2462048508842804,10.7502055221521,-1.333319457630239,0.1921264323934951,-1.1088936523685184
2.14,-0.3097036945037814,0.0322977599666639,1.6092480206360922,-0.0085382758942214,0.1345719743483995,0.0266660698960419,0.2230548440043732,-0.1805737296320352,-0.0264680594912115,-0.3084771959826572,0.0325666875064572,1.607667229316558,0.31154995835625,-0.2064747124542974,-0.0520704249945007,0.3558933941223185,-0.0239609272349533,0.2647023960918246,0.2366825372713246,10.75652308405006,-1.3311090475129843,0.1911117073006244,-1.117510194923678
2.16,-0.3052405484485627,0.0287388864699257,1.6087663251029676,-0.0071111977426491,0.1367816851847272,0.027082962955029,0.2232787888480722,-0.175575320925119,-0.0219557360279651,-0.3023742011056958,0.0283587957188583,1.6065895330544435,0.3200835777004844,-0.2012482098867678,-0.0496512408461891,0.3368801861617807,0.0111972421849501,0.2499204353458101,0.2256161731623164,10.752397832414315,-1.3296833586638068,0.1904517398984671,-1.1250182345234407
2.18,-0.3009918356651794,0.0254473784991596,1.6083904177228026,-0.0060898633659218,0.1383807555436512,0.0274554382779653,0.2239198644822039,-0.1711449121115651,-0.0178520460188524,-0.2960578657451284,0.0242815664954476,1.6055723163960365,0.3286171970447189,-0.1960217073192381,-0.0472320566978775,0.3036435900640125,0.0320537817065813,0.2215204406776957,0.2051845004556346,10.752397832414315,-1.3290089883674452,0.1901114285998873,-1.132126436086837
2.2,-0.2965041531703152,0.0220709243393376,1.6080774541980214,-0.0054237992890943,0.1395454757114599,0.0278172717563994,0.224796537526605,-0.1667332071132855,-0.0136741105326919,-0.2897958424410692,0.0168901328935814,1.60749781542186,0.2511848469441332,-0.1501331889061179,-0.0164622057503225,0.3069480474980409,0.0438336522200585,0.2205852499139793,0.2088967743080248,10.75016893729662,-1.3290543743222127,0.1901937395228309,-1.1383991830535156
2.22,-0.2919902282599692,0.0187526885402928,1.6078502435689457,-0.0061453311308553,0.1400293412474432,0.0280812555340999,0.2264898702367212,-0.1650608920431136,-0.0092476674528806,-0.2897958424410692,0.0168901328935814,1.60749781542186,0.2511848469441332,-0.1501331889061179,-0.0164622057503225,0.2512837624075792,0.0846666355058062,0.0836157535085979,0.2213221539905689,10.749868115738536,-1.3285381921646275,0.1914123080295878,-1.1417058360712926
2.24,-0.2876767215476915,0.0156391882579864,1.6077129321953945,-0.0087018078974312,0.1398880123340972,0.0282037329143931,0.2274162315175992,-0.1624531464004908,-0.0054358040304311,-0.2897958424410692,0.0168901328935814,1.60749781542186,0.2511848469441332,-0.1501331889061179,-0.0164622057503225,0.2355248676400028,0.0463180640439028,0.1303872821311391,0.1905931711224735,10.7732141710394,-1.3307049770722177,0.1949927509959065,-1.1458499816052845
2.26,-0.2831249901939157,0.0124464001434773,1.607642173208383,-0.0123146220039083,0.1394705166352005,0.0282732966626171,0.2276607927814568,-0.15675213050939,-0.0018681385524203,-0.2872839939716278,0.0153888010045202,1.6073331933643569,0.2566378434365191,-0.1459308442650285,-0.0161842376966165,0.3364878503206087,0.0122280631928789,0.2850507945550418,0.1783832739005388,10.748952604250007,-1.3332590836427134,0.199645330688849,-1.1499937372452798
2.28,-0.2785752907859672,0.0093912498396075,1.6076377808376965,-0.0157335736350618,0.139033562507064,0.0283609094073305,0.2272790279927949,-0.149069647141495,0.0012253738744468,-0.2822602970327452,0.0123861372263978,1.6070039492493504,0.2675438364212908,-0.1375261549828496,-0.0156283015892045,0.4145362293787679,-0.019088239433096,0.3841241683947477,0.154675621343361,10.727548165719782,-1.335921112492382,0.2041377005457299,-1.1540782040504265
2.3000000000000003,-0.2740386665507344,0.00650279165394,1.6076907341977815,-0.0185038478196964,0.1387711516312941,0.0284945191689244,0.2264300517224334,-0.140314188573258,0.0039080852147941,-0.2772366000938625,0.0093834734482755,1.606674705134344,0.2784498294060625,-0.1291214657006707,-0.0150723654817925,0.4598253896409492,-0.0424488135180728,0.4377729284118517,0.1341355670173664,10.706897030463551,-1.3381405491194165,0.2077873389067586,-1.1581495645503512
2.32,-0.2697473169813308,0.003926552418323,1.6077879981255343,-0.0204621909797206,0.1387867433710821,0.0286651925713553,0.2253748048835531,-0.1314659322562638,0.0061890672681493,-0.2716676035057412,0.0068010441342621,1.606373257824708,0.2893558223908343,-0.1207167764184918,-0.0145164293743806,0.4599132115680129,-0.0527623419440168,0.4424128158497062,0.1140491026677563,10.68145424389968,-1.3399621625517766,0.2108866495526808,-1.16270805437241
2.34,-0.2652524977565454,0.0013990762156227,1.6079355346969284,-0.0218506236963547,0.1391289884212837,0.0288852427922821,0.2242004191436346,-0.1218037928322278,0.0084304533579092,-0.26609860691762,0.0042186148202487,1.6060718105150722,0.300261815375606,-0.112312087136313,-0.0139604932669686,0.4993994686596195,-0.0587192869959257,0.4831069712018007,0.1120693044879949,10.678872568609222,-1.3412647214142777,0.2132538210907301,-1.167774906216302
2.36,-0.260779327341817,-0.0009275805659382,1.6081260374569368,-0.0223720030029112,0.1397639161702633,0.0291581150192779,0.2232162158274932,-0.1114204506254712,0.0104932428416936,-0.2602569605048795,0.0018463027382897,1.6057842616081217,0.3111678083603777,-0.1039073978541341,-0.0134045571595566,0.5315955981865542,-0.0492101658070676,0.5191671103378294,0.103139474189223,10.678872568609222,-1.3422487065405726,0.2147214208436719,-1.173610444848113
2.38,-0.2563232495015439,-0.0030407294042022,1.6083563782696435,-0.0217042138873809,0.1405868369659166,0.0295070816697192,0.2224826613405583,-0.1005854182251122,0.0124276391585957,-0.2541426642675196,-0.0003158921116147,1.6055106111038564,0.3220738013451494,-0.0955027085719552,-0.0128486210521446,0.5515385716633452,-0.0366777243467439,0.541751620017953,0.0967198158451036,10.6769655586495,-1.3431610632724922,0.2149575978784129,-1.1797302257423723
2.4,-0.2521008313788641,-0.0048480435344063,1.608610347747905,-0.0198211252352885,0.1414548291856827,0.0299201261727976,0.2220482335476074,-0.0903642864651681,0.0142013025585291,-0.2451991164345159,-0.0080700003154578,1.6089777602275732,0.2347024014184116,-0.0874460641600516,0.0064125186187815,0.5191486873182116,-0.0217213896475498,0.5110565879972037,0.0886831699966686,10.6769655586495,-1.3440872812283489,0.2137847451792366,-1.186526056358454
2.42,-0.2476203798241937,-0.0065256284390995,1.6089100685516144,-0.0158521756212123,0.1410531857361728,0.030510352582503,0.2260655599901845,-0.0787942851062271,0.0156833318549966,-0.2451991164345159,-0.0080700003154578,1.6089777602275732,0.2347024014184116,-0.0874460641600516,0.0064125186187815,0.6168473353020876,0.2008663221288564,0.5785000679470506,0.074101464823379,10.679911803665163,-1.3433579538187548,0.2101054402673365,-1.1917551077637023
2.44,-0.2430614777928133,-0.0080189992217737,1.6092373339844217,-0.0108419429351708,0.1379117622590767,0.0311940920214448,0.2294146212330017,-0.0713259353903251,0.0169695787049146,-0.2451991164345159,-0.0080700003154578,1.6089777602275732,0.2347024014184116,-0.0874460641600516,0.0064125186187815,0.414267092725446,0.1674530621408612,0.3734174857950981,0.0643123424958992,10.66757412293191,-1.3506697959566625,0.2059308481981427,-1.1940334613297898
2.46,-0.2386884633431623,-0.0093242976928423,1.6095690244155043,-0.0063028483191513,0.1329337908523938,0.0318158690396606,0.2303758734411523,-0.0664300896310245,0.0178997692108831,-0.2428520924203318,-0.0089444609570583,1.6090418854137611,0.2371463494339822,-0.0848181933470394,0.0052094945108186,0.2537644866994287,0.0480626104075315,0.2447922879650288,0.0465095252984243,10.625689119161509,-1.3610918916979091,0.2017281211193668,-1.1932321618518127
2.48,-0.2341016827078263,-0.0106130264568068,1.6099343330290936,-0.0021624698699807,0.1267673523408544,0.0323906727084707,0.2279887404164868,-0.0626641118215405,0.0185754150347234,-0.2381580443919636,-0.0106933822402593,1.6091701357861368,0.2420342454651235,-0.0795624517210152,0.0028034462948929,0.2254855328965039,-0.119356651233278,0.1882988904742033,0.0337822911920132,10.625689119161509,-1.3708658884154905,0.1979834926112237,-1.189345999611282
2.5,-0.2295958243014992,-0.0118371395649654,1.610308939692331,0.0012169031840325,0.1207916539606088,0.032873311974336,0.2225518604743559,-0.0598619833124434,0.0188394493848752,-0.2334639963635953,-0.0124423035234604,1.6092983861585124,0.2469221414962648,-0.0743067100949909,0.0003973980789672,0.3061098733490132,-0.2718439971065439,0.1401064254548521,0.0132017175075894,10.60030842717515,-1.378759774991912,0.1948445669199605,-1.1838402274100992
2.52,-0.2252298751180093,-0.0130129388350922,1.6106840424699642,0.0038409999227324,0.116012955517926,0.0332741996498905,0.2142212490805791,-0.0577175863018233,0.0186681740598775,-0.2285255535336701,-0.0139284377253602,1.6093063341200915,0.251810037527406,-0.0690509684689667,-0.0020086501369584,0.4301943164728972,-0.4165305696888388,0.1072198505310092,-0.0085637662498833,10.572542727019028,-1.3841389668047053,0.192498198192166,-1.178555834561667
2.54,-0.2212614883182935,-0.0140943144047924,1.61103398170309,0.0057272686384776,0.1135388511001043,0.0336007916834006,0.2039001355539826,-0.056096812418198,0.0181823918079332,-0.2235871107037448,-0.01541457192726,1.609314282081671,0.2566979335585473,-0.0637952268429424,-0.0044146983528841,0.5229442532599418,-0.5160556763298254,0.0810386941812631,-0.0242891125972175,10.537712564811043,-1.385903702954753,0.1905364161568215,-1.1741596450723646
2.56,-0.2173016838481124,-0.0152013320438059,1.611390149156852,0.0071717816941173,0.1136924629328506,0.0339094175849041,0.1929813228151162,-0.0546578706416532,0.0174509884689898,-0.2185264704730409,-0.0167693125885092,1.6092620788378524,0.2615858295896886,-0.0585394852169182,-0.0068207465688098,0.5518740252696613,-0.545940636943322,0.0719470888272413,-0.036570166947168,10.537712564811043,-1.3806249162907005,0.1887774236486809,-1.1712116634492993
2.58,-0.2135426656362948,-0.0162833139606674,1.611730274860388,0.0080124773052334,0.1160487626054627,0.0341827758230878,0.1837377793838149,-0.0535787384088011,0.0165919944617411,-0.2133436328415586,-0.0179926597091078,1.6091497243886357,0.2664737256208299,-0.053283743590894,-0.0092267947847354,0.4672940515532526,-0.4621771715650619,0.0539566116426006,-0.0429497003624341,10.500086080054643,-1.373183712356252,0.1876901753384137,-1.171277965688877
2.6,-0.2099479003665647,-0.0173462831631936,1.6120526622732445,0.0081368252186975,0.1198380211738024,0.0344099355812326,0.176460736678378,-0.052697835897241,0.0156837796946542,-0.204355776667104,-0.0189622508811074,1.6125598745834753,0.1908993030649489,-0.0353889077032777,0.0067812385010978,0.369310823815051,-0.3638521352718471,0.0440451255780075,-0.0454107383543433,10.500086080054643,-1.3650643941654903,0.1874030294659733,-1.1732427591665815
2.62,-0.2066228863786066,-0.0183570340470873,1.6123610254649594,0.0069543567230361,0.1234411408291511,0.0345265810934357,0.1738436569413637,-0.0534280602253868,0.0168132166174777,-0.204355776667104,-0.0189622508811074,1.6125598745834753,0.1908993030649489,-0.0353889077032777,0.0067812385010978,0.1471220724597734,-0.1308539868507138,-0.0365112164072884,0.0564718461411718,10.495097647090915,-1.3538691183740936,0.1882734508098705,-1.174596634361528
2.64,-0.2031695275981439,-0.019424219630137,1.612705360855898,0.0040543002281924,0.1263445768281343,0.0345165193153376,0.1716140793201643,-0.0528498103441733,0.0175234158983311,-0.204355776667104,-0.0189622508811074,1.6125598745834753,0.1908993030649489,-0.0353889077032777,0.0067812385010978,0.1205173463925538,-0.111478881059969,0.0289124940606729,0.035509964042669,10.622011942945392,-1.3502615662016415,0.1916409507323411,-1.1783177785592165
