t,x,y,z,roll,pitch,yaw,v_x,v_y,v_z,ref_x,ref_y,ref_z,ref_v_x,ref_v_y,ref_v_z,a_com,a_x,a_y,a_z,thrust,wind_x,wind_y,wind_z
0.0,-1.3422123390444292,-1.0210616944686697,2.465493571826836,0.0219196275041615,0.136505030670951,0.0265252341907301,0.0047578694802761,0.0051424524999238,0.0059699064865391,-1.3420696951306184,-1.0208380697875752,2.46567774110132,0.104755078181809,0.1068418464304567,-0.0939053512819522,0.4602225634498423,0.237893474013807,0.2571226249961903,0.2984953243269561,10.547329447380434,-1.2878271562283012,0.1540494023381125,-1.171793404430932
0.02,-1.3422106011273722,-1.0212359996049218,2.4654163482126905,0.0147668536527851,0.1386484653277684,0.02606260102154,-0.0045180489939372,-0.0194775333680762,-0.0150135915934985,-1.3420696951306184,-1.0208380697875752,2.46567774110132,0.104755078181809,0.1068418464304567,-0.0939053512819522,1.6826270823891134,-0.4637959237106713,-1.230999293400003,-1.0491749040018823,10.54805555292296,-1.2994190387780098,0.1625060143545401,-1.1598838059696095
0.04,-1.3423904492525296,-1.0216750338606695,2.4647937215206617,-0.0014138564075189,0.1445373620878097,0.0249859130993204,-0.0125112150844582,-0.022039492289958,-0.0463574686258565,-1.3420696951306184,-1.0208380697875752,2.46567774110132,0.104755078181809,0.1068418464304567,-0.0939053512819522,1.6224156103536225,-0.3996583045260488,-0.1280979460940917,-1.5671938516179027,9.234787996409525,-1.2906095477358523,0.1790242154021835,-1.150098168516456
0.06,-1.342691367657757,-1.0220639798866171,2.4635427710850046,-0.0184438607960256,0.1522349806131227,0.0237548726752196,-0.0168234107097877,-0.016325281982777,-0.0770673379546358,-1.3410221443488002,-1.0197696513232706,2.4647386875885005,0.1247550784798322,0.1268418467284799,-0.1139053515799754,1.5766604776683053,-0.2156097812664723,0.2857105153590523,-1.5354934664389612,8.770323368497884,-1.2786204361764384,0.1948146909682672,-1.1371447465720752
0.08,-1.343044027019271,-1.0222939433055485,2.4617013980397773,-0.0349141769998155,0.1606185067200878,0.0224365444348114,-0.0179621828116183,-0.0065975461362495,-0.1055539738178562,-1.338927042785164,-1.0176328143946616,2.4628605805628614,0.1647550790758786,0.1668418473245264,-0.1539053521760219,1.5061657191387,-0.0569386050915344,0.486386792326373,-1.424331793161021,8.836182677012857,-1.267918181821576,0.210660772357678,-1.125939933776782
0.1,-1.3433749752550526,-1.0223012874448474,2.459443287984956,-0.0498566268415615,0.1686632581742571,0.0211250045887462,-0.0166295549168036,0.005633379676215,-0.1307433866186785,-1.336831941221528,-1.0154959774660524,2.4609824735372223,0.2047550796719251,0.2068418479205728,-0.1939053527720683,1.4016757476198622,0.0666313947407378,0.6115462906232303,-1.259470640041113,8.947057342782955,-1.2598563030281495,0.2256876977467526,-1.1175181148436313
0.12,-1.343674059040766,-1.0220276448052592,2.4565633040957096,-0.0648398557058526,0.1769108372347825,0.0197053565363635,-0.0131477432192354,0.0214186039102288,-0.1558926513456497,-1.3327368396280894,-1.011359140507641,2.457104366481781,0.2447550802679715,0.2468418485166192,-0.2339053533681148,1.4948092128451562,0.1740905848784073,0.7892612117006911,-1.2574632363485647,9.053999520501748,-1.2544278350457692,0.2400114266585531,-1.111507595398555
0.14,-1.3438851679967847,-1.021404478522709,2.4531868353088546,-0.0789522642520775,0.1847820800716636,0.0182793016609796,-0.007971305936854,0.0403465820769027,-0.1805061933975173,-1.328641738034651,-1.0072223035492294,2.4532262594263394,0.2847550808640181,0.2868418491126657,-0.2739053539641612,1.5739205132054526,0.2588218641190731,0.9463989083336964,-1.2306771025933776,9.177931853409971,-1.252011698476445,0.2537938126543237,-1.1087954380437837
0.16,-1.3439779523033784,-1.0203470614928851,2.449319782238616,-0.0912301012118543,0.1922209519820642,0.0169419741798252,-0.0014048720239861,0.0640215536122094,-0.2049625488878212,-1.323546636426311,-1.002085466575917,2.448348152355997,0.3247550814600645,0.3268418497087121,-0.3139053545602077,1.733302956350792,0.3283216956433922,1.1837485767653335,-1.2228177745151934,9.177931853409971,-1.2516302714802277,0.2653566188139002,-1.1077169598742873
0.18,-1.3439319754235497,-1.0188771833864223,2.4451949553740366,-0.1005683926402624,0.1988799105838054,0.0158247613957633,0.0060512997603047,0.0890014821599263,-0.2279799635724954,-1.3174515348030704,-0.995948629587703,2.442470045270753,0.3647550820561109,0.3668418503047586,-0.3539053551562541,1.7388161969369826,0.3728085892145453,1.2489964273858465,-1.1508707342337123,9.214352295924982,-1.2513105455887503,0.2751822201945221,-1.1079702065142778
0.2,-1.3437181718378646,-1.0168067655008726,2.440382264789264,-0.1080664173430278,0.2054690541557837,0.0148268750513696,0.015077362083746,0.116398440665768,-0.2520425044750394,-1.3436294104355342,-1.0144271092784265,2.433795957195412,0.1060513012504208,0.1890014836500425,-0.3279799650626115,1.8782099264486256,0.4513031161720676,1.3698479252920837,-1.2031270451272005,9.251405911089025,-1.2523493081682977,0.2827094051383255,-1.108881719721412
0.22,-1.343290320031727,-1.0140374933106822,2.4351900749930824,-0.1092593657589346,0.2116208792314863,0.0143169471341288,0.0275530018793244,0.1574938489242436,-0.2651878729971989,-1.3436294104355342,-1.0144271092784265,2.433795957195412,0.1060513012504208,0.1890014836500425,-0.3279799650626115,2.2457041667499227,0.623781989778917,2.0547704129237814,-0.6572684261079736,9.27763774687719,-1.2518895548701967,0.2843545360505815,-1.113704304832949
0.24,-1.3426395676038867,-1.0107215810193009,2.430031438788872,-0.1039473623696482,0.2170626939812617,0.0143656220609962,0.0404433437610558,0.1881125752988307,-0.2770969192558513,-1.3436294104355342,-1.0144271092784265,2.433795957195412,0.1060513012504208,0.1890014836500425,-0.3279799650626115,1.7645769333047463,0.6445170940865729,1.5309363187293503,-0.5954523129326206,10.054429684645584,-1.2571536502620253,0.2800687434000115,-1.1239630877311109
0.26,-1.3416836213312446,-1.0066863891964264,2.424342988360342,-0.096481146352704,0.2224056377329314,0.014641375709315,0.0545582805582034,0.2134427474761905,-0.2912113266596013,-1.34256889742303,-1.012537094441926,2.4305161575447856,0.126051301548444,0.2090014839480657,-0.3479799653606348,1.6125023718441482,0.7057468398573793,1.2665086088679944,-0.7057203701875014,9.944799650777895,-1.2604529489290697,0.2737768505775877,-1.13590789314726
0.28,-1.3404406367586446,-1.0021856003428684,2.418353177476879,-0.0890241956999127,0.2273943019671878,0.0150029953102902,0.0691083817076863,0.235256602889267,-0.3071581133807143,-1.3404478713980217,-1.008757064768925,2.4239565582435336,0.1660513021444905,0.2490014845441121,-0.3879799659566812,1.5344785255677689,0.7275050574741467,1.0906927706538228,-0.7973393360556469,9.81937984871456,-1.263626778374611,0.2674554293261577,-1.1478420798689215
0.3,-1.3389026620941142,-0.9972741193699958,2.412025346593739,-0.0822876521851548,0.2320631922064451,0.0153885377618153,0.0840461502338543,0.2548640690576181,-0.3248530556713708,-1.338326845373013,-1.0049770350959242,2.417396958942281,0.2060513027405369,0.2890014851401586,-0.4279799665527277,1.517152464943844,0.7468884263083966,0.9803733084175564,-0.8847471145328273,9.716386246795082,-1.2661004270986254,0.2619664920198905,-1.1581121915455024
0.32,-1.3371607772373295,-0.9922597484507292,2.4056729082425607,-0.0767348825170313,0.2362260867452008,0.0157542050931172,0.0986329156544626,0.2720925071269148,-0.3429706355680084,-1.3342058193182025,-0.999197005393121,2.4088373596112267,0.2460513033365834,0.329001485736205,-0.4679799671487741,1.4472728708285192,0.7293382710304136,0.8614219034648318,-0.9058789948318796,9.630415707027169,-1.267008409319324,0.2569119520347662,-1.168094850115192
0.34,-1.3350221288453992,-0.9866392941381398,2.3986058593728155,-0.0718240657952705,0.2403389963172209,0.0161264928954968,0.1145339026365463,0.2891313791210014,-0.3628408514318876,-1.3300847932633917,-0.9934169756903178,2.400277760280172,0.2860513039326299,0.3690014863322515,-0.5079799677448207,1.5313311401460683,0.7950493491041877,0.8519435997043301,-0.9935107931939609,9.563260279378484,-1.2666917349129203,0.2526844350557621,-1.1769512302792815
0.36,-1.332559143386707,-0.9806772785580964,2.391136674316923,-0.0675518658122874,0.2441902821139596,0.0165009144134549,0.1310431651021847,0.3061659837922072,-0.3831007061241696,-1.3249637671936798,-0.9866369459726136,2.3907181609342163,0.3260513045286763,0.4090014869282979,-0.547979968340867,1.55980384633452,0.8254631232819214,0.8517302335602911,-1.0129927346140988,9.528462867265262,-1.2665618384480488,0.2492565138393728,-1.1846594566529611
0.38,-1.329907870566935,-0.9747014469950596,2.3836631435537114,-0.0637410196535945,0.2476186207853976,0.0168778506240794,0.1472734211165385,0.321927550479764,-0.4025862693361591,-1.3188427411090666,-0.978856916240008,2.380158561573359,0.3660513051247227,0.4490014875243444,-0.5879799689369135,1.4929294762531549,0.8115128007176883,0.7880783343778425,-0.974278160599476,9.522640838553343,-1.2664411123396375,0.2458778102969931,-1.1921564392542872
0.4,-1.3267788090722727,-0.9680952157803008,2.375391805690922,-0.0599097858413988,0.2509986406552347,0.0172982496098361,0.1648404676360801,0.3377796072505102,-0.4235531626815043,-1.322544199511108,-0.9586050694710716,2.3635338300869035,0.2472734226066546,0.4219275519698802,-0.5025862708262753,1.580743056158857,0.8783523259770804,0.7926028385373096,-1.0483446672672565,9.517993838840084,-1.2660602281719593,0.2426540559153343,-1.199308928990686
0.42,-1.3232417117434472,-0.9611715279870174,2.366883534180676,-0.0563837647860329,0.2540647596965342,0.0177354604437597,0.1882811518197041,0.3538386574729527,-0.4252928656388935,-1.322544199511108,-0.9586050694710716,2.3635338300869035,0.2472734226066546,0.4219275519698802,-0.5025862708262753,1.4233633894962274,1.1720342091811984,0.8029525111221208,-0.0869851478694616,9.498902136787365,-1.2644512790399776,0.2387374414826064,-1.196557051193769
0.44,-1.3192321641569684,-0.953944694372714,2.3583411765921443,-0.0536030147450387,0.2567958923453971,0.0181553974751647,0.211502266715032,0.3682900109657543,-0.429011693595913,-1.322544199511108,-0.9586050694710716,2.3635338300869035,0.2472734226066546,0.4219275519698802,-0.5025862708262753,1.38011908555914,1.161055744766394,0.7225676746400816,-0.1859413978509777,10.717956739378678,-1.2687110119631813,0.2379369443184968,-1.2120555237408464
0.46,-1.315000003569787,-0.9468121223528864,2.350119564162112,-0.0516261023666326,0.2591854125330284,0.0185310955891041,0.2328640674571147,0.38188185856391,-0.4362547902106641,-1.3200714652850414,-0.9543857939513728,2.3585079673786407,0.2672734229046778,0.4419275522679034,-0.5225862711242985,1.3167453252684749,1.0680900371041344,0.6795923799077841,-0.3621548307375516,10.267421210508472,-1.2718657693051223,0.2375389366758155,-1.2259627630198269
0.48,-1.3101113975999576,-0.9390295517686124,2.3412853321366107,-0.0500855151479782,0.2615444596226134,0.0189081515001064,0.2548777869883644,0.3956863442837235,-0.4469368603579807,-1.3151259968329083,-0.9459472429119752,2.3484562419621158,0.3072734235007243,0.4819275528639498,-0.5625862717203449,1.4047012994060826,1.1006859765624877,0.690224285990676,-0.5341035073658296,10.267421210508472,-1.2743867340898942,0.2374993594229887,-1.2374617021006735
0.5,-1.3047858131427423,-0.9309756353943472,2.3322109221889704,-0.0491555351589232,0.2637733677490992,0.0192592546693518,0.2765963616803712,0.4090361415098612,-0.4600746026985257,-1.3101805283807753,-0.9375086918725776,2.3384045165455896,0.3472734240967707,0.5219275534599963,-0.6025862723163914,1.4339751099982698,1.0859287346003388,0.6674898613068858,-0.6568871170272494,10.099954347645507,-1.2761899092439617,0.2378130512957129,-1.2456266834285088
0.52,-1.2990275479271207,-0.9226588820333076,2.3228534791855187,-0.0489366696352562,0.2658858891521458,0.0195753865126043,0.2981633547817461,0.422011170447897,-0.4750962245098522,-1.3032350598988398,-0.9270701408033776,2.3263527910992616,0.3872734246928171,0.5619275540560428,-0.6425862729124379,1.465550825816134,1.078349655068747,0.648751446901788,-0.7510810905663273,9.975867242063032,-1.2777684725463616,0.2387540813856203,-1.2520244528226154
0.54,-1.293156544208835,-0.914519406132814,2.313677458210204,-0.0494973437949868,0.2677875855327744,0.0198345881841193,0.3187902646510586,0.434209364231888,-0.4900585098120426,-1.2962895914169044,-0.9166315897341776,2.3143010656529337,0.4272734252888637,0.6019275546520892,-0.6825862735084843,1.4125644443818133,1.031345493465624,0.6099096891995504,-0.7481142651095202,9.881624648553952,-1.279113695195843,0.2405491778189632,-1.2572899415152226
0.56,-1.2865514282986197,-0.9056908551455064,2.303705910596707,-0.0506633451694228,0.2696779338718386,0.0200803143652832,0.3406631027585554,0.4480153662962591,-0.5063405177662917,-1.2883441229200678,-0.9051930386500766,2.301249340191705,0.4672734258849101,0.6419275552481356,-0.7225862741045307,1.5281774462578062,1.093641905374837,0.6903001032185552,-0.8141003977124556,9.85642084124629,-1.280273159443764,0.2430820001883745,-1.2627820912908532
0.58,-1.2795070129230874,-0.8965737699998844,2.293404406770168,-0.0518905057545984,0.2714571094592176,0.0203356777043876,0.3627154225876108,0.4629192188500941,-0.5230096358882081,-1.27939865440833,-0.8927544875510743,2.287197614715575,0.5072734264809565,0.6819275558441821,-0.7625862747005772,1.5702620241155694,1.1026159914527738,0.7451926276917514,-0.8334559060958202,9.836071682766487,-1.2812387369129477,0.245835209580757,-1.2696213577373952
0.6,-1.2720197963792776,-0.887147948696009,2.282765748375652,-0.0526958268192752,0.2731298846208077,0.020634942982203,0.3849317509745273,0.4787918331520757,-0.5400377662424084,-1.2613712417937069,-0.8734278090573797,2.267253924975757,0.462715424077727,0.5629192203402102,-0.6230096373783243,1.6089300444195958,1.1108164193458223,0.7936307150990807,-0.8514065177100127,9.827441548479328,-1.2822150833846175,0.2480903781706389,-1.2767320672134033
0.62,-1.2644232865027705,-0.8778305200461621,2.2725791012264,-0.0511425751821834,0.2745095762754033,0.0211025396494753,0.4135758576633715,0.5004079903978531,-0.5313910764724341,-1.2613712417937069,-0.8734278090573797,2.267253924975757,0.462715424077727,0.5629192203402102,-0.6230096373783243,1.8456085351817189,1.432205334442213,1.0808078622888684,0.4323344884987146,9.819979822060304,-1.2819488923438322,0.2468176586209574,-1.2757071869589114
0.64,-1.255845707666718,-0.8676223683623009,2.26201290563612,-0.0467446418414898,0.275713979524864,0.0218099546347241,0.4425873551719504,0.5185640525921512,-0.5260184455609221,-1.2613712417937069,-0.8734278090573797,2.267253924975757,0.462715424077727,0.5629192203402102,-0.6230096373783243,1.7321769143225776,1.450574875428945,0.9078031097149052,0.2686315455755983,11.499353997968685,-1.2896358144333897,0.2451048268798338,-1.3012303380161725
0.66,-1.246703293892296,-0.857095605809352,2.251491518409801,-0.0417066331938802,0.2767179706499141,0.0225759119450223,0.4701956922993065,0.5330407924643475,-0.5263852896555455,-1.2567440875529297,-0.8677986168539776,2.2610238286019744,0.4827154243757501,0.5829192206382334,-0.6430096376763474,1.558790276829075,1.3804168563678023,0.7238369936098166,-0.0183422047311698,11.138916775852522,-1.2949126159644455,0.2419360385120286,-1.323022844371786
0.68,-1.237512749562842,-0.8468492282689554,2.241445861481379,-0.0371588965913248,0.2773101894048834,0.0233025969390849,0.4957845716334288,0.5448067433371722,-0.5310324008911922,-1.247489779071375,-0.8565402324471734,2.248563635854408,0.5227154249717966,0.6229192212342799,-0.6830096382723939,1.4272560985633145,1.2794439667061177,0.5882975436412308,-0.2323555617823325,10.820399710080892,-1.2987059703596948,0.238575743966445,-1.3388309651527477
0.7000000000000001,-1.2273228929163582,-0.8358376093971129,2.230740691372665,-0.0329694868591503,0.2774102029980569,0.024042566296999,0.5217515687410585,0.5557706055351812,-0.5393933237277403,-1.2382354705898204,-0.8452818480403692,2.2361034431068414,0.562715425567843,0.6629192218303264,-0.7230096388684404,1.470030819203539,1.2983498553814836,0.5481931099004522,-0.418046141827405,10.570200032841967,-1.3019429538860332,0.2352296358055773,-1.350527184216589
0.72,-1.2166234493296726,-0.824617238138784,2.21983403786133,-0.0295104459990183,0.2769531443861259,0.0247445218117737,0.5468022672209385,0.5658335473456381,-0.550836076043242,-1.2269811620784636,-0.8320234636037627,2.2216432503294725,0.6027154261638895,0.7029192224263728,-0.7630096394644869,1.466063498594468,1.2525349239939976,0.503147090522843,-0.5721376157750868,10.369362303067646,-1.3055252543974332,0.2325002539488179,-1.3588647742033149
0.74,-1.205429694796044,-0.8132017357372606,2.208685549462814,-0.026725424390991,0.2759567314202933,0.0254084395942878,0.571251627922285,0.5752882232097795,-0.5634869436423561,-1.2157268535671069,-0.8187650791671561,2.207183057552104,0.642715426759936,0.7429192230224193,-0.8030096400605333,1.4553406692342163,1.2224680350673256,0.4727337932070696,-0.6325433799557023,10.20998117025465,-1.30905896813133,0.2304621947347084,-1.363989849690545
0.76,-1.194341377853461,-0.8021790211118928,2.197848698571613,-0.0244480039773444,0.2742808434113831,0.0260256472692787,0.5946416245764714,0.5844792366506819,-0.576582622786232,-1.2034725450408488,-0.8045066947156484,2.191722864759833,0.6827154273559823,0.7829192236184657,-0.8430096406565797,1.4169187377837218,1.1694998327093198,0.4595506720451225,-0.6547839571937941,10.144416170795012,-1.3125342401258868,0.2285153676560251,-1.3656927379638142
0.78,-1.1821913691780432,-0.7903901627615048,2.1861616103631345,-0.0221770641917352,0.2713165885329903,0.0266859050256536,0.6190336706314025,0.5938595545252732,-0.5914672556270313,-1.1902182364996896,-0.7892483102492396,2.1752626719526624,0.7227154279520288,0.8229192242145121,-0.8830096412526262,1.503757434711177,1.219602302746553,0.469015893729563,-0.7442316420399664,10.02285483977812,-1.3179364321707805,0.2267408915278219,-1.3656902585840982
0.8,-1.1695576277674555,-0.7784169341152496,2.1741638482868857,-0.0199435497307422,0.2667074963152806,0.0273658623236139,0.642902298457473,0.6028991664796106,-0.607508742790895,-1.151239685646473,-0.7606971850352411,2.156588247581783,0.7190336721215186,0.6591534253915718,-0.6586417126406383,1.5072784157322046,1.1934313913035288,0.4519805977168722,-0.8020743581931833,10.02285483977812,-1.3254561582501272,0.2251213101423562,-1.363689800325401
0.8200000000000001,-1.1570331914535787,-0.7667544720048242,2.1628029860188773,-0.0140697715100344,0.2605483633706297,0.0282831006575533,0.6744610109678196,0.6222461093789093,-0.5855220326082333,-1.151239685646473,-0.7606971850352411,2.156588247581783,0.7190336721215186,0.6591534253915718,-0.6586417126406383,2.152714541872533,1.5779356255173294,0.9673471449649362,1.0993355091330814,9.95524772529916,-1.338862308228927,0.2183689000112731,-1.3494879454708717
0.84,-1.1432259317707376,-0.7541918630146662,2.1513247632153134,-0.0039665099563159,0.2525997781485716,0.0294569416276088,0.7040560686521123,0.6322172168536924,-0.5639744356711426,-1.151239685646473,-0.7606971850352411,2.156588247581783,0.7190336721215186,0.6591534253915718,-0.6586417126406383,1.8970960422271783,1.4797528842146357,0.4985553737391512,1.077379846854537,12.710370228299324,-1.35563693234369,0.2084652478925541,-1.3700464588098409
0.86,-1.1288797106026869,-0.741500588373008,2.140193806017151,0.0064433108092399,0.2439003030732588,0.0305316242357179,0.72865267987784,0.6361830326787977,-0.5505065448600761,-1.144049348925258,-0.7541056507813254,2.1500018304553765,0.7390336724195418,0.6722121995648316,-0.6720766040433597,1.4160729693831602,1.2298305612863825,0.1982907912552678,0.6733945405533237,12.188557208447492,-1.371785964516444,0.197204783183412,-1.3825220524684363
0.88,-1.1140940900417675,-0.7287728282191155,2.129249930070192,0.0158085794473124,0.2349777582144086,0.0314057493728739,0.74839541747043,0.636488012439419,-0.5444722909157828,-1.1296686754828271,-0.740922582273494,2.1368289962025635,0.7790336730155882,0.698329747911351,-0.6989463868488025,1.0323285825846302,0.987136879629502,0.0152489880310635,0.3017126972146677,11.6296630715442,-1.386358283733255,0.1870585697618216,-1.3868683823239758
0.9,-1.099723336890535,-0.7167000476529378,2.1189105701814834,0.0233241532941416,0.226799803880503,0.0320404941999821,0.7631548764934626,0.6345324401871809,-0.5441335774700274,-1.115288002040397,-0.7277395137656625,2.123656161949751,0.8190336736116347,0.7244472962578705,-0.7258161696542453,0.7446150352441117,0.7379729511516275,-0.097778612611904,0.0169356722877656,10.817497379043743,-1.400136922921596,0.1777482461980953,-1.3850853853339635
0.92,-1.0843305483897074,-0.7040475543713762,2.1079904453908545,0.0297072508345746,0.2189879357664835,0.0325321876630476,0.7751407912942273,0.6309901601769468,-0.5480626687032852,-1.0989073285681643,-0.7132505678405051,2.109139838556666,0.8590336742076812,0.75056484460439,-0.7526859524596882,0.6550718647624826,0.5992957400382359,-0.1771140005117077,-0.1964545616628898,10.538963521211372,-1.4124422126094278,0.1702431085556748,-1.379941683517376
0.94,-1.0687288107872277,-0.691479917985441,2.0969644037882045,0.0345065040707475,0.2124245253402865,0.0328827473499502,0.7843696599430046,0.6262937351051713,-0.5542914718606823,-1.0825266550959316,-0.6987616219153476,2.094623515163581,0.8990336748037276,0.7766823929509095,-0.779555735265131,0.6042069466763528,0.4614434324388627,-0.2348212535887739,-0.3114401578698522,10.538963521211372,-1.4228136682869768,0.1646532961462261,-1.3723221161507697
0.96,-1.053752687300908,-0.6796291259254927,2.0863610667679917,0.0378940536440773,0.2075264613560488,0.0331360754496358,0.791525301458694,0.621596708637578,-0.5615052049666825,-1.0651459816087978,-0.6836197372815273,2.0794354472003604,0.939033675399774,0.8027999412974289,-0.8064255180705737,0.5596945784598395,0.3577820757844741,-0.2348513233796645,-0.3606866553000132,10.41215174168792,-1.430349718174543,0.1607680962315091,-1.365002553524395
0.98,-1.0378577176769417,-0.667253007309968,2.075040402251632,0.0405275090448819,0.2039364492310272,0.0333648333568129,0.7974892494675261,0.6163911272105862,-0.5702129965950337,-1.046765308106763,-0.6678249139390439,2.063575634667003,0.9790336759958204,0.8289174896439484,-0.8332953008760166,0.5884139463164416,0.2981974004416021,-0.2602790713495895,-0.4353895814175557,10.3230217552873,-1.4360759325879673,0.1578431811256669,-1.3582550008734973
1.0,-1.0218567611053904,-0.6549843794299247,2.063534667351982,0.042341944867517,0.2022055644777905,0.0335888056419967,0.8023051326343333,0.6108444909012237,-0.5799552073816577,-0.9979832552035652,-0.6364334509494386,2.0465297524218804,0.8400689562257868,0.6567585181710411,-0.6036276845563736,0.6100585546398192,0.2407941583403627,-0.2773318154681237,-0.4871105393312036,10.24565365230592,-1.4386905886747543,0.1558971570399678,-1.352423845099548
1.02,-1.0055527861357634,-0.6427557503107061,2.0521623177517374,0.0460072138483778,0.1979513062831729,0.0338070132403148,0.8282128040410698,0.6109348490661931,-0.555069798067952,-0.9979832552035652,-0.6364334509494386,2.0465297524218804,0.8400689562257868,0.6567585181710411,-0.6036276845563736,1.7961759372539754,1.2953835703368222,0.0045179082484692,1.2442704656852877,10.177797528162046,-1.4369521077139995,0.1514774594993251,-1.3218877332227392
1.04,-0.989603602275009,-0.6312018745939302,2.0418365170646933,0.0511538189265727,0.1876403077794081,0.0337813598480346,0.8482734000539802,0.6050381582434828,-0.533186906320961,-0.9979832552035652,-0.6364334509494386,2.0465297524218804,0.8400689562257868,0.6567585181710411,-0.6036276845563736,1.5133236817204372,1.0030298006455218,-0.2948345411355135,1.0941445873495492,12.649712946399632,-1.4584232030503932,0.1454442912731912,-1.3295782034024508
1.06,-0.972492406249262,-0.6192000830819809,2.0313523281003603,0.0560890663432121,0.1729304219030535,0.0334270802705583,0.860915666079049,0.5955380866430953,-0.5166017043168889,-0.9895825656413072,-0.6298658657677282,2.0404934755763167,0.8485848975774389,0.6648319963631322,-0.6103106221486416,1.1458044948604629,0.6321133012534397,-0.4750035800193786,0.8292601002036049,12.187413079012911,-1.4824982932206072,0.1395973751657658,-1.3246713474537966
1.08,-0.9552185837571526,-0.6074087131756214,2.0211225553225955,0.0597149418053154,0.1565285460677732,0.0327912857602719,0.8652333772650153,0.5844343407040673,-0.5070768513552769,-0.9727811865167916,-0.6167306954043074,2.028420921885189,0.8656167802807433,0.6809789527473141,-0.6236764973331775,0.7626575701194912,0.2158855592983122,-0.5551872969513982,0.4762426480805992,11.690362009502678,-1.5057783048723914,0.1353310106670499,-1.3138204461732896
1.1,-0.9379351718271756,-0.5958464592418884,2.011022306469496,0.0619010508357107,0.1402744980679154,0.0319935046525529,0.8625551558833299,0.5727605239469082,-0.5033399659029617,-0.9559798073922758,-0.6035955250408865,2.0163483681940617,0.8826486629840475,0.6971259091314961,-0.6370423725177136,0.6273260323244395,-0.1339110690842693,-0.5836908378579531,0.1868442726157604,11.23701004556642,-1.528868611075003,0.132503248483873,-1.2969422629637612
1.12,-0.9216208669501116,-0.5850837290415276,2.001450877523726,0.0625733150732271,0.1262312787771955,0.0311871501062863,0.8547533712965971,0.5610167780545637,-0.5043066306550913,-0.9383268341325948,-0.5896530068582566,2.0036075207437074,0.8996805456873518,0.713272865515678,-0.6504082477022496,0.7066078315882667,-0.3900892293366376,-0.5871872946172252,-0.0483332376064793,10.871580332513076,-1.5490985234393806,0.1315440367123715,-1.2764724018608644
1.14,-0.9046490639009735,-0.5740012251361047,1.9913353401610692,0.0614233878638018,0.1137761354873057,0.0303467330049626,0.8427108471715763,0.5480662874929113,-0.5072343713813674,-0.920673860872914,-0.5757104886756267,1.990866673293353,0.916712428390656,0.7294198218998601,-0.6637741228867855,0.8962550681160093,-0.6021262062510413,-0.6475245280826214,-0.1463870363138053,10.586760067196336,-1.564837917144427,0.1328716985572257,-1.2535189606127264
1.16,-0.887947144307056,-0.5631745724193439,1.981147934101136,0.0581161524057669,0.1041225403316649,0.0295493894935209,0.828064837397035,0.5357972552281942,-0.5113493066685159,-0.9025950905456503,-0.5613642965833923,1.9777916789633851,0.9337443110939604,0.745566778284042,-0.6771399980713215,0.9771993750587044,-0.7323004887270668,-0.6134516132358547,-0.2057467643574229,10.471665458092502,-1.5752359711917283,0.1365660158880158,-1.2319713621263455
1.18,-0.8715629856796372,-0.5525631424865356,1.9708716807475024,0.0535082337903015,0.097520823376368,0.0288748141229634,0.8110891634445948,0.5263672077623266,-0.5160158152970344,-0.8840905231508043,-0.5466144305815532,1.9643825377538044,0.9507761937972647,0.761713734668224,-0.6905058732558574,0.9985935160616026,-0.8487836976220076,-0.4715023732933809,-0.2333254314259292,10.35017580719068,-1.5819491312364868,0.1414285383996787,-1.215665477952722
1.2,-0.8563330247639047,-0.5426362136645798,1.9610208184536584,0.0488277522402748,0.094575980369791,0.028417496790377,0.7930090633757152,0.5192383552906198,-0.5206521433189247,-0.8310085275074075,-0.5262447820984193,1.9450708899826508,0.8099056074010519,0.5676740834084409,-0.5302211546617419,0.999007124086993,-0.9040050034439806,-0.3564426235853402,-0.2318164010945145,10.35017580719068,-1.584140462535952,0.1468260474732177,-1.2025988918686243
1.22,-0.8405750088029982,-0.5322764622698702,1.9507812971504788,0.0455207115515888,0.0927022291193231,0.0281255825408293,0.7840721737736429,0.5163587510684414,-0.5019496842695456,-0.8310085275074075,-0.5262447820984193,1.9450708899826508,0.8099056074010519,0.5676740834084409,-0.5302211546617419,1.0463532992370694,-0.4468444801036142,-0.1439802111089183,0.9351229524689586,10.328502896819373,-1.5797140413916049,0.150213980192569,-1.1786127046064063
1.24,-0.8249901623942271,-0.5220066250770453,1.94092652161931,0.0437587294566614,0.0891754296577753,0.0278725384004939,0.7746653123975409,0.510740017872818,-0.4845935896397044,-0.8310085275074075,-0.5262447820984193,1.9450708899826508,0.8099056074010519,0.5676740834084409,-0.5302211546617419,1.026271436405594,-0.4703430688051013,-0.2809366597811724,0.8678047314920556,11.570711161370127,-1.5849558349325488,0.1520826182884189,-1.1807670579068796
1.26,-0.8103780978164967,-0.5123651497464808,1.931844697659881,0.0421815994426681,0.0847313492167654,0.0275974403494171,0.7637801024693779,0.5046028707545014,-0.4722312485618,-0.822909471433397,-0.5205680412643349,1.9397686784360333,0.8096688961923433,0.5759354585376638,-0.5330622225346834,0.8788911292908845,-0.5442604964081499,-0.3068573559158294,0.6181170538952202,11.307230479729697,-1.590775291456726,0.1537446708589427,-1.1796358439006844
1.28,-0.795244273364307,-0.5023410484055478,1.9225040878323776,0.0401975022951317,0.0794912758122414,0.0272716642010724,0.7499652074249581,0.498326175308887,-0.4626115969188393,-0.806711359285376,-0.5092145595961661,1.9291642553427983,0.8091954737749262,0.5924582087961096,-0.5387443582805664,0.8983122070544941,-0.6907447522209897,-0.3138347722807161,0.4809825821480346,11.307230479729697,-1.5972543223499842,0.1558492983359108,-1.1749878759165198
1.3,-0.7804154105639587,-0.4924368540198611,1.9133231636816608,0.0378152861865178,0.0744627459287185,0.0269406050790563,0.7334112056849301,0.4926074992406244,-0.45606564089903,-0.7905132471373549,-0.4978610779279973,1.918559832249564,0.808722051357509,0.6089809590545553,-0.5444264940264494,0.9348633186138046,-0.8277000870013984,-0.2859338034131325,0.3272978009904642,11.096848368916651,-1.6030437742289907,0.1582511882403861,-1.169068268035436
1.32,-0.765948142779623,-0.4826399348446398,1.9042447641005675,0.0350735070663565,0.0706582613338747,0.02664605790078,0.7140582757424067,0.4876015061415182,-0.4520654050238418,-0.7743388061102048,-0.4856814587469061,1.9076713023690344,0.8082486289400918,0.625503709313001,-0.5501086297723323,1.019310736877699,-0.9676464971261732,-0.2502996549553105,0.2000117937594109,10.920789189905008,-1.6071992733327216,0.1611249119071674,-1.1620780101339363
1.34,-0.7525846019774144,-0.4734180646876446,1.8956866801135248,0.0322385847259025,0.0691095692015117,0.0264342605792542,0.6936908446379793,0.483554079938551,-0.448957044533867,-0.7581643650830545,-0.4735018395658151,1.8967827724885056,0.8077752065226746,0.6420264595714468,-0.5557907655182154,1.0498521486353436,-1.01837155522137,-0.2023713101483609,0.1554180244987407,10.789469587609346,-1.606847562275419,0.1641182961061973,-1.1549809989074746
1.36,-0.7389334535433086,-0.4637816927923648,1.8867405971907816,0.0292156908633318,0.0699167303436434,0.0262932040462676,0.6727674193426646,0.4803953114312882,-0.4458020390477535,-0.7420017596163399,-0.4609091516282628,1.8857521892143296,0.8073017841052574,0.6585492098298925,-0.5614729012640983,1.0697214639667825,-1.0461712647657329,-0.1579384253631383,0.1577502743056735,10.752735992116868,-1.6017648985463862,0.1670015824071362,-1.1505418508645444
1.38,-0.7256882148447535,-0.4541986272902239,1.877857735365908,0.0263379898869456,0.072657000162765,0.0262183164439038,0.6530922262759558,0.4781238081505131,-0.4426212213213581,-0.7258509897100605,-0.4479033949342494,1.8745795525465063,0.8068283616878403,0.6750719600883383,-0.5671550370099814,1.0029837371256214,-0.983759653335442,-0.1135751640387539,0.1590408863197723,10.730971671632688,-1.5948836111757223,0.1695929382226398,-1.1488217111420838
1.4,-0.712820155658101,-0.4446529294671854,1.8690393978775055,0.0236903627272615,0.0767504413655911,0.0261900260699748,0.6349552684987223,0.4765864228051721,-0.4393600726037291,-0.6930336035309558,-0.4302924368826982,1.85572667429984,0.6551348439247957,0.5096996332158875,-0.4594810712362665,0.9245916423909952,-0.9068478888616728,-0.0768692672670517,0.1630574358814474,10.715544319813487,-1.586230737357733,0.1720947941543854,-1.149467401335903
1.42,-0.700900012917488,-0.435523595432924,1.8608266904014976,0.024156848049371,0.0811105225320805,0.0263781882252838,0.6208361055493024,0.4832167463021561,-0.4253490167117361,-0.6930336035309558,-0.4302924368826982,1.85572667429984,0.6551348439247957,0.5096996332158875,-0.4594810712362665,1.0483578101911175,-0.7059581474709975,0.3315161748492029,0.7005527945996542,10.715544319813487,-1.5758107666114003,0.1715204896947485,-1.1514439708283195
1.44,-0.6892371101079419,-0.4263133237962539,1.852866937409265,0.0283182076399244,0.0854053433170753,0.0268295592797272,0.6077098083683129,0.485099653043969,-0.4133144375411727,-0.6930336035309558,-0.4302924368826982,1.85572667429984,0.6551348439247957,0.5096996332158875,-0.4594810712362665,0.8953715866814361,-0.6563148590494727,0.0941453370906453,0.6017289585281665,11.258964827122329,-1.5712766659052084,0.1672135547935113,-1.16319696589342
1.46,-0.6772201354819588,-0.4166401119994231,1.8447069543275936,0.0337351854339288,0.0897928040284573,0.0273879875628083,0.5947871096071542,0.4819687264955795,-0.4034487811207784,-0.6864822550917078,-0.4251954405505393,1.8511318635874772,0.6555433674545637,0.5160147982289623,-0.4628530412192482,0.827843615860404,-0.6461349380579351,-0.1565463274194795,0.4932828210197165,11.258964827122329,-1.5650889496299372,0.1615196568884982,-1.1726722521089847
1.48,-0.6654530526485355,-0.4070602035244808,1.836716859855266,0.0386488921798609,0.0939949169535624,0.027919050204689,0.582659801476417,0.4762578168610101,-0.3961523626863182,-0.6733795582132119,-0.4150014478862216,1.841942242162752,0.6563604145140997,0.5286451282551121,-0.4695969811852116,0.7630920870425648,-0.6063654065368573,-0.2855454817284664,0.3648209217230108,11.09519654046835,-1.5586226568779278,0.1564867214778182,-1.1794268465545032
1.5,-0.653920846325881,-0.397611217831321,1.828849191972758,0.0424919440039675,0.0979761348801862,0.0283764091339482,0.5712536695966326,0.4691964939199663,-0.3909625560090242,-0.660276861334716,-0.4048074552219038,1.8327526207380267,0.6571774615736357,0.5412754582812619,-0.4763409211511749,0.7191943747771394,-0.5703065939892227,-0.3530661470521917,0.2594903338646981,10.95511065358005,-1.5516305543984483,0.1522311558136912,-1.1842788330223328
1.52,-0.6431698426414737,-0.3887723024167914,1.821456847490732,0.0450760610036793,0.10152792570541,0.0287311087934061,0.5610646692681218,0.4618463640196012,-0.3874246366691093,-0.6471333121032433,-0.3939819460562786,1.8232258023150032,0.6579945086331717,0.5539057883074117,-0.4830848611171383,0.6526044178949019,-0.5094500164255389,-0.3675064950182549,0.1768959669957437,10.846516352634351,-1.544774053913574,0.1491808150105532,-1.1873485854722008
1.54,-0.6320548514050741,-0.3796221476699621,1.813741340640908,0.046711400771526,0.104996878451924,0.02901731898959,0.5510383748743906,0.4537080145899043,-0.3843285903440179,-0.6339897628717706,-0.3831564368906534,1.81369898389198,0.6588115556927077,0.5665361183335614,-0.4898288010831017,0.6639744226186874,-0.501314719686563,-0.4069174714848467,0.1548023162545736,10.76577620390617,-1.538349955565553,0.1473415607567267,-1.1887453711021296
1.56,-0.6211331035992436,-0.3706378186053796,1.8060826604139264,0.0471768304578054,0.1081563237896368,0.0292049778789579,0.5416939921963668,0.4452360327690503,-0.3817049859638621,-0.6208257874638095,-0.3720151694743744,1.804003566969807,0.6596286027522436,0.5791664483597111,-0.496572741049065,0.644156936525957,-0.4672191339011866,-0.4235990910426979,0.1311802190077871,10.731746044659303,-1.53270349709288,0.1467624884333733,-1.189122052552149
1.58,-0.6103918168104173,-0.3618268454859379,1.7984716046685725,0.0462691605242975,0.110976471576306,0.0292759641684417,0.5329381682065316,0.4364830268523603,-0.3795165961178018,-0.60764138587936,-0.3605581438074417,1.7941395515484853,0.6604456498117796,0.5917967783858609,-0.5033166810150284,0.6286267104508935,-0.4377911994917605,-0.4376502958345019,0.1094194923030172,10.705764635376,-1.5271946553969111,0.1475731749742146,-1.1886817605268558
1.6,-0.6003451793735307,-0.3536170931245538,1.7912783737051916,0.0439979467950606,0.1133381660633932,0.0292246296298286,0.5250624355314059,0.4283679881675429,-0.3777587103180038,-0.5837449084000907,-0.3400026941433199,1.779495774862682,0.5424236839723774,0.4446205463237076,-0.3693460609333588,0.5722132043898881,-0.3937866337562878,-0.4057519342408694,0.0878942899898982,10.68150133317431,-1.5218976285179484,0.1499732311380993,-1.1877563779071163
1.62,-0.5898957391197076,-0.345030653466805,1.7839235352310558,0.0436677457881595,0.11505245615327,0.0292744675907607,0.5203885081894987,0.4298600359028264,-0.3569607744989537,-0.5837449084000907,-0.3400026941433199,1.779495774862682,0.5424236839723774,0.4446205463237076,-0.3693460609333588,1.0684403792153323,-0.2336963670953595,0.0746023867641748,1.0398967909525074,10.658809882842434,-1.5150987537663934,0.1499728336431942,-1.187442472033614
1.64,-0.5795382982533493,-0.3364498844578724,1.776994347910028,0.047312959534194,0.1157010473730061,0.0295480296520128,0.5155021714583287,0.42737350873457,-0.3371481915682294,-0.5837449084000907,-0.3400026941433199,1.779495774862682,0.5424236839723774,0.4446205463237076,-0.3693460609333588,1.0278588745490385,-0.2443168365585002,-0.1243263584128212,0.9906291465362148,11.92272705909727,-1.516841956526584,0.1460994321547839,-1.199236924957758
1.66,-0.5697964524844372,-0.3283964463675121,1.7707454828704705,0.05188910147204,0.115683618864378,0.0298447326956874,0.5101501222319932,0.4203669105203238,-0.3216259920096375,-0.5783206715603669,-0.3355564886800828,1.7758023142533486,0.5443207871255465,0.4462480502179771,-0.3673119538964702,0.8925742666492026,-0.2676024613167738,-0.3503299107123075,0.7761099779295927,11.540079643480569,-1.517670788992156,0.141031822471574,-1.2068386862686251
1.68,-0.5596592437535878,-0.3200919926170129,1.764459796243114,0.056262616346231,0.1153117213160523,0.030092997796692,0.5037988221239224,0.4105245224589215,-0.3078653750744693,-0.5674721978809194,-0.3266640777536087,1.768415393034681,0.5481149934318849,0.449503058006516,-0.363243739822693,0.9035571291435468,-0.3175650054035417,-0.4921194030701126,0.6880308467584084,11.540079643480569,-1.5177719667185636,0.1360587267068608,-1.2113559429177376
1.7,-0.5496567349560281,-0.3120008831239945,1.7584230853825296,0.0595879210174718,0.1148377603109283,0.0302472618778599,0.496755043753524,0.3993639904507756,-0.296468886290433,-0.5566237242014719,-0.3177716668271345,1.761028471816014,0.5519091997382232,0.4527580657950549,-0.3591755257489158,0.8718546969547275,-0.3521889185199162,-0.5580266004072992,0.5698244392018159,11.390363893389804,-1.517365841385812,0.1323516999828832,-1.2133235091884471
1.72,-0.5398008966766585,-0.3041394936328869,1.7525966329593632,0.0617710053268674,0.1144572643350998,0.0303142939699722,0.489188026772538,0.3876491087347933,-0.2867228728942502,-0.5455855402067075,-0.3087165055112334,1.7538449613010358,0.5557034060445615,0.4560130735835939,-0.3551073116751386,0.8507099633961035,-0.3783508490492998,-0.5857440857991114,0.4873006698091403,11.263149016695934,-1.516267206707116,0.1296340467807475,-1.2137878824891866
1.74,-0.5305806005656557,-0.2968934709112217,1.7472371211082711,0.0627466030262337,0.1142974387178358,0.0303040757278643,0.481771659515586,0.3758750837265392,-0.2779065085849568,-0.5345473562119429,-0.2996613441953323,1.7466614507860574,0.5594976123508998,0.4592680813721328,-0.3510390976013614,0.8236480556329366,-0.3708183628475997,-0.588701250412707,0.4408182154646722,11.1686019323015,-1.5148143855989276,0.1282349250592683,-1.2127212245121304
1.76,-0.52102734971798,-0.2895116043383552,1.7417745909734277,0.062383772580308,0.1143779754029947,0.0302045307763388,0.4739654392927758,0.363068753824932,-0.2688059597749966,-0.52341431705952,-0.2905248076847178,1.7395796456229236,0.5632918186572381,0.4625230891606717,-0.3469708835275842,0.8771532767399867,-0.3903110111405122,-0.6403164950803619,0.455027440498007,11.146872207405975,-1.5127741032530122,0.1283850306144537,-1.211293896837336
1.78,-0.5116299671630972,-0.2823891967172122,1.7364914190563112,0.0602879331445696,0.1147055748723295,0.0299948033355087,0.4661982399113011,0.3500795787020093,-0.2599458738102946,-0.5121864227494387,-0.2813068959793897,1.732599545811634,0.5670860249635764,0.4657780969492107,-0.342902669453807,0.8768540071007282,-0.3883599690737316,-0.6494587561461318,0.4430042982351001,11.136799125337348,-1.510173321037931,0.1303999977229692,-1.210157203482494
1.8,-0.5023870536469329,-0.2755110799969281,1.7313844713068014,0.0566343019904024,0.1152494498188733,0.029687453656975,0.4585099454932163,0.3389511418724776,-0.2511596849204231,-0.4883200551675321,-0.2648852177821117,1.7234941253657965,0.4548046136907768,0.3467608926637536,-0.2596520435752716,0.8064568998659097,-0.3844147209042414,-0.5564218414765842,0.4393094444935769,11.107864015390078,-1.506490894208716,0.1337967028786219,-1.2104926559297084
1.82,-0.4937045755625711,-0.2691064349441986,1.7267257760037404,0.0543603783922427,0.1146322723111426,0.0294158335200917,0.4559006614925742,0.3351707570276304,-0.2395581862314506,-0.4883200551675321,-0.2648852177821117,1.7234941253657965,0.4548046136907768,0.3467608926637536,-0.2596520435752716,0.6238878993885602,-0.1304642000321043,-0.1890192422423608,0.5800749344486252,11.107864015390078,-1.4993302719621786,0.1356490370328995,-1.211956497990501
1.84,-0.4846185709768291,-0.262462832629681,1.7220516500936338,0.0541251627758131,0.1111699275321658,0.0291259301797876,0.4526284720472424,0.3292258704424174,-0.2285565586714736,-0.4883200551675321,-0.2648852177821117,1.7234941253657965,0.4548046136907768,0.3467608926637536,-0.2596520435752716,0.6463062533459489,-0.1636094722665931,-0.2972443292606513,0.5500813779988469,11.316762916637344,-1.503739757823784,0.1356277154450935,-1.212534288326928
1.86,-0.4756230245008335,-0.2559515615910732,1.7175763655992935,0.0550282976456033,0.1053891715847941,0.0287819825000326,0.4466601850241847,0.3221372356432804,-0.2195004378106705,-0.4837720090306243,-0.2614176088554742,1.7208976049300435,0.4525258884466719,0.3460971554561025,-0.259593277528267,0.6478474325614949,-0.2984143511528841,-0.354431739956848,0.4528060430401576,11.218866446337415,-1.5124270974121452,0.1344730827266888,-1.2088464710022135
1.88,-0.4667862821028395,-0.2495934506173518,1.7132639399942349,0.0565346886456175,0.0986093800506655,0.0284097689930242,0.4370861973106217,0.3140286089877245,-0.2121741802515036,-0.4746759167568088,-0.2544823910021991,1.7157045640585384,0.4479684379584622,0.3447696810408002,-0.2594757454342578,0.7264384296034585,-0.4786993856781468,-0.4054313327777947,0.3663128779583441,11.1057019465743,-1.5205455307552624,0.1326974639180048,-1.2016439475366807
1.9,-0.4585990562424691,-0.2437140505143382,1.7092883047229144,0.0581186386829496,0.0922972816465507,0.028056371926249,0.4251206263205556,0.3053071912732201,-0.2066592290519465,-0.4655798244829933,-0.247547173148924,1.710511523187033,0.4434109874702525,0.3434422066254979,-0.2593582133402485,0.7900200991156506,-0.5982785495033088,-0.4360708857252204,0.2757475599778555,11.002793886608742,-1.5275580600801275,0.1305937386681471,-1.1917484453469318
1.92,-0.4502520879097051,-0.2377141923215223,1.705205452574213,0.0595470851890891,0.0865878701455204,0.0277048662199274,0.4100428516143625,0.2951626763889933,-0.2019497735788943,-0.4567116047335882,-0.2406783290164141,1.705324358920228,0.4388535369820428,0.3421147322101956,-0.2592406812462393,0.9386552124977448,-0.7538887353096518,-0.5072257442113398,0.2354727736526091,10.914192608977828,-1.532782065088529,0.1287747707489318,-1.1810452453533244
1.94,-0.4422350455137228,-0.2319289504474236,1.7012069400126353,0.0602730442628228,0.0827391663944046,0.0274033392442486,0.3923616364881283,0.2840072730792757,-0.1981083901016337,-0.4478433849841831,-0.2338094848839041,1.700137194653423,0.4342960864938331,0.3407872577948934,-0.2591231491522301,1.0628083298059938,-0.8840607563117109,-0.5577701654858797,0.1920691738630284,10.851053809036785,-1.5353880947394594,0.1277562462648822,-1.1709696419984996
1.96,-0.4345919474477717,-0.2263742750912533,1.6972801947228315,0.0599039160433403,0.0816500964736113,0.0271868433084235,0.373137575064168,0.2722041283989884,-0.1947220180100331,-0.4390891014969834,-0.2269738276117767,1.6949529686889682,0.4297386360056233,0.3394597833795911,-0.2590056170582209,1.1405549942010305,-0.9612030711980136,-0.5901572340143685,0.1693186045800307,10.813336921469272,-1.5325246705032145,0.1277484906522937,-1.1630503433330444
1.98,-0.4276783898632519,-0.2213177378513224,1.6936115846245272,0.058267776065151,0.0830686399897625,0.0270367574517245,0.3558628123928994,0.2608497036710053,-0.1915840636199587,-0.4304487542719888,-0.2201713572000319,1.6897716810268637,0.4251811855174136,0.3381323089642888,-0.2588880849642117,1.0454510318593095,-0.8637381335634325,-0.5677212363991546,0.1568977195037207,10.783265249603572,-1.5252905733172268,0.1290761016872555,-1.157714661463905
2.0,-0.4207377008751071,-0.2162186436662514,1.6898162134544248,0.0552078302431268,0.0863968718829619,0.0268876849715341,0.3393596935602656,0.2501152196806304,-0.1880769506418027,-0.4098852492436069,-0.2082752526677722,1.6840323814435292,0.3624644561414808,0.2682810221887796,-0.1960871745093041,0.9998523880868594,-0.8251559416316917,-0.5367241995187427,0.1753556489078031,10.763328483438272,-1.515091444398745,0.1317571772501349,-1.155449010190587
2.02,-0.4141305692720284,-0.2113236363027503,1.6861361980053822,0.0512314085609764,0.0917544171161987,0.0267736957454003,0.3225445061260237,0.2402927776354782,-0.1798425380447848,-0.4098852492436069,-0.2082752526677722,1.6840323814435292,0.3624644561414808,0.2682810221887796,-0.1960871745093041,1.057161821809915,-0.8407593717120909,-0.4911221022576101,0.411720629850891,11.066354502700053,-1.5024116294883187,0.1353574672259684,-1.1567556028278323
2.04,-0.4078312441093591,-0.2066010783105543,1.6826223355875287,0.0468526265323439,0.0991386683196784,0.026712229064843,0.3086743335141125,0.2326588217935848,-0.171978655772355,-0.4098852492436069,-0.2082752526677722,1.6840323814435292,0.3624644561414808,0.2682810221887796,-0.1960871745093041,0.8838829312680863,-0.6935086305955601,-0.3816977920946679,0.3931941136214922,11.066354502700053,-1.4881660168561277,0.1391263919202471,-1.1638524602013574
2.06,-0.4020707813509546,-0.2022392370818788,1.6794219254862626,0.0427995563192173,0.1069987190009784,0.0266730300483955,0.2986652060123208,0.2269380847925618,-0.1653098287625179,-0.4062606046821921,-0.2055924424458844,1.6820715096984362,0.3637847848911971,0.2697672858923345,-0.1969877966871732,0.6659255192383198,-0.5004563750895863,-0.2860368500511537,0.3334413504918532,10.938228242298464,-1.4733808756759186,0.1431184554179218,-1.1729956917993776
2.08,-0.3961802583070486,-0.1977521808970047,1.6761829745436927,0.0388476761284196,0.1153089368720306,0.0266257812766067,0.2911699849842877,0.2221260261072279,-0.1589833658787455,-0.3990113155593625,-0.2002268220021087,1.67814976620825,0.3664254423906297,0.2727398132994442,-0.1987890410429114,0.5462563035561167,-0.3747610514016564,-0.240602934266694,0.3163231441886197,10.938228242298464,-1.4598106187969533,0.1469083298951615,-1.1828856121201896
2.1,-0.3904105469871012,-0.1933503424751098,1.6730631767103952,0.0353007926768297,0.1230107678029528,0.0265571853914594,0.2863485929752611,0.2183245560360335,-0.153358685053317,-0.3917620264365329,-0.1948612015583332,1.674228022718064,0.3690660998900622,0.275712340706554,-0.2005902853986495,0.4163352915464752,-0.2410696004513296,-0.1900735035597192,0.2812340412714262,10.900317651779003,-1.448123621425664,0.1503937501854481,-1.1926954895187227
2.12,-0.3847131798965391,-0.1890151567419287,1.6700485197740202,0.0321951537583684,0.1296379291583587,0.0264619678411507,0.2836800276902264,0.2153595245400996,-0.1484105701907057,-0.3843807044387317,-0.1893469547442021,1.670216217010091,0.3717067573894947,0.2786848681136637,-0.2023915297543877,0.3177911780791259,-0.1334282642517337,-0.1482515747966969,0.2474057431305659,10.843116790818383,-1.4391084501161897,0.1533653860241928,-1.2013151029342144
2.14,-0.3793345357431399,-0.1849451557624997,1.6672720912668475,0.0296417413729221,0.1347236609583447,0.0263484294276146,0.2826165885741564,0.2131737037423431,-0.1441096969916226,-0.3769993824409304,-0.183832707930071,1.666204411302118,0.3743474148889273,0.2816573955207734,-0.2041927741101259,0.247013287031708,-0.0531719558034993,-0.1092910398878224,0.2150436599541547,10.843116790818383,-1.4317733844870897,0.1561219464695864,-1.2092111385282986
2.16,-0.3736842196828883,-0.1807000326585224,1.6644337561315674,0.0273615644032954,0.1387391900495457,0.0262112356974643,0.2824671366471049,0.2114297213152943,-0.1399772834269365,-0.3695520440056434,-0.1782441479307622,1.6621475744852514,0.3769880723883599,0.2846299229278832,-0.205994018465864,0.22439169132321,-0.0074725963525756,-0.0871991213524422,0.2066206782343052,10.830864162805485,-1.4266973289086202,0.1584921269843064,-1.2158644476836131
2.18,-0.3680304604272341,-0.1764848295650776,1.6616732664584104,0.0254902851749916,0.1414227616399722,0.0260642314295303,0.2828729382496328,0.2101411573149311,-0.1363034279915735,-0.3620386891328705,-0.1725812747462756,1.6580457065594916,0.3796287298877925,0.2876024503349929,-0.2077952628216022,0.195718457762627,0.0202900801263949,-0.06442820001816,0.1836927717681499,10.798490307503016,-1.423750979805939,0.1603740892589033,-1.220920930607439
2.2,-0.3623663699373196,-0.1722906600700601,1.6589809333213987,0.0240359796438147,0.1428860792368905,0.0259167836444574,0.2834142180358531,0.2092942335278288,-0.1331172130676973,-0.3538868135147525,-0.1659777716993311,1.6548580950588316,0.3031369006972761,0.215048198637371,-0.131331981056486,0.1670496127596668,0.0270639893110158,-0.0423461893551121,0.1593107461938109,10.798490307503016,-1.4224050866607016,0.1619474552762643,-1.2249061710123468
2.22,-0.3569644659462118,-0.1682885802502184,1.6565633092677368,0.0241012429656268,0.1433321073260547,0.0258575748861651,0.2850930199835056,0.2115614501435549,-0.1215594009337869,-0.3538868135147525,-0.1659777716993311,1.6548580950588316,0.3031369006972761,0.215048198637371,-0.131331981056486,0.5948564290751831,0.0839400973826259,0.1133608307863062,0.5778906066955164,10.77693493802235,-1.4154828456437238,0.1613504016065294,-1.228240888101562
2.24,-0.3512500008624167,-0.1640429437459404,1.6542496307082593,0.0262292305179064,0.1430796120768631,0.0259216080463855,0.2861772659563492,0.212717705891884,-0.1105317763180651,-0.3538868135147525,-0.1659777716993311,1.6548580950588316,0.3031369006972761,0.215048198637371,-0.131331981056486,0.5570480709742308,0.0542122986421783,0.057812787416453,0.5513812307860896,11.351146057675578,-1.4179586832441229,0.1590910586768339,-1.2382341433534922
2.26,-0.3455222175211585,-0.1597960553385275,1.6521373917219908,0.0297161057082824,0.1423792431139737,0.0260638486900074,0.2864841761984776,0.2114958587666464,-0.1013287951774638,-0.3508554445077797,-0.1638272897129574,1.6535447752482668,0.3071896931868048,0.216029606901859,-0.1303376916694686,0.4644404325864587,0.0153455121064183,-0.0610923562618798,0.4601490570300674,11.25334135675621,-1.4206884188513258,0.1552037050280411,-1.2451497825171456
2.28,-0.3397963789883845,-0.1556043823443296,1.6501911437001275,0.0332294990761136,0.1414755420056481,0.0261937830980189,0.2860475876518146,0.2077668830883018,-0.0937544845049783,-0.3447927064938342,-0.15952632574021,1.650918135627137,0.315295278165862,0.2179924234308349,-0.1283491128954336,0.4226879798743129,-0.0218294273331504,-0.1864487839172299,0.3787155336242763,11.151884926449384,-1.4223320443613428,0.1513238877383603,-1.2496752868531924
2.3000000000000003,-0.3343711830393882,-0.1517050615433054,1.6484709472722765,0.0360255022471668,0.1406143742260796,0.0262717504015282,0.285034723483311,0.2030136788612951,-0.0876947042802501,-0.3387299684798887,-0.1552253617674625,1.648291496006007,0.3234008631449194,0.2199552399598109,-0.1263605341213986,0.3883934236681877,-0.0506432084251773,-0.2376602113503337,0.3029890112364062,11.069042794258166,-1.4232799782371164,0.1477750490851243,-1.2526599969530454
2.32,-0.3286862249883237,-0.1477041917768594,1.646776180189333,0.038263342295656,0.1398475844101798,0.0263031909081794,0.2835018561476241,0.1974342231245389,-0.0821335773275129,-0.3322619512169903,-0.1508262569682663,1.6457642853235794,0.3315064481239767,0.2219180564887868,-0.1243719553473636,0.4012671852136009,-0.0766433667843458,-0.2789727868378111,0.2780563476368625,11.004387734716149,-1.4234774808597397,0.1449909698555951,-1.2544253893752348
2.34,-0.3230353898065567,-0.1438213163012947,1.645187673861253,0.0397123607201888,0.1393242599880137,0.026284347407618,0.2816813965236305,0.1912811499768101,-0.0769897047975872,-0.3257939339540919,-0.1464271521690701,1.6432370746411515,0.339612033103034,0.2238808730177628,-0.1223833765733286,0.4111988783059156,-0.0910229811996815,-0.3076536573864419,0.2571936264962868,10.958104051663213,-1.4228987808054834,0.1431405553699546,-1.2551695288936406
2.36,-0.317421280026076,-0.1400662813729097,1.6436990688230613,0.0402618160642591,0.1390504536074129,0.026210286206196,0.2798430025439263,0.184654062366138,-0.0721253478576015,-0.3191232770667171,-0.1419789769566495,1.6407595784280744,0.3477176180820913,0.2258436895467388,-0.1203947977992937,0.4211886485404186,-0.0919196989852072,-0.3313543805336022,0.2432178469992815,10.93986360555664,-1.4216902682929318,0.1421627740769646,-1.255565987693685
2.38,-0.3121214917781924,-0.1366246443242039,1.6423727062086948,0.0397882779353634,0.1389771475660127,0.0260778532581312,0.2781405913944957,0.178082828259677,-0.0677309424379743,-0.3122499805548658,-0.1374817313310045,1.638331796684348,0.3558232030611486,0.2278065060757148,-0.1184062190252587,0.4043207897068605,-0.0851205574715296,-0.3285617053230535,0.2197202709813599,10.925637980721149,-1.420084221186672,0.1423982518509169,-1.255689027139325
2.4,-0.306576718496293,-0.1331348136402988,1.6410652842604672,0.0381492322381408,0.1390469015116563,0.0258667667084022,0.2764432774624862,0.1713584688493645,-0.0632447357812173,-0.2982144622084676,-0.1277205029112201,1.638986159086796,0.2874485859017489,0.1838462504917982,-0.0632640143619753,0.4129889049053947,-0.0848656966004779,-0.3362179705156246,0.2243103328378508,10.912873130478149,-1.4180877466718311,0.1439653332336933,-1.2555811588980896
2.42,-0.301030702506106,-0.1297695297917488,1.6398813828602508,0.0355029689597102,0.1383258440284799,0.0255610854623488,0.2782656014676283,0.1657796808075039,-0.0551849757243702,-0.2982144622084676,-0.1277205029112201,1.638986159086796,0.2874485859017489,0.1838462504917982,-0.0632640143619753,0.4985064517377682,0.0911162002571075,-0.27893940209303,0.4029880028423544,10.90410216919463,-1.4121193790786766,0.1462977944732537,-1.2542260747347966
2.44,-0.295451345600049,-0.1264964503550482,1.6388577727047515,0.0325341499724654,0.1358737006150155,0.0251828716676323,0.2794125069241882,0.1619153786273754,-0.0475919119613777,-0.2982144622084676,-0.1277205029112201,1.638986159086796,0.2874485859017489,0.1838462504917982,-0.0632640143619753,0.4298338073444825,0.057345272827991,-0.1932151090064213,0.3796531881496239,11.139040084927728,-1.4153985356133605,0.1494063395190661,-1.2559690708694136
2.46,-0.2901438640168731,-0.1234466437357564,1.6380170247217496,0.0298553265699294,0.132269413764252,0.0248077079478438,0.2790735934410557,0.1593115268178279,-0.0412776790786128,-0.2953399763494501,-0.1258820404063021,1.6383535189431762,0.2893101848031996,0.1849989349382224,-0.0623706287467755,0.341922664841492,-0.0169456741566209,-0.1301925904773779,0.3157116441382463,11.08241578344314,-1.420627327844237,0.152544860999452,-1.2555513800065516
2.48,-0.2845837486940232,-0.1202822372042226,1.6372540665037665,0.0273471759175166,0.127596919488142,0.0244275185426692,0.2767584485167087,0.157263603047588,-0.035376440320464,-0.2895910046314152,-0.1222051153964661,1.637088238655937,0.2930333826061008,0.1873043038310709,-0.0605838575163759,0.3330859749003285,-0.1157572462173517,-0.1023961885119939,0.2950619379074398,11.02242100337844,-1.4267736013502823,0.1553185496580807,-1.253147346217294
2.5,-0.2790962062389498,-0.1171528102525678,1.6366001374406238,0.0252150079114552,0.1227109268608041,0.0240870682679363,0.2719582151746383,0.1557339473098004,-0.030298708781095,-0.2838420329133801,-0.1185281903866302,1.6358229583686972,0.2967565804090021,0.1896096727239194,-0.0587970862859763,0.3576501237255955,-0.2400116671035207,-0.0764827868893813,0.2538865769684487,10.92400505961814,-1.432585556663327,0.1575431407141434,-1.24973675212333
2.52,-0.2737323438545729,-0.1140502358626005,1.6360405135880969,0.0234411432347272,0.1184681138748077,0.0238045934193496,0.2645504720765186,0.1545516938469932,-0.025909873225235,-0.2779069013052001,-0.1147359969321518,1.6346470166429776,0.3004797782119033,0.1919150416167679,-0.0570103150555767,0.4345522367749396,-0.370387154905985,-0.0591126731403574,0.2194417777930042,10.92400505961814,-1.4374984042722223,0.1594598181533469,-1.245892350675095
2.54,-0.2687969767236589,-0.1111215912115396,1.6355860276298495,0.0220779885514988,0.115895652214748,0.0236048534205916,0.2552877138545346,0.1537653626131829,-0.0221464309645569,-0.2719717696970201,-0.1109438034776734,1.633471074917258,0.3042029760148046,0.1942204105096164,-0.0552235438251771,0.5014491607771813,-0.4631379110992012,-0.0393165616905152,0.1881721130339023,10.866413551484584,-1.4394893353138405,0.1609120144923214,-1.2430353644428305
2.56,-0.2638037048460947,-0.1080507241053278,1.6351819375919612,0.0210597124430035,0.1153988774751699,0.023480743502845,0.2448024103642033,0.1533642848397152,-0.0184775780985587,-0.2659435581437675,-0.1070939758008738,1.6323398024722986,0.3079261738177059,0.1965257794024649,-0.0534367725947775,0.5557943280051229,-0.5242651745165638,-0.020053888673388,0.1834426432999107,10.866413551484584,-1.4361166060978272,0.161685905538787,-1.2419402609993553
2.58,-0.2590083087296368,-0.1049837128469263,1.6348482711904002,0.0205885067142646,0.1168338623701572,0.0234407030170334,0.2354833128234986,0.153339526801106,-0.0150883491309171,-0.2598222666454424,-0.103186513901753,1.631253199308099,0.3116493716206072,0.1988311482953134,-0.0516500013643778,0.4958151493468725,-0.4659548770352337,-0.0012379019304606,0.1694614483820799,10.822586755245538,-1.4305551821254157,0.161868819149093,-1.2434538226231655
2.6,-0.2543837721416184,-0.1019149693021872,1.6345801251134924,0.0207582012624818,0.1195753125117104,0.0234763045565975,0.2276593519546154,0.1534847047056644,-0.0119046665521523,-0.2472341430884619,-0.097316736506871,1.6340938537338543,0.2360884486303348,0.1523173384589296,-0.0393232400687223,0.4224076084308801,-0.3911980434441617,0.007258895227924,0.1591841289382378,10.81094177583782,-1.423817873644852,0.1613705735328215,-1.246878485166646
2.62,-0.2501117295182775,-0.0989659648605342,1.6343472226174276,0.0225134947925146,0.1224271183823533,0.0236307641420684,0.222481227115095,0.1566526280856871,-0.0129907768560506,-0.2472341430884619,-0.097316736506871,1.6340938537338543,0.2360884486303348,0.1523173384589296,-0.0393232400687223,0.3083356571481224,-0.258906241976016,0.1583961690011348,-0.0543055151949144,10.81094177583782,-1.420731271618883,0.1593937801516356,-1.253864793910879
2.64,-0.2457135873937325,-0.0958221070225243,1.6340623025526408,0.0263581859743958,0.1249299513127703,0.0239276998573211,0.2176387519379631,0.1570081143183398,-0.0154645816652882,-0.2472341430884619,-0.097316736506871,1.6340938537338543,0.2360884486303348,0.1523173384589296,-0.0393232400687223,0.2724685602824253,-0.2421237588565952,0.0177743116326331,-0.1236902404618772,10.481643155473648,-1.417354568389516,0.1549085543150478,-1.2545173395058202
