t,x,y,z,roll,pitch,yaw,v_x,v_y,v_z,ref_x,ref_y,ref_z,ref_v_x,ref_v_y,ref_v_z,a_com,a_x,a_y,a_z,thrust,wind_x,wind_y,wind_z
0.0,-1.1615173047889924,0.7741886295987652,2.594261073107699,0.0182776257347336,0.1364794728557422,0.0261431690508741,0.0069000698980685,0.0058938892543763,0.0263933747314303,-1.161306926193924,0.7743774278364864,2.59506246915189,0.0377162414690899,-0.0937871122404349,-0.0733695915822394,1.3954919606135232,0.3450034949034294,0.2946944627188178,1.319668736571516,10.556633656889971,-1.2883098699798687,0.1579439104778681,-1.1860291763595958
0.02,-1.1614925740697304,0.7745137679205032,2.5945777633381337,0.0273226184959789,0.1388237066642633,0.0268258662795617,-0.0041327258265759,0.0229204804996622,0.0042132596783995,-1.161306926193924,0.7743774278364864,2.59506246915189,0.0377162414690899,-0.0937871122404349,-0.0733695915822394,1.5029844432839805,-0.5516397862322261,0.8513295622642948,-1.109005752651538,10.557093236875517,-1.311418110866942,0.1509783093788732,-1.201880206321066
0.04,-1.161650331398686,0.7749620193690283,2.594391028436768,0.0413914129552322,0.1444370292302058,0.0279822280904752,-0.0114275221553869,0.022833831962437,-0.022629655026498,-1.161306926193924,0.7743774278364864,2.59506246915189,0.0377162414690899,-0.0937871122404349,-0.0733695915822394,1.3908303556708883,-0.3647398164405522,-0.0043324268612586,-1.342145735244878,9.226442595153458,-1.2997107569140829,0.1345105504825035,-1.1874547881013824
0.06,-1.1619246221210853,0.7753614116892176,2.5936422897073004,0.0565694690182991,0.1520653019596316,0.0293771924926722,-0.0152412254114374,0.0167524501036708,-0.0508077058986995,-1.160929763779233,0.773439556714082,2.5943287732360685,0.0438630654564547,-0.1137871125384581,-0.0933695918802626,1.4539000041214292,-0.1906851628025224,-0.3040690929383126,-1.4089025436100748,8.998149863562958,-1.2856598962101988,0.118106276208969,-1.1740381194175962
0.08,-1.1622404261981427,0.7756023116545817,2.592340207370996,0.0712011999970411,0.1603851026629758,0.030872389457268,-0.0158469742436251,0.007330334512624,-0.0779557287158018,-1.160175438949851,0.7715638144692734,2.592861381404424,0.0561567134311842,-0.1537871131345046,-0.1333695924763091,1.4371485107119726,-0.0302874416093873,-0.4711057795523407,-1.3574011408551196,9.007116367274193,-1.2732712373431518,0.1035909557610756,-1.1646990235960766
0.1,-1.1625396970810036,0.7756253102708733,2.590506560688386,0.0851511823606241,0.1688000964193896,0.0324255309044086,-0.0138043440894467,-0.0048502673453305,-0.1040754135871556,-1.1594211141204696,0.7696880722244647,2.591393989572779,0.0684503614059138,-0.193787113730551,-0.1733695930723555,1.444625675865198,0.102131507708923,-0.6090300928977297,-1.3059842435676878,9.06414435231818,-1.2617041004269305,0.0894770128274934,-1.1563364935531726
0.12,-1.1627645012060523,0.7753972043764896,2.5882881777987867,0.0977742810373349,0.1765973118684742,0.0339240643303024,-0.0097743427004133,-0.0187926022795249,-0.12815312269553,-1.1580521068923513,0.7658123299498537,2.587926597711332,0.0807440093806433,-0.2337871143265975,-0.213369593668402,1.4056721617435923,0.2015000694516684,-0.6971167467097193,-1.2038854554187175,9.119928109136708,-1.2514948751896458,0.0765017329368007,-1.1478530943002394
0.14,-1.1629001820610048,0.7748472230262988,2.5854555051085373,0.1104226453913019,0.184452946596751,0.035499223133411,-0.0038150884147709,-0.0357347643166658,-0.1538877200601692,-1.156683099664233,0.7619365876752426,2.5844592058498845,0.0930376573553729,-0.273787114922644,-0.2533695942644485,1.5690913514306464,0.2979627142821196,-0.8471081018570451,-1.2867298682319603,9.16759736465974,-1.2436993238903085,0.0645286551852671,-1.1411951331484027
0.16,-1.1628993371358287,0.7739347952470539,2.5821068747703686,0.122442325042382,0.1918848469098701,0.0370500794279391,0.0037756808099755,-0.0549096178064313,-0.1797065946771173,-1.1550067512367466,0.7570608453857305,2.5799918139735363,0.1053313053301024,-0.3137871155186904,-0.2933695948604949,1.6522023712782736,0.379538461237326,-0.9587426744882744,-1.2909437308474074,9.152153253374308,-1.2371690732145575,0.0534128995744031,-1.1352269885578985
0.18,-1.1627258451061628,0.772616284566007,2.5782427802505925,0.1338563703937732,0.1987299050522562,0.0385392649711635,0.0133028777625082,-0.0762182575761115,-0.205439169722977,-1.153023061609892,0.7511851030813171,2.574524422082287,0.1176249533048319,-0.3537871161147368,-0.3333695954565413,1.7370888212013955,0.4763598476266364,-1.0654319884840084,-1.2866287522929811,9.181550684690592,-1.2318053349490623,0.043590707801845,-1.1293072514778375
0.2,-1.1623634391091848,0.7709300815296238,2.5740935366751665,0.1435114330002976,0.2043523977197172,0.0397850807921917,0.024367332465973,-0.0999618089596093,-0.2299996950592873,-1.1620607012180375,0.7688053716872014,2.5679708217644435,0.0514682235505103,-0.1762182590662276,-0.3054391712130931,1.7954092813209492,0.5532227351732365,-1.187177569174889,-1.2280262668155155,9.204949820336878,-1.2272608599592256,0.0346763287266459,-1.1217378705011802
0.22,-1.1616879801171724,0.7685014979733455,2.569350372068241,0.1478078782127907,0.2085637090075124,0.0404403141751099,0.0426855754494525,-0.1397705981699429,-0.241965919357732,-1.1620607012180375,0.7688053716872014,2.5679708217644435,0.0514682235505103,-0.1762182590662276,-0.3054391712130931,2.271281713237737,0.9159121491739738,-1.9904394605166815,-0.5983112149222369,9.204949820336878,-1.213059303294238,0.0313848448825467,-1.106282131636133
0.24,-1.1606426629171165,0.765349992137817,2.564393601006688,0.1456531258765831,0.2106802896813003,0.0403022714801743,0.0607386884795615,-0.1727578661765394,-0.2531752945649565,-1.1620607012180375,0.7688053716872014,2.5679708217644435,0.0514682235505103,-0.1762182590662276,-0.3054391712130931,1.9619663816903536,0.902655651505454,-1.649363400329823,-0.5604687603612241,10.050292491127038,-1.2146527226387065,0.0340517873735447,-1.1020893158366487
0.26,-1.1593227746910728,0.7617976541233284,2.559457677303428,0.1407962409848489,0.2110772788516042,0.0397121075285704,0.0771686156409647,-0.1989186128516906,-0.2657054039675506,-1.1615460189825324,0.7670431890965391,2.5649164300523126,0.0591012927081107,-0.1962182593642508,-0.3254391715111163,1.6668314362671992,0.8214963580701596,-1.308037333757564,-0.626505470129704,9.891941694765592,-1.2179735650377304,0.0395097852359964,-1.0974612414165923
0.28,-1.157607155023183,0.757569282925909,2.553986842830112,0.1350893305946846,0.2099440249041733,0.03881664762968,0.0934090701348702,-0.2223932359779988,-0.2807841452588871,-1.1605166545115222,0.7635188239152146,2.5588076466280505,0.0743674310233115,-0.2362182599602973,-0.3654391721071627,1.6141396563044614,0.812022724695275,-1.1737311563154078,-0.7539370645668259,9.740113512444625,-1.223447581707113,0.0455270687637185,-1.0907434723022378
0.3,-1.1555790179934475,0.7528970849661321,2.5481938942440663,0.1297370509159539,0.2073462822066033,0.0377461300344387,0.1084604641071358,-0.2436329893708127,-0.2978138189748861,-1.159487290040512,0.75999445873389,2.552698863203789,0.0896335693385123,-0.2762182605563438,-0.4054391727032092,1.5553788698973707,0.7525696986132778,-1.061987669640695,-0.8514836857999503,9.740113512444625,-1.2292595757842932,0.0509160916378419,-1.0826331136182967
0.32,-1.1532657943663225,0.7478169073488055,2.5420406374594777,0.1250679018112321,0.2034487757258978,0.0365612775657909,0.1219675534979498,-0.2634237233048952,-0.3166145390935563,-1.1576946186537418,0.7544700935227632,2.5445900797497245,0.1048997076537131,-0.3162182611523902,-0.4454391732992556,1.522811290378469,0.6753544695406989,-0.989536696704124,-0.9400360059335116,9.49429808901823,-1.236329819745127,0.055375480133944,-1.0729268942967
0.34,-1.1508355551758578,0.7426334604984759,2.5358394447368293,0.1213276467005988,0.1988499802021111,0.0353821755411127,0.1329726629158079,-0.281335403206104,-0.3351635292574474,-1.1559019472669714,0.7489457283116363,2.5364812962956607,0.1201658459689139,-0.3562182617484367,-0.4854391738953021,1.401789700956,0.550255470892904,-0.8955839950604394,-0.9274495081945556,9.431313969794246,-1.2451701309393928,0.0593842432344726,-1.060559933143253
0.36,-1.1480743247095555,0.7368082248478547,2.528924172991773,0.117863637026244,0.1936365100506027,0.0341405102790884,0.1423862138556032,-0.3001925565147477,-0.3553839678404581,-1.1537276224223212,0.7424213630856082,2.527372512826695,0.1354319842841147,-0.3962182623444831,-0.5254391744913485,1.4603709363472714,0.4706775469897659,-0.9428576654321869,-1.0110219291505351,9.36882208402858,-1.25333425393946,0.0627800017166983,-1.047276078261772
0.38,-1.145145790592664,0.7306084942880696,2.5215981345018843,0.1145739479665118,0.1885468253043472,0.0329380459191475,0.14985867285065,-0.3187363363274704,-0.3761954614566954,-1.1511716441197908,0.734896997844679,2.5172637293428286,0.1506981225993155,-0.4362182629405295,-0.5654391750873949,1.4429376976450503,0.3736229497523405,-0.9271889906361324,-1.040574680811862,9.36882208402858,-1.2598472055576868,0.0659024229199499,-1.03309900967759
0.4,-1.142087965128742,0.7240430506603253,2.513848491754312,0.1113166484731228,0.1840192289937203,0.031814885715123,0.1554476333118813,-0.3367475026690846,-0.3976714218769163,-1.1376528569501316,0.7146716774716961,2.5027883614290496,0.1846326261096412,-0.4187363378175865,-0.4761954629468115,1.4290341738333243,0.2794480230615667,-0.9005583170807102,-1.0737980210110436,9.259774721585018,-1.2642128686890437,0.0686899909731076,-1.020239823751898
0.42,-1.139061644776858,0.717459650280208,2.506319475606552,0.1084500649794596,0.1810138974632817,0.0309181481306807,0.1627407509378968,-0.3553620665985059,-0.3937776693440845,-1.1376528569501316,0.7146716774716961,2.5027883614290496,0.1846326261096412,-0.4187363378175865,-0.4761954629468115,1.018396857536818,0.3646558813007752,-0.9307281964710672,0.1946876266415903,9.259774721585018,-1.2604854823507137,0.0715321687453585,-0.9982761942888873
0.44,-1.1357493952191713,0.7101660969978092,2.4984500193424557,0.1061457036540668,0.1802226328516869,0.0302860330206733,0.1682510481334864,-0.3731422492088318,-0.3937659779702445,-1.1376528569501316,0.7146716774716961,2.5027883614290496,0.1846326261096412,-0.4187363378175865,-0.4761954629468115,0.9307233820105736,0.2755148597794812,-0.8890091305162939,0.0005845686919969,10.371107062925148,-1.2618113830311426,0.0728850676536741,-0.9998771205595544
0.46,-1.1323249498151695,0.702520751105487,2.4905152205188825,0.1045311946910908,0.1815805977987406,0.0299278764471639,0.1741815815640579,-0.3905471203947306,-0.3997055163506564,-1.1358065306890353,0.7104843140935203,2.498026406799581,0.1915874167614395,-0.4387363381156097,-0.4961954632448347,0.9661507179799153,0.2965266715285714,-0.870243559294942,-0.2969769190205917,10.055934161634468,-1.2604842965150906,0.073678189910963,-1.002571674568156
0.48,-1.1289528435499412,0.6949411667859332,2.482825558220267,0.1034151641831231,0.1840275785612398,0.029732002593974,0.1806413112741059,-0.4064459595028709,-0.4094331305665373,-1.1321138781668425,0.7021095873371686,2.488502497540645,0.205496998065036,-0.4787363387116562,-0.5361954638408811,0.9863159626184888,0.3229864855024009,-0.7949419554070108,-0.486380710794046,10.055934161634468,-1.2573874718691362,0.0742728930899922,-1.0044137863190912
0.5,-1.125261616639089,0.6866447997317905,2.4744980248525734,0.1027628476573502,0.1871909191631976,0.0296161849152548,0.1882540035775286,-0.4223602765214934,-0.4229576728245427,-1.1284212256446495,0.6937348605808168,2.478978588281709,0.2194065793686325,-0.5187363393077027,-0.5761954644369276,1.1114537929716013,0.3806346151711354,-0.7957158509311252,-0.6762271129002712,9.822651213340578,-1.253968715974146,0.0745152965131895,-1.0055054701192
0.52,-1.121409458400782,0.6780354414400638,2.4658710844089207,0.1027686595690351,0.1905022989378159,0.029555150548675,0.1966625757067598,-0.437804585509937,-0.4391642165537896,-1.124033094057277,0.6833601337946628,2.4674546789929703,0.233316160672229,-0.5587363399037492,-0.6161954650329741,1.1957035847472772,0.4204286064615578,-0.7722154494221811,-0.8103271864623451,9.63813563785061,-1.2508244270778572,0.0742628334781103,-1.005716064213346
0.54,-1.1173797665926797,0.6691196635759631,2.456905732572064,0.1035012456415728,0.1936221058077701,0.0295199098439724,0.2059373279653542,-0.4530763019501429,-0.4565521890111086,-1.1196449624699043,0.6729854070085086,2.455930769704232,0.2472257419758255,-0.5987363404997956,-0.6561954656290205,1.2465832690446728,0.4637376129297196,-0.7635858220102959,-0.8693986228659495,9.500186011819096,-1.2481598361163893,0.0734815952059592,-1.0047186211183068
0.56,-1.1133702775000194,0.6603553027109028,2.448058902319384,0.1045467076079805,0.1961498316700316,0.0294611280198885,0.2156418700556478,-0.468659227278051,-0.4738069991377154,-1.1149090913499418,0.6616106802074534,2.443406860400592,0.261135323279422,-0.638736341095842,-0.6961954662250669,1.2596965621357925,0.4852271045146836,-0.7791462663954057,-0.8627405063303395,9.449936168522072,-1.246042379436077,0.0723361813957174,-1.0028405022266391
0.58,-1.10894539481138,0.6508025071972888,2.438383740793064,0.105529513504915,0.1981634209355968,0.0293176289588642,0.2263210793450591,-0.4857590956973277,-0.4928218910751856,-1.1098254806973893,0.6492359533914971,2.429882951082051,0.2750449045830185,-0.6787363416918885,-0.7361954668211134,1.3856560958597322,0.5339604644705661,-0.8549934209638343,-0.9507445968735097,9.41741251644271,-1.2448361555002674,0.0713132454679603,-0.9999094010400124
0.6,-1.1043034548239352,0.6408984345981451,2.4283204136271714,0.105946491684679,0.1994318679736487,0.0290490565797321,0.2372980087892535,-0.5037085455528142,-0.5125601145470127,-1.097629340844127,0.6265145524124225,2.413742646239305,0.2786735971883056,-0.5791173069166384,-0.5928218925653017,1.4424572748969289,0.5488464722097186,-0.8974724927743233,-0.9869111735913538,9.372776397716734,-1.2442140339511898,0.0708062525589265,-0.9957949745255288
0.62,-1.099663303354299,0.6310799350468046,2.4186325597156264,0.1039394836381595,0.2007336068823717,0.0286297927747475,0.2509453767718007,-0.5285786433516674,-0.5047769343251717,-1.097629340844127,0.6265145524124225,2.413742646239305,0.2786735971883056,-0.5791173069166384,-0.5928218925653017,1.4708418607563076,0.682368399127356,-1.2435048899426593,0.3891590110920495,9.33751760992982,-1.2385280641581058,0.0726832321209457,-0.9816580295861164
0.64,-1.0944921046066036,0.6202802638515948,2.408606167910578,0.0989667361855367,0.2029889516631638,0.0280740277801623,0.2655172450646477,-0.5493860603351787,-0.4986869240125258,-1.097629340844127,0.6265145524124225,2.413742646239305,0.2786735971883056,-0.5791173069166384,-0.5928218925653017,1.3061165459846296,0.7285934146423506,-1.0403708491755648,0.3045005156322944,11.142145979608358,-1.236044658302166,0.0762366734164783,-0.9879871922737812
0.66,-1.0890278471917834,0.6091106345791608,2.3986301617163157,0.0933814648361048,0.2055811566258661,0.0275007669578014,0.2802521146766557,-0.5663183119527074,-0.4991764522469152,-1.0948426048722442,0.620723379343256,2.407814427313652,0.2891441007569549,-0.5977889491605006,-0.6128218928633249,1.1225608727530634,0.736743480600402,-0.846612580876438,-0.0244764117194706,10.742797159013207,-1.2348659677947822,0.0803731291244417,-0.9931533061527388
0.68,-1.083563087490658,0.5982116151199812,2.389094360597639,0.0882428671514895,0.207856096060746,0.0269432096875642,0.2942583144433505,-0.5800571611578986,-0.5045494373752561,-1.089269132928478,0.6091410332049233,2.395957989462346,0.3100851078942535,-0.6351322336482249,-0.6528218934593714,1.017101984287856,0.7003099883347408,-0.6869424602595597,-0.2686492564170473,10.369263044131005,-1.2344523975398107,0.0847735260435717,-0.9963499383629556
0.7000000000000001,-1.0775257822314088,0.5864766430891976,2.378905263136446,0.0833647932560341,0.2098071970991769,0.026349814376218,0.3087036230823379,-0.5927072493183281,-0.5142543446314727,-1.083695660984712,0.5975586870665905,2.38410155161104,0.3310261150315521,-0.6724755181359492,-0.6928218940554178,1.0757287030125258,0.7222654319493677,-0.6325044080214726,-0.4852453628108266,9.8396561724785,-1.2349735490535372,0.088811620491762,-0.9974787843013077
0.72,-1.071203335952455,0.5745025026528015,2.3684848382557293,0.0791607155133783,0.2112120017219135,0.0257571594099912,0.3227730059880262,-0.6041001644161043,-0.5274315280703988,-1.077075138684081,0.5841091767038715,2.3702451137299314,0.3519671221688507,-0.7098188026236735,-0.7328218946514643,1.1195805164827597,0.7034691452844161,-0.569645754888809,-0.6588591719463077,9.650990763263508,-1.2361204251738096,0.0922959825418598,-0.9967950027720418
0.74,-1.0646021353895052,0.5623113465870185,2.3577802047546825,0.0756695715746452,0.2120447412007008,0.0251715763088713,0.3365956237610566,-0.6145651150413988,-0.5423494842578898,-1.07045461638345,0.5706596663411526,2.356388675848823,0.3729081293061493,-0.7471620871113979,-0.7728218952475108,1.1435967061217938,0.69113088865152,-0.5232475312647256,-0.7458978093745461,9.650990763263508,-1.2375252292643577,0.09502465198494,-0.9943959310339686
0.76,-1.058074676730647,0.55053428310773,2.347322925104637,0.072727297067203,0.2122624367880943,0.0246026943639004,0.349734938000755,-0.6245424393603201,-0.557643088880833,-1.0633105689043862,0.5562765738662405,2.3415322379528134,0.3938491364434479,-0.7845053715991221,-0.8128218958435571,1.1248143420331551,0.656965711984922,-0.4988662159460644,-0.7646802311471634,9.566138096729446,-1.2395456468264237,0.0975238362949773,-0.9908275488810432
0.78,-1.0509373976554994,0.5379375064530703,2.335989289135457,0.0697887883578726,0.2118341681660748,0.023974524233744,0.3632373003355292,-0.6345366791263437,-0.5749515675916161,-1.0556429962468905,0.5409598992791352,2.3256758000419024,0.4147901435807464,-0.8218486560868464,-0.8528218964396036,1.2060079315679564,0.6751181167387071,-0.4997119883011824,-0.8654239355391558,9.501211673316902,-1.2421043276965646,0.0998422242024133,-0.9864774492726236
0.8,-1.0435326446327569,0.5251460148170741,2.324295728205852,0.0669297522658575,0.2106388676268134,0.0233087420456688,0.3764892067196937,-0.6440181548198154,-0.5934997890457755,-1.032775532638723,0.5062106724967531,2.3072417107558767,0.4247966496340064,-0.6835599646344995,-0.6749515690817323,1.2344512173969182,0.6625953192082285,-0.4740737846735843,-0.9274110727079676,9.42518152896082,-1.2451210818085932,0.1019578984978508,-0.981182010000271
0.8200000000000001,-1.0362182548491865,0.5126767865529077,2.3131383696525205,0.0601320543494783,0.2096379910891334,0.0224136078771667,0.3928008412051291,-0.6650437988188733,-0.5798354180585756,-1.032775532638723,0.5062106724967531,2.3072417107558767,0.4247966496340064,-0.6835599646344995,-0.6749515690817323,1.4957123383503532,0.8155817242717661,-1.0512821999528963,0.6832185493599929,9.355156729436205,-1.2426623887033346,0.1075800455062112,-0.9645533065564432
0.84,-1.0281932889429752,0.4992426986905061,2.3016487497785585,0.0491948870526371,0.209643976810126,0.0212968262780555,0.4088419616240132,-0.6764706385755409,-0.5702785408874814,-1.032775532638723,0.5062106724967531,2.3072417107558767,0.4247966496340064,-0.6835599646344995,-0.6749515690817323,1.0945594003765662,0.8020560209442085,-0.5713419878333792,0.4778438585547107,11.375254313344158,-1.2439287258458602,0.1165398886016701,-0.9703535036309752
0.86,-1.0198558463988905,0.4856512793250253,2.290268394520284,0.037721636293393,0.2102492163641208,0.0201969693990645,0.4240826744410297,-0.6817865319462947,-0.5685552880096229,-1.028527566142383,0.4993750728504081,2.3004921950650594,0.4371085194937018,-0.6933646217361307,-0.6949515693797554,0.8116459357087934,0.7620356408508222,-0.2657946685376888,0.0861626438929286,10.399665145610925,-1.246487312213789,0.1262856808935978,-0.976050530948421
0.88,-1.0112232765270754,0.4719986876145983,2.278845427315873,0.0270284477310825,0.2109590231335558,0.0191775208566193,0.4384173784921923,-0.6831944134635962,-0.5737942604014452,-1.0200316331497028,0.4857038735577181,2.2869931636834244,0.4617322592130927,-0.7129739359393931,-0.7349515699758019,0.7663431058009424,0.7167352025581303,-0.0703940758650767,-0.261948619591118,10.399665145610925,-1.2496265361502816,0.135103259884794,-0.9793003408977016
0.9,-1.002764803480724,0.4590297021731768,2.267846768424454,0.0180450291154313,0.2115143571103766,0.0183085532002722,0.4512177450017837,-0.6820145822889171,-0.583684539235176,-1.0115357001570229,0.4720326742650281,2.27349413230179,0.4863559989324835,-0.7325832501426554,-0.7749515705718484,0.8109546839829568,0.6400183254795716,0.0589915587339562,-0.4945139416865418,10.032071501132124,-1.2530276309764068,0.1433691316777743,-0.9804191918763744
0.92,-0.9936075514761716,0.4454214875372886,2.2560258895606853,0.0099561691521772,0.211928108284253,0.0175092218258566,0.4637865460572996,-0.6789559210835545,-0.5980545599227138,-1.001808580178373,0.457381009262175,2.2579951008903527,0.5109797386518744,-0.7521925643459176,-0.8149515711678949,0.9667311711414268,0.6284400527757916,0.1529330602681289,-0.7185010343768894,9.750855860766931,-1.2561132762988112,0.1503816946363187,-0.980020971485324
0.94,-0.9842043813244684,0.4318903837591427,2.24389404822282,0.0032909139408713,0.2121925174533975,0.0168320138248808,0.4758777623459295,-0.6744483133494837,-0.6144699974821249,-0.9920814601997232,0.4427293442593219,2.242496069478916,0.5356034783712652,-0.77180187854918,-0.8549515717639413,1.0440098527906838,0.6045608144314985,0.2253803867035386,-0.8207718779705553,9.5285641593091,-1.2587352486362595,0.1558271225702152,-0.9780507312482652
0.96,-0.9745596629781308,0.4184573291299258,2.231417758748724,-0.0021170963348648,0.2122059711708292,0.0162662613304352,0.4879383217309561,-0.6692483092387634,-0.6323158704845168,-0.9817387467280888,0.4275874464013872,2.225997038052578,0.5602272180906561,-0.7914111927524423,-0.8949515723599877,1.1078947588204828,0.6030279692513296,0.2600002055360151,-0.892293650119591,9.430247829834116,-1.2615300655694972,0.1604537484654226,-0.9752501453185766
0.98,-0.9651755272396232,0.4057984135671282,2.2192231533049944,-0.0063276107095148,0.21185895015086,0.0158173234727075,0.4991974146376142,-0.6636678359721065,-0.6504144194856527,-0.9707804397634696,0.411955315688371,2.2084980066113387,0.5848509578100469,-0.8110205069557046,-0.934951572956034,1.1016650249816735,0.5629546453329026,0.2790236633328447,-0.9049274500567972,9.360015142303382,-1.2648124901524005,0.1642011804035951,-0.9716898677878746
1.0,-0.9550709344016802,0.3925928386221876,2.206002676501209,-0.0099237187900015,0.2110785267014131,0.0154304020117147,0.5106164332397771,-0.6572694820427896,-0.6707242753102932,-0.9402156565077424,0.3726150217685229,2.186702432330712,0.562534181893874,-0.663378433797576,-0.7399243760243299,1.208121643770851,0.5709509301081467,0.319917696465849,-1.0154927912320255,9.293516433258446,-1.2683258961282553,0.1670592065951122,-0.9676968676441038
1.02,-0.9446729366828585,0.3794001861137585,2.1927095427370347,-0.0167954657876299,0.2100509356057297,0.0148445798344793,0.5288822304490451,-0.6601667676671633,-0.6558279175245671,-0.9402156565077424,0.3726150217685229,2.186702432330712,0.562534181893874,-0.663378433797576,-0.7399243760243299,1.187365873435467,0.913289860463401,-0.1448642812186873,0.7448178892863033,9.218041258042833,-1.2646756823769174,0.1714639067527512,-0.950120515748986
1.04,-0.9344611005691196,0.3669009735520319,2.18035764295915,-0.0266681895749279,0.2090742053166667,0.0140932835248288,0.5450457237648403,-0.6546766399970938,-0.6453289527990961,-0.9402156565077424,0.3726150217685229,2.186702432330712,0.562534181893874,-0.663378433797576,-0.7399243760243299,1.0020332807722792,0.808174665789757,0.2745063835034755,0.5249482362735536,11.446194338276657,-1.2699352500273324,0.1810423055033672,-0.9575681617271484
1.06,-0.9233972903538048,0.3539216048876324,2.167495991132803,-0.037298692972545,0.2079409912313763,0.0133373406472774,0.5603541309037634,-0.6433714749402246,-0.6417197068025127,-0.9345903146888036,0.3659812374305471,2.179303188570468,0.5752015353451261,-0.6633205533626699,-0.7578263673320653,0.9684791463396898,0.765420356946156,0.5652582528434591,0.1804622998291705,10.945726072026446,-1.2758434491455006,0.1909884350381179,-0.9626353595082512
1.08,-0.9120443622431768,0.341205492334894,2.154635800304121,-0.0468555736129991,0.2065625927005072,0.0127175188488731,0.5740719468553164,-0.6288562312064053,-0.6447267331970444,-0.9233396310509262,0.3527136687545956,2.1645047010499816,0.60053624224763,-0.6632047924928577,-0.7936303499475362,1.009842788346622,0.6858907975776485,0.7257621866909647,-0.1503513197265882,10.499290762927558,-1.2820520364715244,0.1999971150116824,-0.9650158439538709
1.1,-0.9004321418505586,0.3288018870275649,2.141659697091161,-0.0548751176231836,0.2048400847128877,0.0122729299299027,0.5863693843269887,-0.6123863679050764,-0.6529119925647827,-0.9120889474130488,0.3394461000786441,2.149706213529495,0.625870949150134,-0.6630890316230454,-0.8294343325630071,1.10621182019008,0.6148718735836167,0.8234931650664468,-0.4092629683869142,9.867229160952776,-1.288184296082878,0.2072653675694289,-0.9651661016840776
1.12,-0.8891862565509135,0.3173375230392349,2.129138594417726,-0.0609322360952823,0.2028621525306582,0.0120243520531235,0.5967389617473048,-0.5955211106687798,-0.6646398032983537,-0.8995715284300461,0.3261843194461832,2.133117526878235,0.6512056560526379,-0.6629732707532332,-0.865238315178478,1.1505505009829504,0.5184788710158039,0.8432628618148308,-0.5863905366785493,9.867229160952776,-1.2952397310193773,0.2134960871493404,-0.9639720381083848
1.14,-0.877147262688808,0.3056224533576577,2.115701259964155,-0.0658114503201846,0.2005137230212844,0.011928038096218,0.6065184581520418,-0.5770848061303203,-0.6785090795489618,-0.8870541094470433,0.3129225388137223,2.116528840226975,0.676540362955142,-0.662857509883421,-0.901042297793949,1.2528893593218489,0.4889748202368482,0.9218152269229728,-0.6934638125304038,9.658760969881769,-1.302319130213328,0.2183008912347011,-0.9613044913771954
1.16,-0.8649200653573533,0.2942827856582068,2.101975050922822,-0.0692745278257631,0.1979400217930577,0.0119861711691886,0.6156367017106904,-0.5580440786551223,-0.6934276399024129,-0.8739033227914781,0.2996636522030067,2.099045054010328,0.7018750698576459,-0.6627417490136088,-0.9368462804094198,1.2925315386859626,0.4559121779324326,0.9520363737599014,-0.7459280176725536,9.521359757255595,-1.3090265078052536,0.2218255022423773,-0.9579240772808506
1.18,-0.8525180536607678,0.2833272841350946,2.0879403931461376,-0.0714378526737081,0.1950460916563406,0.0121922974615927,0.6240172183397673,-0.5387075093553673,-0.7092982995597159,-0.8601191684633501,0.2864076596140364,2.0806661682282943,0.7272097767601499,-0.6626259881437966,-0.9726502630248908,1.3191036816835229,0.4190258314538453,0.9668284649877512,-0.7935329828651527,9.521359757255595,-1.3156283278831515,0.224129627165441,-0.9541545397003338
1.2,-0.8405892306382171,0.2732834188046398,2.0743033670335067,-0.0722391177027519,0.1919653793184502,0.0125260587928602,0.631141257994279,-0.5197427744314689,-0.7253419133069802,-0.8213171927437795,0.2563919086673263,2.052475478168152,0.6692678278568648,-0.5344948272199641,-0.736360415750507,1.2921016347449157,0.3562019827255847,0.9482367461949192,-0.8021806873632131,9.465549782741618,-1.3224107860783334,0.2253630570177777,-0.9491741976734984
1.22,-0.8277532771481394,0.2631412406210723,2.060033747273325,-0.0713402787764983,0.1865566699902776,0.0131748837788905,0.6521887988370282,-0.4955146032212894,-0.6985231637758492,-0.8213171927437795,0.2563919086673263,2.052475478168152,0.6692678278568648,-0.5344948272199641,-0.736360415750507,2.09120096005292,1.052377042137459,1.2114085605089753,1.3409374765565474,9.408869735465489,-1.3148077370334124,0.2225583855262992,-0.9273234858117694
1.24,-0.8145198430027611,0.2534882282580045,2.0463444202301133,-0.0681923067656578,0.1776429582171715,0.014228820652991,0.6693459443650628,-0.4715109917813914,-0.6721845270275292,-0.8213171927437795,0.2563919086673263,2.052475478168152,0.6692678278568648,-0.5344948272199641,-0.736360415750507,1.9775393741893683,0.85785727640173,1.2001805719948966,1.3169318374160022,12.332216177193914,-1.3333856655943968,0.2227799538008526,-0.9328456092795336
1.26,-0.8010054732918579,0.2442893544441396,2.0331105557784097,-0.0631523922002115,0.1666566530989278,0.0155180166244732,0.680689037095703,-0.4502900290168803,-0.6523774297828937,-0.8146245144652108,0.2510469603951267,2.0451118740106464,0.6783179497602843,-0.5336522907928835,-0.7417728389886653,1.5582972394629304,0.5671546365320135,1.0610481382255537,0.9903548622317736,11.468626931969991,-1.3509889320114363,0.2210321159443285,-0.9325371985911816
1.28,-0.7880101769439691,0.2359159847988235,2.0208549866917456,-0.057460398999834,0.1553873803578017,0.0167964272188863,0.6863017518307655,-0.4326278869565737,-0.6385888822502795,-0.8012391579080735,0.2403570638507274,2.0303846656956366,0.6964181935671233,-0.5319672179387223,-0.7525976854649817,1.1549652288216297,0.2806357367531209,0.883107103015332,0.689427376630708,11.112591822777176,-1.3688066368049867,0.2179592456212011,-0.9279877286135004
1.3,-0.774266906230697,0.2274382334245877,2.008195772854547,-0.0510277422776687,0.1436186326969791,0.0180880700855885,0.6873530744124324,-0.4164160830068321,-0.6282087979297154,-0.7878538013509362,0.2296671673063281,2.0156574573806263,0.7145184373739623,-0.530282145084561,-0.7634225319412982,0.9639424476824348,0.0525661290833479,0.8105901974870794,0.5190042160282071,11.112591822777176,-1.3849189100156387,0.214092289243898,-0.9205005806391668
1.32,-0.7605510679649732,0.2192624672386142,1.995699002790704,-0.0444292314589194,0.1327725574046597,0.019260497700455,0.6840113606054098,-0.4022801677014191,-0.6219297172111716,-0.773563432603457,0.2190615244046369,2.0003890067418,0.7326186811808012,-0.5285970722303996,-0.7742473784176146,0.7912300666681028,-0.1670856903511319,0.7067957652706514,0.3139540359271886,10.83012931628582,-1.3981556051007524,0.2100054220923697,-0.9122278311323494
1.34,-0.7476152377777506,0.2117385151365792,1.9839297843272985,-0.0382285849188886,0.1238708387718158,0.0202358117509993,0.6777761474820652,-0.3906152733887332,-0.6172231657839694,-0.7592730638559777,0.2084558815029456,1.9851205561029743,0.7507189249876403,-0.5269119993762384,-0.785072224893931,0.7019602345513584,-0.3117606561672315,0.5832447156342929,0.235327571360111,10.506053462917407,-1.4088462917962197,0.2054350439910093,-0.902837106854528
1.36,-0.734149412592728,0.2040396777249082,1.9716291064716631,-0.0319565759277577,0.1162749907474108,0.0211142368096858,0.6690309357774268,-0.3800388003272617,-0.6131233801280008,-0.7445301890133275,0.1978923654226084,1.9695814843022403,0.7688191687944792,-0.5252269265220771,-0.7958970713702476,0.7161507393766041,-0.4372605852319189,0.5288236530735763,0.2049892827984289,10.506053462917407,-1.4169013479197958,0.2009483580205384,-0.894873483332118
1.38,-0.7208815493041258,0.1965358653797377,1.9594004722782952,-0.0260614246319827,0.110775808362187,0.0218506717319179,0.6580620415927824,-0.3709899740735858,-0.6099804602217975,-0.7293348080755062,0.1873709761636253,1.9537717913395989,0.7869194126013181,-0.523541853667916,-0.806721917846564,0.7281411980858327,-0.5484447092322209,0.4524413126837934,0.157145995310165,10.39039066382793,-1.422938145022943,0.1967062268317226,-0.8888022960775371
1.4,-0.707855666417436,0.1891982314913692,1.9472250639993407,-0.0206066047912474,0.1079548187941103,0.022455738696382,0.6450228152809565,-0.3633118380405057,-0.6077534417846192,-0.6879784472244868,0.1779863666760584,1.9289014492672047,0.6557258822442945,-0.366968723896411,-0.6039294306774738,0.7647463744160997,-0.6519613155912929,0.3839068016540076,0.1113509218589159,10.39039066382793,-1.4258817392519814,0.1929152148147692,-0.8856642023703168
1.42,-0.6955960179944674,0.1823133756345401,1.93594694608233,-0.0175491211228677,0.1048798117939766,0.0228713203617487,0.6458689998026971,-0.360689870786512,-0.5795610385995398,-0.6879784472244868,0.1779863666760584,1.9289014492672047,0.6557258822442945,-0.366968723896411,-0.6039294306774738,1.4163353574241566,0.0423092260870283,0.1310983626996859,1.4096201592539714,10.339895486080422,-1.41266562380329,0.1890905684781003,-0.8765772214747833
1.44,-0.6826892570692862,0.175152335710313,1.9246440353332532,-0.0164995933464868,0.0978437798400596,0.0232159857139918,0.6439778352949105,-0.3554407132867402,-0.5524774107546899,-0.6879784472244868,0.1779863666760584,1.9289014492672047,0.6557258822442945,-0.366968723896411,-0.6039294306774738,1.3826180373581562,-0.0945582253893295,0.2624578749885864,1.3541813922424928,11.77675687741248,-1.424259352853058,0.1894089975956351,-0.8767809963547689
1.46,-0.6698803097438438,0.1681046089515852,1.913826698764296,-0.0166062313827151,0.0886294515020687,0.0235160936148182,0.6365554707654584,-0.34953643007552,-0.530573686662518,-0.6814211884020438,0.1743166794370943,1.9228621549604303,0.655258650374597,-0.3661644738609761,-0.6027192247686091,1.1934458351265436,-0.3711182264726054,0.2952141605610109,1.0951862046085947,11.77675687741248,-1.435970206098746,0.1903884986233417,-0.8722420035254117
1.48,-0.6572742274091562,0.1611794373108461,1.90340101559456,-0.0174693563920909,0.0788626169079404,0.0237827882443812,0.6241380707314372,-0.3432502887245635,-0.5130679770464089,-0.668306670757158,0.1669773049591661,1.910783566346881,0.6543241866352018,-0.3645559737901062,-0.6002988129508796,1.118209803494684,-0.6208700017010571,0.3143070675478254,0.8752854808054544,11.195758485147962,-1.44731288519943,0.1917803196941256,-0.8641138048327026
1.5,-0.6455700689202216,0.1547213955654432,1.893785420026533,-0.0187705222260314,0.070197640511324,0.0240080935433876,0.6083949533149248,-0.336846788963478,-0.4999588805817734,-0.6551921531122721,0.1596379304812379,1.898704977733332,0.6533897228958067,-0.3629474737192362,-0.5978784011331502,1.0731949558438114,-0.7871558708256232,0.3201749880542753,0.655454823231777,11.195758485147962,-1.4567079028446084,0.1933817376577192,-0.8547342822644516
1.52,-0.633606292416064,0.1480605526259189,1.883905305731591,-0.0204336589004607,0.0625344787476139,0.0242173675494445,0.588677893275002,-0.3295505193372302,-0.4888550619357095,-0.6421243586543559,0.1523789810068531,1.886747409710669,0.6524552591564116,-0.3613389736483663,-0.5954579893154207,1.18879434260252,-0.9858530019961398,0.3648134813123899,0.5551909323031956,10.980165158141062,-1.463682792895891,0.1950462989809246,-0.8456891167046492
1.54,-0.6220705296881398,0.1415539986598271,1.874230262904614,-0.0221199721519395,0.0571839413090846,0.0243963934939736,0.5658417926545488,-0.3214938910079916,-0.4791902264838747,-0.6290565641964397,0.1451200315324684,1.8747898416880056,0.6515207954170164,-0.3597304735774964,-0.5930375774976913,1.3036542830578135,-1.141805031022658,0.4028314164619323,0.4832417725917359,10.823042765144235,-1.468331343121314,0.1965604363782433,-0.8386363614637268
1.56,-0.6110193466857099,0.1352168306775676,1.8647397969730295,-0.0235271295500935,0.0551486567519751,0.0245341476353312,0.5406936914703955,-0.3126712468780607,-0.4703254102644245,-0.6160121313320085,0.1379012945598554,1.8628927839607856,0.6505863316776213,-0.3581219735066265,-0.5906171656799617,1.4043245789492955,-1.2574050592076669,0.4411322064965417,0.4432408109725144,10.76870463117939,-1.46888007417014,0.1978028152566701,-0.835346826989033
1.58,-0.600982032564332,0.1293672853863996,1.8558843005634889,-0.0243237081058762,0.0564086645028529,0.0246331215349041,0.5175394175989083,-0.3035808945277709,-0.4622569266221961,-0.6029910600610622,0.1307227700890142,1.8510562365290093,0.649651867938226,-0.3565134734357565,-0.5881967538622322,1.307531388392989,-1.1577136935743582,0.454517617514491,0.403424182111417,10.732928422907207,-1.464955270650733,0.1984943077330076,-0.837023167187761
1.6,-0.5908710944518004,0.1234014099329682,1.8467280311370269,-0.024347737960004,0.0603097610667189,0.0247339613849905,0.4951328229774644,-0.2935421370580294,-0.4537884118908568,-0.5751050616843866,0.114188240660011,1.832771454232379,0.530077120516961,-0.296117819307186,-0.4376322008184632,1.2986029761063616,-1.120329731072195,0.5019378734870739,0.4234257365669652,10.7030078254993,-1.4590349872270152,0.1986047635801237,-0.8428364785354469
1.62,-0.581179843404082,0.1176364478063958,1.8378728040786383,-0.0235265171888715,0.0662300089459628,0.0248486987292844,0.4755376023598438,-0.2834817476736158,-0.4314783722034379,-0.5751050616843866,0.114188240660011,1.832771454232379,0.530077120516961,-0.296117819307186,-0.4376322008184632,1.5675793253241228,-0.9797610308810296,0.5030194692206835,1.115501984370945,11.618032992300869,-1.4472117664919943,0.1975959406686026,-0.8480714414447207
1.64,-0.5723101276338881,0.1123473796961645,1.8298867906209613,-0.0219545558709573,0.0732138084366936,0.0249891006775521,0.4594397132059219,-0.2738726645915626,-0.4103616765452473,-0.5751050616843866,0.114188240660011,1.832771454232379,0.530077120516961,-0.296117819307186,-0.4376322008184632,1.411905935615404,-0.8048944576960954,0.480454154102658,1.0558347829095316,11.618032992300869,-1.439604712330442,0.1968744708227499,-0.8652486118722457
1.66,-0.563275093954873,0.106971772898311,1.8218996803253455,-0.0194338334259903,0.0813105529209865,0.0251963920954586,0.4452376468078272,-0.2644773978687049,-0.3895348167151793,-0.569804290479217,0.1112270624669392,1.8283951322241945,0.5325846611005716,-0.2946252042630691,-0.4327072556577166,1.3451094910367212,-0.7101033199047369,0.4697633361428865,1.0413429915033967,11.513979282596663,-1.4319769124803856,0.1954744006717894,-0.8833016592599969
1.68,-0.5544950682573578,0.101766405433821,1.8143151645045148,-0.01653378604017,0.0895927842786982,0.0254478366133826,0.4337472706173068,-0.2566544719832267,-0.3700314685617395,-0.5592027480688777,0.1053047060807954,1.819642488207825,0.5375997422677926,-0.2916399741748351,-0.4228573653362235,1.1975052229569274,-0.5745188095260201,0.3911462942739085,0.9751674076719924,11.43051146894959,-1.4245791274691804,0.193805699644799,-0.9004330231847048
1.7,-0.545917510438293,0.0967055460811219,1.807107944313704,-0.0136818285812676,0.0975745465114565,0.0257226383434015,0.4247832139743476,-0.2498745122386798,-0.3516962248611179,-0.5486012056585385,0.0993823496946517,1.810889844191456,0.5426148234350137,-0.2886547440866012,-0.4130074750147304,1.0752945261613662,-0.4482028321479564,0.3389979872273449,0.916762185031078,11.36069317707279,-1.416919851830534,0.1920161109875306,-0.9179411707180192
1.72,-0.5379130725533582,0.0920157133525348,1.8005915621080568,-0.0111730319847329,0.1045415344457484,0.0259956835293533,0.4183534005701146,-0.2441396762590867,-0.3351858934466243,-0.5377489091898382,0.0936092548129197,1.8026296946911613,0.5476299046022347,-0.2856695139983672,-0.4031575846932372,0.9311577303852766,-0.3214906702116493,0.2867417989796547,0.8255165707246798,11.308114513914006,-1.4096767343747911,0.1903460231871027,-0.9347152867669284
1.74,-0.5295994999363409,0.0871907435942505,1.7940684758114345,-0.0088049549428287,0.1109860218506013,0.0262883193699073,0.413460877248026,-0.2386681273265008,-0.3180197254855044,-0.526896612721138,0.0878361599311877,1.7943695451908668,0.5526449857694558,-0.2826842839101333,-0.393307694371744,0.9334773091085898,-0.2446261661044335,0.2735774466292959,0.8583083980559986,11.267752121925696,-1.40336650981448,0.1888579108263479,-0.9498055068731882
1.76,-0.5213655505828139,0.0824702992151986,1.7878847409059273,-0.0067310188388767,0.1163222713050265,0.0265803826776074,0.4101954472674627,-0.2336370908681014,-0.3012442073975766,-0.5159189392232572,0.0821376958016615,1.7863556429486094,0.5576600669366769,-0.2796990538218993,-0.3834578040502509,0.8907754598131015,-0.1632714990281614,0.2515518229199709,0.8387759043963883,11.276015818632004,-1.3984446514913786,0.1876157003425553,-0.9634513447656512
1.78,-0.5131844986910049,0.0778464723280445,1.782031284528072,-0.004927758693874,0.1204623131441159,0.0268676122406941,0.4080474621105876,-0.2289816356786557,-0.2849661725007039,-0.5048158886961958,0.0765138624243411,1.7785879879643895,0.562675148103898,-0.2767138237336654,-0.3736079137287578,0.8533192886588512,-0.1073992578437571,0.2327727594722828,0.813901744843637,11.269454097090602,-1.395092439437268,0.1866441860606169,-0.9748391643954768
1.8,-0.5054453549008364,0.0735365164635583,1.776766723175772,-0.0034614096972318,0.1232967101136092,0.0271310949684104,0.406654612509799,-0.2249260716225665,-0.2700297393614536,-0.4927821255854755,0.0663973905441117,1.7677829759030368,0.4351830726910319,-0.2009558241405555,-0.2876879471253645,0.7769888428200767,-0.0696424800394307,0.20277820280446,0.7468216569625125,11.255763329926594,-1.3929921316003857,0.1858465087834692,-0.9852443426028844
1.82,-0.4973314427990792,0.0690016446756528,1.7715001520024778,-0.0047042669994119,0.1253852940025845,0.0272175009923437,0.4047637873345041,-0.2281483554442485,-0.2575805889050402,-0.4927821255854755,0.0663973905441117,1.7677829759030368,0.4351830726910319,-0.2009558241405555,-0.2876879471253645,0.649883989565484,-0.0945412587647437,-0.1611141910841024,0.6224575228206686,11.236085927209388,-1.3928131533133137,0.1875477543473679,-0.9927867242675652
1.84,-0.489260014034936,0.0644356275797183,1.7664605340606083,-0.0100493994118112,0.1269354168954402,0.0270196315455815,0.40245257245147,-0.2270926438434125,-0.2470018591494223,-0.4927821255854755,0.0663973905441117,1.7677829759030368,0.4351830726910319,-0.2009558241405555,-0.2876879471253645,0.5439801569499005,-0.1155607441517075,0.0527855800418031,0.5289364877808983,11.037204696694062,-1.3911670123408766,0.1924631429019891,-0.9985592812155556
1.86,-0.4816377475808956,0.0601762356425877,1.761855265040056,-0.0161658130475421,0.1281105204579707,0.026763476153122,0.4000113750311607,-0.2211346135150593,-0.2383063881906794,-0.4884302948585652,0.0643878323027062,1.764906096431783,0.4406101948071208,-0.1953506618329354,-0.2882323020502966,0.5409916483478322,-0.1220598710154619,0.2979015164176604,0.4347735479371437,10.86537134700302,-1.3903730672909722,0.1988094377582296,-1.0047107663444803
1.88,-0.4736665044057637,0.0558463543123164,1.7571747869517682,-0.0222825027357696,0.1291741813491004,0.0265228217729219,0.3972497149671695,-0.2121302907557105,-0.2302572313719317,-0.4797266334047445,0.0603687158198951,1.759152337489276,0.4514644390392985,-0.1841403372176953,-0.2893210119001608,0.6194625092698568,-0.1380830031995628,0.4502161379674366,0.4024578409373869,10.86537134700302,-1.3904842376487134,0.2050366210039654,-1.0108768512609576
1.9,-0.4657519968038358,0.0517169113285162,1.752644449946273,-0.0275406299779244,0.1301768013205962,0.0263484951924229,0.3943591380006656,-0.201337294996062,-0.2232259194257473,-0.4710229719509239,0.056349599337084,1.7533985785467685,0.4623186832714763,-0.1729300126024552,-0.2904097217500251,0.6600824576362209,-0.1445288483251927,0.5396497879824269,0.3515655973092196,10.810766693913138,-1.3909192780413615,0.210576445138949,-1.016817221116079
1.92,-0.4578962283384485,0.0478171592698147,1.7482453181355788,-0.0317373138325862,0.1312058301724867,0.0262527977344602,0.3914049763879064,-0.1893843250074829,-0.2170484518947433,-0.4617765982854944,0.0528909990850349,1.747590384111768,0.473172927503654,-0.1617196879872151,-0.2914984315998893,0.6887700405047792,-0.1477080806379621,0.5976484994289571,0.3088733765501977,10.76410457801012,-1.391824663077072,0.2151022331524657,-1.0235462968670006
1.94,-0.4504879283622697,0.0443408441671407,1.7441735775296887,-0.0347746867854196,0.1322562256862051,0.0262304631468103,0.3886076727518155,-0.177342744249066,-0.2118728131696715,-0.4525302246200648,0.0494323988329857,1.7417821896767676,0.4840271717358317,-0.150509363371975,-0.2925871414497536,0.6700966553535858,-0.1398651818045437,0.6020790379208413,0.2587819362535923,10.728844699591718,-1.392819583229502,0.2190242358878723,-1.0308404475060975
1.96,-0.4427447264610675,0.0409334496052106,1.7399881762354557,-0.0370381871583909,0.1334209686373046,0.0262745628243924,0.3858950139806575,-0.1641919103576566,-0.2069676360390291,-0.4430124948488309,0.0462540566963176,1.7359467774955204,0.4948814159680095,-0.1392990387567349,-0.2936758512996178,0.7147791832642423,-0.1356329385578975,0.6575416945704695,0.2452588565321184,10.697766339700138,-1.3936753553488164,0.2220817646093694,-1.0381478029455091
1.98,-0.4350533635069281,0.037795084673003,1.7358952988166212,-0.0383153273736868,0.1345823619157503,0.0263918942058747,0.3834039525659117,-0.1504144167714364,-0.2025924228885328,-0.4332234089717924,0.0433559726750305,1.7300841475680266,0.5057356602001872,-0.1280887141414948,-0.2947645611494821,0.7334289444156294,-0.1245530707372905,0.6888746793110107,0.2187606575248121,10.675987658239135,-1.3945377044797425,0.2241777664501089,-1.045351685987744
2.0,-0.4274098014890345,0.0349403191478274,1.7318848079684572,-0.0383195284253273,0.1356920431141202,0.0266037681963979,0.3810998807045702,-0.1359585018133342,-0.1986836813555778,-0.4158831658786325,0.0302743638344311,1.7257656776721946,0.3984967529372606,-0.1319533290528304,-0.215275242627517,0.7575626785777495,-0.1152035930670786,0.7227957479051125,0.1954370766477503,10.64210544458274,-1.3957129148254162,0.2253117167734637,-1.053741150789694
2.02,-0.4201474048181972,0.03255629612518,1.7281871692321251,-0.0351374289226589,0.1355225630976776,0.0270739631899754,0.3832982812727375,-0.1169758062358732,-0.1906946735238573,-0.4158831658786325,0.0302743638344311,1.7257656776721946,0.3984967529372606,-0.1319533290528304,-0.215275242627517,1.0356156895537647,0.1099200284083667,0.9491347788730502,0.3994503915860259,10.64210544458274,-1.3940840232073228,0.2230932073088315,-1.062611694555584
2.04,-0.4124655904852334,0.0303679197651176,1.72445255476754,-0.0288539354543458,0.1330401425688085,0.0278382933698181,0.384585813518882,-0.1034701874557419,-0.1832536108071508,-0.4158831658786325,0.0302743638344311,1.7257656776721946,0.3984967529372606,-0.1319533290528304,-0.215275242627517,0.773674499180788,0.0643766123072264,0.6752809390065652,0.3720531358353263,10.854825739270382,-1.402476394673262,0.2186569590243487,-1.0718291019748325
2.06,-0.4047769376544148,0.0284016310319841,1.720849022497252,-0.0220924209410586,0.1286987033786304,0.0286533136861524,0.3840183620369681,-0.0940085290737679,-0.1774572673276074,-0.4118981983492599,0.0289548305439028,1.7236129252459194,0.4015153130115304,-0.1282611115091092,-0.2178118065753138,0.5555235779297553,-0.0283725740956974,0.4730829190987002,0.2898171739771707,10.854825739270382,-1.4108757133572118,0.2136577024363983,-1.0764105059823226
2.08,-0.397509228494582,0.0266828368600268,1.7175192527015193,-0.0161255801021133,0.1235235980514963,0.029375296135862,0.3807999857584477,-0.0873702652522738,-0.1733263197604921,-0.4039282632905147,0.0263157639628462,1.7193074203933691,0.4075524331600699,-0.1208766764216668,-0.2228849344709074,0.4227564908908977,-0.160918813926017,0.3319131910747015,0.2065473783557619,10.757095085213225,-1.4203100156311903,0.2085926615568537,-1.0775156330418354
2.1,-0.3899558431952892,0.0249923777171111,1.7140866589348411,-0.0106468646362187,0.1179718830729033,0.0300347259705871,0.3745212496861251,-0.0819992227138095,-0.1702046497196266,-0.3959583282317694,0.0236766973817896,1.7150019155408187,0.4135895533086094,-0.1134922413342244,-0.2279580623665011,0.4416317709922942,-0.3139368036161299,0.2685521269232181,0.1560835020432763,10.596370901772389,-1.427918922164267,0.2039880914929609,-1.0759155689122502
2.12,-0.3825592108153814,0.0233950928066362,1.7107025800772366,-0.006099911350816,0.1132762782543087,0.0305805891256565,0.3653418051143715,-0.0778618550752869,-0.1683519462391607,-0.3876865371655972,0.0214068525551051,1.7104427542934886,0.419626673457149,-0.106107806246782,-0.2330311902620947,0.5118899388753476,-0.458972228587684,0.2068683819261299,0.0926351740232978,10.596370901772389,-1.4336946680339266,0.2002882564223818,-1.0734125594328776
2.14,-0.3757278523567898,0.021945745466657,1.7075144552532924,-0.0025984351005222,0.1105503101492389,0.0310058603255104,0.3541663471595886,-0.0747702296102183,-0.1673297573792742,-0.379414746099425,0.0191370077284206,1.7058835930461589,0.4256637936056885,-0.0987233711593396,-0.2381043181576884,0.5820091893188941,-0.5587728977391404,0.1545812732534263,0.0511094429943237,10.531624483900488,-1.4366747746530537,0.1970156803876719,-1.0709068549013605
2.16,-0.3687782573318582,0.0204793519064916,1.7041742228550003,0.0003562654912434,0.1102376325178181,0.031380949746449,0.3417059077721417,-0.0719565552962054,-0.1667698824427009,-0.3709920270295394,0.0170517737789222,1.701197603601439,0.4317009137542281,-0.0913389360718972,-0.243177446053282,0.6393214622124349,-0.6230219693723477,0.140683715700645,0.0279937468286653,10.496297875853088,-1.433542835620646,0.1940871709228308,-1.0692898976288632
2.18,-0.362063989403643,0.0190654125705173,1.7008409844921475,0.0026881239601114,0.1121392105814474,0.0317066849828057,0.330600321994135,-0.0695059299448023,-0.166597922773137,-0.3624183799559402,0.0151511507066098,1.696384785959329,0.4377380339027676,-0.0839545009844549,-0.2482505739488756,0.5687028446683744,-0.5552792889003344,0.1225312675701549,0.0085979834781924,10.459026847533096,-1.428087285358598,0.1917321370028146,-1.070076332244878
2.2,-0.3555542972612961,0.0176972782482566,1.6975083185919666,0.004478164634056,0.1155707798454595,0.0319965552214789,0.3211894157336604,-0.0673282592924738,-0.1666812477951884,-0.3455339733039362,0.0155901160732771,1.6925110883534908,0.3548529881545993,-0.0651369518579434,-0.1606488381261372,0.4829967628585976,-0.4705453130237319,0.1088835326164286,-0.0041662511025677,10.43275496194201,-1.4216883668108944,0.1899907283335765,-1.072520746963862
2.22,-0.3495066784450286,0.0164630787556335,1.6944488920611749,0.0066164951228459,0.11945966276407,0.0323048045139438,0.3161211620852818,-0.0630929015622125,-0.154755764205855,-0.3455339733039362,0.0155901160732771,1.6925110883534908,0.3548529881545993,-0.0651369518579434,-0.1606488381261372,0.6816205120649023,-0.2534126824189298,0.2117678865130638,0.5962741794666715,10.41656792300455,-1.4055313351387548,0.1869698441735688,-1.0751386183783211
2.24,-0.3432267865036483,0.015226175059027,1.6914865536743606,0.0093920528289406,0.1235874314013669,0.03266789478767,0.3122471485787669,-0.060913399893675,-0.1422797104548983,-0.3455339733039362,0.0155901160732771,1.6925110883534908,0.3548529881545993,-0.0651369518579434,-0.1606488381261372,0.6622124382865673,-0.1937006753257447,0.1089750834268751,0.6238026875478309,11.245234380221518,-1.400612330632631,0.1846505108392583,-1.0900367101218882
2.26,-0.3370122926863692,0.0140186977014448,1.6887545309182006,0.0119611841177789,0.1275280778328117,0.0330163949395003,0.3094894838753886,-0.0599289755277708,-0.1316394082290216,-0.3419854434223902,0.0149387465546977,1.6909045999722294,0.3597035213866921,-0.0642631562405715,-0.1594590211967372,0.5517921651456316,-0.1378832351689146,0.0492212182952114,0.5320151112938362,11.06287538286506,-1.3960367622532857,0.1824548769328627,-1.1034558363587392
2.28,-0.3308425289343825,0.0128228515734932,1.6862177581158888,0.0140858742255676,0.1310830255860811,0.0333288015302727,0.3076781070682106,-0.0596144150834026,-0.1225873065020357,-0.3348883836592982,0.0136360075175388,1.6876916232097068,0.3694045878508779,-0.062515565005828,-0.1570793873379373,0.4618456990338996,-0.0905688403589011,0.0157280222184062,0.4526050863492947,11.06287538286506,-1.3921307847385211,0.1807119210024867,-1.114504821657094
2.3000000000000003,-0.3250074168619351,0.0116883694559765,1.683963958699202,0.0156463345632177,0.1340006914962756,0.0335845789675104,0.3066576358910089,-0.0597439107482935,-0.1151225768545413,-0.3277913238962062,0.01233326848038,1.684478646447184,0.3791056543150636,-0.0607679737710844,-0.1546997534791374,0.3767635838987995,-0.0510235588600832,-0.0064747832445442,0.3732364823747211,10.98893869332278,-1.3885744780097635,0.1793018475726824,-1.124450528739233
2.32,-0.3188805763472926,0.0104876864693954,1.6817357468822376,0.0167447365013167,0.1365543295463425,0.0338030938994123,0.3061054762514248,-0.0602944294360089,-0.1081393250932118,-0.3202092108099049,0.0111179090049583,1.6813846513776012,0.3888067207792493,-0.0590203825363408,-0.1523201196203374,0.3513323079906708,-0.0276079819792024,-0.0275259343857716,0.3491625880664734,10.931927575224108,-1.3856337931171012,0.1784175900121053,-1.1327586685929607
2.34,-0.3127593369147155,0.0092711375859066,1.6796430323403042,0.0171211533569507,0.1385758498134482,0.0339561942171025,0.3060408875659444,-0.0612540496870532,-0.1014925523185611,-0.3126270977236037,0.0099025495295366,1.6782906563080184,0.398507787243435,-0.0572727913015972,-0.1499404857615375,0.3357999070962659,-0.0032294342740213,-0.0479810125522145,0.3323386387325356,10.884795608211787,-1.3830593646525258,0.1782045229700934,-1.1392664876889684
2.36,-0.3069411520598233,0.0080965673293778,1.677775661416546,0.0167125389892395,0.1399985913974316,0.0340334859417807,0.3063773058485052,-0.0622598076339476,-0.0954150373232461,-0.3048024579756977,0.0087308798349835,1.6752561520849056,0.4082088537076207,-0.0555252000668536,-0.1475608519027376,0.3084676434687313,0.0168209141280378,-0.0502878973447164,0.3038757497657501,10.884795608211787,-1.3810106127856958,0.1788042055636248,-1.1452507416413462
2.38,-0.3008080234853001,0.0068420029167876,1.675932382391515,0.0154593340073746,0.1409838249190827,0.0340428956532519,0.3068961019185112,-0.063071610612314,-0.0892483640110636,-0.2967352915661872,0.007602899921299,1.6722811387082628,0.4179099201718064,-0.05377760883211,-0.1451812180439376,0.3120738421316416,0.0259398035003022,-0.0405901489183235,0.3083336656091235,10.878464695263574,-1.379789771809597,0.1803027972534583,-1.150489927886405
2.4,-0.2946642727775069,0.0055770298034534,1.6742091068999585,0.0134418446209913,0.141495471396456,0.0339871083456521,0.3074197421569589,-0.0633022134646476,-0.0834060644637712,-0.2854632183893745,0.0036884223861719,1.6714699641909618,0.3029862500284539,-0.0405010750717333,-0.1027437869107867,0.2935125243286868,0.0261820119223821,-0.0115301426166766,0.2921149773646214,10.871327383549216,-1.3793503798921614,0.1826328085022819,-1.1551912107776792
2.42,-0.2884442248040699,0.0042817485746577,1.6725861233209125,0.009652068320437,0.1394974313861792,0.0337778687630342,0.3146491392619118,-0.0653280692196814,-0.0792409436332858,-0.2854632183893745,0.0036884223861719,1.6714699641909618,0.3029862500284539,-0.0405010750717333,-0.1027437869107867,0.4292915838152694,0.3614698552476481,-0.1012927877516889,0.2082560415242691,10.775099048120865,-1.3755757576038734,0.1859900316483191,-1.1534558744263503
2.44,-0.2824131110567259,0.0030539523899671,1.6711084764446646,0.004853468149363,0.1332365177196622,0.0334775811386411,0.3190796975979695,-0.0635789535378261,-0.0764560857261915,-0.2854632183893745,0.0036884223861719,1.6714699641909618,0.3029862500284539,-0.0405010750717333,-0.1027437869107867,0.2758835189007663,0.2215279168028827,0.0874557840927651,0.1392428953547152,10.775099048120865,-1.390153816789648,0.1922129357397767,-1.1519219817170834
2.46,-0.2760328152787383,0.0018246860574613,1.6696006359033988,-0.0001103399534196,0.1239922369719029,0.0332032847772228,0.3182020063749533,-0.0594024016820169,-0.0744995641353321,-0.28243335588909,0.0032834116354546,1.670442526321854,0.3022042796504424,-0.0359869679636171,-0.1054428714907313,0.2347440309290208,-0.0438845611508115,0.2088275927904594,0.0978260795429716,10.685898646889656,-1.4053343392176314,0.1981389476297107,-1.1452594732637351
2.48,-0.2697274588054615,0.0006954605308136,1.6681187396414752,-0.0044311822805096,0.1139593590412493,0.0330290125885133,0.3120961920600958,-0.053840287807539,-0.0737594871617947,-0.2763736308885209,0.0024733901340199,1.668387650583638,0.3006403388944195,-0.0269587537473848,-0.1108410406506205,0.4146257141294341,-0.305290715742873,0.2781056937238912,0.0370038486768711,10.608394763323304,-1.4188067444556445,0.2029454261726795,-1.1359577206580802
2.5,-0.2635918072954549,-0.0003137826141152,1.6666404835066304,-0.0079782824087648,0.1046074219523136,0.03295296357216,0.3016750317037272,-0.0474993428917742,-0.0740846604893585,-0.2703139058879518,0.0016633686325853,1.6663327748454224,0.2990763981383966,-0.0179305395311525,-0.1162392098105097,0.610151422375771,-0.5210580178184293,0.3170472457882399,-0.0162586663781917,10.533429295118369,-1.4300854495879542,0.2069573580200413,-1.1247319472374466
2.52,-0.257988994832991,-0.0011504638958573,1.6652215723639503,-0.010657932306428,0.0972803978719911,0.0329483819679081,0.2886329570520811,-0.0410172454478133,-0.0752440399272713,-0.2643323779251839,0.0013047578419622,1.6640079906492122,0.2975124573823736,-0.0089023253149202,-0.121637378970399,0.7305091703277394,-0.6521037325823043,0.324104872198045,-0.0579689718956409,10.420803522843016,-1.4378372950514628,0.2099754867367069,-1.1138394065289552
2.54,-0.2523856689907078,-0.0018964736436491,1.663697429811322,-0.012865587928575,0.0919412682870174,0.032981822690976,0.2722526749437421,-0.0339982351030581,-0.077131700012235,-0.258350849962416,0.0009461470513392,1.661683206453002,0.2959485166263507,0.000125888901312,-0.1270355481302882,0.8960237284315048,-0.8190141054169514,0.3509505172377619,-0.0943830042481864,10.420803522843016,-1.4422440412807245,0.2122201275764348,-1.1049130746157745
2.56,-0.2471379427966254,-0.0024966732961645,1.6621293506456958,-0.0144344312745425,0.0900101376745932,0.0330261911686623,0.2536396793256965,-0.0264985099905657,-0.0795628869703397,-0.2524084205185486,0.0008132416161219,1.6592234680277944,0.2943845758703278,0.0091541031175443,-0.1324337172901774,1.0106930204884093,-0.9306497809022818,0.3749862556246213,-0.1215593479052326,10.38887865461038,-1.4407501609267448,0.2134706001111304,-1.0991106320586612
2.58,-0.2424897342926109,-0.0029231957301121,1.660592428308339,-0.0152382972650196,0.0913562596402973,0.0330721528042902,0.2369897129935664,-0.0188571161635827,-0.0820816010922053,-0.2465050895935818,0.0009060415363105,1.6566287753735898,0.2928206351143049,0.0181823173337766,-0.1378318864500666,0.9246028867949244,-0.8324983166065031,0.3820696913491475,-0.1259357060932817,10.337504912584336,-1.4337362061820174,0.2138564074631055,-1.096710227593875
2.6,-0.2379150721824643,-0.0032117317153438,1.6589223434824631,-0.015207365817966,0.0951923278793323,0.03314343973116,0.2216955129978775,-0.0104565352876563,-0.0847918544472979,-0.2306402486429326,-0.0038660515382913,1.656488348253729,0.2450373421413344,-0.0079354488336157,-0.073565625654147,0.8829323102734146,-0.7647099997844422,0.4200290437963207,-0.1355126677546274,10.32385342824,-1.424683500359082,0.213409011421886,-1.0981542201162204
2.62,-0.2336151654122855,-0.0032688239338823,1.6573120642061436,-0.0122192142657625,0.1007903766284125,0.0333972588388155,0.2094896823820307,0.0034868134693735,-0.0755013285952568,-0.2306402486429326,-0.0038660515382913,1.656488348253729,0.2450373421413344,-0.0079354488336157,-0.073565625654147,1.0364761769938962,-0.6102915307923396,0.6971674378514952,0.4645262926020514,10.32385342824,-1.4059773151803543,0.2096763101018476,-1.1050720517285593
2.64,-0.2297265508733871,-0.0031175734981127,1.6559690714973714,-0.0066543221167412,0.1071287466326058,0.0338355342795083,0.2007249880817321,0.0112011577733689,-0.0664161223986958,-0.2306402486429326,-0.0038660515382913,1.656488348253729,0.2450373421413344,-0.0079354488336157,-0.073565625654147,0.7397160702801874,-0.4382347150149346,0.3857172151997697,0.4542603098280507,11.03604171679035,-1.3964594761818674,0.2040405608994968,-1.1212601049362907
