t,x,y,z,roll,pitch,yaw,v_x,v_y,v_z,ref_x,ref_y,ref_z,ref_v_x,ref_v_y,ref_v_z,a_com,a_x,a_y,a_z,thrust,wind_x,wind_y,wind_z
0.0,-2.041325878158904,-1.1143073000674708,1.7327555338213425,0.0122013213317242,0.136471934250378,0.0257863610299809,0.0058998021504421,-0.0037009772527443,0.0045073765602999,-2.041147820895624,-1.1144846726800828,1.732891123410801,0.1059265865825991,0.0946750333697381,-0.0265215992235374,0.41479314572457,0.2949901075221059,-0.1850488626372175,0.2253688280149962,10.547452394478569,-1.2860975910423142,0.1640637324826753,-1.1662211584540525
0.02,-2.041294564309106,-1.1146354713207198,1.73275790756163,0.0022329173431887,0.1389253600696405,0.0251224791564306,-0.0020710541221425,-0.023087507348116,-0.0041574099882662,-2.041147820895624,-1.1144846726800828,1.732891123410801,0.1059265865825991,0.0946750333697381,-0.0265215992235374,1.1340752011982824,-0.3985428136292331,-0.9693265047685868,-0.4332393274283092,10.044669931759016,-1.2896516657429675,0.1740650093721849,-1.1564024961077104
0.04,-2.0413861923583188,-1.1150741911064457,1.732553874700008,-0.0131050800224613,0.144489989381441,0.0240546473972603,-0.0068086486339518,-0.0215674386251302,-0.0171169532697435,-2.041147820895624,-1.1144846726800828,1.732891123410801,0.1059265865825991,0.0946750333697381,-0.0265215992235374,0.6940914434449706,-0.2368797255904657,0.0760034361492942,-0.6479771640738651,10.044669931759016,-1.2804414624055238,0.1906883542593603,-1.1559264968750549
0.06,-2.0415434993655945,-1.11542434722858,1.7320696077883078,-0.0296316765950253,0.1519770937065465,0.0227978098301745,-0.00832161057402,-0.0130940659578319,-0.0305887269055439,-2.040088555029798,-1.1135379223463855,1.7326259074185657,0.1259265868806223,0.1146750336677614,-0.0327293406479787,0.7993368862458096,-0.0756480970034111,0.4236686333649144,-0.6735886817900183,9.765293913850655,-1.2698644798515168,0.2075305343215064,-1.1534336447853617
0.08,-2.041698212856475,-1.1155610652533832,1.7313305055262156,-0.0455551613117621,0.1601066835288951,0.0214601783899517,-0.0067965183778502,-0.0006207523755191,-0.0426158572259485,-2.0379700232981457,-1.1116444216789907,1.732095475434095,0.1659265874766688,0.1546750342638078,-0.0451448234968614,0.8697144957880176,0.0762546098084908,0.6236656791156364,-0.6013565160202329,9.765293913850655,-1.2613345740863704,0.2239538832768987,-1.1537863906277828
0.1,-2.041795656251153,-1.1153955087690044,1.7303658372040482,-0.0601842464894677,0.1683101066274706,0.0201079562750504,-0.0027977196741247,0.0165253089893441,-0.0533000299156794,-2.035851491566494,-1.109750921011596,1.731565043449624,0.2059265880727152,0.1946750348598543,-0.057560306345744,1.0297200559673576,0.1999399351862741,0.8573030682431674,-0.5342086344865438,9.957334901182548,-1.2554506158934755,0.2386594408489069,-1.1571605988036038
0.12,-2.041794021190847,-1.1148802229380683,1.7292613754404609,-0.0722054313076992,0.1759059106379654,0.0188865672071777,0.0029468989430621,0.0365492208014101,-0.062451577600366,-2.0317329598050398,-1.1058574203143987,1.7304138373227094,0.2459265886687617,0.2346750354559007,-0.0699757891946267,1.1376604418052638,0.2872309308593443,1.0011955906033008,-0.4575773842343287,9.957334901182548,-1.2514108373107935,0.2524966977067674,-1.1631737192020737
0.14,-2.041656162426493,-1.1139044789584671,1.7279161529410216,-0.082745942763613,0.1835593481944034,0.0177106330388695,0.0107240882009944,0.0598064927719656,-0.0715791359962038,-2.0276144280435853,-1.1019639196172015,1.7292626311957944,0.2859265892648082,0.2746750360519472,-0.0823912720435094,1.3083364385121976,0.388859462896616,1.1628635985277742,-0.456377919791889,10.04867283846761,-1.2495324099764196,0.2644633193840368,-1.1712162565672268
0.16,-2.041346115481853,-1.1124343177151734,1.7263928012100531,-0.090948001613206,0.1908052441753042,0.0166893214810578,0.0200637393937433,0.085680185255708,-0.0802731491093366,-2.02249589626723,-1.0970704189051037,1.7278010379976574,0.3259265898608546,0.3146750366479937,-0.0948067548923921,1.4424483622965576,0.4669825596374473,1.2936846241871187,-0.4347006556566397,10.108658367777934,-1.249410624694611,0.2743760176114567,-1.1812385693122152
0.18,-2.0408338969813498,-1.1104284575169483,1.7247011171363298,-0.0966434105587505,0.197628018455274,0.0158611870128675,0.0308467021301083,0.112988127595425,-0.0884516767585029,-2.0163773644759733,-1.091176918178104,1.7260290577282984,0.365926590456901,0.3546750372440401,-0.1072222377412747,1.5238801746785442,0.5391481368182504,1.3653971169858503,-0.4089263824583189,10.22527361077482,-1.2505728651244368,0.2816167903647447,-1.1921758925780042
0.2,-2.04013475095065,-1.1080113078325236,1.7229473392055896,-0.0999983291152093,0.2037207612184496,0.0152535700517736,0.0423328868555573,0.1395468446865401,-0.0957345643915505,-2.0392915618748444,-1.1047790511371771,1.7202785332984047,0.1308467036202245,0.2129881290855411,-0.124364488514637,1.491926896121778,0.5743092362724505,1.3279358545557556,-0.364144381652378,10.22527361077482,-1.2523340361338997,0.2872357970592031,-1.205390864131008
0.22,-2.039147085215138,-1.1048076390112884,1.7209758390833714,-0.098069079261596,0.2097470754933343,0.0150534131517284,0.0560276669143043,0.1781001415975917,-0.1007346905670472,-2.0392915618748444,-1.1047790511371771,1.7202785332984047,0.1308467036202245,0.2129881290855411,-0.124364488514637,2.060888743564313,0.6847390029373481,1.9276648455525776,-0.250006308774834,10.280394250513382,-1.2533767806563436,0.2874992013218842,-1.2252037281145538
0.24,-2.0378695708922763,-1.1009273978146288,1.7189234167579064,-0.0904402905251663,0.215384575646733,0.0153417372503316,0.0711754684321621,0.2069491344589231,-0.1041949205670291,-2.0392915618748444,-1.1047790511371771,1.7202785332984047,0.1308467036202245,0.2129881290855411,-0.124364488514637,1.638363109623705,0.7573900758928903,1.442449643066572,-0.1730114999990949,10.570854846395378,-1.2576290733234707,0.2809974099491013,-1.2424569378299033
0.26,-2.036365061026454,-1.0967747493184414,1.7169123266988238,-0.0821852393431897,0.2203814827750363,0.0157734038479515,0.0865219242131746,0.2285471922230414,-0.1073549793266172,-2.037983094838642,-1.1026491698463217,1.7190348884132585,0.1508467039182477,0.2329881293835643,-0.1315470508658638,1.3341437100110425,0.7673227890506257,1.0799028882059136,-0.1580029379794054,10.562074324720015,-1.2613576810552445,0.2735748005562387,-1.259358750162289
0.28,-2.034457721908168,-1.0919995675417866,1.7147276838425012,-0.0741039061702913,0.2252875537241474,0.0162663433593133,0.1034871234314355,0.2478384602778499,-0.1110032315424341,-2.035366160766237,-1.098389407264611,1.7165475986429657,0.1908467045142941,0.2729881299796108,-0.1459121755683174,1.2973827036653136,0.848259960913042,0.9645634027404272,-0.1824126107908434,10.548172234132837,-1.265314067861487,0.2662022706622664,-1.275879694325463
0.3,-2.032203159334172,-1.086861094414776,1.7124658067754974,-0.0672036817157319,0.2298588034023044,0.0167461940277295,0.1211978004433278,0.2651367055756073,-0.1150598055296336,-2.032749226693833,-1.0941296446829,1.714060308872673,0.2308467051103406,0.3129881305756573,-0.160277300270771,1.2543456093862029,0.8855338505946143,0.8649122648878668,-0.2028286993599776,10.548172234132837,-1.2682194322266909,0.2598849135096727,-1.2907801633905394
0.32,-2.029586842077729,-1.081390932592547,1.7101193269291974,-0.0615626766902263,0.2341210415854525,0.0171951028332756,0.1396185051043977,0.2811402101089827,-0.1194353217180204,-2.0281322925916263,-1.087869882071387,1.7108547628672577,0.270846705706387,0.3529881311717037,-0.1746424249732246,1.2395358601861504,0.9210352330534972,0.8001752266687728,-0.2187758094193415,10.538836914055535,-1.271311696880352,0.2548875934678983,-1.304365264080286
0.34,-2.026594523368756,-1.0756109366222213,1.707684762197397,-0.0571294716531534,0.2380955019196441,0.0176065464886788,0.1587528140483665,0.2962808828038367,-0.1238542725301549,-2.023515358489419,-1.0816101194598735,1.707649216861842,0.3108467063024335,0.3929881317677502,-0.1890075496756783,1.2398476465840491,0.956715447198439,0.7570336347426959,-0.220947540606721,10.551356972701797,-1.27443555155787,0.2513829945869364,-1.316308309548332
0.36,-2.023391132461752,-1.0698367049570563,1.7052902203689624,-0.0536238469427444,0.2416223350632813,0.0179847404181298,0.1775418903363719,0.3107842383209814,-0.128013084825072,-2.0178984243723117,-1.0743503568334594,1.7040845427388651,0.3508467068984799,0.4329881323637966,-0.2033726743781319,1.2048572827492197,0.9394538144002706,0.7251677758572356,-0.2079406147458565,10.551356972701797,-1.2781262453983029,0.24859212751572,-1.3286851870127945
0.38,-2.0196221603126303,-1.0634640127695707,1.7026840916867911,-0.0503351838537506,0.2449306417880291,0.0183966651327613,0.1984026633902516,0.3256875958534246,-0.1323966647357271,-2.0112814902403024,-1.066090594192144,1.7001607404983272,0.3908467074945264,0.472988132959843,-0.2177377990805855,1.3004784609696585,1.043038652693984,0.7451678766221631,-0.2191789955327538,10.572306679471694,-1.2815669070692803,0.2462721629640908,-1.340967082527875
0.4,-2.015422822174965,-1.0567969854657202,1.6999902002388252,-0.0472987101408857,0.2474593790544539,0.0188475764649905,0.2204631965392789,0.3402085730059002,-0.1367805339247406,-2.009702027143118,-1.0471796329768994,1.6960642584500047,0.2984026648803677,0.4256875973435408,-0.1555555633128212,1.3386039456729106,1.1030266574513683,0.7260488576237761,-0.2191934594506783,10.591413635727804,-1.285023344359369,0.2444157959361718,-1.3531643513309322
0.42,-2.010706089085412,-1.049828671924883,1.697288026379188,-0.0440618475779018,0.2474525269144598,0.0194434525264081,0.2502317535714877,0.3556652572929661,-0.1327842104365262,-2.009702027143118,-1.0471796329768994,1.6960642584500047,0.2984026648803677,0.4256875973435408,-0.1555555633128212,1.6889691222402146,1.488427851610438,0.772834214353299,0.1998161744107204,11.244657144609846,-1.2809759897368054,0.2413223248517739,-1.360958729245605
0.44,-2.0056746149443705,-1.0429454146821835,1.694807338125949,-0.0411081833187322,0.2435952131151192,0.0201704773677265,0.2774247461120039,0.3681751270240673,-0.1285809637992184,-2.009702027143118,-1.0471796329768994,1.6960642584500047,0.2984026648803677,0.4256875973435408,-0.1555555633128212,1.5113098344579543,1.3596496270258107,0.6254934865550593,0.2101623318653905,11.244657144609846,-1.297248942667376,0.2404802473349099,-1.3769621613037857
0.46,-1.9998641344972223,-1.0354536715004514,1.692276186442966,-0.0386888974724259,0.2367272789852282,0.0209917940245066,0.301684663442774,0.3804499467456566,-0.1247493168659667,-2.006718000494314,-1.042922757003464,1.6945087028168766,0.3184026651783909,0.445687597641564,-0.16018734302824,1.37285861099606,1.2129958665385048,0.6137409860794613,0.1915823466625874,11.197755591921124,-1.31529038312685,0.2401739013977953,-1.3870279239884575
0.48,-1.993616947075564,-1.0277223217986753,1.68981417250764,-0.0370143334522428,0.2285950907632256,0.0217974322549599,0.3214512818870531,0.3921318315143365,-0.1216611082053449,-2.0007499471967067,-1.034409005056593,1.69139759155062,0.3584026657744373,0.4856875982376104,-0.1694509024590776,1.1583637913043217,0.9883309222139536,0.5840942384339964,0.1544104330310866,11.132132230974094,-1.3323420747988317,0.240401613618245,-1.3927803971792725
0.5,-1.987019192110344,-1.019764739032783,1.687404047107567,-0.0362263500866747,0.2204940214254035,0.0225330866328758,0.3371500056784496,0.4031561173223336,-0.1194917814071903,-1.9947818938990995,-1.0258952531097223,1.6882864802843638,0.3984026663704838,0.5256875988336569,-0.1787144618899152,0.9652600491734818,0.7849361895698265,0.551214290399854,0.1084663399077305,11.060837532892949,-1.3476950413734032,0.2414107821826464,-1.3956526247326544
0.52,-1.9804933148577968,-1.0120049838219078,1.6851464778109695,-0.0364567567112386,0.2136699196265546,0.0231343842578629,0.3489476371123192,0.4132278084574265,-0.1182598229839351,-1.98681384057169,-1.0153815011330491,1.6847121910465654,0.4384026669665302,0.5656875994297034,-0.1879780213207529,0.7780436866377837,0.5898815716934763,0.5035845567546465,0.0615979211627627,10.989499433789206,-1.3616345743184746,0.2435323128793384,-1.3972386927698983
0.54,-1.9734101422932555,-1.0036311575561403,1.682791755829338,-0.0378844808359814,0.2080847882204431,0.0236383107764292,0.358559463833839,0.4237392699829818,-0.1172946563412007,-1.97884578724428,-1.004867749156376,1.681137901808767,0.4784026675625767,0.6056876000257498,-0.1972415807515905,0.7138094685838766,0.4805913360759917,0.5255730762777633,0.0482583321367198,10.924785844362304,-1.3734421503314698,0.2470915317105499,-1.3988262603169783
0.56,-1.9661592079670915,-0.9950313368902464,1.6804526093585308,-0.0402153429950753,0.2048699570693989,0.0240073142426712,0.3660128035316027,0.4358381447621354,-0.1166806054956894,-1.9698777339019693,-0.9933539971648015,1.6773320235851978,0.5184026681586231,0.6456876006217962,-0.2065051401824281,0.7111822938121666,0.3726669848881841,0.6049437389576834,0.0307025422755659,10.902229473515945,-1.3800460947388484,0.2513865808172842,-1.4021058570701417
0.58,-1.9591405058278928,-0.98661616782107,1.678239327350905,-0.042394765222827,0.2042912967588436,0.024275033658605,0.3727398909853915,0.4492648261386566,-0.1163665212910618,-1.9599096805447571,-0.9808402451583262,1.6732945563758577,0.5584026687546696,0.6856876012178427,-0.2157686996132657,0.7510461491898146,0.336354372689443,0.6713340688260572,0.0157042102313771,10.887145550860623,-1.3807376455557252,0.2555426976500847,-1.4069516917496343
0.6,-1.951598343298812,-0.977472108498708,1.6759133597487752,-0.0440923297782498,0.2056150824914556,0.0245256078646812,0.3813276941854729,0.4643297068751034,-0.1162760339418105,-1.940503511278624,-0.9641529265141372,1.672421001286352,0.4727398924755077,0.5490456017452888,-0.1371107518892731,0.8670484175740528,0.4293901600040672,0.7532440368223398,0.0045243674625675,10.872405930136663,-1.3791281562827211,0.2589627177666003,-1.4146001473112906
0.62,-1.9438316216800489,-0.9679486598539307,1.6736610479865304,-0.0428018777718934,0.2074537193136036,0.0249698007635752,0.3950773220345803,0.486659666784889,-0.1085499061607695,-1.940503511278624,-0.9641529265141372,1.672421001286352,0.4727398924755077,0.5490456017452888,-0.1371107518892731,1.3669056533376365,0.6874813924553691,1.1164979954892822,0.3863063890520469,10.871995464202882,-1.372789457082329,0.2585470975622169,-1.4253675614805343
0.64,-1.9357859034311893,-0.9580226851506844,1.6715700416322825,-0.0377720630700145,0.2089235034034723,0.0256978223049784,0.4088044698576041,0.5039120132747047,-0.101025160795076,-1.940503511278624,-0.9641529265141372,1.672421001286352,0.4727398924755077,0.5490456017452888,-0.1371107518892731,1.164795947342635,0.6863573911511933,0.8626173244907831,0.3762372682846785,11.365846881498328,-1.3749543390042207,0.2540693978281995,-1.4409041913078722
0.66,-1.9278897767828225,-0.9483281049548972,1.6697061058359064,-0.0323333828720892,0.2101939348223296,0.0264432430409725,0.4217055354172075,0.5156593663533996,-0.0955744905315231,-1.9357761123538688,-0.9586624704966844,1.6710498937674594,0.4927398927735309,0.5690017568666152,-0.1412595980089153,0.9139852340857147,0.6450532779801704,0.587367653934745,0.2725335131776446,11.365846881498328,-1.3753104583669633,0.2481248086311368,-1.4549495412605495
0.68,-1.9193148150612735,-0.9379114068495588,1.6678409564697392,-0.0272540543655758,0.2114722035163359,0.0271853379501239,0.4351261029633216,0.5254811416866916,-0.0913179713849279,-1.9263213145043585,-0.9476815584617788,1.6683076787296738,0.5327398933695774,0.6089140671092682,-0.1495572902481999,0.8583368499645186,0.6710283773057046,0.4910887666645991,0.212825957329759,11.259785235549316,-1.3749834510996042,0.2427209921352691,-1.4667235237187868
0.7000000000000001,-1.9104718251514157,-0.9273134410850812,1.6660461203654395,-0.0232637569313429,0.2127461264639433,0.0278507660966642,0.4485209513469685,0.5339858980118577,-0.088455900476592,-1.9168665166548484,-0.9367006464268728,1.6655654636918884,0.5727398939656239,0.6488263773519211,-0.1578549824874844,0.806139400562462,0.6697424191823426,0.4252378162583059,0.1431035454167929,11.102888472362793,-1.3745300590951195,0.2387841206580713,-1.4765581673186792
0.72,-1.9013606940703425,-0.9165543222561844,1.6642963690260382,-0.0204316398416001,0.2140245480273889,0.028433737533672,0.4619540945183288,0.5417821077159992,-0.0866878052522696,-1.905411718775536,-0.9237241188798344,1.6624083640421388,0.6127398945616703,0.6887386875945739,-0.1661526747267689,0.7815951348612136,0.6716571585680176,0.389810485207076,0.0884047612161209,11.102888472362793,-1.3739330137352292,0.2360352195833076,-1.4855470319606814
0.74,-1.892454354794888,-0.9061923536266792,1.6626629261840815,-0.0187208519545905,0.2152401482172164,0.0289174021178125,0.4749104081029368,0.5487678469468862,-0.0853640855739944,-1.8939569208962237,-0.910747591332796,1.659251264392389,0.6527398951577168,0.7286509978372269,-0.1744503669660534,0.7389500119955711,0.6478156792303957,0.3492869615443483,0.0661859839137607,11.042140560595726,-1.3733585958433263,0.2346374070097814,-1.4933219084942413
0.76,-1.8828067162711664,-0.8951365803558335,1.6609680462402632,-0.0177144506262953,0.2163768405894509,0.0293716991871939,0.4891823341040899,0.5564660746481889,-0.0842116465427136,-1.88150212300201,-0.8967732560296913,1.6558867224366571,0.6927398957537632,0.7685633080798797,-0.1827480592053379,0.8128325430928469,0.7135963000576562,0.3849113850651342,0.057621951564038,11.042140560595726,-1.3726560524543954,0.2343268580543987,-1.5006910176752222
0.78,-1.8728675541038,-0.8839249472444137,1.6592950569503624,-0.0172905744705245,0.217114530415234,0.0297901910737221,0.5039989870527775,0.564318324145066,-0.0831360823483833,-1.868047325092895,-0.8818011129705202,1.6523147381749432,0.7327398963498096,0.8084756183225326,-0.1910457514446224,0.8401604982073132,0.7408326474343779,0.3926124748438564,0.0537782097165172,11.040742792078165,-1.372590003533139,0.234804112599834,-1.5071659287815635
0.8,-1.862628278190701,-0.8725538210056155,1.6576433306666036,-0.017295582076901,0.2172678728550226,0.0301867305035295,0.5190999903625934,0.5723915730625644,-0.0820795515090635,-1.8476676047511609,-0.8557090310371605,1.6551382528329432,0.6039989885428936,0.6233709889316432,-0.1178969561131366,0.8578081173278109,0.7550501654907948,0.4036624458749194,0.0528265419659897,11.04307530753522,-1.3734375285629914,0.2358281508273772,-1.5126568624243095
0.8200000000000001,-1.8525875583220748,-0.8614276259146182,1.656136231613625,-0.0120715155020453,0.2159622527063215,0.0309469920181049,0.5370102901004052,0.5947595964741896,-0.0765007860764758,-1.8476676047511609,-0.8557090310371605,1.6551382528329432,0.6039989885428936,0.6233709889316432,-0.1178969561131366,1.4596488719835288,0.8955149868905943,1.1184011705812624,0.278938271629385,11.043303017627297,-1.371152192304975,0.229435350210013,-1.5225955356294298
0.84,-1.841663597656372,-0.8494147962560327,1.654659278202682,-0.0016675165329215,0.2123940485886996,0.0320731489791687,0.554225199437968,0.6045844833123452,-0.0715513057398442,-1.8476676047511609,-0.8557090310371605,1.6551382528329432,0.6039989885428936,0.6233709889316432,-0.1178969561131366,1.021492609476165,0.8607454668781378,0.4912443419077761,0.2474740168315801,11.401770578300784,-1.381056293897698,0.2162311728302871,-1.529352348698053
0.86,-1.8304217908267144,-0.8372886577457259,1.6532544727550882,0.0089784669901266,0.2073230626170742,0.0331405992201004,0.5687919438269252,0.6074257054100908,-0.0692827153802638,-1.841627614865732,-0.849475321147844,1.653959283271812,0.6239989888409168,0.6351815218889587,-0.1248491308660873,0.7506815025720224,0.728337219447861,0.142061104887281,0.113429517979019,11.265067214395458,-1.3909682906537593,0.2029181772324678,-1.5312247468916338
0.88,-1.8189272341125224,-0.825152457452492,1.6518647281177332,0.0181203413784833,0.2017271124635833,0.034011629586034,0.5797644544589572,0.6063620108175144,-0.0697805811269119,-1.8295476350948736,-0.8370079013692111,1.6516013441495492,0.6639989894369632,0.6588025878035896,-0.1387534803719886,0.5517592456362113,0.5486255316015987,-0.053184729628819,-0.0248932873324045,11.073209215644964,-1.4020921345280244,0.1906850377977379,-1.5280340523519325
0.9,-1.8078363429708744,-0.8136652248811883,1.6505141553751357,0.0249910829326737,0.1969033798196143,0.0346514555117497,0.5870347188215596,0.6032644388802502,-0.0723464918983107,-1.817467655324016,-0.8245404815905782,1.6492434050272864,0.7039989900330097,0.6824236537182204,-0.15265782987789,0.4154383043709176,0.3635132181301181,-0.1548785968632116,-0.1282955385699405,10.903695954314571,-1.4123863885074956,0.1810966542511489,-1.522928108407508
0.92,-1.796043739873642,-0.8016477938133105,1.649023916885998,0.0303724832469741,0.1933724233222857,0.0351813715686714,0.5916647348927989,0.5989184607415249,-0.076603354566621,-1.803387675523356,-0.8108920085162138,1.6461902484297286,0.7439989906290562,0.7060447196328513,-0.1665621793837913,0.3822481346555744,0.2315008035619681,-0.217298906936264,-0.2128431334155134,10.768916001828984,-1.4203567838203772,0.1741656451626535,-1.5176035489127775
0.94,-1.7841847906132764,-0.7897264056779632,1.647436664045009,0.0339963368033197,0.1924888366248841,0.0356358289704637,0.5942952323903992,0.5938789920283977,-0.0819195627302583,-1.7893076957226957,-0.7972435354418494,1.6431370918321708,0.7839989912251026,0.7296657855474823,-0.1804665288896927,0.3891588083115734,0.1315248748800124,-0.2519734356563607,-0.2658104081818671,10.67494740636812,-1.4224722348669847,0.1697277870489062,-1.514880879432131
0.96,-1.7722590519041186,-0.7779019310748954,1.6457371152451612,0.0363264817200396,0.1940191754478016,0.0360634516384602,0.5984337770038695,0.5891016808058588,-0.0877823043593583,-1.7742277159071342,-0.7830045357196193,1.639736326496965,0.823998991821149,0.7532868514621132,-0.194370878395594,0.4310510220503535,0.2069272306735148,-0.2388655611269441,-0.2931370814549985,10.614593209847044,-1.4196977745352424,0.1667101051241012,-1.5148106608462542
0.98,-1.7608334836615132,-0.7667571620581208,1.644012769701498,0.037634071599797,0.1967969418335229,0.036442580219387,0.6042275477375789,0.5844115421180379,-0.0934427758562482,-1.7581477360766715,-0.7681750093495233,1.6359879524241123,0.8639989924171955,0.776907917376744,-0.2082752279014953,0.4679906991407142,0.2896885366854729,-0.2345069343910433,-0.2830235748444973,10.584408539623835,-1.415392266491868,0.165109083062998,-1.5158266432798375
1.0,-1.7486679652593216,-0.7551244388497622,1.642081993668529,0.0380160443481068,0.200339422538335,0.036783272035187,0.6121741339390427,0.5791903334474324,-0.0993353001905037,-1.7306221062746343,-0.737536584952219,1.6393406309086858,0.704227549227695,0.6158286400143754,-0.1062954064342297,0.5593100554904546,0.3973293100731911,-0.2610604335302746,-0.294626216712774,10.58435481341985,-1.4106450456237638,0.1649656169749611,-1.517562109621141
1.02,-1.736247181415597,-0.743493748448861,1.6401960172605994,0.0407026457421968,0.202434236859416,0.0372161046670559,0.6296885397882047,0.5828297436072812,-0.0881398637007292,-1.7306221062746343,-0.737536584952219,1.6393406309086858,0.704227549227695,0.6158286400143754,-0.1062954064342297,1.055151075388431,0.8757202924580987,0.1819705079924405,0.5597718244887264,10.59535735364534,-1.401547894440304,0.1609851726010854,-1.519685012509333
1.04,-1.723471656958642,-0.731867147882084,1.6385536973665131,0.0461561905707552,0.2015624564576958,0.0376999062077515,0.6467565947731264,0.5792505915566613,-0.0768217924266852,-1.7306221062746343,-0.737536584952219,1.6393406309086858,0.704227549227695,0.6158286400143754,-0.1062954064342297,1.0395041699460692,0.853402749246085,-0.1789576025309991,0.5659035637021976,11.784021647319603,-1.4049233538053936,0.1541159571981173,-1.5273670527758478
1.06,-1.7110356055083795,-0.7209319087502902,1.6371750796271856,0.051177264683872,0.1986007982341143,0.038014404002184,0.6612701545588128,0.5721399970102607,-0.0688286073642844,-1.723579830782357,-0.7313782985520753,1.6382776768443434,0.7242275495257182,0.6221120595936429,-0.108865932549826,0.9015195226640688,0.7256779892843179,-0.3555297273200253,0.3996592531200403,11.660030983294746,-1.4111287542594038,0.1468687980375793,-1.5301902014949094
1.08,-1.6976721749368526,-0.7095875373468808,1.6358650802047243,0.0553849852069703,0.1938335187822658,0.0381400159935128,0.6740031767930718,0.5628536543907184,-0.0626605766182746,-1.7094952797978036,-0.7190617257517877,1.6361517687156588,0.7642275501217647,0.634678898752178,-0.1140069847810186,0.8461835169592106,0.6366511117129492,-0.4643171309771154,0.3084015373004886,11.477580376699734,-1.4203433864939743,0.1411278356125268,-1.528221962042987
1.1,-1.6840909698060975,-0.6984412827282386,1.6346537580566136,0.0582034887671005,0.188342991049195,0.0380847991593466,0.6832788264287841,0.5526085897702209,-0.0587348760969107,-1.6954107288132496,-0.7067451529515002,1.6340258605869742,0.8042275507178112,0.6472457379107129,-0.1191480370122112,0.718349061783509,0.4637824817856184,-0.5122532310248784,0.1962850260681967,11.324691644415909,-1.430462700271682,0.1372903771008067,-1.5235248185885817
1.12,-1.6703591425131918,-0.6875054886998219,1.6335025496395483,0.0596575785875215,0.1831850906429867,0.0379198681753121,0.6893003267756566,0.5417825262663462,-0.0565557183927725,-1.6793261777988937,-0.693800238193286,1.63164289984673,0.8442275513138576,0.6598125770692479,-0.1242890892434038,0.6289094643047155,0.3010750173436216,-0.5413031751937358,0.1089578852069089,11.184665846940334,-1.4398624432335692,0.1354468562565115,-1.517948751819561
1.14,-1.6572303123877417,-0.6773229270021448,1.6324426447989735,0.0596239595980901,0.1795239466444406,0.0377179988569636,0.692295657954354,0.530845485889217,-0.0551035831919127,-1.6632416267845371,-0.6808553234350716,1.6292599391064857,0.8842275519099041,0.672379416227783,-0.1294301414745964,0.5716195363233465,0.1497665589348717,-0.5468520188564585,0.0726067600429931,11.074555293212144,-1.447889021300335,0.1355974488060565,-1.5122903072179903
1.16,-1.6433672304953022,-0.6668277611693237,1.6313543613074892,0.057936532836645,0.1777849815980578,0.037504503932964,0.6938607350767594,0.5194163987819871,-0.0538069090084304,-1.6461570757552797,-0.667596237697894,1.6267484520604618,0.9242275525059503,0.6849462553863179,-0.134571193705789,0.5804198102275515,0.0782538561202694,-0.5714543553614948,0.0648337091741127,11.041137682314911,-1.4510267637818617,0.1379823398415255,-1.5092387545822248
1.18,-1.629469225483972,-0.656552061783247,1.6302914779282678,0.0546224171113561,0.1782375041410014,0.0372957463584017,0.6961199781101345,0.5093033165840515,-0.0525328508587919,-1.6280725247111212,-0.654022980981753,1.624108438708658,0.9642275531019968,0.697513094544853,-0.1397122459369815,0.522019718963557,0.1129621516687551,-0.5056541098967804,0.0637029074819269,11.023880107329203,-1.4488922863055924,0.1421959852927714,-1.5090491947787352
1.2,-1.6162090478322564,-0.6469499547399792,1.6293087513749682,0.0509111762306407,0.1799563737981921,0.037118374900656,0.6997262270217485,0.502112905254919,-0.0509792455135674,-1.5946632265784653,-0.6310868959540444,1.6276648353853282,0.7961199796002506,0.5371778254566797,-0.0861849068673692,0.4096362284495332,0.1803124455806992,-0.3595205664566225,0.0776802672612212,11.014775794301386,-1.4451593523274278,0.1475367491659534,-1.510771928599542
1.22,-1.602142146118183,-0.6369186015996671,1.628332092856281,0.0488319186144166,0.1819290089301268,0.0370553956418012,0.7068650569473398,0.5007192235444833,-0.0466810383531144,-1.5946632265784653,-0.6310868959540444,1.6276648353853282,0.7961199796002506,0.5371778254566797,-0.0861849068673692,0.422432912456792,0.3569414962795669,-0.0696840855217872,0.2149103580226505,11.030669488323838,-1.4394533051253762,0.1501744037710815,-1.5147142866333074
1.24,-1.5879337752095672,-0.6269417300857111,1.6274337928125595,0.0490898920814128,0.1835044746959158,0.0371245047049589,0.7136153660308758,0.4968954187527056,-0.0434463443148427,-1.5946632265784653,-0.6310868959540444,1.6276648353853282,0.7961199796002506,0.5371778254566797,-0.0861849068673692,0.4202719397310551,0.337515454176801,-0.1911902395888814,0.1617347019135888,11.202158869607956,-1.4384268697920086,0.1499511431131819,-1.5183554327989008
1.26,-1.5735927483211642,-0.6170573069121174,1.6265820770993848,0.0504571490333806,0.1850351884161432,0.0372575927805353,0.7202106406504815,0.491710881444672,-0.0418838964765564,-1.5867020267824627,-0.6257151176994776,1.6268029863166549,0.8161199798982738,0.5427527272312054,-0.0929153180690847,0.4266682483316878,0.3297637309802814,-0.2592268654016821,0.0781223919143137,11.11735476370268,-1.4368844087498214,0.1481061633819369,-1.521656875551792
1.28,-1.5598467573247627,-0.6077755586473055,1.6257886805103716,0.0521824651420657,0.1865335837045654,0.0374054157619776,0.7264645260739092,0.4856180468544314,-0.0417069265614943,-1.5707796271904575,-0.614971561190344,1.6250792881793072,0.8561199804943203,0.5539025307802566,-0.1063761404725156,0.4366492716821796,0.3126942711713876,-0.3046417295120285,0.0088484957531023,11.022544982282852,-1.4354065822983264,0.145576643737018,-1.5242148129564503
1.3,-1.5452483206904832,-0.5981420954454464,1.6249460674464011,0.0539268291714203,0.1882326860526583,0.0375511132922366,0.7331065523204469,0.4780772739945281,-0.0426109651356497,-1.554857227598453,-0.6042280046812104,1.6233555900419598,0.8961199810903667,0.5650523343293079,-0.1198369628759466,0.5044726299015387,0.3321013123268823,-0.3770386429951644,-0.0452019287077703,10.943297506204544,-1.433836242031935,0.1431376381913559,-1.526017116585228
1.32,-1.530514719717285,-0.5886727596767455,1.624074653296561,0.055033305397917,0.1900966992527016,0.0376495549228513,0.7400019364560774,0.4693862762253228,-0.0444778751208465,-1.5369348279766453,-0.5929269579946242,1.620958850784441,0.9361199816864132,0.5762021378783592,-0.1332977852793775,0.5625058166256232,0.3447692067815255,-0.4345498884602644,-0.0933454992598389,10.83043126510438,-1.4321860021013892,0.1416416277175283,-1.527296289819379
1.34,-1.5163862351833897,-0.5798459775560977,1.623207096645262,0.0550571951938639,0.1919931145468579,0.0376673392548976,0.7469285431751771,0.4603617805515678,-0.0467438067046432,-1.519012428354838,-0.5816259113080381,1.618562111526922,0.9761199822824596,0.5873519414274104,-0.1467586076828085,0.5799867428423446,0.3463303359549863,-0.4512247836877536,-0.1132965791898338,10.83043126510438,-1.430299243106674,0.1415575643090071,-1.528344193910069
1.36,-1.5013627258170166,-0.5707394937677338,1.6222441584730836,0.0537524688108117,0.1939375855609081,0.0375786207856553,0.7551017386719876,0.450893699992367,-0.0494357950633766,-1.5000900287181294,-0.5700461195327257,1.6158288517093171,1.016119982878506,0.5985017449764618,-0.1602194300862394,0.6397118011811148,0.4086597748405252,-0.4734040279600365,-0.1345994179366701,10.80496746985682,-1.428088653115105,0.1433397716428271,-1.5292321216707143
1.38,-1.4861671965912946,-0.5618172580936822,1.6212258327500124,0.0510431267048183,0.195532360367236,0.0373615349601831,0.7640432945504106,0.4421258805524899,-0.0522470146468893,-1.4801676290665198,-0.558187582668687,1.6127590713316269,1.0561199834745525,0.6096515485255131,-0.1736802524896703,0.6417340469461895,0.4470777939211523,-0.4383909719938544,-0.140560979175635,10.789586605879776,-1.426045468242001,0.1470430743750335,-1.5297510618790764
1.4,-1.4707871811704274,-0.553046229370943,1.6201512947900998,0.0475954956905081,0.1965582496794236,0.037054869968489,0.7734484121477132,0.4356202989502074,-0.0550507041234158,-1.447965031863774,-0.5397109640660577,1.618613482017668,0.8640432960405268,0.465676128326018,-0.0762046508542315,0.5887263873902577,0.4702558798651279,-0.3252790801141297,-0.1401844738263251,10.779284596872458,-1.4250489593697069,0.1515342758855342,-1.529698368435612
1.42,-1.4559272635797258,-0.544775213141177,1.619216228294882,0.0458524263412897,0.1954823613389113,0.036769168536111,0.7900845675793963,0.4344902230238031,-0.0432555084919102,-1.447965031863774,-0.5397109640660577,1.618613482017668,0.8640432960405268,0.465676128326018,-0.0762046508542315,1.0212313390364172,0.8318077715841532,-0.0565037963202119,0.5897597815752806,10.779284596872458,-1.4217993353830456,0.1536007682837255,-1.527344993532789
1.44,-1.43995730798911,-0.5361186619167806,1.6184679533266837,0.0460034273772447,0.1908639410628508,0.0364405850931337,0.8055489359127785,0.4310957553290728,-0.032312554038577,-1.447965031863774,-0.5397109640660577,1.618613482017668,0.8640432960405268,0.465676128326018,-0.0762046508542315,0.9623114764056512,0.7732184166691136,-0.169723384736517,0.5471477226666611,11.799367820377483,-1.431083373038491,0.1532642396435363,-1.5277118399279956
1.46,-1.4237268352117072,-0.5275447722804231,1.6179067203875075,0.0472041751564754,0.1840266315885271,0.0360685212848568,0.8162889260442557,0.4264120464891692,-0.0244692531613029,-1.4393245989033687,-0.5350542027827975,1.6178514355091256,0.8840432963385499,0.4703861778807237,-0.0809961780956999,0.7049856118614539,0.5369995065738598,-0.23418544199518,0.3921650438637052,11.620583046670616,-1.4434198298089924,0.1513857233460765,-1.5231091211550678
1.48,-1.407332017676039,-0.5190777940441603,1.6174692378543167,0.0488669834870047,0.1765916044847819,0.0356784951936991,0.8223662423190305,0.4205117102935211,-0.0197945043367319,-1.4220437329825582,-0.5257406802162772,1.6163273424920408,0.9240432969345964,0.4798062769901349,-0.0905792325786367,0.4837380926135188,0.3038658137387406,-0.2950168097824057,0.2337374412285505,11.398246179902344,-1.455607458171338,0.1489598308252946,-1.5153153716652583
1.5,-1.3916847366788223,-0.5111562882958762,1.6171096172151218,0.0503528196649321,0.1701649626726173,0.0353109922775053,0.8243644885711311,0.4137188639380275,-0.0182796509282581,-1.4047628670617476,-0.5164271576497568,1.6148032494749562,0.9640432975306428,0.4892263760995461,-0.1001622870615736,0.3620446469102271,0.0999123126050272,-0.3396423177746771,0.0757426704236891,11.01107306445283,-1.466930888075901,0.1464999254680315,-1.506164320343762
1.52,-1.375206726495717,-0.5029676126671374,1.6167399796678594,0.0513514144821188,0.1650294010569089,0.0349491506486163,0.8231320283143514,0.4055714378611783,-0.0188492276223682,-1.3854820011111348,-0.5066426301277659,1.612800003733725,1.0040432981266894,0.4986464752089574,-0.1097453415445105,0.4129888847558046,-0.0616230128389849,-0.4073713038424603,-0.0284788347055042,11.01107306445283,-1.4762190866805414,0.14492414987752,-1.4972770322618958
1.54,-1.3587876433522537,-0.4949525720080128,1.6163456672549574,0.0512824559888519,0.1627589244449595,0.034649999445958,0.8189339773920438,0.3965376325896231,-0.020537897292283,-1.366201135160522,-0.4968581026057749,1.6107967579924931,1.044043298722736,0.5080665743183687,-0.1193283960274473,0.5051852988873424,-0.2099025461153814,-0.4516902635777614,-0.0844334834957438,10.883265198001029,-1.4807033837833683,0.1447864560917504,-1.4921158918109745
1.56,-1.3424485592049404,-0.4871191842931562,1.6159122691063847,0.049878205834751,0.163622084403175,0.0344136147332946,0.8155807956353711,0.3874565891466169,-0.022734287788521,-1.3459202691950078,-0.4868380726060487,1.6085539358891885,1.0840432993187823,0.5174866734277799,-0.1289114505103842,0.4963197283984676,-0.1676590878336326,-0.4540521721503071,-0.1098195248118966,10.825088563945428,-1.4787539721977083,0.1462447978707233,-1.4924410565093758
1.58,-1.3269678053671492,-0.4798402261098027,1.615459713743076,0.047262625752554,0.166396034637445,0.0341913836675594,0.8143819718553472,0.3795532008389218,-0.0247965997827576,-1.3246394032145927,-0.4765825401285872,1.60607153742381,1.1240432999148289,0.5269067725371911,-0.138494504993321,0.4127767434077852,-0.0599411890011947,-0.3951694153847551,-0.1031155997118307,10.788242891195296,-1.4735279191886543,0.1496232602645347,-1.4955323167058985
1.6,-1.3106739766348825,-0.4723153042327794,1.6149441420639836,0.0438499999435256,0.1704402936268889,0.0339539180080869,0.8152801467788698,0.3735435182213494,-0.0266469046131449,-1.2862487067743815,-0.4608625660678566,1.614219883753938,0.8906597494079519,0.390438366843222,-0.0477356242758558,0.3175949909969898,0.044908746176131,-0.3004841308786199,-0.0925152415193641,10.788242891195296,-1.4667953436916206,0.1540045785667137,-1.499798036569441
1.62,-1.2942264065659164,-0.4648179849556946,1.6145156207530142,0.042951789655601,0.1719386752668043,0.0337723859263258,0.829010608043531,0.3752280497471835,-0.0161487781008488,-1.2862487067743815,-0.4608625660678566,1.614219883753938,0.8906597494079519,0.390438366843222,-0.0477356242758558,0.8682941225040938,0.6865230632330577,0.0842265762917043,0.5249063256148006,10.808557496570756,-1.456268947042501,0.1542238982669332,-1.5041491389975064
1.64,-1.277515787732157,-0.4573237600420324,1.6142912567547325,0.0452824724217607,0.1683139097658221,0.0335853861240023,0.8407337074393489,0.3738385230095178,-0.0068964927194292,-1.2862487067743815,-0.4608625660678566,1.614219883753938,0.8906597494079519,0.390438366843222,-0.0477356242758558,0.7499443792344649,0.5861549697908974,-0.0694763368832868,0.4626142690709821,11.64963071510192,-1.462902972349079,0.15100972702435,-1.502541182053909
1.66,-1.261472511299408,-0.4502654955024125,1.614218675721994,0.0489324712756661,0.1617952134340503,0.033341137248436,0.8470250151399344,0.3689011844879309,-0.0011588037425084,-1.277342109280302,-0.4569581823994244,1.6137425275111796,0.9059153049184728,0.392615400044082,-0.0523234291744755,0.4921354972364598,0.3145653850292751,-0.2468669260793449,0.286884448846041,11.498874419666208,-1.4752142141311009,0.1454941591885273,-1.4940291428437305
1.68,-1.2445095403783677,-0.4429700409347831,1.614231497498993,0.0525983258942483,0.1536719266986409,0.0329678507251544,0.8485709626954457,0.3609539115513214,0.002038062101627,-1.259528914292143,-0.4491494150625599,1.6127878150256625,0.9364264159395148,0.396969466445802,-0.0614990389717148,0.4352271022085988,0.0772973777755647,-0.3973636468304758,0.1598432922067755,11.279790910684824,-1.4888839423728213,0.1401345332243362,-1.4834538579368637
1.7,-1.227564564489731,-0.4358496832571586,1.6142781276604143,0.0554153617020161,0.1458256067151837,0.0325105660146884,0.8456387331856349,0.351651408046683,0.0023675596311626,-1.241715719303984,-0.4413406477256955,1.6118331025401451,0.9669375269605566,0.4013235328475221,-0.0706746487689541,0.4879628827431077,-0.1466114754905434,-0.4651251752319202,0.0164748764767805,11.079716843723872,-1.5014734732794304,0.1359225288658746,-1.471580658044095
1.72,-1.210719208300193,-0.4289238333985935,1.6143034931851268,0.0571568542332619,0.1394967244675183,0.0320357267238629,0.8390232068600484,0.3416737937242134,0.0001854959791542,-1.222376968764773,-0.433314177068745,1.6104196095647665,0.9974486379815984,0.4056775992492421,-0.0798502585661934,0.6084393517720035,-0.3307763162793242,-0.4988807161234787,-0.1091031826004234,10.753205834237631,-1.5116446815776177,0.1333495877971332,-1.4612003109263665
1.74,-1.1948675026916191,-0.4225343450172859,1.6142754832012165,0.0577286290400986,0.1359001907020516,0.0316348459344023,0.8298988376750412,0.3315891914383957,-0.0030051803394682,-1.2030382182255617,-0.4252877064117946,1.6090061165893872,1.0279597490026404,0.4100316656509621,-0.0890258683634327,0.6984513792270113,-0.4562184592503571,-0.504230114290885,-0.1595338159311232,10.753205834237631,-1.5185548974834973,0.1322233486961418,-1.4519093228874782
1.76,-1.1783801877722024,-0.416017573932622,1.614174952469293,0.0569962128936838,0.1354015862643263,0.0313056582807872,0.8196891279413381,0.3207599254495817,-0.0069110483872494,-1.1829366899108245,-0.4171523840948011,1.607363233369077,1.0584708600236823,0.4143857320526822,-0.098201478160672,0.7693617158229832,-0.5104854866851583,-0.5414632994406976,-0.1952934023890602,10.692960397168465,-1.518443912000665,0.132733326194462,-1.4493803661050957
1.78,-1.1620787007160984,-0.4097162441577323,1.613994572812846,0.0547274567426179,0.1376191632356589,0.0310219409355615,0.8112558729462079,0.3100938423915212,-0.0109297568944822,-1.162072383820561,-0.4089082101177647,1.605490959903836,1.0889819710447242,0.4187397984544023,-0.1073770879579113,0.7089342982259317,-0.4216627497565073,-0.5333041529030247,-0.2009354253616382,10.63892014076555,-1.5143469173312376,0.1353103324528267,-1.4507186253581077
1.8,-1.1459238144925357,-0.4036096829249181,1.613737934138017,0.0512361400796777,0.1415696657947071,0.0307409002597809,0.8049098193128187,0.3015040239263977,-0.014524998241056,-1.121515907068788,-0.3942115520381563,1.613448084968122,0.8627095527462415,0.3316382839722936,-0.0283103353378902,0.5634339764376658,-0.3173026816694624,-0.4294909232561761,-0.1797620673286926,10.63892014076555,-1.5076818799041487,0.1392812324135124,-1.4540757060545713
1.82,-1.130580879152931,-0.3979603011001785,1.6135437316677226,0.0473319103615972,0.1437188261753194,0.0303456195273388,0.8100637846720776,0.2939393060806101,-0.0057238659701183,-1.121515907068788,-0.3942115520381563,1.613448084968122,0.8627095527462415,0.3316382839722936,-0.0283103353378902,0.6349177983435363,0.2576982679629469,-0.378235892289383,0.4400566135468878,10.65541355996902,-1.4974943413381137,0.1438418672505713,-1.453550845867894
1.84,-1.1143318894292176,-0.3921478106859629,1.6135194034134044,0.0429727513816367,0.1418754826190836,0.0297245607358256,0.8142901272993155,0.2878649610492753,0.0027362921493961,-1.121515907068788,-0.3942115520381563,1.613448084968122,0.8627095527462415,0.3316382839722936,-0.0283103353378902,0.5619918036984534,0.2113171313618933,-0.3037172515667402,0.4230079059757237,11.491130052271728,-1.4999558995108146,0.1491883261591737,-1.453569613981581
1.86,-1.0980295035551495,-0.3864408391537962,1.613640203329134,0.0387567957661068,0.1368535969680165,0.0290017975902195,0.8152394159304236,0.28321465053958,0.0088477616294486,-1.1128888115413258,-0.3908951691984333,1.6131649816147429,0.8730002887062482,0.3359471722884481,-0.0317864510265718,0.3868998447510247,0.0474644315554051,-0.2325155254847638,0.3055734740026258,11.377255259541926,-1.5081769116342614,0.1542238984182258,-1.4487318179674555
1.88,-1.0817556037542897,-0.3808149007518885,1.613854837710772,0.0348709555454633,0.1303441033179536,0.0282797345748084,0.8118581120466266,0.2796368494592788,0.0123488025648422,-1.095634620486401,-0.3842624035189875,1.612598774907985,0.8935817606262616,0.3445649489207571,-0.038738682403935,0.3020395841445555,-0.1690651941898491,-0.17889005401506,0.1750520467696779,11.210634443859815,-1.51821078983351,0.1590412041146632,-1.4402178303560371
1.9,-1.06639478203212,-0.3755282089346657,1.6141016652674238,0.0315398408422272,0.1241458863704779,0.0276525589609665,0.8051692494084323,0.2770385086909405,0.0134751818700939,-1.078380429431476,-0.3776296378395416,1.612032568201227,0.9141632325462752,0.353182725553066,-0.0456909137812982,0.3631837980979471,-0.3344431319097174,-0.1299170384169129,0.0563189652625838,11.04586494495561,-1.527968964510689,0.1633229013038454,-1.4306549264792336
1.92,-1.0503939741488426,-0.3700099276322484,1.6143663537936646,0.0284065789769453,0.1186780698551068,0.027083333307655,0.7950880687869003,0.274949282148309,0.0128597565096709,-1.0600971647805506,-0.3705659833284803,1.6111187499256012,0.9347447044662884,0.361800502185375,-0.0526431451586614,0.5156884200867788,-0.504059031076598,-0.1044613271315747,-0.0307712680211499,10.898917634523968,-1.536204552045094,0.1671040353116677,-1.4207591985542718
1.94,-1.0346280282543685,-0.3645268648650401,1.6146057134556286,0.0256491339338157,0.1154793659450963,0.0266294797443354,0.7819914117256811,0.2734510354283072,0.011121175943351,-1.041813900129625,-0.3635023288174189,1.6102049316499754,0.955326176386302,0.370418278817684,-0.0595953765360246,0.6648116872445243,-0.6548328530609604,-0.0749123360000936,-0.0869290283159941,10.73397894327536,-1.5410795272705398,0.1703857179222041,-1.412910403400602
1.96,-1.0191364445023916,-0.3590665988820211,1.614804485008508,0.0232967867033724,0.1153507450642251,0.0262980971311258,0.7682650673310661,0.2726074652928053,0.0088346411388548,-1.023016098680699,-0.3562232298905499,1.6091173075899152,0.9759076483063154,0.3790360554499929,-0.0665476079133878,0.6970516164984846,-0.6863172197307477,-0.0421785067750923,-0.1143267402248071,10.73397894327536,-1.539929945676619,0.1728985353081565,-1.4112767233406287
1.98,-1.0046579982020307,-0.3538901342339302,1.6149492677164905,0.0214492186974096,0.1175268844268578,0.0260712951028769,0.7567468222577326,0.2722730007246455,0.0065133514779654,-1.003703760433773,-0.3487286865478731,1.6078558777454213,0.9964891202263289,0.3876538320823019,-0.073499839290751,0.5877291506435578,-0.5759122536666772,-0.0167232284079887,-0.1160644830444736,10.691478272021412,-1.5353394337822224,0.1750438890606275,-1.4128235403014722
2.0,-0.9896334375984204,-0.3484445337785631,1.6150545564024743,0.0198804327376747,0.1213772194198812,0.0258960931450679,0.7465547684173177,0.272295331119087,0.004136334210192,-0.966820657089144,-0.3402764841976979,1.6152749352903888,0.7950425271291487,0.3019544597938975,-0.0220513102632913,0.5232797321312104,-0.5096026920207442,0.0011165197220719,-0.118850863388669,10.67794766181214,-1.528516862725526,0.1767066118689227,-1.416169498438918
2.02,-0.9747378294158696,-0.3429842798413167,1.615181365358489,0.019035208651471,0.1246101931147617,0.0257633170793036,0.743252236745224,0.2735706472676678,0.008646646242607,-0.966820657089144,-0.3402764841976979,1.6152749352903888,0.7950425271291487,0.3019544597938975,-0.0220513102632913,0.2866882512144534,-0.1651265836046855,0.063765807429042,0.2255156016207497,10.67794766181214,-1.5199000223330184,0.1771918694828134,-1.4174877619380346
2.04,-0.9606535255704406,-0.3377792612212844,1.615375633180573,0.0189214603702968,0.1260077213442746,0.0256589485944079,0.7393528853626417,0.2742614159267422,0.011557954432175,-0.966820657089144,-0.3402764841976979,1.6152749352903888,0.7950425271291487,0.3019544597938975,-0.0220513102632913,0.2457530158505282,-0.1949675691291175,0.0345384329537207,0.1455654094783994,11.10294430837166,-1.518214658500841,0.1772150038302618,-1.4218572126439282
2.06,-0.945919337098287,-0.3322895371657369,1.6156203603441686,0.0192515138319521,0.1264340691346015,0.0255669941577643,0.7341862885391002,0.2746723266288495,0.012677659388751,-0.9588702318178526,-0.3372569395997589,1.615054422187756,0.8027016681034319,0.307890751607748,-0.0277642426115426,0.2651240725203778,-0.258329841177074,0.0205455351053623,0.0559852478288035,10.99582963204557,-1.5178136127611777,0.1766072539430244,-1.4236703936811956
2.08,-0.931299908883822,-0.3267962583778135,1.6158658522979792,0.0198435057208643,0.1263529607569241,0.0254892683121742,0.7279912772216128,0.2746605499517895,0.0118319096825212,-0.9429693812752696,-0.3312178504038809,1.6146133959824902,0.8180199500519983,0.3197633352354487,-0.0391901073080453,0.3126243611729047,-0.3097505658743671,-0.0005888338529991,-0.0422874853114922,10.87746223794602,-1.5180162713272116,0.1756947934741393,-1.423479023953889
2.1,-0.9168136527419316,-0.3213085800206837,1.6160779686503746,0.0204824741738041,0.1262108859313383,0.0254187141461179,0.7213168247092928,0.2741747042176746,0.0095567983982001,-0.9270685307326868,-0.325178761208003,1.6141723697772243,0.8333382320005648,0.3316359188631496,-0.050615972004548,0.3534136873856816,-0.3337226256160008,-0.0242922867057432,-0.113755564216054,10.769219614593569,-1.518173806145333,0.1746429816242809,-1.4217953141358826
2.12,-0.9031873591416504,-0.3161095421100204,1.6162229275275135,0.0209189794465709,0.1262995063583128,0.0253490734526056,0.7137820494501566,0.273201515586803,0.0059558818550377,-0.9104017660926754,-0.31854604283074,1.6131600503371333,0.8486565139491312,0.3435085024908504,-0.0620418367010506,0.4203764214004227,-0.3767387629568131,-0.0486594315435823,-0.1800458271581194,10.678709133727352,-1.5178405788429694,0.1738039509601597,-1.4193074761275104
2.14,-0.8889941327529081,-0.3106603140848946,1.6162972835858047,0.0209855677400672,0.1268084648765017,0.0252624481626556,0.7059707844298773,0.271822188289425,0.0016424055478341,-0.893735001452664,-0.3119133244534771,1.6121477308970424,0.8639747958976977,0.3553810861185512,-0.0734677013975533,0.4514545460595607,-0.3905632510139645,-0.068966364868897,-0.2156738153601804,10.604008375777994,-1.5167829504945447,0.1734780215831814,-1.4163771758962822
2.16,-0.874955405718207,-0.3052384483377788,1.616279799908788,0.020545855571612,0.1277750754534513,0.0251561415167986,0.6983744067048908,0.2704987412421887,-0.0031636715970368,-0.8766852797639386,-0.3049837914855215,1.6108497648395388,0.8792930778462641,0.367253669746252,-0.084893566094056,0.4542984815899134,-0.3798188862493223,-0.0661723523618151,-0.2403038572435512,10.5632350471069,-1.514894614231534,0.1737623047645881,-1.4137977001719055
2.18,-0.8617559255119814,-0.3001101436751183,1.6161708758525704,0.0196896769798989,0.129008086546655,0.0250368089002839,0.6914886154817043,0.269440443430487,-0.0080539910175084,-0.859252601026499,-0.2977574439268735,1.6092661521646228,0.8946113597948305,0.3791262533739528,-0.0963194307905587,0.4255858875180413,-0.3442895611593277,-0.0529148905850873,-0.244515971023581,10.533339524656183,-1.51246344277066,0.1746668913337759,-1.4113266658043793
2.2,-0.8479989188750219,-0.2947298590828816,1.6159527061670136,0.0183833545152104,0.1305240328769845,0.0248932985367194,0.6846325862941589,0.2686947917394491,-0.013515109704671,-0.8271814947378963,-0.286638121503594,1.615768176301695,0.7112402815954385,0.2867844842266477,-0.0285839559562682,0.4398435800943833,-0.3428014593772677,-0.0372825845518925,-0.2730559343581286,10.509918074184498,-1.5097844022618263,0.1761222421267336,-1.4090993227808006
2.22,-0.8342975503247626,-0.2892947628848381,1.6157483261566652,0.0188470482137204,0.1301898462162506,0.0248450381801997,0.6860123639075736,0.2743535771221759,-0.0060197211456323,-0.8271814947378963,-0.286638121503594,1.615768176301695,0.7112402815954385,0.2867844842266477,-0.0285839559562682,0.4746221863788377,0.0689888806707339,0.2829392691363397,0.374769427951936,10.48704861745773,-1.5023496899339162,0.1747281654716786,-1.4048644954468466
2.24,-0.8205689926714381,-0.2837699046171181,1.615698684307426,0.0222988785709438,0.1258796369810375,0.0249231133633508,0.6862806565534857,0.2772329844677796,0.0005056704023265,-0.8271814947378963,-0.286638121503594,1.615768176301695,0.7112402815954385,0.2867844842266477,-0.0285839559562682,0.3568742861987272,0.0134146322956052,0.1439703672801828,0.3262695773979456,11.176661182071255,-1.5106660971389707,0.1707092278980228,-1.4056442686921526
2.26,-0.8075631131114541,-0.2785112491754237,1.615739791755717,0.0264567101984793,0.1193887301413516,0.0249791999771797,0.6824099071110938,0.2760544193111379,0.0035305214035974,-0.8200690919219419,-0.2837702766613275,1.6154823367421325,0.7151906148181854,0.2902532923858798,-0.0326899489440202,0.2525937482110164,-0.1935374721195926,-0.0589282578320859,0.1512425500635436,11.176661182071255,-1.5225703156559196,0.1651483889309001,-1.400059787467618
2.28,-0.7939963900485949,-0.2730260305785518,1.615817521419273,0.0304309232022586,0.111746352529186,0.0249522027540535,0.6741889074941442,0.2725871881035839,0.003979707461119,-0.8058442862900331,-0.2780345869767946,1.6149106576230068,0.723091281263679,0.2971909087043441,-0.0409019349195241,0.4466774425208706,-0.4110499808474832,-0.1733615603776966,0.0224593028760816,10.974628764431143,-1.534144412326551,0.1599682875423865,-1.390053606960676
2.3000000000000003,-0.7806329610429027,-0.2676240314971592,1.615877027592001,0.033543394414596,0.1045996594580801,0.0248479175636123,0.6624261055215164,0.2679315418473217,0.0018658484328695,-0.7916194806581244,-0.2722988972922616,1.6143389785038815,0.7309919477091728,0.3041285250228084,-0.049113920895028,0.6413013182233772,-0.58814009863139,-0.2327823128131095,-0.1056929514124745,10.801722799923482,-1.5439125721961022,0.1558313059631791,-1.377972904476831
2.32,-0.7675386252306983,-0.2623225809371635,1.6158707232922018,0.0356820288814517,0.0990183492509465,0.0247076788590546,0.6475457243801541,0.2626985243688886,-0.002351387336023,-0.776999641703941,-0.2662163267918054,1.613356700085981,0.7388926141546664,0.3110661413412727,-0.057325906870532,0.8163873044888444,-0.7440190570681127,-0.2616508739216594,-0.2108617884446339,10.651408492397422,-1.5511601635308714,0.153091298352547,-1.3662997098534635
2.34,-0.7554005439289959,-0.2573873981676677,1.6157785340932005,0.0368420769378399,0.0961374769669427,0.0245917473698141,0.6308863373823528,0.257206224659318,-0.0071155265843386,-0.7623798027497575,-0.2601337562913492,1.6123744216680804,0.7467932806001601,0.318003757659737,-0.0655378928460359,0.9088420572624288,-0.832969349890067,-0.2746149854785273,-0.2382069624157767,10.5038458963636,-1.5547712016422237,0.1513551891143159,-1.3547725594580324
2.36,-0.7429717958021684,-0.2523075910419328,1.6155810653238076,0.0370471122534304,0.0962635681377324,0.024514739087503,0.6132516996455372,0.2511519199436441,-0.0123717126017819,-0.7475624471344368,-0.2538777453829315,1.611186843600792,0.7546939470456538,0.3249413739782012,-0.0737498788215398,0.96858472157695,-0.8817318868407809,-0.3027152357836932,-0.2628093008721673,10.471108739867304,-1.5508700504177115,0.1507084103909087,-1.3465365838553685
2.38,-0.7308781118727598,-0.2473509072821486,1.6152793373002334,0.0360579013936512,0.0989469868973791,0.0244513940383545,0.5973357523613607,0.2449799292047799,-0.0175133090986,-0.7325475748579786,-0.2474482940665521,1.6097939658841165,0.7625946134911475,0.3318789902966655,-0.0819618647970437,0.891413010575627,-0.7957973642088223,-0.308599536943209,-0.2570798248409061,10.471108739867304,-1.5439238709531402,0.1515741688029061,-1.3418865567922962
2.4,-0.7190803948624741,-0.2425137016642523,1.614878552785061,0.0338327717045826,0.1032793845940525,0.0243606528108425,0.5835013230261116,0.2392224241274032,-0.0222900267408326,-0.7010113242546917,-0.2351019108219096,1.6144036718453034,0.6192920210593378,0.257037787724036,-0.0300837526617633,0.7863798878112864,-0.6917214667624572,-0.287875253868837,-0.2388358821116268,10.471192767773571,-1.535312707249595,0.153800325867893,-1.339963812561641
2.42,-0.7080845485534087,-0.2379833061783746,1.614513562423142,0.0318336654495322,0.1077401730255915,0.0242903346281713,0.5746981497115499,0.2375609292197974,-0.0159225708448775,-0.7010113242546917,-0.2351019108219096,1.6144036718453034,0.6192920210593378,0.257037787724036,-0.0300837526617633,0.5495473599271128,-0.4401586657280854,-0.083074745380289,0.3183727947977518,10.471192767773571,-1.5226361716402308,0.1558162240114586,-1.3406961464247928
2.44,-0.6966788485295514,-0.2332557051710662,1.6142581178190825,0.0305146049311264,0.1119915474938317,0.0242550262564359,0.5663995735376521,0.2352726928397687,-0.0100679720605353,-0.7010113242546917,-0.2351019108219096,1.6144036718453034,0.6192920210593378,0.257037787724036,-0.0300837526617633,0.5205255017059486,-0.4149288086948866,-0.1144118190014364,0.2927299392171121,11.072504295846556,-1.5155359232622327,0.1572186233911206,-1.3478607177695745
2.46,-0.6854314552147768,-0.2285736636918559,1.6141009623099238,0.0296665596374929,0.1157340285082439,0.024237682295391,0.5587992250346077,0.2330458814826305,-0.0059412821489389,-0.6948184040440983,-0.2325315329446692,1.6141028343186858,0.6236832747989332,0.2594493594278872,-0.032597841374396,0.4465242317458305,-0.3800174251522237,-0.1113405678569087,0.2063344955798214,11.072504295846556,-1.509496105575192,0.1580324899482766,-1.353448186616372
2.48,-0.6748822205032069,-0.2241662329926915,1.614014727825602,0.0292060736276619,0.118805464856622,0.0242328946693065,0.5520536593543348,0.2310140328998819,-0.0033430093174741,-0.6824325636229116,-0.2273907771901885,1.6135011592654505,0.632465782278124,0.2642725028355897,-0.0376260187996613,0.3754400308864939,-0.3372782840136423,-0.1015924291374315,0.1299136415732401,10.979701166523228,-1.5039832693552044,0.1584600319320225,-1.357868257807985
2.5,-0.6639125025632469,-0.2195684322176536,1.6139660454766194,0.0290240500153026,0.1215692650708262,0.0242381669791721,0.5453036760467584,0.2288823839255377,-0.0017110067164943,-0.6700467232017249,-0.2222500214357078,1.6128994842122153,0.6412482897573148,0.2690956462432922,-0.0426541962249266,0.3632135545790753,-0.3374991653788184,-0.1065824487172087,0.0816001300489862,10.902282990564345,-1.4994746343740146,0.1585215940924147,-1.3608413353460247
2.52,-0.6530744538371476,-0.2150141795215885,1.6139394594277416,0.0290761483142551,0.1239202287871875,0.0242511203426673,0.5388751049376426,0.2266585449458555,-0.0010680808358078,-0.6572217574065786,-0.2168681085108419,1.6120464002877168,0.6500307972365057,0.2739187896509946,-0.0476823736501919,0.3416333561018663,-0.3214285554557938,-0.1111919489841101,0.0321462940343258,10.783647755765742,-1.495166190820589,0.1582906753534499,-1.362874749669586
2.54,-0.6423613666968178,-0.2105065918899957,1.6139203605262864,0.0292524698117726,0.1259335519963125,0.0242662758071021,0.5327877073528037,0.2242375717014937,-0.0008695327980859,-0.6443967916114323,-0.2114861955859761,1.6111933163632184,0.6588133047156965,0.2787419330586971,-0.0527105510754572,0.3277077285062922,-0.3043698792419447,-0.1210486622180914,0.0099274018860982,10.783647755765742,-1.4916955950526951,0.1579329516014084,-1.363730246638581
2.56,-0.632292672031587,-0.2062702768154466,1.613902839032621,0.029462308460206,0.127562238434423,0.0242782749639674,0.5273950975772081,0.2218277611210066,-0.0009831474156642,-0.6313522631293063,-0.2059837040759177,1.6102145280030882,0.6675958121948873,0.2835650764663995,-0.0577387285007225,0.295382529557028,-0.2696304887797762,-0.1204905290243543,-0.0056807308789165,10.746110884836526,-1.488380950843618,0.1574963125519244,-1.364090897196939
2.58,-0.62180170913151,-0.2018619302026729,1.6138787382183195,0.0296639411661431,0.1289851837405583,0.0242838774081372,0.5220031491647963,0.2191436896640462,-0.0014340513139996,-0.6180881719602004,-0.2003606339806667,1.6091100352073262,0.6763783196740781,0.2883882198741019,-0.0627669059259879,0.3019961158430453,-0.2695974206205931,-0.1342035728480198,-0.0225451949167726,10.72600212879297,-1.485580284034134,0.1570947771654034,-1.3638882384479534
2.6,-0.6114162766948108,-0.1975092482895959,1.6138414871970244,0.0297543626850465,0.1301365702367238,0.0242764774282731,0.5168178720081668,0.2162900473373193,-0.0022629655568969,-0.6048240807910945,-0.1947375638854158,1.6080055424115645,0.685160827153269,0.2932113632818044,-0.0677950833512532,0.2988204834931376,-0.2592638578314765,-0.1426821163363428,-0.0414457121448623,10.72600212879297,-1.4833225738572715,0.156848424377389,-1.3631436945361026
2.62,-0.6016016925543373,-0.1934316022496389,1.6138583422504071,0.0295918074362544,0.1299783098540618,0.0242175229443013,0.5163691528992247,0.2131385265391358,0.0040779600081809,-0.5957015516732702,-0.1909047457194705,1.6138070356526195,0.5374501221980457,0.2354326313901347,-0.0121030666619573,0.3547561458310916,-0.0224359554471031,-0.1575760399091796,0.3170462782538961,10.704610790449806,-1.4773675423007506,0.1564955620494336,-1.360722250687283
2.64,-0.591288087532612,-0.1892063356226401,1.6139991316785978,0.0289656335963881,0.1276291024399594,0.0240632580947542,0.5148348584753054,0.2096201964295416,0.0095775222829383,-0.5957015516732702,-0.1909047457194705,1.6138070356526195,0.5374501221980457,0.2354326313901347,-0.0121030666619573,0.3353277924407724,-0.076714721195964,-0.175916505479709,0.2749781137378659,11.177285650327576,-1.4808730630658948,0.1572278078829982,-1.3603369546870212
