t,x,y,z,roll,pitch,yaw,v_x,v_y,v_z,ref_x,ref_y,ref_z,ref_v_x,ref_v_y,ref_v_z,a_com,a_x,a_y,a_z,thrust,wind_x,wind_y,wind_z
0.0,-0.0393653055297941,-0.1113682303764027,2.687458422951979,0.0107665619471314,0.1363182835117105,0.0257183691554371,0.0042653222093618,-0.0004240823606458,0.0078816730081191,-0.0392328861220217,-0.1114815780492123,2.687698284140437,0.012736225409304,0.0916677033294381,-0.0920333243123101,0.4485910966715662,0.21326611046809,-0.0212041180322901,0.3940836504059558,10.545815411183868,-1.2863165274664596,0.1657099401635609,-1.1692399237625657
0.02,-0.0393847795332913,-0.1116117635306449,2.68739918063698,0.0026058137904086,0.1386263073148805,0.0251809689967104,-0.0056645295769157,-0.0196783556984497,-0.0139948744865762,-0.0392328861220217,-0.1114815780492123,2.687698284140437,0.012736225409304,0.0916677033294381,-0.0920333243123101,1.539409244281689,-0.4964925893138759,-0.9627136668901984,-1.0938273747347664,10.545815411183868,-1.298658693140963,0.1752937045737386,-1.1592541295200602
0.04,-0.0395788343066402,-0.1120263349313181,2.6868438569989985,-0.0129578849641726,0.1445849638437368,0.0241004549216531,-0.0127560877428616,-0.0197910060566941,-0.04043644039202,-0.0392328861220217,-0.1114815780492123,2.687698284140437,0.012736225409304,0.0916677033294381,-0.0920333243123101,1.3688127107608037,-0.3545779082972941,-0.0056325179122209,-1.3220782952721917,9.225093232653307,-1.286827949354684,0.1907067172652569,-1.1479021061258083
0.06,-0.0398774232460624,-0.1123479552613729,2.685752511427472,-0.029409132391048,0.1522726421329374,0.0228476341808695,-0.0164140616461533,-0.0119542471961229,-0.0673879166819046,-0.0391055238679286,-0.1105649010159179,2.6867779508973144,0.0144083256850589,0.1105804761637391,-0.1120333246103333,1.4152540732321857,-0.1828986951645862,0.3918379430285615,-1.3475738144942302,9.0283918093146,-1.276224251396661,0.2068952921364826,-1.1385627881240392
0.08,-0.0402184149418604,-0.1124689095518467,2.6841266435056474,-0.0453317596787126,0.160621176351019,0.0215046520468622,-0.0172369365975617,-0.000182429905154,-0.0938688879634146,-0.0388507993597426,-0.1087315469493292,2.684937284411068,0.0177525262365688,0.1484060218323411,-0.1520333252063798,1.44956428412969,-0.0411437475704191,0.5885908645484452,-1.3240485640755009,9.0283918093146,-1.2675181265641584,0.221584806771333,-1.1307093684167735
0.1,-0.0405350786036992,-0.1123344085974772,2.682096779903941,-0.0597303099062893,0.168634287448413,0.0201764108455731,-0.015865157063174,0.014003340622114,-0.1185010405582791,-0.0385960748515565,-0.1068981928827404,2.683096617924822,0.0210967267880787,0.1862315675009431,-0.1920333258024262,1.4229026723567213,0.0685889767193834,0.7092885263634028,-1.2316076297432226,9.09704058114312,-1.2606822491238998,0.2362391238499248,-1.124174730232228
0.12,-0.0408213358429409,-0.1118547883945759,2.6794549202722364,-0.0734930106611129,0.1768661441219498,0.0187936128662049,-0.0126326478394029,0.0331825491624656,-0.1443903886629429,-0.0381741403157949,-0.1031735615327216,2.679255951408773,0.0244409273395885,0.2240571131695451,-0.2320333263984727,1.6190657038864429,0.1616254611885531,0.9589604270175828,-1.2944674052331893,9.118301992546549,-1.2565350905029355,0.2495609669662619,-1.1196621653384522
0.14,-0.0410268817028686,-0.1109592474879932,2.676290359162879,-0.0852535690747301,0.1847505657788767,0.0174993538696181,-0.0079113811463883,0.0552460017003454,-0.170787462224834,-0.0377522057800333,-0.0994489301827027,2.675415284892725,0.0277851278910984,0.2618826588381471,-0.2720333269945192,1.7362976341268062,0.2360633346507338,1.10317262689399,-1.3198536780945582,9.108109323272402,-1.2547326501785954,0.2609342375455636,-1.116338407902026
0.16,-0.0411239746528474,-0.1095911482088454,2.6725935162663217,-0.0946088606874459,0.1922299406983818,0.0163540657318422,-0.0018650446720543,0.0799097215926253,-0.1975450619419677,-0.037246666230484,-0.0947786601909688,2.670574618361776,0.0311293284426082,0.2997082045067491,-0.3120333275905656,1.8444690335622684,0.3023168237166972,1.2331859946139927,-1.3378799858566812,9.108109323272402,-1.254328730489901,0.2695851501798725,-1.1145739895200026
0.18,-0.0410846701468251,-0.107821388895004,2.6685833373552623,-0.1012656738935777,0.1987087270941036,0.015453725207134,0.005759973756645,0.1046367413804828,-0.2231986369402403,-0.0366575216671469,-0.0891627515575198,2.6647339518159243,0.0344735289941181,0.3375337501753511,-0.352033328186612,1.8218619073760096,0.3812509214349727,1.2363509893928752,-1.2826787499136307,9.117647660481452,-1.253682894916018,0.2764576630866354,-1.1142790637441236
0.2,-0.0408721508494079,-0.1054484840761116,2.6638328234453925,-0.1062499775773196,0.2045340977129897,0.0147401937137279,0.0151423239700344,0.1310341002245939,-0.2504769280977569,-0.0407966714589928,-0.1025895518259798,2.65742340550825,0.0272443059158066,0.1785821072266399,-0.3231986384303564,1.955092208788188,0.469117510669469,1.319867942205556,-1.3639145578758325,9.117647660481452,-1.255514273433718,0.2813630957923946,-1.113688303918212
0.22,-0.0404072840557666,-0.1023496442462528,2.6586802405478536,-0.1037581986348052,0.2084747894388955,0.0147673596471572,0.0310215600709736,0.1751463823616759,-0.2622481308773543,-0.0407966714589928,-0.1025895518259798,2.65742340550825,0.0272443059158066,0.1785821072266399,-0.3231986384303564,2.416922004000798,0.7939618050469576,2.2056141068540995,-0.5885601389798684,9.113543564214524,-1.2545676920924718,0.2791009857194817,-1.1145760594147165
0.24,-0.0396682305462859,-0.0987082649536263,2.653592205464331,-0.0940220259336881,0.2099988607104725,0.0155709403561461,0.0458105782940534,0.2045528336184505,-0.2726684737431405,-0.0407966714589928,-0.1025895518259798,2.65742340550825,0.0272443059158066,0.1785821072266399,-0.3231986384303564,1.7262951521685057,0.7394509111539919,1.4703225628387329,-0.5210171432893124,10.199321680419416,-1.2667917091944705,0.2706004423449903,-1.1225958429229033
0.26,-0.0385994468354624,-0.0943725095956937,2.64799861951636,-0.0820596191312849,0.2097854005196017,0.0167168618968702,0.0601510429722477,0.2270437368834136,-0.286261916025886,-0.0405242283998347,-0.1008037307537134,2.654191419123946,0.0315411723476389,0.1933711803958713,-0.3431986387283797,1.4968895499959216,0.7170232339097148,1.1245451632481542,-0.6796721141372725,10.021788037669468,-1.2780140536782274,0.2603068350637582,-1.1314808654658006
0.28,-0.0372578636201233,-0.0896418329226135,2.6421022694508323,-0.0705279233908282,0.2079593637869828,0.0179479710020545,0.073144622122564,0.2447729296464336,-0.3028070763998864,-0.0399793422815186,-0.0972320886091806,2.6477274463553395,0.0401349052113036,0.2229493267343341,-0.3831986393244261,1.3755905158924,0.6496789575158122,0.8864596381509993,-0.8272580187000222,9.814398652383716,-1.2888578765608796,0.2499884974658398,-1.1362548131285166
0.3,-0.035673573047153,-0.0845923849397915,2.6358449155192463,-0.0602561167726149,0.2047444369179993,0.0191531485797994,0.0844894983659311,0.2594014948765629,-0.3220731114918208,-0.0394344561632025,-0.0936604464646478,2.6412634735867324,0.0487286380749682,0.252527473072797,-0.4231986399204726,1.335927810393499,0.5672438121683561,0.7314282615064643,-0.9633017545967154,9.480823845833584,-1.2988152929891323,0.2409812952358602,-1.1364649274214245
0.32,-0.0339767483392375,-0.0795456606223024,2.629523239629276,-0.0518448773519437,0.2007195861132802,0.0202208437016212,0.0934245363628718,0.2712702592067426,-0.3423873168445768,-0.0384598834017031,-0.0886098970031919,2.6327995007883227,0.0573223709386328,0.2821056194112598,-0.463198640516519,1.25834157708277,0.4467518998470379,0.5934382165089819,-1.015710267637801,9.480823845833584,-1.3085311891931612,0.2327209006407382,-1.133974826478126
0.34,-0.0320289153874257,-0.0740056828705631,2.6224396435651967,-0.0444046463357447,0.1959532806258836,0.0212286673105537,0.1006780551559894,0.282212232441302,-0.3649420403479493,-0.0374853106402037,-0.083559347541736,2.624335527989913,0.0659161038022975,0.3116837657497227,-0.5031986411125655,1.3048523532008447,0.3626759396558793,0.5470986617279738,-1.127736175168628,9.352493910541853,-1.3174028463744043,0.2257565002825353,-1.1290388230078927
0.36,-0.0299590727757461,-0.0682538593429982,2.6148955052126825,-0.0381471716460593,0.1912729274153038,0.0221097448184827,0.1058238865512908,0.2924938462441115,-0.388313653884202,-0.0362958945571128,-0.0777693444218184,2.614871555176603,0.0745098366659621,0.3412619120881855,-0.5431986417086119,1.3023281867744985,0.2572915697650689,0.5140806901404754,-1.1685806768126332,9.272993111072536,-1.3244758813024018,0.2200946054071761,-1.1227359832726205
0.38,-0.0278074601866383,-0.0623044388452181,2.60687654523444,-0.0327119016084407,0.1872519690606038,0.0228757682776334,0.108980276254579,0.3019614273087025,-0.4123877549048814,-0.0348916351524302,-0.0712398876434394,2.604407582348391,0.0831035695296267,0.3708400584266483,-0.5831986423046583,1.303035136831985,0.1578194851644114,0.4733790532295473,-1.203705051033968,9.220456625557745,-1.3306095426529188,0.2148650016400907,-1.1156210733926792
0.4,-0.0257225910211789,-0.0564850367997734,2.5988057285872346,-0.0281603916142552,0.1845985379228804,0.0235006213105026,0.1102753657254415,0.3101537794409089,-0.4359485458275716,-0.0223584463739094,-0.047206367479783,2.586257157489196,0.0757205491937842,0.2987966548987568,-0.5123877563949975,1.2489022771000995,0.0647544735431215,0.4096176066103185,-1.17803954613451,9.169178295154325,-1.3343178797764927,0.2101824072341606,-1.1088060190226798
0.42,-0.0233774767835172,-0.0500008298165726,2.590031141386574,-0.0178036268070477,0.1804690564053573,0.0245460136360697,0.1245400945347361,0.3345293738358061,-0.438951061183134,-0.0223584463739094,-0.047206367479783,2.586257157489196,0.0757205491937842,0.2987966548987568,-0.5123877563949975,1.4200943529988184,0.7132364404647311,1.218779719744861,-0.1501257677781198,9.118377680398224,-1.326163292834632,0.1986407176653815,-1.09466863555305
0.44,-0.0207592281005308,-0.0431765561965348,2.581201158486028,-0.0015792769351453,0.1720534876924178,0.0259509560042254,0.1357891138456091,0.3454219806447035,-0.4442004320453788,-0.0223584463739094,-0.047206367479783,2.586257157489196,0.0757205491937842,0.2987966548987568,-0.5123877563949975,0.8257499818332079,0.5624509655436496,0.544630340444871,-0.2624685431122431,10.497689673232344,-1.3451667856603438,0.185011853271366,-1.0977553258306478
0.46,-0.0181196459625667,-0.0365859289169709,2.5726584277385225,0.0146429638772038,0.1616467460009177,0.0271478355541682,0.1410382183941017,0.3474431489034617,-0.4546891626546807,-0.0216012408819715,-0.0442184009307954,2.581133279925246,0.0690686037816252,0.2981637004167676,-0.5323877566930206,0.5950875765081188,0.2624552274246308,0.1010584129379071,-0.5244365304650916,10.125965522835031,-1.3639355470105226,0.1690381854365576,-1.0912908675602755
0.48,-0.0152888361035571,-0.0296657693603141,2.563405054091944,0.0305706776478192,0.1496705068906933,0.0280729859075891,0.141323872666492,0.34434085507719,-0.4702708331163862,-0.0200868298980958,-0.0382424678328203,2.570885524797346,0.0557647129573073,0.2968977914527893,-0.5723877572890671,0.794503429390087,0.014282713619515,-0.155114691313582,-0.779083523085275,9.787316182349969,-1.3794781332089276,0.1537674606776658,-1.077230192957056
0.5,-0.0125026156147449,-0.0228482355550538,2.55379769250426,0.0446229691330165,0.1378589173369633,0.0286405828480098,0.1369795257228313,0.3376128477269446,-0.4898116008342725,-0.0185724189142201,-0.0322665347348451,2.5606377696694462,0.0424608221329894,0.295631882488811,-0.6123877578851136,1.0559131548998728,-0.2172173471830366,-0.3364003675122712,-0.9770383858943188,9.51226199964094,-1.3909834926696034,0.1408624692542743,-1.059174562773686
0.52,-0.0098453839391018,-0.0161949126203968,2.543762709352456,0.0565810944439865,0.1271390224660548,0.0289167196481384,0.128866273311053,0.3283174862127431,-0.51264622321396,-0.0177232024715604,-0.0263538970850689,2.548390014511744,0.0291569313086714,0.2943659735248328,-0.65238775848116,1.2977370588835089,-0.4056626205889133,-0.464768075710073,-1.1417311189843735,9.294764721243157,-1.398690326039476,0.1292805394989875,-1.0368549697487677
0.54,-0.0074974344535864,-0.0100654075550883,2.5337926040618792,0.0660931580094543,0.1184803290400051,0.0289972750432473,0.1186987705894975,0.3176372209136713,-0.5356441453143777,-0.0168739860289006,-0.0204412594352927,2.5361422593540417,0.0158530404843535,0.2931000645608544,-0.6923877590772065,1.365970899569492,-0.5083751360777766,-0.5340132649535922,-1.1498961050208811,9.12535285797685,-1.402213031265434,0.1197524059672948,-1.0131304124058762
0.56,-0.0052538332741103,-0.0038452734641548,2.522815832631848,0.0743511290844659,0.1112675477155384,0.02897992158905,0.1061491180526673,0.3051026252255676,-0.5608264879671028,-0.0163573668568487,-0.0145602695096159,2.5228945041814383,0.0025491496600356,0.2918341555968762,-0.7323877596732529,1.5400976018897747,-0.6274826268415065,-0.6267297844051861,-1.259117132636256,9.048886971405864,-1.4023290114629607,0.1120700958207898,-0.9912357021640492
0.58,-0.0032801248778638,0.0021112584475627,2.511327197583651,0.0809685319493812,0.1063495246089005,0.0289458228018448,0.0917705717145593,0.2913722503597914,-0.5867708162060243,-0.0161733449554048,-0.0087109273080386,2.5086467489939337,-0.0107547411642823,0.2905682466328979,-0.7723877602692993,1.6342995108920215,-0.718927316905401,-0.6865187432888081,-1.2972164119460785,8.942763334716801,-1.4003764838106691,0.105994378841437,-0.974288578455344
0.6,-0.0016133194053491,0.0077826438361989,2.4993114384727457,0.0860527270239182,0.1043716146551121,0.0290004339419495,0.075778366382283,0.2767777812110432,-0.613457357864708,0.0013084037078641,0.0166798709655523,2.48198865677335,0.0427340651511343,0.2642985056753336,-0.6867708176961405,1.7182263142730274,-0.7996102666138163,-0.729723457437409,-1.3343270829341836,8.942763334716801,-1.394791934851889,0.1014698595824889,-0.9625952542276855
0.62,-0.000294278077522,0.0129041628743676,2.487642150001604,0.0905976359790239,0.1052812518768889,0.0292534695687613,0.0642392981688775,0.262664398132753,-0.6135845549008787,0.0013084037078641,0.0166798709655523,2.48198865677335,0.0427340651511343,0.2642985056753336,-0.6867708176961405,0.9115287382115328,-0.5769534106702751,-0.7056691539145094,-0.006359851808535,10.385882322509133,-1.379560709219607,0.0971329766388053,-0.9445797525275978
0.64,0.0008795614364662,0.0179861419081888,2.475330807977432,0.0953777462061258,0.1082306820076243,0.0296932855223155,0.0539879442563798,0.2462261521496124,-0.6178957804182491,0.0013084037078641,0.0166798709655523,2.48198865677335,0.0427340651511343,0.2642985056753336,-0.6867708176961405,0.9923367038247972,-0.5125676956248854,-0.8219122991570293,-0.2155612758685199,10.385882322509133,-1.372849152842749,0.0927103279753922,-0.946626541326716
0.66,0.0018654907946042,0.0227219575736292,2.462874737419744,0.0994795313955466,0.1122816990123189,0.0301908213410127,0.0453085345024066,0.2283319200580965,-0.6276876836472225,0.0017357443593754,0.0193228560223056,2.4751209485963885,0.0329267638384492,0.2588837567384421,-0.7067708179941636,1.1083964370521773,-0.4339704876986594,-0.8947116045757986,-0.4895951614486693,9.747300984668072,-1.365007001238887,0.0889749324510562,-0.9480837468143696
0.68,0.0026931747043085,0.0270928682309209,2.4501725719261374,0.1024971756344742,0.1167476552745231,0.0306545149881748,0.0380504684982809,0.2099454746016277,-0.6419826897094187,0.0025904256623981,0.0246088261358123,2.4613855322424656,0.0133121612130792,0.2480542588646589,-0.7467708185902101,1.2197213790064656,-0.3629033002062836,-0.919322272823439,-0.7147503031098124,9.52506921341046,-1.3566240841507984,0.0863226803931494,-0.9484846641338284
0.7000000000000001,0.003357580631376,0.0309037907760541,2.4378095609154933,0.1043598663876888,0.1209328538243621,0.0310167044163801,0.0323378735062711,0.1923723221264446,-0.6586326652414395,0.0034451069654208,0.029894796249319,2.447650115888542,-0.0063024414122907,0.2372247609908758,-0.7867708191862566,1.243655011122114,-0.2856297496004922,-0.8786576237591534,-0.8324987766010372,9.52506921341046,-1.3472768379290334,0.0844566902711495,-0.9473636468948278
0.72,0.0039505684975863,0.0345552918798324,2.4244277942552244,0.1052733171921032,0.1249722209868055,0.0312802678983782,0.0273327674217077,0.1738094026362803,-0.6787667835487525,0.003319058137175,0.0346392914691365,2.431914699504817,-0.0259170440376607,0.2263952631170927,-0.826770819782303,1.391955267716004,-0.2502553042281703,-0.928145974508214,-1.006705915365652,9.355992026999957,-1.3384176087745852,0.0834710933182509,-0.946036586388162
0.74,0.0044539101275422,0.0378303842953561,2.410629789698261,0.1048441595253912,0.1284388985623377,0.0313795826439511,0.0232965005868906,0.1547654081043116,-0.700033526341207,0.0031930093089291,0.039383786688954,2.4161792831210924,-0.0455316466630308,0.2155657652433096,-0.8667708203783495,1.4415612427988542,-0.2018133417408531,-0.952199726598435,-1.063337139622722,9.16509254261473,-1.3303806958995268,0.0836004885109885,-0.9440709345936794
0.76,0.0048835212799082,0.0407177537574993,2.396398911189007,0.1025866692200436,0.1312658674218396,0.0312712197596763,0.0198758146641411,0.1352327881448574,-0.7219407733861735,0.0025765954150491,0.0438575444619269,2.399443866722466,-0.0651462492884008,0.2047362673695265,-0.906770820974396,1.47745711253471,-0.1710342961374764,-0.9766309979727134,-1.095362352248325,9.16509254261473,-1.323275797318158,0.0851441223208209,-0.9408382528972096
0.78,0.0052322671726535,0.0431124949228933,2.3824696944425323,0.0988086912435451,0.1333973946710861,0.0309849447543392,0.0169970461141926,0.1183799518704805,-0.7431291507016383,0.0014698164555348,0.0480605647880553,2.3817084503089387,-0.0847608519137708,0.1939067694957434,-0.9467708215704423,1.3612978477519453,-0.1439384274974238,-0.842641813718844,-1.0594188657732428,9.134608281402508,-1.316846090429424,0.0881294898201506,-0.9377686450159513
0.8,0.0055422743348635,0.045313084810439,2.367366357835971,0.0940988754829408,0.1351029492967559,0.0305685786252893,0.0141511636159644,0.1028303865480012,-0.7660977148526072,0.0060821194783632,0.0490314925164173,2.3453132369074505,0.0006465178888899,0.1096733058303985,-0.8431291521917544,1.3941332146435517,-0.1422941249114082,-0.777478266123962,-1.1484282075484464,9.099369707791992,-1.3117807356775837,0.091744481457677,-0.93456418459153
0.8200000000000001,0.005766653447252,0.0471813609078467,2.352053064946232,0.0886944738696377,0.1384165277116472,0.0302403406733086,0.0089362811972462,0.0851283801054871,-0.7627543077787553,0.0060821194783632,0.0490314925164173,2.3453132369074505,0.0006465178888899,0.1096733058303985,-0.8431291521917544,0.937729174113388,-0.2607441209359126,-0.885100322125705,0.1671703536925972,9.046411489523052,-1.302102402072551,0.0958567837137791,-0.925141533787868
0.84,0.0059164140591106,0.0487165339928679,2.3368048131779906,0.0826698789925296,0.1446881651132925,0.0301047910482386,0.0067477661035318,0.069690010351463,-0.7623806291932843,0.0060821194783632,0.0490314925164173,2.3453132369074505,0.0006465178888899,0.1096733058303985,-0.8431291521917544,0.7798597544793258,-0.109425754685717,-0.7719184877012057,0.0186839292735496,10.654668280667464,-1.294165906367744,0.1002596554965008,-0.9344660605575236
0.86,0.0060428789796024,0.0499093316137091,2.3222720662960947,0.0766537491828861,0.151974378521863,0.0300263072351695,0.0069656082457338,0.056958211855886,-0.7673868089326583,0.0060885846572521,0.0501282255747213,2.336881945385533,-0.0026235877561705,0.1079319766223821,-0.8631291524897776,0.6841198427794193,0.0108921071100975,-0.6365899247788506,-0.2503089869687003,10.282930236361608,-1.2861202907432392,0.1051966559337212,-0.9440520832874344
0.88,0.0062013152664013,0.0509256104721998,2.306826693796177,0.070205511522263,0.1602043128860235,0.0299295961062813,0.0091151111026615,0.0455998455195693,-0.7770864970432717,0.0061015150150299,0.0523216916913293,2.320019362341698,-0.0091637990462916,0.1044493182063493,-0.903129153085824,0.7545144097449156,0.1074751428463864,-0.5679183168158343,-0.4849844055306695,9.968195712933266,-1.2778186739305075,0.1103786096785097,-0.9532323318598196
0.9,0.0064224553610292,0.0517340947724562,2.291147340869585,0.0637921280839547,0.1684697413069837,0.0297859350304923,0.0130943923383185,0.0360360214355812,-0.7905125540051863,0.0061144453728077,0.0545151578079373,2.3031567792978627,-0.0157040103364127,0.1009666597903165,-0.9431291536818706,0.8478803214583069,0.1989640617828486,-0.4781912041994039,-0.6713028480957284,9.533656208696812,-1.269432053401503,0.1156061256431136,-0.9616624615415
0.92,0.0067456662613796,0.0523695350874395,2.2751640241787188,0.0575236254214622,0.1762008481863838,0.0295696059028794,0.0191385600823896,0.0281630173524001,-0.8071406014585327,0.0058003651660794,0.0565344910037436,2.2842941962242254,-0.0222442216265338,0.0974840013742837,-0.983129154277917,0.9682563182378376,0.3022083872035542,-0.393650204159055,-0.8314023726673225,9.384564411044266,-1.262085706677541,0.120516686879373,-0.968634605387116
0.94,0.0071827723165184,0.0528422240527132,2.259658220466915,0.0518151155926001,0.1825851031725607,0.0292875981124547,0.0265935923280348,0.0220902340147727,-0.8242151244572611,0.0054862849593512,0.0585538241995499,2.265431613150588,-0.0287844329166549,0.0940013429582509,-1.0231291548739636,0.9797902057117628,0.3727516122822608,-0.3036391668813735,-0.8537261499364179,9.384564411044266,-1.255470363549955,0.1255141519972281,-0.9736283566538072
0.96,0.0078088928668229,0.0532281777790338,2.242975032751008,0.046127515858968,0.1880360635090023,0.0289169650452556,0.0356448087244569,0.0169348712324054,-0.8432479600007053,0.0050086994703699,0.0604860909349554,2.245569030062049,-0.0353246442067759,0.0905186845422181,-1.06312915547001,1.0848399795551342,0.4525608198211061,-0.2577681391183646,-0.951641777172213,9.327335252445664,-1.2506336928251245,0.1302695047791492,-0.976585409548412
0.98,0.0086257807014703,0.0535233243853948,2.2259014015012446,0.0407913235817539,0.1920649412896189,0.02848467717239,0.0455593999234014,0.0129274363754678,-0.8631889995951578,0.0043676086991356,0.0623312912099601,2.224706446958609,-0.041864855496897,0.0870360261261854,-1.1031291560660563,1.1313749520851917,0.4957295599472264,-0.2003717428468768,-0.997051979722624,9.23383842048952,-1.2476381518278337,0.1345155834311057,-0.9776476829389256
1.0,0.0095907016602887,0.0537399897675786,2.209302953573609,0.0360725734415957,0.194521054057895,0.0280329838294872,0.0554063748723829,0.0101220488439064,-0.8829977233191486,0.0109037506976404,0.0541696962041682,2.1827419515214865,0.0333066789192134,0.0260906648947287,-0.8769155497495458,1.1149200088139777,0.4923487474490732,-0.1402693765780704,-0.9904361861995392,9.23383842048952,-1.2462806733922065,0.1386746818490218,-0.976835872638262
1.02,0.0109330854799562,0.0538802521950267,2.1918918749408416,0.0306314435849901,0.1949074324873272,0.0274472636870793,0.0787252423858985,0.0045302580266492,-0.8545677555897836,0.0109037506976404,0.0541696962041682,2.1827419515214865,0.0333066789192134,0.0260906648947287,-0.8769155497495458,1.859637580114464,1.1659433756757802,-0.2795895408628637,1.4214983864682509,9.18906353917373,-1.2334495142939352,0.141842576740494,-0.9646042416413262
1.04,0.0126580556371011,0.053935635763259,2.17592565521304,0.0249583837537125,0.1920898044247671,0.0267768819356987,0.1013704876306187,0.0018221503879487,-0.8277443069598646,0.0109037506976404,0.0541696962041682,2.1827419515214865,0.0333066789192134,0.0260906648947287,-0.8769155497495458,1.7604249313576346,1.132262262236007,-0.1354053819350203,1.3411724314959517,12.474598334695656,-1.244492799878399,0.1474071299224972,-0.9658338214529874
1.06,0.0149165598687118,0.0539597638570239,2.1596151055865302,0.0190437774863985,0.1854662857254418,0.0260288402775802,0.1225608242352953,0.0009068951923507,-0.8048759186251959,0.0112368174868325,0.0544306028531154,2.173972796023991,0.0308561347183758,0.0287233105985809,-0.8796608597804234,1.559512137270639,1.0595168302338296,-0.0457627597799013,1.1434194167334322,12.068661106484797,-1.260765609779873,0.1530427146086899,-0.960171023656094
1.08,0.0175503610310873,0.0539833858171727,2.1437112685182225,0.0134161426614194,0.1758032967871156,0.0253100310696229,0.1391316520744009,0.0016134065264566,-0.7867712808728504,0.0119029510652168,0.05495241615101,2.156434485029,0.0259550463167006,0.0339886020062853,-0.8851514798421786,1.2276699492149283,0.8285413919552842,0.0353255667052918,0.9052318876172748,11.678709356084257,-1.277337316940632,0.1580345937820564,-0.9507286230637944
1.1,0.0203130966547486,0.0540327263862895,2.128895927525276,0.0084833908939717,0.1646312642165565,0.0247030873940842,0.1503150464218811,0.0035721310427506,-0.7735449955104622,0.0125690846436011,0.0554742294489046,2.1388961740340093,0.0210539579150253,0.0392538934139896,-0.8906420999039337,0.8715496763657663,0.5591697173740098,0.0979362258147044,0.6613142681194117,11.3449045989546,-1.2956320613089316,0.1628314657570816,-0.9381099565775176
1.12,0.0233994238472256,0.0541361543537188,2.113542407758874,0.0037967854558659,0.1516824754205384,0.0241706718649308,0.1571908989837989,0.0066986278674213,-0.762592838863877,0.0129901638019016,0.0562593073171844,2.121083332035931,0.0161528695133501,0.044519184821694,-0.8961327199656889,0.6652106171342413,0.3437926280958875,0.1563248412335317,0.547607832329261,11.070337090159228,-1.3132260857155773,0.1670314266308014,-0.9232465156321304
1.14,0.0265745425321846,0.0543129284504209,2.0983965367502355,-0.0003116676334081,0.1383582412150977,0.0237563562835142,0.1595351356648568,0.0108109262475448,-0.752527743517758,0.0134112429602021,0.0570443851854642,2.103270490037852,0.0112517811116749,0.0497844762293983,-0.901623340027444,0.556130802757882,0.1172118340528965,0.2056149190061778,0.5032547673059495,10.852584896007102,-1.3279057664891512,0.1703653496365461,-0.9076695655522224
1.16,0.0295927684437067,0.0545662313609596,2.084187391332582,-0.0035964339578056,0.1260525029683635,0.0234701848072789,0.1577781746874276,0.0155461829612709,-0.7436439509004483,0.0137097949084607,0.0579610953389366,2.0853203825382294,0.0063506927099996,0.0550497676371027,-0.9071139600891992,0.510958264656867,-0.0878480488714625,0.2367628356863055,0.4441896308654824,10.788705004946678,-1.3417021967283411,0.1732527326469214,-0.8918221256532406
1.18,0.0326950841329195,0.0549353527473384,2.069405376782373,-0.0064143941712355,0.1140462626013062,0.0232652825105607,0.1522663609004869,0.0210492997442091,-0.7350502566268584,0.0138858196466774,0.0590094377776016,2.067233009537063,0.0014496043083244,0.060315059044807,-0.9126045801509544,0.579905093132698,-0.2755906893470328,0.2751558391469099,0.4296847136794957,10.6726270325953,-1.353340909464436,0.1755250065133003,-0.877394833591994
1.2,0.0356513843001158,0.0554196112452401,2.054784363473628,-0.0085938553656168,0.1034588504059039,0.0231392294969659,0.1434540347543045,0.0270096968276928,-0.7275201558477794,0.0403084021779438,0.0559878177345489,2.03265286395103,0.0888584704018488,0.009004796390673,-0.7155314397832295,0.6517013181714789,-0.4406163073091218,0.2980198541741825,0.3765050389539504,10.6726270325953,-1.362481476915269,0.1772048010560377,-0.8647496302117098
1.22,0.0384740529678603,0.0561373960646792,2.040527711450339,-0.0067038808630517,0.0930600278529369,0.0233116187535254,0.1390123530971415,0.0434700267986023,-0.6973327629630509,0.0403084021779438,0.0559878177345489,2.03265286395103,0.0888584704018488,0.009004796390673,-0.7155314397832295,1.7334573025256172,-0.222084082858151,0.8230164985454739,1.5093696442364246,12.16955904252154,-1.3580371359243557,0.1749616405563188,-0.8527995664311354
1.24,0.0410413533147007,0.0570650512733376,2.0275525190959622,-7.105682181227788e-06,0.08241109369842,0.0237642483905086,0.1310779973236594,0.0521461861885541,-0.6700826041579517,0.0403084021779438,0.0559878177345489,2.03265286395103,0.0888584704018488,0.009004796390673,-0.7155314397832295,1.483914500740492,-0.396717788674103,0.4338079694975908,1.362507940254959,11.857709458167848,-1.3725691944842593,0.1702436687518103,-0.8434918805953868
1.26,0.0435386302100427,0.0581484956245637,2.01441828543232,0.0084245268884331,0.0712770268516219,0.0242317849046594,0.1187181379236095,0.0553290765746387,-0.6449299141345922,0.0411969868819623,0.0560778656984556,2.0254975495531977,0.0761768923021211,0.0065958957199658,-0.7116276764145038,1.4102789892518086,-0.6179929700024955,0.1591445193042304,1.2576345011679757,11.857709458167848,-1.3835455199985225,0.164151714800437,-0.8340445370877714
1.28,0.0457473003365702,0.0592543741224555,2.001747659021594,0.0167806387688653,0.0609168799747003,0.0245882803906538,0.1025777633701264,0.0549269941877997,-0.623378053997107,0.0429741562899993,0.0562579616262691,2.011186920757533,0.0508137361026659,0.0017780943785513,-0.7038201496770522,1.3464360701108815,-0.8070187276741525,-0.0201041193419494,1.0775930068742612,11.617028438297892,-1.3918384364531693,0.1583004168739316,-0.8265197094889271
1.3,0.0475158945137195,0.060271415417616,1.9900833168383103,0.0240744840753549,0.0522966896455143,0.0248113303603119,0.0843292284240705,0.052146377403012,-0.6055222301314964,0.0447513256980362,0.0564380575540826,1.9968762919618688,0.0254505799032106,-0.003039706962863,-0.6960126229396006,1.2841060151920642,-0.9124267473027976,-0.1390308392393863,0.8927911932805288,11.410692406121598,-1.3972591185859216,0.1524283749083812,-0.8191064044649138
1.32,0.048978819403496,0.0612653456979916,1.9781516539633557,0.0308537649036368,0.0448613691496776,0.0249481205616345,0.0627975187999557,0.0473877730009277,-0.5886705082650753,0.0452603372961005,0.0563772634148253,1.9829560395030763,8.74237037553939e-05,-0.0078575083042775,-0.6882050962021491,1.3876593287402608,-1.0765854812057378,-0.2379302201042141,0.8425860933210572,11.253460224412263,-1.3994732949923132,0.1470672827789733,-0.8130224793831355
1.34,0.0499864078439804,0.0621462344412591,1.966546578986972,0.0366024271767119,0.0395610849045995,0.0250251677614815,0.0389048121282456,0.04100209926909,-0.5727087521108443,0.0457693488941647,0.056316469275568,1.9690357870442845,-0.0252757324956998,-0.0126753096456919,-0.6803975694646975,1.4717471935058974,-1.1946353335855056,-0.3192836865918841,0.7980878077115505,11.1454315883675,-1.3986400945423505,0.1423408627099432,-0.8083234923441721
1.36,0.0504885119754439,0.0628838475031523,1.9552524540825296,0.0412202521346305,0.0373038442590637,0.0251049575954832,0.0127214260190162,0.0332961186823369,-0.5574907507466017,0.0456442815872425,0.0561352301027754,1.9553107227539288,-0.0506388886951551,-0.0174931109871064,-0.672590042727246,1.5624815282672084,-1.3091693054614704,-0.3852990293376573,0.7609000682121281,11.121083754411302,-1.3941382458432223,0.138478717641852,-0.8073162938761969
1.38,0.0504838201842689,0.0634332119426034,1.9447997065814304,0.0445805723917981,0.0381928763614808,0.0252248615170773,-0.011505576915086,0.0251501527526956,-0.5435422097416334,0.0448851353753339,0.0558335458964474,1.9417808466320092,-0.0760020448946103,-0.0223109123285208,-0.6647825159897944,1.455907129819034,-1.2113501467051135,-0.407298296482062,0.697427050248417,11.06098797666982,-1.384918090823979,0.1349696634207612,-0.8121206729565803
1.4,0.0500016401668019,0.0638404405293087,1.9340789651797157,0.0471291791315218,0.0416089127262075,0.0253951911683033,-0.0350874437693279,0.0161680876987773,-0.5292783022347378,0.0499085413385146,0.0646907195802382,1.9176225960943485,-0.0146812469633079,0.0093766589561086,-0.5346948734568171,1.4493455370694783,-1.1790933427120964,-0.4491032526959163,0.7131953753447773,11.06098797666982,-1.3725921483439665,0.1320426629378125,-0.8218155535939061
1.42,0.0490193461651103,0.0640422071822005,1.9236696136110292,0.0481200084501134,0.0485734581308553,0.0256314290671999,-0.061342278793207,0.0047401632217856,-0.5121813800566021,0.0499085413385146,0.0646907195802382,1.9176225960943485,-0.0146812469633079,0.0093766589561086,-0.5346948734568171,1.6674970524323,-1.3127417511939534,-0.5713962238495863,0.8548461089067871,11.030745414283048,-1.3572648181471458,0.1302458996775284,-0.8349605047394839
1.44,0.0475672583316984,0.0640190234694852,1.9135881470915683,0.0470872650844472,0.0593001688973912,0.0259058713502351,-0.0818687628279383,-0.0062037778162068,-0.4968265875820173,0.0499085413385146,0.0646907195802382,1.9176225960943485,-0.0146812469633079,0.0093766589561086,-0.5346948734568171,1.3936248098113588,-1.0263242017365652,-0.5471970518996241,0.7677396237292355,11.28310144641182,-1.3405511189417263,0.1299777195202259,-0.8536159701447823
1.46,0.0458580988735594,0.0638010378198176,1.9042814462834228,0.0443673509881314,0.0710604025317348,0.0260993519881491,-0.0965668297235794,-0.0157908432964589,-0.483588848225538,0.0497617288688815,0.0647844861697993,1.9122756473597804,-0.0153163809729523,0.0062219601967912,-0.5329254061998538,1.0990709011040447,-0.7349033447820549,-0.4793532740126024,0.6618869678239658,11.112417687460038,-1.32330049051935,0.1313236460608364,-0.8739651303771024
1.48,0.0438010913864589,0.0634051764839828,1.894747488270932,0.0404532550694402,0.0839677437370788,0.0262118196776584,-0.1079155523638298,-0.0229968501949093,-0.4705605647641862,0.0494681039296154,0.0649720193489215,1.901581749890644,-0.0165866489922411,-8.743732184350247e-05,-0.5293864716859273,0.9360237856689078,-0.5674361320125186,-0.3603003449225213,0.6514141730675937,11.018638302553882,-1.3072692590491537,0.133790267188653,-0.89389733235014
1.5,0.0415556973559045,0.0628885296621777,1.8854629367391773,0.036417037581081,0.0967904328612057,0.0262626624669995,-0.1156677203809663,-0.0281930278333096,-0.4585793371412007,0.0491744789903492,0.0651595525280436,1.890887852421508,-0.0178569170115299,-0.0063968348404782,-0.5258475371720008,0.759352003963767,-0.3876084008568293,-0.259808881920014,0.5990613811492712,10.963922119689414,-1.2935143212509623,0.1364619357051208,-0.9117881932763204
1.52,0.0391890912535611,0.0622836735082775,1.8764086527926815,0.0326471868574059,0.1091944166345991,0.0262696593654976,-0.1202580006218169,-0.0320031011251299,-0.447490100110496,0.0488173406501186,0.0650316158312341,1.880370901678068,-0.0191271850308186,-0.012706232359113,-0.5223086026580743,0.6296000895444231,-0.2295140120425282,-0.190503664591019,0.5544618515352345,10.916354091379617,-1.2803442180948037,0.1392520609694596,-0.929475660785176
1.54,0.036883108168072,0.0616490276024348,1.8680063027139888,0.0294571486112956,0.1204399015969448,0.0262482559998605,-0.1219731679347608,-0.0346328304617394,-0.4375618819678166,0.048460202309888,0.0649036791344245,1.8698539509346277,-0.0203974530501074,-0.0190156298777478,-0.5187696681441478,0.5206409290092485,-0.0857583656471969,-0.1314864668304716,0.4964109071339734,10.881935989458723,-1.2682391813167408,0.141829141779483,-0.9460680108187388
1.56,0.0344471080657164,0.0609342183698133,1.859359448268299,0.0265257108442341,0.131642460060248,0.0262043614757124,-0.1212474435336224,-0.0367009461654355,-0.42770209704884,0.0480713072691752,0.0646180074996491,1.859425473554036,-0.0216677210693962,-0.0253250273963826,-0.5152307336302213,0.5050226161241712,0.0362862200569205,-0.1034057851848086,0.49298924594883,10.865174187882984,-1.2575319553430009,0.1441695733768534,-0.9614525356259596
1.58,0.032050703762899,0.0601850934288101,1.850902878736882,0.0240101769388902,0.1421760390294251,0.0261453138718453,-0.1181683826391429,-0.0381137113785093,-0.4185049634349008,0.0476506555279802,0.0641746009269078,1.849085469536292,-0.022937989088685,-0.0316344249150174,-0.5116917991162948,0.4900606805586288,0.1539530447239742,-0.0706382606536888,0.45985668069696,10.851358956895638,-1.2482623238204082,0.1462721522204571,-0.975677903650813
1.6,0.0297388340730032,0.0594141418122492,1.8426238866404547,0.0219078658084951,0.1520505846270475,0.0260791047680355,-0.1129302146582627,-0.0389591979768155,-0.4098973110271173,0.0261422846309418,0.0582794078598846,1.829977630565137,-0.0635518345181675,-0.0364497543545162,-0.4038154713731666,0.5055811788354462,0.2619083990440141,-0.0422743299153094,0.4303826203891747,10.834150925240465,-1.2406599682304984,0.1480222204777041,-0.9881938051097724
1.62,0.0276684146289949,0.058640065881999,1.8349628328821783,0.0193176501533583,0.1608190965158648,0.0259451260164762,-0.1050361347804982,-0.042007869196897,-0.3967046641838756,0.0261422846309418,0.0582794078598846,1.829977630565137,-0.0635518345181675,-0.0364497543545162,-0.4038154713731666,0.7836721636870434,0.3947039938882214,-0.1524335610040741,0.6596323421620837,11.207167436468808,-1.2305498537168236,0.1502100690802858,-1.0004107984629096
1.64,0.0256702927269823,0.057791722302848,1.8271710285802707,0.0159219376726265,0.1694200650504491,0.0257226091830596,-0.0949934899445391,-0.0425170154403588,-0.3832463948886409,0.0261422846309418,0.0582794078598846,1.829977630565137,-0.0635518345181675,-0.0364497543545162,-0.4038154713731666,0.839998448840093,0.5021322417979569,-0.0254573121730883,0.6729134647617346,11.207167436468808,-1.2255774426304018,0.1532764677849609,-1.012226151777117
1.66,0.0239732257158999,0.056993384262368,1.820009853473628,0.0128512988800764,0.1770460883875449,0.0254928479834292,-0.0839817528460272,-0.0415045408244071,-0.3712704294322471,0.0255067662857601,0.0579149103163394,1.8259394758514051,-0.0526285248939724,-0.0361169629497176,-0.4008775729608198,0.8150263912712061,0.5505868549255929,0.0506237307975828,0.5987982728196894,11.157262507247651,-1.2212585404320475,0.1564441545284761,-1.023862248367097
1.68,0.0224283856261205,0.0561841074218235,1.812711400757492,0.0100435854243077,0.1845447582052908,0.0252569584025764,-0.0709063296237604,-0.039497823943688,-0.3592569870068458,0.0242357295953968,0.0571859152292491,1.817863166423942,-0.0307819056455822,-0.0354513801401203,-0.3950017761361261,0.8934713257698758,0.653771161113343,0.1003358440359529,0.6006721212700683,11.127606210257907,-1.2179015911007596,0.1592882258572069,-1.034750648623043
1.7,0.0211600689347372,0.0554227794905024,1.8056475060250128,0.0077604287236032,0.1915400779263261,0.0250405731746769,-0.0564190287578333,-0.0367897141021752,-0.3477811185300135,0.0229646929050334,0.0564569201421588,1.8097868569964783,-0.008935286397192,-0.0347857973305231,-0.3891259793114324,0.933958380484834,0.7243650432963513,0.1354054920756402,0.5737934238416148,11.112996415067755,-1.215684208016719,0.1617430474535192,-1.0455385253430904
1.72,0.0201963470148298,0.054721749947982,1.7988085911597405,0.0060418480120604,0.198041598408408,0.0248527679911258,-0.0405356968427461,-0.033552913418463,-0.3367212935851584,0.0227859871770896,0.0557612041955483,1.80200433741025,0.0129113328511981,-0.0341202145209258,-0.3832501824867387,0.9811687408414358,0.7941665957543635,0.1618400341856129,0.5529912472427512,11.10225251256088,-1.2142414616168116,0.163621682173283,-1.055195138830553
1.74,0.0195982436266057,0.0541210812493986,1.792514588226801,0.0049782738962618,0.2034228390894014,0.024707117439627,-0.0232184220938951,-0.0299076389561238,-0.3263786937205913,0.0226072814491458,0.0550654882489379,1.7942218178240212,0.0347579520995884,-0.0334546317113285,-0.377374385662045,1.024872434246719,0.8658637374425506,0.1822637231169585,0.5171299932283546,11.11486556505224,-1.2133090872838908,0.1650583224253255,-1.0650642427040422
1.76,0.0193429089164121,0.053568511377324,1.786101164190634,0.0046222147687648,0.2077048130906404,0.0246023351075354,-0.003245396783923,-0.0255927645428636,-0.3155089721810922,0.0229747412024117,0.0543864118725673,1.78658619315841,0.0566045713479786,-0.0327890489017313,-0.3714985888373514,1.157249678744008,0.9986512654986034,0.2157437206630131,0.5434860769749555,11.11486556505224,-1.2147679102130582,0.1658268834004566,-1.0734397394321258
1.78,0.0195000479801452,0.0531056299524212,1.7799052080632185,0.0052308227856125,0.210204372266145,0.0245618238680596,0.0178500559835014,-0.020996977618387,-0.3046188712929739,0.0238883664368873,0.0537239750664367,1.779097463413416,0.0784511905963687,-0.032123466092134,-0.3656227920126577,1.2090633588352848,1.0547726383712257,0.2297893462238251,0.5445050444059185,11.137626001750505,-1.2188262988618237,0.1657155575793962,-1.079891371997547
1.8,0.0200864045378011,0.0527342711178464,1.773928044431726,0.006934971690151,0.2106837709419541,0.0245918151370953,0.0395202813438501,-0.0165166705455993,-0.2936251781621795,0.0203925507793202,0.0520557810715019,1.7646742644985698,0.020879155416253,-0.0186784195680675,-0.2931087626953972,1.2354484077540882,1.0835112680174328,0.2240153536393868,0.5496846565397173,11.155427390373916,-1.224460353178766,0.1646130743646045,-1.0846051488443575
1.82,0.0211454912285493,0.0524495251335917,1.7684395077551502,0.0091656977674507,0.2059892836575707,0.0246214434581444,0.0704919788188669,-0.0137857536554869,-0.2845943149841912,0.0203925507793202,0.0520557810715019,1.7646742644985698,0.020879155416253,-0.0186784195680675,-0.2931087626953972,1.6188425195832143,1.548584873750843,0.136545844505621,0.4515431588994145,11.17061469501914,-1.227423626801627,0.1622301393389332,-1.086693355718574
1.84,0.0228459451374136,0.0521928577769415,1.7628550549262378,0.011507631998361,0.1930433566925099,0.0245552337091487,0.0966688090327025,-0.0121079663441538,-0.2741318822336674,0.0203925507793202,0.0520557810715019,1.7646742644985698,0.020879155416253,-0.0186784195680675,-0.2931087626953972,1.412005585475213,1.3088415106917792,0.0838893655666543,0.5231216375261916,11.20060661718162,-1.2566256875573498,0.1610931268668044,-1.077592665688624
1.86,0.0249750867487359,0.051959225411927,1.7574898646168162,0.013623604897782,0.1753375543452625,0.0243805155239158,0.1139792068924775,-0.0113682606327962,-0.2627962524394317,0.0206013423334828,0.0518689968758212,1.761743176871616,0.0214849753028033,-0.0182147079580036,-0.2908067409758819,1.0352457938034338,0.8655198929887482,0.0369852855678814,0.5667814897117845,11.154178600149862,-1.2860629207316747,0.1598532832563066,-1.0638223742290709
1.88,0.0273566969641079,0.0517320795067845,1.7523537861144316,0.0154216504635449,0.155732093599498,0.0241179255313095,0.1226049779546279,-0.0113577563978135,-0.2512961205266449,0.0210189254418078,0.0514954284844599,1.7558810016177078,0.0226966150759039,-0.0172872847378758,-0.2862026975368513,0.7187786007650083,0.4312885531075193,0.0005252117491359,0.5750065956393408,11.112848979309092,-1.3128268057234571,0.1587518199250914,-1.0485929586224163
1.9,0.0297020452567421,0.0515103018878282,1.7476848076012126,0.0167999969850112,0.1374140469197739,0.02381889998907,0.1234672692836453,-0.0119606100334784,-0.2407211210430571,0.0214365085501329,0.0511218600930985,1.7500188263638,0.0239082548490045,-0.0163598615177479,-0.2815986540978206,0.5313605012607142,0.0431145664508726,-0.0301426817832485,0.5287499741793891,11.063876950660417,-1.3362352573906116,0.1575761916692414,-1.0311155370722775
1.92,0.0321222941995983,0.0512584086439342,1.7429819084413434,0.0178130233291581,0.1199948811009459,0.0234823592155297,0.1181621663648363,-0.0131948748352092,-0.2301547504493123,0.021914673647113,0.0507946628627436,1.7443868532818434,0.0251198946221051,-0.0154324382976201,-0.27699461065879,0.5943814307839345,-0.265255145940451,-0.061713240086539,0.5283185296872411,11.01146625421643,-1.3537032319371836,0.1565226260275606,-1.0144459691341097
1.94,0.0343807271422181,0.0509759234344332,1.738481267977796,0.018221972882367,0.1055317907875511,0.0231464755327418,0.1077975650332142,-0.0149617308794165,-0.2204832313103069,0.0223928387440931,0.0504674656323886,1.738754880199887,0.0263315343952057,-0.0145050150774923,-0.2723905672197593,0.7142916482441936,-0.5182300665811074,-0.0883428022103631,0.483575956950269,10.965727324152796,-1.3653852158273745,0.1558182547066311,-1.0002143884986885
1.96,0.036390200698747,0.0506546196398915,1.734164022586008,0.0178778278855737,0.0947039989757538,0.0228279119624916,0.0938176061141854,-0.0169961307299983,-0.2117276411440226,0.0229012948354007,0.0501634539825368,1.7332380082039065,0.0275431741683063,-0.0135775918573645,-0.2677865237807287,0.8310210486048358,-0.6989979459514378,-0.1017199925290904,0.4377795083142122,10.91354096476607,-1.3711911929664784,0.1556366729206134,-0.989996200775174
1.98,0.0380134207269493,0.0503120970944909,1.730217830356429,0.0168028245020791,0.0881439392633463,0.0225517271109054,0.077784187556505,-0.0188761146300703,-0.2041036878020907,0.0234400419210358,0.0498826279131883,1.7278362372939016,0.028754813941407,-0.0126501686372367,-0.263182480341698,0.8926498679077041,-0.8016709278840218,-0.0939991950035998,0.3811976670965972,10.867420305998166,-1.3734682117103962,0.1561534519500615,-0.9835374629237628
2.0,0.0393733732938076,0.0499171642857029,1.726215382098505,0.0149171283003013,0.0857815372567268,0.022299278914306,0.0594346233528592,-0.0204304024391402,-0.196562223851166,0.0419026301047746,0.0493682913629874,1.7200126459663243,0.0516732311111686,-0.0401860380106836,-0.1832517311216736,0.9949824063522908,-0.9174782101822886,-0.077714390453497,0.3770731975462335,10.8435088557153,-1.3676051117211812,0.1570919782057726,-0.982514239480038
2.02,0.0404193890744523,0.0495810035325154,1.7224206896657144,0.0150122040803598,0.0865904616626988,0.0222426786864217,0.0464194829962694,-0.013702310832106,-0.1830032877961291,0.0419026301047746,0.0493682913629874,1.7200126459663243,0.0516732311111686,-0.0401860380106836,-0.1832517311216736,0.9981305552368336,-0.6507570178294879,0.3364045803517121,0.6779468027518456,10.811529774777227,-1.3531463940835933,0.1560204114073157,-0.9892074574013934
2.04,0.0412247107497741,0.0493582782573211,1.71889920693279,0.0188480510308246,0.0886307655033381,0.0224703079163654,0.0349368923996284,-0.0096990746701219,-0.1699263790980326,0.0419026301047746,0.0493682913629874,1.7200126459663243,0.0516732311111686,-0.0401860380106836,-0.1832517311216736,0.8928624301607695,-0.5741295298320521,0.2001618080992034,0.6538454349048247,11.1873388761378,-1.3470218095972868,0.1523663031696566,-0.9980106970844972
2.06,0.0417899229207235,0.0491729779799471,1.7157842616487808,0.0239097197758752,0.0912878581901832,0.0228066308408082,0.0252900768049156,-0.0102773422572796,-0.1586307942297912,0.0424193624158863,0.0489664309828806,1.7181801286551075,0.0464510398221014,-0.0444480226868063,-0.1790813397855902,0.743279358714466,-0.4823407797356384,-0.0289133793578847,0.564779243412071,11.110802294885616,-1.3396523648970344,0.1471529400162088,-1.007029516005492
2.08,0.0422016746066477,0.048934749363869,1.7127289640447827,0.0291717084701149,0.0944243993719735,0.023175219967675,0.0165269608546012,-0.0135730150045342,-0.1475407316878186,0.0434528270381096,0.0481627102226669,1.7145150940326743,0.0360066572439668,-0.0529719920390516,-0.1707405571134234,0.7256775234229648,-0.4381557975157201,-0.1647836373627308,0.5545031270986295,11.050059125875125,-1.3318127681516276,0.1418975864260208,-1.015923902908762
