t,x,y,z,roll,pitch,yaw,v_x,v_y,v_z,ref_x,ref_y,ref_z,ref_v_x,ref_v_y,ref_v_z,a_com,a_x,a_y,a_z,thrust,wind_x,wind_y,wind_z
0.0,-2.40580779907214,1.152135671543433,2.782489287912623,0.0109235557763275,0.136420851036153,0.0258260966028851,0.0063103112339967,-0.0015452262883996,0.0196731073654805,-2.4056147085099218,1.1519951654966412,2.7830854242534198,0.0823343265670589,-0.1038682716414733,-0.0801793206750008,1.035904080460627,0.3155155616998352,-0.0772613144199839,0.9836553682740268,10.552456279245234,-1.2864436703995412,0.1658894783136746,-1.1774991740256322
0.02,-2.405796254189822,1.152371088190672,2.7826740613740704,0.0185802655383415,0.1387134682129601,0.0264006852838312,-0.0048533707508699,0.0209724314538735,-0.0022213236400473,-2.4056147085099218,1.1519951654966412,2.7830854242534198,0.0823343265670589,-0.1038682716414733,-0.0801793206750008,1.6666124434861995,-0.5581840992433343,1.1258828871136626,-1.0947215502763945,10.551953271051389,-1.3105470309792815,0.1606889522790301,-1.1956269433212372
0.04,-2.4059726586530825,1.1528100061416746,2.782343196425715,0.032762621506923,0.1443193883705792,0.0275265403698824,-0.0126554192233858,0.0234132880730769,-0.0313705797701486,-2.4056147085099218,1.1519951654966412,2.7830854242534198,0.0823343265670589,-0.1038682716414733,-0.0801793206750008,1.5136948787166804,-0.3901024236257928,0.1220428309601676,-1.4574628065050634,8.857219869390974,-1.3009901135788011,0.1441728222314599,-1.1813490282090215
0.06,-2.40627548552028,1.1532404527961753,2.781401424230234,0.048315138227927,0.1519690482243094,0.0288964253881435,-0.0168308546967964,0.0191289995865797,-0.0611943100841756,-2.404791365244251,1.1509564827802263,2.782283631046669,0.0975202921646885,-0.1238682719394965,-0.100179320973024,1.520891415479722,-0.2087717736705307,-0.2142144243248565,-1.4911865157013535,8.915250613133594,-1.2865773840108403,0.1272430817069656,-1.166913060466626
0.08,-2.406625502157779,1.1535456042215404,2.7798818524337623,0.0633488264278171,0.1603172171514837,0.0303676271164696,-0.0176563840665661,0.0112794969729578,-0.0892068277516276,-2.40314467871291,1.148879117347397,2.780680044633169,0.1278922233599476,-0.1638682725355429,-0.1401793215690704,1.4551609327587438,-0.041276468488483,-0.3924751306810984,-1.4006258833725984,8.915250613133594,-1.2741025734723803,0.1122428774453205,-1.1581261958959592
0.1,-2.4069460462649355,1.153662339061911,2.7779378248578777,0.0769882813820607,0.168337548369314,0.0318220529638706,-0.0158320941068994,0.0011400871350729,-0.1140520848695566,-2.401497992181569,1.1468017519145677,2.779076458219669,0.1582641545552067,-0.2038682731315894,-0.1801793221651169,1.3448257015070175,0.0912144979833322,-0.5069704918942443,-1.2422628558964477,9.010479640953236,-1.262373903918362,0.0976556193584145,-1.1497466811578747
0.12,-2.40722210059015,1.15355006762889,2.775393415100468,0.0906654731033475,0.1765677634104857,0.0333818234566538,-0.0116394999791686,-0.0121273448690646,-0.1390466834559096,-2.398332709090465,1.1427243864519356,2.775472871776367,0.1886360857504657,-0.2438682737276359,-0.2201793227611633,1.4303256237630104,0.2096297063865428,-0.663371600206881,-1.24972992931765,9.106791575000898,-1.2522257553498135,0.0842295139028663,-1.1417366392402433
0.14,-2.407388041354239,1.153174051842717,2.7725177771712257,0.1030342549402811,0.184045321951038,0.0348662904855714,-0.0058700324692642,-0.0270273754449784,-0.1624130996290377,-2.395167425999361,1.1386470209893038,2.7718692853330644,0.2190080169457249,-0.2838682743236824,-0.2601793233572098,1.4153507262219744,0.2884733754952175,-0.7450015287956864,-1.1683208086564048,9.176440415827528,-1.244835381167808,0.072373399150223,-1.1367632901409117
0.16,-2.407427469514059,1.1524488118021308,2.769011025700117,0.1154234166601446,0.1914950794705466,0.0364099205073313,0.0017989160380879,-0.0449731117564163,-0.1870575087383893,-2.3912428446283758,1.133569655511771,2.767265698874861,0.249379948140984,-0.3238682749197288,-0.3001793239532562,1.5717896832251244,0.3834474253676126,-0.8972868155718957,-1.2322204554675809,9.20290168939573,-1.2384949728343289,0.06078075550679,-1.1317826528165027
0.18,-2.40729666708068,1.1513408479871423,2.765015058416167,0.1271930973958213,0.1984924199255422,0.0379157139582522,0.0110604412970433,-0.0651737966782129,-0.2113083981668298,-2.386558964977508,1.1274922900193367,2.761662112401756,0.279751879336243,-0.3638682755157752,-0.3401793245493026,1.6446497799702051,0.4630762629477691,-1.0100342460898315,-1.212544471422025,9.248728349572048,-1.23333625413311,0.0505215832142633,-1.127027717928053
0.2,-2.406986400694032,1.1498933891555183,2.760775204253614,0.137824926329364,0.2047212153246232,0.0392968795428141,0.0212596958138257,-0.0863821610842363,-0.233810744186344,-2.406743645015828,1.148082158153232,2.754449638507825,0.0942587576923261,-0.165173798168329,-0.3113083996569459,1.6280165001150406,0.5099627258391186,-1.0604182203011674,-1.12511730097571,9.248728349572048,-1.2288619460240502,0.040481679157596,-1.1218006002720222
0.22,-2.4064057681773683,1.147757084479017,2.7559536992691127,0.1438796498379431,0.2108405272295432,0.0403525523224724,0.0365196083396457,-0.1241213587835074,-0.2462674885983007,-2.406743645015828,1.148082158153232,2.754449638507825,0.0942587576923261,-0.165173798168329,-0.3113083996569459,2.128545544864596,0.7629956262909996,-1.8869598849635592,-0.6228372205978355,9.291519553180478,-1.2150834120528415,0.0355267318504082,-1.1097746528797972
0.24,-2.405506354804202,1.1449390229387255,2.750904891334291,0.1442747604075321,0.2165256097442923,0.0409325423406296,0.0527415207251687,-0.1553354616551266,-0.2580821140527716,-2.406743645015828,1.148082158153232,2.754449638507825,0.0942587576923261,-0.165173798168329,-0.3113083996569459,1.8554352819170457,0.8110956192761489,-1.5607051435809558,-0.5907312727235422,10.098930170513997,-1.211640261533411,0.0358838592395542,-1.1087467997291096
0.26,-2.404277546997553,1.141523649967824,2.745599482208336,0.1415910217922652,0.2218381830430033,0.0412084339482705,0.0694410388322077,-0.1841476047434639,-0.2717971441617992,-2.4058010574389046,1.1464304201715485,2.751336554511256,0.1108984209713826,-0.1851737984663522,-0.3313083999549692,1.800774517562988,0.834975905351952,-1.4406071544168677,-0.6857515054513819,9.99867120865656,-1.2090730951917985,0.0391490167679728,-1.1086844072161302
0.28,-2.4027964217842306,1.137782390704812,2.740292218132824,0.1375218597335717,0.2265753717338447,0.0412813024330611,0.0857231912577317,-0.2078953282575161,-0.2861330350573513,-2.4039158822850584,1.143126944208182,2.745110386518117,0.1441777475294957,-0.2251737990623987,-0.3713084005510156,1.608244872117612,0.8141076212761978,-1.1873861757026107,-0.7167945447776047,9.88109780033119,-1.2072423116910307,0.0440051247648651,-1.1090210717174538
0.3,-2.400898648441068,1.1333892887962238,2.7343975200610093,0.1331356794565466,0.2312560728154064,0.0412686574348452,0.103279239938919,-0.2301039341048575,-0.3026611369761037,-2.402030707131212,1.1398234682448154,2.738884218524978,0.1774570740876088,-0.2651737996584452,-0.4113084011470621,1.6390661762231045,0.8778024340593666,-1.1104302923670677,-0.8264050959376212,9.78025244094897,-1.2051869960555046,0.0488049618351205,-1.1096702953476063
0.32,-2.3986448708343104,1.1285687365412054,2.7281584318746,0.1291989118860776,0.2356444131016136,0.0412113960664387,0.1212989744364968,-0.2508460748487989,-0.3204831407884836,-2.39848156564946,1.1345199922516465,2.730658050502037,0.2107364006457219,-0.3051738002544916,-0.4513084017431085,1.6375065296764095,0.9009867248788884,-1.0371070371970683,-0.8911001906189958,9.682406859740697,-1.2040902983416018,0.0529375265936006,-1.1100002903637805
0.34,-2.3960247025165606,1.1233447041550748,2.7215556212783207,0.1258742276891094,0.2397567260681514,0.0411284829240568,0.1399035114325772,-0.2706162200578416,-0.3389191329211847,-2.3949324241677075,1.1292165162584775,2.7224318824790954,0.244015727203835,-0.3451738008505381,-0.4913084023391549,1.6407873447998782,0.9302268498040196,-0.9885072604521344,-0.9217996066350542,9.60969010521694,-1.20346144743688,0.0567072106517056,-1.1094016791972268
0.36,-2.3931848004585805,1.1180130529417998,2.7149380554748874,0.1229998498869325,0.2434211254558247,0.0410116712178706,0.158169437561408,-0.2895212485053282,-0.3567362632806885,-2.390551299522002,1.1229130402504075,2.713205714441253,0.2772950537619482,-0.3851738014465845,-0.5313084029352013,1.5878399574514248,0.913296306441544,-0.9452514223743324,-0.8908565179751887,9.58015865129255,-1.203330228767634,0.0601266614428006,-1.1082456646407948
0.38,-2.3898149850541,1.1120180279577,2.707602731313635,0.1200350934031295,0.2470378494335237,0.0408365447724796,0.1779188434969348,-0.3088840721620666,-0.3758677772476353,-2.3853381917123446,1.1156095642274362,2.7029795463885096,0.3105743803200612,-0.4251738020426309,-0.5713084035312478,1.681496953190554,0.9874702967763382,-0.968141182836918,-0.9565756983473396,9.567618649325595,-1.2031049608139766,0.0634258123999102,-1.1063195694398698
0.4,-2.386044583689772,1.105640369853492,2.699881749515839,0.1170381356542422,0.2504223546966386,0.0406055560498235,0.198201731599924,-0.3277641052233894,-0.3952577918818475,-2.380919042879253,1.0965738243495968,2.688809342451253,0.2632094468366069,-0.4088840736521827,-0.4758677787377514,1.6910232595310368,1.0141444051494612,-0.9440016530661428,-0.9695007317106096,9.544367948679792,-1.2025105788813155,0.0664646904694697,-1.1044296713411788
0.42,-2.3820064990427805,1.099218655934931,2.6923898118719336,0.1142052829211402,0.252787932785415,0.0402653995988569,0.2256920711712773,-0.3471929704688042,-0.3923778506414043,-2.380919042879253,1.0965738243495968,2.688809342451253,0.2632094468366069,-0.4088840736521827,-0.4758677787377514,1.6892998816234506,1.3745169785676608,-0.9714432622707408,0.1439970620221609,9.53040492935179,-1.196722733026974,0.0695658626317186,-1.0936382205335184
0.44,-2.3772003822092995,1.0920815303743547,2.684547156856956,0.1117168720668811,0.25400927237804,0.0397775201615064,0.2533052758753807,-0.3656163386814029,-0.3923264141984659,-2.380919042879253,1.0965738243495968,2.688809342451253,0.2632094468366069,-0.4088840736521827,-0.4758677787377514,1.659753156372488,1.3806602352051736,-0.9211684106299328,0.0025718221469184,10.903889192943096,-1.2020798923370228,0.0718124457127661,-1.0978294723097577
0.46,-2.371853309522568,1.0845799263606224,2.676654803665842,0.1098104857082172,0.2541167782547186,0.0391906648945956,0.2798935662915519,-0.3836910605754119,-0.3968658680063694,-2.378286948410887,1.092484983613075,2.6840506646638755,0.2802675675045413,-0.4288840739502059,-0.4958677790357746,1.6234526476575453,1.3294145208085584,-0.9037360947004496,-0.2269726903951774,10.60987563963772,-1.2059281089667315,0.0732614821747081,-1.0989636020993767
0.48,-2.3662903944182783,1.077123341534472,2.6690405982570007,0.1083132536347044,0.2531222608893825,0.0385228644936876,0.3042574781895976,-0.4003203921699406,-0.4043692381887401,-2.373022759474155,1.0843073021400311,2.674533309089121,0.3143838088404102,-0.4688840745462523,-0.5358677796318211,1.5218700965836502,1.218195594902283,-0.8314665797264364,-0.3751685091185341,10.35947515326734,-1.21078115539803,0.0744115292592698,-1.0980852816253688
0.5,-2.359946537542066,1.0689412725924488,2.660844966944151,0.1071515735701044,0.2508755666274104,0.0377086811804512,0.3287180987598949,-0.417012896691323,-0.4148941580901851,-2.367758570537423,1.0761296206669877,2.6650159535143656,0.348500050176279,-0.5088840751422988,-0.5758677802278676,1.5714130621929536,1.223031028514865,-0.8346252260691189,-0.526245995072247,10.163959699131738,-1.2171515432038642,0.075164413327622,-1.0946870050362898
0.52,-2.353127295547695,1.0604314804167934,2.652412359497135,0.1065647546051298,0.2473929693966987,0.0367924300649609,0.3518505181438199,-0.4331811615304222,-0.4277880748378009,-2.3607885695338973,1.0659519391641417,2.653498597909808,0.3826162915121479,-0.5488840757383453,-0.615867780823914,1.5514305523898642,1.1566209691962508,-0.8084132419549583,-0.6446958373807904,9.996780347946697,-1.2246744596055348,0.0753390452389086,-1.0887810906437738
0.54,-2.345860275111659,1.0516007667814904,2.643711852713251,0.1066263017690347,0.2427564938332274,0.0357874701570909,0.3735210258436404,-0.4491448536929875,-0.4415672816010982,-2.353818568530372,1.0557742576612956,2.641981242305251,0.4167325328480167,-0.5888840763343918,-0.6558677814199605,1.5118836847248112,1.083525384991027,-0.7981846081282662,-0.6889603381648651,9.793858224238647,-1.232742189395203,0.0749109107033119,-1.0808823645135837
0.56,-2.3385712339332585,1.0429051188993466,2.635183563525324,0.1069842795407117,0.2374863651949995,0.0347489781647571,0.3924170992670785,-0.4653135078553196,-0.4553876877523106,-2.3459956614934496,1.0445965761435485,2.6294638866857927,0.4508487741838856,-0.6288840769304381,-0.6958677820160069,1.4225774095190151,0.9448036711719038,-0.8084327081166076,-0.6910203075606192,9.793858224238647,-1.242130542141432,0.0741395984496761,-1.0707336749870324
0.58,-2.3305339462144703,1.0334142284679635,2.625915841294262,0.1072459351811062,0.2314648441463489,0.0335847586630764,0.4100812705702527,-0.482916126529704,-0.4707128073292885,-2.3373198484231303,1.0324188946109003,2.6159465310514327,0.4849650155197543,-0.6688840775264846,-0.7358677826120533,1.4635013000270438,0.8832085651587079,-0.880130933719217,-0.7662559788488982,9.66205656778584,-1.2509226501612725,0.0734615953346585,-1.060108141909876
0.6,-2.3225920920473317,1.0240631290406614,2.61681601645763,0.106944150098755,0.2256624311898362,0.0324239537224472,0.4248733338547326,-0.5003741284808769,-0.4863267599744341,-2.3100298826859578,1.0092684221414785,2.602380200927797,0.4791350694842083,-0.5829161280198201,-0.5707128088194047,1.3850834681924993,0.7396031642239953,-0.872900097558646,-0.7806976322572795,9.66205656778584,-1.2594486550016306,0.0732558967308597,-1.0480939293518703
0.62,-2.3138637940632525,1.013802884489307,2.6071883680296195,0.1048162861902502,0.2192221967499091,0.0310418560053668,0.4472562712150529,-0.5245273072548096,-0.4740908484289403,-2.3100298826859578,1.0092684221414785,2.602380200927797,0.4791350694842083,-0.5829161280198201,-0.5707128088194047,1.7564804732125008,1.1191468680160188,-1.207658938696632,0.6117955772746902,9.589368078507505,-1.258645867681575,0.0746810420583547,-1.0244892239136123
0.64,-2.304714593507015,1.0030915918141312,2.59781260384284,0.1008150797151696,0.2123900148532358,0.0295124567073674,0.4661789838672102,-0.5449120026225354,-0.464504826006921,-2.3100298826859578,1.0092684221414785,2.602380200927797,0.4791350694842083,-0.5829161280198201,-0.5707128088194047,1.4709662515049005,0.946135632607864,-1.01923476838629,0.479301121100964,11.46116590398924,-1.2686167565352775,0.077232652806225,-1.0224625532925808
0.66,-2.2952289128838586,0.9920065031233968,2.58855120960887,0.0964844994190011,0.2057238783892736,0.0280150416009549,0.4812809352055119,-0.5624299070451113,-0.4620301609455691,-2.305238531991116,1.00343926086128,2.5966730728396032,0.4929458292669995,-0.6029161283178432,-0.5907128091174279,1.1630454384382574,0.7550975669150861,-0.8758952211287974,0.1237332530675983,11.003911841141417,-1.2777993136474677,0.0800268765397968,-1.019614343049538
0.68,-2.285969428056021,0.981170985298252,2.5797444699312635,0.0925456513951722,0.1998333853783522,0.0266838562927024,0.4925587073046135,-0.5772446469933632,-0.4650759729041958,-2.295655830601432,0.9917809383008837,2.585258816663215,0.5205673488325818,-0.6429161289138897,-0.6307128097134743,0.9433207748970084,0.5638886049550762,-0.7407369974125944,-0.1522905979313371,10.571042861794922,-1.2860645819076175,0.0829214215881983,-1.0143811222757628
0.7000000000000001,-2.2760206704528105,0.9694773087346564,2.5703661000129623,0.0888485062029705,0.1944364613775437,0.0254225572229807,0.5015331449798148,-0.5913403872069505,-0.4727863070414837,-2.2860731292117475,0.9801226157404872,2.573844560486827,0.548188868398164,-0.6829161295099362,-0.6707128103095208,0.9201625892520868,0.448721883760067,-0.7047870106793641,-0.3855167068643944,10.22249244509112,-1.2928030628877187,0.0854938430484215,-1.007862452341106
0.72,-2.2659222422321754,0.957512706019431,2.560791052576052,0.0857071996604299,0.1903756423787106,0.0243469172268778,0.5077103959677783,-0.604432888873882,-0.4844761099224658,-2.2751093518437844,0.9664642931502886,2.5604303042806364,0.5758103879637463,-0.7229161301059827,-0.7107128109055673,0.9303541275545548,0.3088625493981756,-0.6546250833465772,-0.5844901440491046,9.939909584757515,-1.2979652641771264,0.0876653280867621,-1.0011586628244449
0.74,-2.2557252640968195,0.9452948937849855,2.550957132440788,0.0831451915117664,0.1883125801843987,0.0235030680105793,0.5116775702315024,-0.6167871336331007,-0.4983041308692323,-2.2641455744758208,0.95280597056009,2.5470160480744464,0.6034319075293286,-0.7629161307020291,-0.7507128115016137,0.9481297359982558,0.198358713186203,-0.6177122379609323,-0.6914010473383247,9.597462950518093,-1.3000850074210677,0.089308628509117,-0.9948979872544228
0.76,-2.24545073774656,0.9328263760564012,2.540830437326679,0.0808362915778049,0.1884377134914232,0.0228715800398719,0.5158615249072375,-0.6293343993535927,-0.5136745494895564,-2.252491259118718,0.93814764795499,2.5326017918533545,0.6310534270949109,-0.8029161312980755,-0.7907128120976601,1.0138899377561212,0.2091977337867534,-0.6273632860246015,-0.7685209310162033,9.597462950518093,-1.298240873443567,0.0906928311892806,-0.9909941337734532
0.78,-2.235600450655933,0.920751627919296,2.530912542080185,0.0786120413671968,0.1898966829234304,0.0223851380208873,0.5209543157410396,-0.6409375960890081,-0.5295381593366828,-2.240146405772476,0.922489325334989,2.517187535617362,0.6586749466604931,-0.842916131894122,-0.8307128126937066,1.0151660090096848,0.2546395416901048,-0.5801598367707717,-0.7931804923563213,9.508450105202428,-1.2954518826158603,0.0921720980430356,-0.9886915482789548
0.8,-2.225115986754452,0.907810118092224,2.520134291960743,0.0762167431262704,0.1922061112066208,0.0219350467034442,0.5273439170723494,-0.6525011622326617,-0.5475048974373077,-2.209552734868881,0.8887047481148457,2.5044356341133507,0.6010043595027698,-0.7409375975791243,-0.6295381608267989,1.115063613777454,0.3194800665654917,-0.5781783071826807,-0.898336905031244,9.36389195015454,-1.2922614671477752,0.0937539124915359,-0.9871372392825328
0.8200000000000001,-2.2144383735300086,0.8946095546433276,2.509314077380903,0.0734726533660983,0.1952077635586799,0.0215163883298431,0.5405982032209258,-0.6668155756218237,-0.5319501505341947,-2.209552734868881,0.8887047481148457,2.5044356341133507,0.6010043595027698,-0.7409375975791243,-0.6295381608267989,1.247526235399546,0.6627143074288189,-0.7157206694580975,0.7777373451556491,9.36389195015454,-1.279967334861166,0.0954420451674879,-0.975590953130124
0.84,-2.2034850246848148,0.8811474327584844,2.49880130150585,0.0707374757388117,0.198932155275492,0.0211527234961028,0.5542298794279447,-0.6787315222980711,-0.5203365367380558,-2.209552734868881,0.8887047481148457,2.5044356341133507,0.6010043595027698,-0.7409375975791243,-0.6295381608267989,1.0755096545476055,0.6815838103509442,-0.5957973338123701,0.580680689806945,11.02855733751676,-1.278414739832178,0.0970125153689094,-0.988131674217948
0.86,-2.1928232304203195,0.8681492980685958,2.488959604431502,0.0685329001400326,0.2026895307191738,0.0208509880022579,0.5674765715983838,-0.6889558934723232,-0.5162191865540182,-2.203542691273853,0.8812953721390544,2.498140252505083,0.6170143682551158,-0.7609375978771474,-0.6495381611248221,0.8616339012382903,0.6623346085219584,-0.5112185587126061,0.2058675092018791,11.02855733751676,-1.2761824160001132,0.098427357123622,-0.9992383014320894
0.88,-2.181326339339261,0.854267037991974,2.478628229694714,0.0666833975010407,0.2064409319171172,0.0205540352375332,0.5815511969060723,-0.6987845311303197,-0.5173878183869556,-2.1915226040837976,0.866476620187472,2.485549489288547,0.6490343857598079,-0.8009375984731939,-0.6895381617208686,0.8603239159249332,0.7037312653844219,-0.4914318828998232,-0.058431591646868,10.612283567922532,-1.274118645781769,0.0995249265164059,-1.0077651273366273
0.9,-2.1695473524301234,0.8401969533923329,2.4682190925582206,0.0653985759430548,0.2097247709932442,0.0202690051719856,0.5956708308304178,-0.707802705463472,-0.5234535495725579,-2.1795025168937423,0.8516578682358895,2.4729587260720107,0.6810544032645,-0.8409375990692404,-0.729538162316915,0.8909049125420815,0.7059816962172782,-0.4509087166576164,-0.3032865592801137,10.2966511165896,-1.2724921747428874,0.1001509554950726,-1.0139990105828114
0.92,-2.158096153149109,0.8266708412631094,2.458183457537937,0.0648544518649958,0.2122929935524886,0.0200145837437576,0.6090124172627324,-0.715632700379184,-0.5326216428823813,-2.1658814288284525,0.8348391162545047,2.4583679628256725,0.713074420769192,-0.8809375996652868,-0.7695381629129615,0.8991116224482718,0.6670793216157267,-0.3914997457856006,-0.4584046654911744,10.049158192176948,-1.2712394567113263,0.1002207188779698,-1.018145075410816
0.94,-2.145768391335348,0.8122781455989256,2.447415242360618,0.0652504735264815,0.214430299228839,0.0197846086721811,0.6230574086021522,-0.7233112860586856,-0.5437793986867973,-2.152260340763162,0.8180203642731199,2.4437771995793343,0.7450944382738841,-0.9209376002613332,-0.809538163509008,0.9755997826373284,0.7022495669709916,-0.3839292839750763,-0.5578877902207957,9.779501440044442,-1.2702307762050833,0.0994106479551912,-1.0199146867561926
0.96,-2.133154401542421,0.7977228932637571,2.436411194647128,0.0665148014410722,0.2159035606486965,0.0195790219161788,0.6376076507950935,-0.7318625260102659,-0.5561001693065019,-2.137838752260255,0.800201612276834,2.4281864363180947,0.7771144557785762,-0.9609376008573796,-0.8495381641050543,1.0447902196686782,0.727512109647066,-0.4275619975790179,-0.6160385309852301,9.725696490676455,-1.269640811221617,0.0977990833413367,-1.020468376939354
0.98,-2.120246552124477,0.7829867706796899,2.425148572472238,0.0681736002846711,0.2165086090304201,0.0193486011781226,0.6523444328248689,-0.7412981603080421,-0.5695187455576382,-2.1226166633197305,0.7813828602656467,2.4115956730419543,0.8091344732832683,-1.000937601453426,-0.8895381647011008,1.1025676031450844,0.7368391014887676,-0.4717817148888081,-0.6709288125568147,9.67263580819963,-1.2696811122107767,0.0959313348281881,-1.019342953482976
1.0,-2.107711864439095,0.7688038886911002,2.414190322687035,0.0697559143425927,0.2162177820033585,0.0190740405479418,0.6662793931227102,-0.7511132128826881,-0.5832851416782664,-2.087629330483234,0.7459218626642878,2.3966726351943564,0.7253969061911294,-0.8412981617981582,-0.6695187470477543,1.095481672251444,0.696748014892068,-0.4907526287322994,-0.6883198060314122,9.67263580819963,-1.270480387046037,0.0939464116799197,-1.0166653608296403
1.02,-2.0941360727686,0.7536038655315024,2.402693969804134,0.069808422086017,0.2142266689521026,0.0185563091648231,0.6909140652812638,-0.768142935561028,-0.5638875325296927,-2.087629330483234,0.7459218626642878,2.3966726351943564,0.7253969061911294,-0.8412981617981582,-0.6695187470477543,1.7840584123995258,1.2317336079276764,-0.8514861339169955,0.9698804574286846,9.615069931386644,-1.26349396683601,0.0930806249037666,-1.0020711942515843
1.04,-2.080069952310444,0.7380786379462889,2.3915822253804544,0.0674224042273533,0.2095513087434995,0.0176934253639742,0.7141106956170715,-0.7833036630811108,-0.5483872295110703,-2.087629330483234,0.7459218626642878,2.3966726351943564,0.7253969061911294,-0.8412981617981582,-0.6695187470477543,1.5876009507614206,1.1598315167903883,-0.7580363760041398,0.7750151509311187,11.886009511804332,-1.2711614642578537,0.0944079963941714,-1.0066567249926766
1.06,-2.0663171533745985,0.7230736380876721,2.381237976010191,0.0637665507245136,0.2029503708442694,0.0166618631512562,0.7319698015384417,-0.7949921023328623,-0.541141823273835,-2.0803753614213227,0.7375088810463063,2.389977447723879,0.7400074008643815,-0.8612981620961814,-0.6895187473457774,1.127012852627661,0.8929552960685094,-0.584421962587578,0.3622703118617676,11.355602565006848,-1.281359227276885,0.097231699105792,-1.0056674456331662
1.08,-2.051525225933009,0.7070734048078118,2.370433156262617,0.0597637725883095,0.194748321265356,0.0155339352420336,0.7458680368187869,-0.8043532317075325,-0.5399744611656516,-2.0658674232975,0.7206829178103431,2.3765870727829235,0.7692283902108857,-0.9012981626922278,-0.7295187479418239,0.8398726411914575,0.6949117640172586,-0.4680564687335076,0.0583681054091678,10.840862496934278,-1.29256389179955,0.1003050586202446,-1.0001164736900263
1.1,-2.0365043003229766,0.690904587086774,2.3595862876878893,0.056213919191361,0.1862207742656601,0.0144708653701949,0.7552168269812068,-0.8120819492944663,-0.5449900932955833,-2.0513594851736774,0.7038569545743799,2.3631966978419685,0.7984493795573899,-0.9412981632882744,-0.7695187485378704,0.6562955102359455,0.4674395081209981,-0.3864358793466915,-0.2507816064965862,10.409597072960423,-1.303072810845038,0.1029920412868813,-0.9914145623551952
1.12,-2.0213405470976973,0.6745943145388926,2.348578210299458,0.0533318305907094,0.1781610881160402,0.0135279090669263,0.7605719943619217,-0.8186977582109558,-0.5555090723933405,-2.035390497582529,0.6850309913086144,2.347806322871211,0.8276703689038941,-0.9812981638843208,-0.8095187491339169,0.6765642367026677,0.2677583690357421,-0.3307904458244748,-0.525948954887856,10.036119981598858,-1.3117852024759296,0.1050072877434817,-0.981225416236818
1.14,-2.0068643507400594,0.6589837831556317,2.337898720796537,0.0512555562439069,0.1714725693574297,0.0127653966726707,0.7629491448629562,-0.8243414497204598,-0.5680973453654496,-2.019421509991381,0.6662050280428489,2.332415947900454,0.8568913582503984,-1.0212981644803671,-0.8495187497299633,0.6999405595822941,0.1188575250517243,-0.2821845754751972,-0.6294136486054591,9.57063761693098,-1.3188796450788092,0.1065206505474297,-0.9691370455522808
1.16,-1.991596752691004,0.6424317438955054,2.32637781771221,0.04949934888672,0.1657370691261818,0.0120885673352133,0.7635543572061915,-0.8305516641381805,-0.5834008962558811,-2.0027219976665718,0.6463790647621822,2.3160255729147954,0.8861123475969026,-1.0612981650764135,-0.8895187503260097,0.8263348518465382,0.0302606171617647,-0.3105107208860369,-0.7651775445215725,9.57063761693098,-1.324158911813666,0.1076502534964053,-0.9574838163704724
1.18,-1.9763373040667704,0.6257557445783937,2.314531444289028,0.0478839747319317,0.1616314856469621,0.0115270346646216,0.7622531807845877,-0.8366838817558775,-0.6005240159576735,-1.9852919606080983,0.6255531014666145,2.298635197914236,0.9153333369434068,-1.10129816567246,-0.9295187509220562,0.911726907183342,-0.0650588210801883,-0.30661088088485,-0.8561559850896183,9.443971842350038,-1.3275340447868966,0.1086744996592344,-0.9468125134913904
1.2,-1.9611226646287057,0.608959950785564,2.3023242331631573,0.0462979549736411,0.1596179203471637,0.0110889020459681,0.759286520349176,-0.8425216244903614,-0.6193097768782077,-1.938224645027541,0.5839215504905998,2.2845052434911444,0.8484169325655745,-0.9121688132248412,-0.7005240174477896,0.9947174570405988,-0.1483330217705858,-0.2918871367241948,-0.9392880460267096,9.336649308241247,-1.3285835253181284,0.1096329671595421,-0.9384685200391524
1.22,-1.9466990347543125,0.5927932826379209,2.290727804837596,0.0419176834840841,0.1608474114359585,0.0106323467698129,0.7597417802147934,-0.8568192655840934,-0.6003846787405441,-1.938224645027541,0.5839215504905998,2.2845052434911444,0.8484169325655745,-0.9121688132248412,-0.7005240174477896,1.1861588657412327,0.0227629932808726,-0.7148820546865997,0.946254906883176,11.607473534186283,-1.3180334550416557,0.112630443201226,-0.9213283914204864
1.24,-1.9314768248546368,0.5755730659438241,2.278872064093513,0.0347730776543886,0.1652189981557737,0.0101075739777666,0.7627696804092802,-0.8639715805761429,-0.5867411885672609,-1.938224645027541,0.5839215504905998,2.2845052434911444,0.8484169325655745,-0.9121688132248412,-0.7005240174477896,0.7849659442322092,0.1513950097243366,-0.3576157496024745,0.6821745086641628,11.607473534186283,-1.3140682742002012,0.1182275730983829,-0.9359871610264076
1.26,-1.9161760871968447,0.5582600122856995,2.267199708930411,0.0274799277137338,0.1712003905317363,0.009614057993883,0.7673979284343332,-0.8668467448584015,-0.5815326434602528,-1.9297404757018852,0.5747998623583513,2.2775000033166664,0.8656496829217718,-0.927265799518634,-0.7205240177458128,0.3768825797351239,0.2314124012526508,-0.1437582141129323,0.2604272553504039,10.52154132180749,-1.3099528960958289,0.1239341976438056,-0.949329669905166
1.28,-1.901543556461368,0.5417869856562453,2.256136406480134,0.0212744495431331,0.1775650261396419,0.0091947526869077,0.7728639877844565,-0.8671236907293,-0.5832826241757618,-1.912772137050574,0.5565564860938546,2.2634895229677108,0.9001151836341665,-0.9574597721062192,-0.7605240183418592,0.2873018288278547,0.2733029675061671,-0.0138472935449218,-0.0874990357754512,10.52154132180749,-1.3050982616484827,0.1294697607604239,-0.9616496160117884
1.3,-1.8860167006253752,0.524458367397595,2.2444046320559963,0.0157956783877886,0.1844983174233127,0.0088130906612542,0.7797123064069835,-0.865829703578621,-0.5900384672122069,-1.8958037983992624,0.5383131098293578,2.2494790426187548,0.9345806843465612,-0.9876537446938048,-0.8005240189379057,0.4853227942175584,0.3424159311263497,0.0646993575339482,-0.3377921518222526,10.161856001797789,-1.299942067478001,0.1341645179246158,-0.9720450358334752
1.32,-1.8703420592413171,0.5071675640918053,2.232494598748996,0.0114704004734462,0.1913920965387074,0.0084984095983298,0.7875688705927326,-0.863465278145915,-0.6007986007013646,-1.877112184712331,0.5185600349354816,2.233468562239997,0.969046185058956,-1.0178477172813902,-0.8405240195339522,0.6765659264552785,0.3928282092874546,0.1182212716352992,-0.538006674457886,9.896698017649214,-1.2947073780369776,0.1379012736519974,-0.98077701331987
1.34,-1.854497226932879,0.4899331426272219,2.220349370707622,0.0083069690120389,0.1980825141048175,0.0082573295958057,0.7966925847277547,-0.8603698086328821,-0.6131995837580618,-1.8584205710254,0.4988069600416055,2.2174580818612384,1.0035116857713506,-1.0480416898689755,-0.8805240201299986,0.7851886268537803,0.4561857067511055,0.1547734756516428,-0.6200491528348617,9.69964620538849,-1.289636880065772,0.1405004282982344,-0.987359732659192
1.36,-1.8392601001722,0.4736152336754443,2.2085729340481204,0.0060772153148539,0.2040532552681856,0.0080808770952737,0.8068557138985846,-0.8575667071069619,-0.6258226653030574,-1.8388673198206589,0.4782990358330398,2.20044760146758,1.0379771864837453,-1.078235662456561,-0.920524020726045,0.8223271252962486,0.5081564585414922,0.1401550762960113,-0.6311540772497792,9.641150138816556,-1.2846229429616336,0.1425416208557499,-0.993596398973969
1.38,-1.8229953977369495,0.456496821242588,2.195906770723572,0.0042695817154013,0.2095896075393813,0.0079348132221617,0.8191494235009925,-0.8544800592682812,-0.6401838256544096,-1.818452431098108,0.4570362623097845,2.182437121059019,1.07244268719614,-1.1084296350441465,-0.9605240213220916,0.9577390266998872,0.6146854801203971,0.1543323919340367,-0.7180580175676077,9.562983466055812,-1.280473889054092,0.1441313772299817,-0.999082608191116
1.4,-1.8064698158297148,0.4394439133059505,2.1829419015616107,0.0029639111478243,0.2139694364448309,0.0078295247620657,0.8327455978953581,-0.8510158671774406,-0.6555809133576501,-1.7820379265619002,0.413772818279174,2.163897579440852,0.9138600417585152,-0.8752388687900755,-0.7374499334520322,1.0415455999925372,0.6798087197182778,0.1732096045420295,-0.7698543851620276,9.562983466055812,-1.2777395810178165,0.1452622696477557,-1.0030035083815263
1.42,-1.790421068192938,0.423132708360456,2.170673459243835,-0.0035225056768759,0.2164732570360537,0.0073678605262084,0.8556970000453907,-0.862193610723631,-0.6350363511663644,-1.7820379265619002,0.413772818279174,2.163897579440852,0.9138600417585152,-0.8752388687900755,-0.7374499334520322,1.6384351124384915,1.1475701075016331,-0.5588871773095194,1.0272281095642877,9.522826010918834,-1.269154548398005,0.1502733954061496,-0.9917189551899454
1.44,-1.7730704996166144,0.4058867798963898,2.158146954069204,-0.0154949378068162,0.2172288048760257,0.006545515728468,0.8778837173234179,-0.8608444567737277,-0.6191941237639822,-1.7820379265619002,0.413772818279174,2.163897579440852,0.9138600417585152,-0.8752388687900755,-0.7374499334520322,1.3647772794713022,1.1093358639013562,0.0674576974951657,0.7921113701191085,11.846298451463554,-1.2722118221368324,0.1618583631611455,-1.0045262865558304
1.46,-1.755300972351481,0.3887550417488432,2.145840957141131,-0.0281926663112357,0.2164132811639587,0.0057391091460566,0.8977936224869515,-0.852121016007969,-0.6125761907545122,-1.7728993261443151,0.4050204295912732,2.1565230801063318,0.9328021654100196,-0.8793906306944343,-0.7569031550115568,1.1361115479261232,0.9954952581766818,0.4361720382879352,0.3308966504735,11.28453186112074,-1.277367598940931,0.1743983154412716,-1.0135439165413822
1.48,-1.737155389218545,0.3718463770348074,2.133582804482886,-0.0397712357270251,0.213996062818089,0.0051215028349964,0.9155968486535184,-0.8392011102172315,-0.6138608754884407,-1.7546221253091447,0.3875156522154717,2.141774081437291,0.9706864127130286,-0.8876941545031521,-0.7958095981306058,1.1017364050046738,0.8901613083283411,0.6459952895368715,-0.0642342366964254,10.737496394165646,-1.2833875541903967,0.185349252797297,-1.0162515957376357
1.5,-1.71960898367958,0.3560503904564702,2.12184653795425,-0.0490714192700497,0.2102005334032869,0.0047875554766371,0.9303722686678532,-0.8244659222052891,-0.6214018060788704,-1.7363449244739744,0.3700108748396702,2.12702508276825,1.0085706600160376,-0.8959976783118698,-0.8347160412496549,1.109396724031778,0.7387710007167425,0.7367594005971201,-0.3770465295214853,10.29980055766373,-1.2915548244052235,0.1951992725598056,-1.0141612410223615
1.52,-1.700863121353019,0.3397400494176376,2.109290651759482,-0.0570150961971332,0.2048594541094297,0.0047150791756802,0.9430729413944412,-0.8075555852299099,-0.6339391236011332,-1.7161735112736536,0.3520909212734328,2.110330761943257,1.0464549073190466,-0.9043012021205876,-0.8736224843687039,1.2292791739296014,0.6350336363294073,0.8455168487689624,-0.6268658761131418,9.686100323735443,-1.3023327072804771,0.2033308637053971,-1.0088099662734278
1.54,-1.6818980732740787,0.3237809068039425,2.0964552609647007,-0.0631131790833021,0.1989070245167211,0.0048871982244552,0.9525641086581962,-0.789471870034051,-0.6490144513065071,-1.6960020980733328,0.3341709677071954,2.093636441118264,1.0843391546220558,-0.9126047259293052,-0.912528927487753,1.2692207419691872,0.4745583631877437,0.904185759792947,-0.7537663852686949,9.686100323735443,-1.3128683933272096,0.2095750392654805,-1.000577135447529
1.56,-1.6627678164907684,0.3081906191521629,2.0832964295741463,-0.067491711015714,0.1929263948060699,0.0052491542011341,0.9598269776047024,-0.7708401596765433,-0.6660443782638573,-1.6748835786904368,0.3160434260457401,2.075969459215295,1.1222234019250648,-0.920908249738023,-0.9514353706068022,1.3133052847233062,0.3631434473253148,0.9315855178753828,-0.8514963478675086,9.547588731878932,-1.3222580450085717,0.2139574484473974,-0.9919903273609288
1.58,-1.6444786524513908,0.2937276707049447,2.070464711185451,-0.0703018851028805,0.1874594035859641,0.0057224306006572,0.964877645155014,-0.7528402225988405,-0.6837570174612376,-1.6528179531249656,0.2977082962890668,2.057329816234349,1.1601076492280735,-0.9292117735467408,-0.9903418137258512,1.2876767498499002,0.2525333775155736,0.8999968538851377,-0.8856319598690154,9.43845244870954,-1.331574681063539,0.2172223147561384,-0.9825446664019876
1.6,-1.6251420711210698,0.2788725914120081,2.056579261163535,-0.0720330501013901,0.1821526572343255,0.0063143239160756,0.96837189913026,-0.7338214637711963,-0.7038889029502716,-1.59623477019364,0.2560856595750027,2.036276860312389,1.042601200421871,-0.7372037971334952,-0.7264450333096358,1.3957218665722737,0.1747126987623026,0.9509379413822128,-1.0065942744516998,9.243361814361378,-1.3401835695825348,0.2192921968352622,-0.9731112851589584
1.62,-1.6056180925067112,0.2643450301019125,2.0427425770902827,-0.0754113183120888,0.1760164161167758,0.0068896627887113,0.9839391845507848,-0.71843935019691,-0.6764646231556412,-1.59623477019364,0.2560856595750027,2.036276860312389,1.042601200421871,-0.7372037971334952,-0.7264450333096358,1.754309633182312,0.7783642710262384,0.7691056787143158,1.3712139897315234,9.243361814361378,-1.3365505423891069,0.2205947639551262,-0.9488228692887444
1.64,-1.5858075695280862,0.2501932558232785,2.029476501289509,-0.0806404338780562,0.1680508054227328,0.0075390590621765,0.9958105503843172,-0.697257856127391,-0.6517615343004961,-1.59623477019364,0.2560856595750027,2.036276860312389,1.042601200421871,-0.7372037971334952,-0.7264450333096358,1.731926396210171,0.5935682916766216,1.0590747034759485,1.2351544427572525,12.348859292354971,-1.3506167222889802,0.2274864307732782,-0.9523581032610904
1.66,-1.5668172695351057,0.237176729996143,2.017250099325964,-0.0851096598343357,0.1597497447468268,0.0083208412714329,1.0022868261664768,-0.6742322607363563,-0.6363987227790576,-1.5858087581894214,0.2487136216036677,2.029012409979293,1.0581459114752425,-0.7340765120404261,-0.7349826364793155,1.4213867954936354,0.3238137891079795,1.151279769551733,0.768140576071924,11.807643859811831,-1.3660617347909627,0.2341420738361675,-0.95210505648786
1.68,-1.5467412148191049,0.2239583914859461,2.004629517160608,-0.0885074802062414,0.1510671912186505,0.0092948893416442,1.0046691601977045,-0.6491128862651897,-0.6267094822394033,-1.564956734180984,0.2339695456609978,2.0144835093131,1.089235333581985,-0.727821941854288,-0.7520578428186747,1.3514250547980131,0.1191167015613836,1.2559687235583317,0.4844620269827182,11.274248287268165,-1.3803667245954434,0.2393078899558062,-0.9488115975950506
1.7,-1.526659365095454,0.2112468530588731,1.9921415743811928,-0.0903425476940912,0.1431293334131386,0.0103596760928901,1.003196916460953,-0.623623066899673,-0.6227516535318334,-1.5441047101725465,0.2192254697183279,1.999954608646907,1.120324755688728,-0.7215673716681498,-0.769133049158034,1.2918618356712346,-0.0736121868375683,1.2744909682758376,0.1978914353784944,10.534956115589011,-1.392462307771873,0.2426989712438433,-0.944466268693426
1.72,-1.5076416528744885,0.1996484587376304,1.9803042577580092,-0.0903323258646412,0.1368067245872207,0.0114083235859069,0.998700738275076,-0.598882551737749,-0.6234106895359579,-1.521698215058772,0.2047941222849649,1.9845719476637464,1.151414177795471,-0.7153128014820116,-0.7862082554973934,1.2577192027746895,-0.2248089092938554,1.2370257580961996,-0.0329518002062267,10.534956115589011,-1.4031857919568924,0.2443794913402051,-0.9392776226386172
1.74,-1.4877408009388224,0.1879491481715214,1.9678182875002568,-0.0880941312095468,0.1319791536651199,0.0125094063599171,0.9914731976094356,-0.5726180442111335,-0.6251504181586054,-1.499291719944997,0.1903627748516019,1.9691892866805856,1.182503599902214,-0.7090582312958734,-0.8032834618367526,1.3648153312532656,-0.3613770332820176,1.3132253763307733,-0.0869864311323742,10.28961117601375,-1.4113904142213436,0.2437718010269908,-0.9343728339169391
1.76,-1.468004020577165,0.1767616747751165,1.955294655707688,-0.0835673520909575,0.1296474824339409,0.0135449442711463,0.9825525251262442,-0.5482114744720955,-0.6270637905522798,-1.4761079892785542,0.1760877916728923,1.953379745538941,1.2135930220089568,-0.7028036611097354,-0.8203586681761119,1.3028047032227894,-0.4460336241595697,1.220328486951899,-0.0956686196837197,10.239256515038504,-1.4167602258975656,0.2410842274317428,-0.932250603025389
1.78,-1.4484453092612917,0.166032458380391,1.9427341624347825,-0.0778550435375503,0.129904547482946,0.0144430261091498,0.9740984855046536,-0.5264146990622085,-0.628857860049793,-1.4521470230594424,0.1619691727488363,1.9371433242388123,1.2446824441156996,-0.6965490909235972,-0.8374338745154711,1.1723788738654288,-0.4227019810795374,1.0898387704943502,-0.0897034748756631,10.218463045582212,-1.418164427086121,0.237513722730052,-0.9340521712256804
1.8,-1.4300065651819505,0.1562238892284983,1.9307708142808675,-0.071936989801667,0.1318429786772234,0.015204185779392,0.967458389231118,-0.5074849517428162,-0.6303377243101558,-1.399740384986059,0.1397117234272806,1.9112912694322928,1.0359355700960422,-0.5057154159540933,-0.6273662153972327,1.0057537103174912,-0.3320048136767728,0.9464873659696172,-0.0739932130181364,10.205320459990617,-1.4179729199676467,0.2333157382799817,-0.9388010435428946
1.82,-1.4106134900081522,0.1462443806455218,1.918446561565282,-0.0670200955496042,0.1330275994132612,0.0159818109724417,0.9724042750940006,-0.4908050999604564,-0.6005320356460286,-1.399740384986059,0.1397117234272806,1.9112912694322928,1.0359355700960422,-0.5057154159540933,-0.6273662153972327,1.7255856391331514,0.2472942931441291,0.833992589117985,1.490284433206357,10.208981798423338,-1.4095252902545652,0.2289285467443222,-0.9357598737929786
1.84,-1.391117440738355,0.1366216841763186,1.9067483687338576,-0.063519592505041,0.1312084039028098,0.0168619267529337,0.9766693441774608,-0.4723319647335865,-0.5711378670189227,-1.399740384986059,0.1397117234272806,1.9112912694322928,1.0359355700960422,-0.5057154159540933,-0.6273662153972327,1.7489030052261705,0.2132534541730069,0.9236567613434972,1.4697084313552988,12.325455033866092,-1.4161278376358366,0.2284804530283967,-0.947569091330918
1.86,-1.3715603482776155,0.1273723120512012,1.8955829259582029,-0.060179231648604,0.1269636342847848,0.0178741952893894,0.978579206750168,-0.4537607980719793,-0.5468379950823437,-1.3893810292850983,0.1346545692677396,1.9050176072783205,1.04830298701432,-0.5015755593324702,-0.6270678864667206,1.5321713206704073,0.0954931286353599,0.928558333080362,1.2149935968289505,12.064985087229616,-1.4247830521507456,0.22803952043282,-0.95437446982471
1.88,-1.352978347001239,0.1189225823037535,1.885384783045685,-0.0567992032963175,0.1213897207324248,0.0189245808261926,0.9770188190093222,-0.4368604600565242,-0.5278304599568339,-1.3686623178831778,0.1245402609486578,1.892470282970376,1.0730378208508755,-0.4932958460892241,-0.6264712286056965,1.2741101075710697,-0.0780193870422885,0.845016900772752,0.9503767562754896,11.752690216888368,-1.4360840066184115,0.2272419109323088,-0.9574867988653848
1.9,-1.3334894403434745,0.1103621934677579,1.87500585634634,-0.0530255181320617,0.1150421194539065,0.0200460634539064,0.9716998260944196,-0.4202802423259845,-0.5111981589794062,-1.3479436064812569,0.1144259526295759,1.879922958662431,1.097772654687431,-0.4850161328459781,-0.6258745707446723,1.2039816666218648,-0.2659496457451227,0.8290108865269846,0.8316150488713814,11.482317157497164,-1.446881597247649,0.2259762364124818,-0.9580060936478868
1.92,-1.3141442767594995,0.10212085200193,1.8649223368688803,-0.0490932335378539,0.1092103407541703,0.0211214421931034,0.9629684228394682,-0.4049035060072118,-0.4979539132132314,-1.3259881533875082,0.1047256299726563,1.8674054672475373,1.1225074885239863,-0.476736419602732,-0.6252779128836482,1.1046396115164443,-0.4365701627475793,0.7688368159386338,0.6622122883087389,11.26398279926252,-1.4560595173225193,0.2244161394392227,-0.9573975540129652
1.94,-1.295956782993481,0.0945647236803826,1.855575246720471,-0.0453142235121937,0.1050045761292468,0.0220549772748205,0.9518593779439206,-0.3914017737216189,-0.4866028242318738,-1.3040327002937595,0.0950253073157368,1.854887975832644,1.147242322360542,-0.4684567063594859,-0.6246812550226241,1.0422989905322424,-0.5554522447773769,0.6750866142796463,0.5675544490678835,11.07172442395222,-1.4641360533761747,0.2226466229520536,-0.9583844867683208
1.96,-1.2770621380888223,0.0868767294839699,1.8459618630609984,-0.041382511264135,0.102852551729138,0.022911619131855,0.9381709009920588,-0.3782454909485339,-0.475363551475281,-1.281458876354097,0.0855319774898984,1.8423854008642764,1.1719771561970973,-0.4601769931162399,-0.6240845971615999,1.1031584538996593,-0.6844238475930908,0.6578141386542502,0.5619636378296405,11.008683966813804,-1.4681715532434116,0.2205707726722227,-0.960635108461259
1.98,-1.2584421949830804,0.0794416012543055,1.8365671868312108,-0.037551011443192,0.103259287666423,0.0236445333073811,0.9247898966276455,-0.3660373795469291,-0.4646914117885054,-1.2582666815685206,0.0762456404951411,1.829897742342434,1.196711990033653,-0.4518972798729938,-0.6234879393005758,1.0511705704695242,-0.6690502182206626,0.6104055700802413,0.5336069843387775,10.970705821117008,-1.4680607228826892,0.2183307344485914,-0.9656365377818376
2.0,-1.2400762959804013,0.072241273931213,1.8273824644888896,-0.0338577589407687,0.1056014279666056,0.0242929909498478,0.9127510716568092,-0.3547032371629349,-0.4543225911333831,-1.2122027001516982,0.0611397322769591,1.813332616241785,0.978320630660038,-0.3499189518083818,-0.4527326115322531,0.9758439066228493,-0.6019412485418152,0.5667071191997108,0.5184410327561173,10.932412991899582,-1.4662196912483765,0.2162457577840226,-0.9727325640348043
2.02,-1.222777960062408,0.0656042905233347,1.818987876662787,-0.0306571710890316,0.107708101896473,0.0248915274829952,0.9085073556364536,-0.3444708633598262,-0.4298780846120755,-1.2122027001516982,0.0611397322769591,1.813332616241785,0.978320630660038,-0.3499189518083818,-0.4527326115322531,1.3418685650783926,-0.2121858010177835,0.5116186901554354,1.2222253260653793,10.91582229618234,-1.457168905996194,0.2133631402099979,-0.9743577401532508
2.04,-1.204663046854574,0.0588220598192403,1.81064724067183,-0.0276641703290873,0.1086366782811826,0.0255324726940413,0.9030900135269734,-0.334325208162973,-0.405648804869919,-1.2122027001516982,0.0611397322769591,1.813332616241785,0.978320630660038,-0.3499189518083818,-0.4527326115322531,1.3410256445425013,-0.2708671054740097,0.507282759842656,1.211463987107822,11.904972053736856,-1.4608336662009322,0.2126645150743379,-0.990198562863965
2.06,-1.1866691671593026,0.0522369279384807,1.802760797972647,-0.0249541148582584,0.1089312448408881,0.0261652427028777,0.8965111391815981,-0.3247460557485672,-0.3843425434455265,-1.2024194938450978,0.0576405427588753,1.808805290126463,0.9890267774665166,-0.3466952662606723,-0.4503408514810026,1.2134645900429202,-0.3289437172687648,0.4789576207202911,1.0653130712196284,11.761126282666735,-1.4646577857209022,0.2120567951323455,-1.0044102009864575
2.08,-1.1688182253876995,0.0458367395635945,1.795270662733872,-0.0224630707091027,0.1090877205295806,0.0267787833786718,0.8889320002196274,-0.3157879553329608,-0.3657432622689567,-1.182853081231897,0.0506421637227076,1.799750637895818,1.0104390710794735,-0.3402478951652534,-0.4455573313785018,1.0995728383627572,-0.3789569480985355,0.4479050207803231,0.9299640588284864,11.593039674644388,-1.4677370653750847,0.2114332929625368,-1.015762082828121
2.1,-1.1520072057372075,0.0399166644767941,1.788479565910333,-0.0202910518639851,0.1094274067485442,0.0273368301177974,0.8810837716405592,-0.3078428734724252,-0.350049250810757,-1.1632866686186962,0.04364378468654,1.790695985665173,1.0318513646924306,-0.3338005240698344,-0.4407738112760008,0.9630952876663056,-0.3924114289534097,0.3972540930267776,0.7847005729099854,11.449717916419104,-1.469847949260756,0.2107240947776493,-1.026008499691322
2.12,-1.134475923334815,0.033842391534203,1.781638131692758,-0.0182246345787879,0.1101957674230404,0.0278938581454525,0.8725155089426168,-0.300019456008898,-0.3349938477269986,-1.1426496413248477,0.0369677742051433,1.7818805094396528,1.0532636583053876,-0.3273531529744155,-0.4359902911734999,0.950376436581866,-0.4284131348971209,0.3911708731763608,0.7527701541879234,11.33526240586707,-1.4703907594564805,0.2099949063937846,-1.035172117834772
2.14,-1.1171160010894872,0.0279197868865978,1.7750890718458152,-0.0163934069988702,0.1114933661665959,0.0284187773628263,0.8639934860789849,-0.2926379087604166,-0.3207005006155971,-1.1220126140309992,0.0302917637237466,1.773065033214133,1.0746759519183446,-0.3209057818789966,-0.431206771070999,0.9102360753079912,-0.4261011431815953,0.3690773624240695,0.7146673555700755,11.254187677292975,-1.4699503672282104,0.2093444538857262,-1.043815279827774
2.16,-1.099921043066136,0.0221416117061894,1.7688193056304715,-0.014770077728443,0.1132573764084811,0.0289161332886849,0.8560341920047579,-0.2855609717087713,-0.3070076230759948,-1.1008402793968266,0.0237769375197354,1.7643691449911754,1.0960882455313017,-0.3144584107835776,-0.4264232509684981,0.8673642480346947,-0.3979647037113454,0.3538468525822624,0.6846438769801122,11.222355614267144,-1.468763400899404,0.2088286632143121,-1.0522220170651828
2.18,-1.083726917330374,0.0167799133925078,1.7631118280981326,-0.0134180572145453,0.1151911233947512,0.0293668088997595,0.8490867218911705,-0.27919799957463,-0.2944805965843247,-1.07913263742233,0.0174232955931097,1.7557928447707802,1.1175005391442585,-0.3080110396881587,-0.4216397308659972,0.7837109608810763,-0.3473735056793714,0.3181486067070693,0.6263513245835073,11.17492010184651,-1.4671963373552606,0.2084341831779792,-1.061328996542378
2.2,-1.066816208866497,0.0112625459986837,1.7573569705223968,-0.0122624428636939,0.1173459959154755,0.0298159104124704,0.8424244326268978,-0.2728908981464371,-0.2816959404253291,-1.0412725812358152,0.0028200134137763,1.7483877982689164,0.8931212439179478,-0.238946912177293,-0.3235575304451035,0.7867862793829398,-0.3331144632136351,0.3153550714096426,0.63923280794978,11.17492010184651,-1.465318632857473,0.2082658913634005,-1.0707694731010886
2.22,-1.0499992727559926,0.0057931742117348,1.7518369263579512,-0.0138890583376808,0.118467098410251,0.0300789676276661,0.8395346918705188,-0.2737416801814151,-0.2710592589177794,-1.0412725812358152,0.0028200134137763,1.7483877982689164,0.8931212439179478,-0.238946912177293,-0.3235575304451035,0.552750905026779,-0.1444870378189522,-0.0425391017489007,0.5318340753774853,11.031882950267573,-1.463446547581176,0.2106913938853741,-1.0785195063882282
2.24,-1.0332540609216254,0.0003418576007941,1.7465001510468376,-0.0195083572941056,0.1178480706590526,0.0300903078517909,0.8349515186621617,-0.270173900442027,-0.2631510156368218,-1.0412725812358152,0.0028200134137763,1.7483877982689164,0.8931212439179478,-0.238946912177293,-0.3235575304451035,0.4905987176843239,-0.2291586604178552,0.1783889869694049,0.3954121640478786,11.031882950267573,-1.4645486095890117,0.2167092115062512,-1.0816840376612666
2.26,-1.017450459626438,-0.0047143422586745,1.741551617362236,-0.0258148049730384,0.1164887836356394,0.0300614243135345,0.8287234735102686,-0.2620494676425777,-0.2581426151277937,-1.0323413687966358,0.0004305442920033,1.7451522229644654,0.9019281483233031,-0.2308966946978256,-0.3293729172172592,0.5698224073902725,-0.3114022575946507,0.4062216399724649,0.2504200254514033,10.873550979708853,-1.4681084874205073,0.2242476585931252,-1.0834262155590302
2.28,-1.000962829101994,-0.0098402228766059,1.7364238657682094,-0.0321481246709531,0.1149989725824638,0.0300717845441699,0.8202457842477846,-0.2509160046709103,-0.2549893208062183,-1.0144789439182769,-0.0043483939515424,1.7386810723555637,0.919541957134014,-0.2147962597388908,-0.3410036907615708,0.7172316188847352,-0.4238844631242022,0.5566731485833726,0.1576647160787703,10.72693363079634,-1.4722560951658044,0.2315187161531579,-1.0837892637551814
2.3000000000000003,-0.9846636447324238,-0.014723068088961,1.73133718280263,-0.0376425674451053,0.1141946099556052,0.0301339544540673,0.810217725692413,-0.238047171050958,-0.2538280686680349,-0.996616519039918,-0.0091273321950883,1.732209921746661,0.937155765944725,-0.198695824779956,-0.3526344643058823,0.8177978718124814,-0.5014029277685794,0.6434416809976112,0.0580626069091705,10.609113112745035,-1.4749607932906714,0.2376160772443062,-1.0845494540285234
2.32,-0.9685710562106892,-0.0193361634752536,1.726259097520488,-0.042161667185622,0.1143731033894327,0.0302359419595461,0.7996921497358669,-0.2240695876829642,-0.254033182209108,-0.9778734037210234,-0.0131012486906874,1.7251572324605438,0.954769574755436,-0.1825953898210212,-0.3642652378501938,0.8749323653731341,-0.5262787978273065,0.6988791683996909,-0.0102556770536554,10.50906423451488,-1.476444668874964,0.243035134639284,-1.0858202022654504
2.34,-0.9534786650280892,-0.0234521070955385,1.721421747569754,-0.0455652061089894,0.1154965386347019,0.0303573061695997,0.7896650933881956,-0.2100544162926508,-0.2551463334302999,-0.9591302884021288,-0.0170751651862865,1.7181045431744262,0.9723833835661468,-0.1664949548620864,-0.3758960113945053,0.8634320959700238,-0.5013528173835657,0.7007585695156693,-0.0556575610595938,10.438670206192,-1.4766479801565209,0.2474660016563138,-1.0880037101993336
2.36,-0.9377909372600576,-0.0274904993518909,1.7163006354218395,-0.0482391387533257,0.1175361293369237,0.0305082826787922,0.7797726347623726,-0.1946687277680527,-0.2569292404128789,-0.9399468278629666,-0.0206465708079123,1.7107610845497008,0.9899971923768578,-0.1503945199031517,-0.3875267849388168,0.9189109129128078,-0.4946229312911498,0.7692844262299076,-0.0891453491289495,10.389526598072734,-1.47560844625616,0.2509367329187497,-1.0912377925735763
2.38,-0.9222928404177904,-0.031213710711711,1.711138595170021,-0.0499128996388929,0.1202032609611311,0.0306960198913893,0.7706840506034388,-0.1786583279244612,-0.2591814089537765,-0.9203230221035366,-0.0238154655555647,1.7031268565863675,1.0076110011875687,-0.1342940849442169,-0.3991575584831284,0.927371996965491,-0.4544292079466883,0.8005199921795741,-0.1126084270448829,10.35839207223944,-1.4739703357947471,0.2534478526047212,-1.095652940597565
2.4,-0.9077293246484464,-0.034448507563752,1.7061898915410365,-0.0504680589152662,0.1230922691866233,0.0309264963677918,0.7628861888677376,-0.1628179758583683,-0.2616229937075081,-0.8837586378876185,-0.040146627107934,1.6981795247223324,0.8042311763601794,-0.1437245001070212,-0.2588302306685764,0.8911856391018388,-0.3898930867850592,0.7920176033046455,-0.1220792376865786,10.339202139964073,-1.4720258335117236,0.254846861035206,-1.1009216651535292
2.42,-0.8924646567986261,-0.0374500238825108,1.7011286780813164,-0.0477129693220927,0.124404335309348,0.0314862508081278,0.764145850349528,-0.1389089169565203,-0.2433048314346818,-0.8837586378876185,-0.040146627107934,1.6981795247223324,0.8042311763601794,-0.1437245001070212,-0.2588302306685764,1.5073029835390923,0.0629830740895176,1.1954529450924012,0.915908113641313,10.328139460119928,-1.462449126147081,0.2521245517245445,-1.1035986670295923
2.44,-0.8771727661148608,-0.0400316586331413,1.6964573630534583,-0.041423208291956,0.1220720985601897,0.0324493234493041,0.7647058545722406,-0.121226541153773,-0.2249620013688254,-0.8837586378876185,-0.040146627107934,1.6981795247223324,0.8042311763601794,-0.1437245001070212,-0.2588302306685764,1.2742050792395276,0.0280002111356314,0.8841187901373628,0.9171415032928216,11.752563966916568,-1.471208544142971,0.2485194973908362,-1.1206178148734038
2.46,-0.8618987685272714,-0.0423137836762047,1.6921160495960927,-0.0344365526552183,0.116943317797558,0.0335330200664336,0.7621881412302258,-0.1081150131728782,-0.2100692898598381,-0.8757163261240167,-0.0415838721090042,1.6955912224156466,0.8109406015115275,-0.1367377345435332,-0.2587599950115364,1.0000548766896094,-0.1258856671007391,0.655576399044739,0.7446355754493635,11.577693449474282,-1.4825501338705798,0.2441538585409506,-1.1321601022904004
2.48,-0.8474771267399845,-0.0442692173842822,1.688237581448166,-0.0281745991281556,0.1108332265266373,0.0345234584874184,0.7557772706646121,-0.0983855236082962,-0.1989309664139573,-0.8596317025968132,-0.0444583621111447,1.690414617802275,0.8243594518142238,-0.1227642034165571,-0.2586195236974563,0.8059535932381918,-0.3205435282806868,0.4864744782290993,0.5569161722940419,11.366334421276406,-1.4942231761320794,0.239317512556159,-1.1380516021584848
2.5,-0.8324659234126371,-0.0461487925028074,1.6843574629725335,-0.0223787164312964,0.104400011305339,0.0354513561494224,0.7454956840171074,-0.0900705725493758,-0.189786674024957,-0.8435470790696096,-0.0473328521132851,1.6852380131889035,0.83777830211692,-0.1087906722895811,-0.2584790523833762,0.8038462514652853,-0.5140793323752335,0.4157475529460219,0.4572146194500123,11.17614485453214,-1.5044025208343597,0.2347984043245361,-1.1395573859280892
2.52,-0.8176936154723147,-0.0478778483283615,1.6806341883645244,-0.017527690125949,0.0990127844906502,0.0362390915620341,0.7320608585798575,-0.0831879838452891,-0.1830994757257286,-0.8267915130272712,-0.0495086655590767,1.680068432141236,0.8511971524196161,-0.0948171411626051,-0.2583385810692962,0.8255046682063695,-0.6717412718624971,0.3441294352043329,0.3343599149614226,11.02086136665821,-1.5130708642076125,0.2309620038410419,-1.1391297125333402
2.54,-0.8032228155287736,-0.0494817062003008,1.6770309058072794,-0.0136494429578451,0.0958852094734056,0.0368835554809691,0.7156568357818976,-0.077371564449211,-0.1775587618193335,-0.8100359469849328,-0.0516844790048683,1.6748988510935685,0.8646160027223124,-0.0808436100356291,-0.2581981097552161,0.9132664030002144,-0.8202011398979914,0.290820969803908,0.277035695319755,10.88912273290498,-1.5182236886022829,0.2279781347588514,-1.138430724022917
2.56,-0.7897909138179965,-0.0509018551039041,1.673705347156892,-0.0107124333726138,0.0957658286870924,0.0373851959970588,0.6994508717984951,-0.0722871220071383,-0.1727745634599484,-0.792944909685027,-0.0535109541724856,1.6697327818287528,0.8780348530250086,-0.0668700789086531,-0.2580576384411361,0.8822887530735526,-0.8102981991701286,0.2542221221036318,0.2392099179692533,10.85014286056321,-1.5166554659030744,0.2251561609927845,-1.1393114505177924
2.58,-0.7759676866605348,-0.0522953985922938,1.6703019841015092,-0.0082452163670905,0.0980976916110134,0.0378332591858828,0.6840037891814656,-0.067264593430283,-0.1678182549399042,-0.7755184011275538,-0.0549880910619284,1.6645702243467897,0.8914537033277049,-0.0528965477816771,-0.257917167127056,0.8491218240460617,-0.7723541308514714,0.251126428842767,0.2478154260022125,10.814751807119135,-1.5119636066506936,0.2229195786959634,-1.1433432748295902
2.6,-0.7624337002560114,-0.053591148507771,1.6669980950627843,-0.006312354424374,0.1021536664320334,0.0382244852654865,0.6704231524776476,-0.0624963996690042,-0.1628228003835999,-0.7417674972014615,-0.055658628263808,1.661911071354514,0.6970822282308884,-0.0409004327286505,-0.1590137902271652,0.7617806955585855,-0.6790318351909019,0.2384096880639407,0.2497727278152131,10.804212383252889,-1.5053917712922005,0.2212128205768412,-1.149926050782759
2.62,-0.7497366207285078,-0.0547121740519062,1.6640450137112326,-0.0042400812197078,0.1049779501894759,0.0386133913859016,0.6664294551627865,-0.0561500119729144,-0.1483157111874107,-0.7417674972014615,-0.055658628263808,1.661911071354514,0.6970822282308884,-0.0409004327286505,-0.1590137902271652,0.8165198894974899,-0.199684865743055,0.3173193848044892,0.7253544598094588,11.44895098759116,-1.4923357817824965,0.2185658632087079,-1.154363458435416
2.64,-0.7364598108995404,-0.0557854132759983,1.6612309965201155,-0.0019122742088428,0.1050733148453964,0.0390352766914234,0.6612654530144293,-0.0515189041909085,-0.1339622129377255,-0.7417674972014615,-0.055658628263808,1.661911071354514,0.6970822282308884,-0.0409004327286505,-0.1590137902271652,0.7970837306715519,-0.2582001074178608,0.231555389100296,0.7176749124842632,11.44895098759116,-1.494250684324841,0.217117077444419,-1.165774811871408
