t,x,y,z,roll,pitch,yaw,v_x,v_y,v_z,ref_x,ref_y,ref_z,ref_v_x,ref_v_y,ref_v_z,a_com,a_x,a_y,a_z,thrust,wind_x,wind_y,wind_z
0.0,1.816309460844849,0.8689701136267656,2.551428848984792,0.0184127501578474,0.1362441629014083,0.026264190419436,0.0008970844943784,0.0065938368807162,0.0016551319988849,1.8163395633527315,0.8691827105399342,2.551481938643722,-0.0990254929108627,-0.0930201435247155,-0.098259880371402,0.3428662542934221,0.04485422471892,0.3296918440358113,0.0827565999442491,10.543760553618084,-1.2869423215183038,0.1575710537581435,-1.1677283648394703
0.02,1.8164610221370805,0.8693327271417947,2.551202364462364,0.0280035372213582,0.1307440213155347,0.0267915078791364,0.0129466242154217,0.0244135103319853,-0.0241797636770994,1.8163395633527315,0.8691827105399342,2.551481938643722,-0.0990254929108627,-0.0930201435247155,-0.098259880371402,1.6809030340771212,0.6024769860521683,0.890983672563456,-1.291744783799224,10.54433313896334,-1.2979622499685914,0.1485236146023194,-1.1712763813391749
0.04,1.816797804685813,0.8698314228775575,2.5503969002898224,0.0427754627648339,0.1159429844308652,0.0272360613363661,0.0186676293374369,0.0239721812243443,-0.0548490074704733,1.8163395633527315,0.8691827105399342,2.551481938643722,-0.0990254929108627,-0.0930201435247155,-0.098259880371402,1.5600698588883557,0.2860502561007569,-0.0220664553820517,-1.5334621896686913,8.84920094583731,-1.32767207393038,0.1339614586540664,-1.1399199087714236
0.06,1.817122784404484,0.8702322918468911,2.549073434054532,0.0569439424392431,0.0968238393005087,0.0271575145107067,0.0144512253776873,0.0179381339669479,-0.0828300265212731,1.8153493084236227,0.8682525091046871,2.550499339840008,-0.1190254932088859,-0.1130201438227387,-0.1182598806694252,1.4466558123630393,-0.2108201979874791,-0.3017023628698193,-1.39905095253999,8.84920094583731,-1.356758725127705,0.1193910050955101,-1.0969527862374902
0.08,1.817283755913225,0.8704938607754312,2.547119272711289,0.0712418521123476,0.0750447471322302,0.0265757785790475,0.0011978034267847,0.0082039635279638,-0.1110382263347389,1.8133687985654052,0.8663921062341927,2.54853414223258,-0.1590254938049324,-0.1530201444187852,-0.1582598812654717,1.6325668472227026,-0.6626710975451302,-0.4867085219492034,-1.41040999067329,8.859718912601238,-1.3792406735458689,0.1056932636823363,-1.0501316655799278
0.1,1.8170949788835624,0.8705296066324548,2.5446136720402195,0.0848406069389527,0.0543337577175225,0.0256607527996382,-0.019646930703289,-0.004441383404432,-0.1380967978898843,1.811388288707188,0.8645317033636984,2.546568944625152,-0.1990254944009789,-0.1930201450148316,-0.1982598818615181,1.8211082028527583,-1.04223670650369,-0.632267346619794,-1.3529285777572702,8.940680771423104,-1.3930021429173458,0.0936322157740277,-1.0063808030573356
0.12,1.816473741519812,0.8703039345291068,2.5417393604126626,0.0971445345728983,0.0372897880073033,0.024677803248901,-0.0446831845485262,-0.018924574722424,-0.163099586904641,1.8074077788191685,0.8606713004634018,2.542603746987922,-0.2390254949970253,-0.233020145610878,-0.2382598824575646,1.91161992552988,-1.2518126922618569,-0.7241595658995995,-1.2501394507378332,8.940680771423104,-1.3986560889462825,0.0819910164434729,-0.9622629661390216
0.14,1.8152699902252083,0.8697447721121858,2.5381970177921187,0.1094847995496113,0.022942687323132,0.0236997438253057,-0.0743674377686238,-0.036495353136711,-0.1898275677625547,1.803427268931149,0.8568108975631052,2.5386385493506918,-0.2790254955930718,-0.2730201462069246,-0.2782598830536111,2.181898315721801,-1.4842126610048827,-0.8785389207143514,-1.336399042895685,8.983790342369957,-1.397385827666158,0.071377370683052,-0.923750026736752
0.16,1.8134413082045235,0.8688101407749813,2.534117767196143,0.1212265749781888,0.0127452836614029,0.0229425463423342,-0.1069530626069525,-0.0563385592919378,-0.2167661857606497,1.7984467590282285,0.8519504946479074,2.53367335169856,-0.3190254961891182,-0.313020146802971,-0.3182598836496575,2.335200696016523,-1.6292812419164318,-0.9921603077613396,-1.3469308999047525,8.962990077014183,-1.3943587267247135,0.0619960155365794,-0.8977931877189275
0.18,1.8109330922409432,0.8674489791511879,2.5294977077766045,0.1321767372947146,0.0074196775775851,0.0225987624423018,-0.1420694332364337,-0.0788675960929597,-0.2438714696255624,1.7924662491104062,0.8460900917178085,2.527708154031527,-0.3590254967851646,-0.3530201473990174,-0.3582598842457039,2.4876763247890508,-1.7558185314740613,-1.126451840051094,-1.3552641932456324,8.968807506378198,-1.385817341336082,0.0531549217271544,-0.8759924756974129
0.2,1.807897645575918,0.865699065024439,2.5246047718238285,0.14108701210847,0.0072527879325373,0.0227646663389012,-0.1750277140965996,-0.1037985882990035,-0.2696921309698056,1.7864857391925844,0.8402296887877095,2.5217429563644944,-0.3990254973812111,-0.3930201479950639,-0.3982598848417504,2.436446799075189,-1.647914043008296,-1.2465496103021902,-1.2910330672121633,8.986679936557266,-1.3662792386022962,0.0453431005781279,-0.8613221282988108
0.22,1.8040245233523944,0.8631901082063199,2.519062720794496,0.1447288208574412,0.0124132336965105,0.0232907202039584,-0.209860130180444,-0.1440235525628856,-0.2820347721351806,1.8038296205791216,0.8635055993465399,2.517304134295326,-0.2420694347265498,-0.1788675975830758,-0.3438714711156785,2.7311562346403147,-1.7416208041922177,-2.0112482131941083,-0.617132058268749,8.987075738500153,-1.3347846481250558,0.0407714538890388,-0.860076441328997
0.24,1.799511948723319,0.8599460504589239,2.513299565507868,0.142107212964678,0.0223300778102715,0.0240588335239213,-0.2389438404654831,-0.1775735592991927,-0.2937129135231349,1.8038296205791216,0.8635055993465399,2.517304134295326,-0.2420694347265498,-0.1788675975830758,-0.3438714711156785,2.295563189190939,-1.4541855142519544,-1.6775003368153545,-0.5839070693977128,9.989282340941829,-1.310155017982508,0.0410031311308198,-0.8721561108457885
0.26,1.7944775753911864,0.8560951990799268,2.507274984304088,0.136676724008912,0.034606010720116,0.0249164072073852,-0.2625002731017514,-0.2051782556526748,-0.3080323984172449,1.8038296205791216,0.8635055993465399,2.517304134295326,-0.2420694347265498,-0.1788675975830758,-0.3438714711156785,1.950623251006997,-1.177821631813418,-1.3802348176741044,-0.7159742447055029,9.801148684155123,-1.2884579638667542,0.0438187099087637,-0.8846860391067978
0.28,1.789307381873651,0.8519694139668722,2.5012603360659296,0.130991073751869,0.0468502384348868,0.0257047476491691,-0.2802374221782369,-0.2275856260419934,-0.3243476797217993,1.801408926231856,0.8617169233707092,2.5138654195841696,-0.2620694350245731,-0.198867597881099,-0.3638714714137017,1.6453609855988451,-0.8868574538242718,-1.1203685194659307,-0.815764065227717,9.589050082104222,-1.2678272512475437,0.0475423507310653,-0.8985229615208135
0.3,1.783544222309719,0.8471959356026219,2.4945661504720573,0.1253700755434087,0.0591306172799558,0.026406665179059,-0.2948685927947683,-0.248541540487244,-0.3443597954352158,1.7965675375373251,0.8581395714190476,2.506987990161856,-0.3020694356206195,-0.2388675984771454,-0.4038714720097481,1.6230421121877014,-0.7315585308265704,-1.0477957222625305,-1.0006057856708244,9.39871786706317,-1.2503340619743653,0.051458384042132,-0.9094806046837068
0.32,1.7775238439164274,0.8420222556674455,2.487443141151486,0.1204573799692381,0.0699594630255414,0.0269131702212099,-0.3062840828414173,-0.2677995062403254,-0.3670641920185966,1.791726148842794,0.8545622194673861,2.500110560739542,-0.3420694362166659,-0.2788675990731919,-0.4438714726057946,1.5942649420402435,-0.5707745023324523,-0.9628982876540654,-1.135219829169043,9.22580889973051,-1.2356614875476235,0.0551014017065297,-0.9168975754393266
0.34,1.771302667003048,0.8364770134008258,2.479846646665611,0.1163346983445958,0.0788264226084507,0.0271925018942914,-0.315279427929006,-0.2858860526926788,-0.3914609524632154,1.7848847601184608,0.8489848674859223,2.491233131287427,-0.3820694368127124,-0.3188675996692383,-0.483871473201841,1.583699242288496,-0.4497672543794351,-0.9043273226176736,-1.2198380222309402,9.083785312725013,-1.2244221756777849,0.0582698538174601,-0.9212539380658268
0.36,1.764914218101017,0.8305698274790624,2.471749749483965,0.1126724697981655,0.0857168552163014,0.0272428600221544,-0.3231506234745617,-0.3038602868884267,-0.4169973126886518,1.7780433713941273,0.8434075155044585,2.482355701835311,-0.4220694374087589,-0.3588676002652848,-0.5238714737978876,1.610228638892019,-0.3935597772777854,-0.8987117097873948,-1.2768180112718186,9.005318907843503,-1.2165924287693144,0.0610708988089586,-0.9221661835914442
0.38,1.758705906287637,0.8246297315930752,2.4635760437395096,0.109356163820861,0.0906634158729864,0.0271019581179461,-0.3300071898412294,-0.3204282606798658,-0.4420979075765114,1.770201982654893,0.8368301635080935,2.472478272368294,-0.4620694380048053,-0.3988676008613313,-0.5638714743939339,1.5423603029276038,-0.3428283183333824,-0.828398689571952,-1.2550297443929797,8.950658155116798,-1.210336201436832,0.0638888745524454,-0.920796956035502
0.4,1.7520330674985585,0.8180450450597314,2.4544476086864564,0.1059956152439842,0.0944577369960444,0.0267945206887446,-0.3369427192777253,-0.3370891179570796,-0.4694538891993021,1.7613605939007573,0.8292528114968273,2.461600842886376,-0.5020694386008517,-0.4388676014573777,-0.6038714749899804,1.6386240144726996,-0.3467764718247973,-0.833042863860689,-1.367799081139534,8.902695192910869,-1.2056248010670338,0.066564614308465,-0.9176748182998328
0.42,1.745222469797752,0.811133490421776,2.444764497359495,0.1027456119406282,0.0970849403702514,0.0263626915246978,-0.3438004202452478,-0.3531437397047598,-0.4974992685247112,1.7422055467955753,0.8086083185590819,2.441471148360684,-0.4300071913313455,-0.4204282621699819,-0.5420979090666276,1.6517583385041037,-0.3428850483761236,-0.8027310873840121,-1.402268966270459,8.845207227792343,-1.201413710854092,0.0690037650637361,-0.913863460658974
0.44,1.7382993948719037,0.8038790636909636,2.434783001373778,0.0995299218198722,0.0989468275074041,0.0258504905461517,-0.3480151686613754,-0.3715100661340554,-0.4978553997527628,1.7422055467955753,0.8086083185590819,2.441471148360684,-0.4300071913313455,-0.4204282621699819,-0.5420979090666276,0.9423546043956694,-0.2107374208063811,-0.918316321464782,-0.0178065614025751,8.804846607933541,-1.1866860544479652,0.0701640903148442,-0.9119856875458106
0.46,1.73165582136379,0.796668071856453,2.425297357274177,0.0969475085388688,0.0999747270124429,0.0253225235729678,-0.3512127866825875,-0.3868308065775279,-0.5007887209127311,1.7422055467955753,0.8086083185590819,2.441471148360684,-0.4300071913313455,-0.4204282621699819,-0.5420979090666276,0.7961693001073188,-0.1598809010606022,-0.766037022173624,-0.1466660579984152,10.462691069158607,-1.18509168405567,0.0718158176261483,-0.9125255821412326
0.48,1.724594084940104,0.7887680592174334,2.415196215271369,0.0948703804651958,0.0999873107440556,0.0247099254962762,-0.3548813126755016,-0.4024083015091021,-0.5094130105729238,1.7379054748822618,0.8044040359373821,2.436050169270018,-0.4500071916293687,-0.4404282624680051,-0.5620979093646508,0.9089758019975182,-0.1834262996457086,-0.7788747465787088,-0.4312144830096343,10.106062339974414,-1.1849792447417509,0.0730622043163918,-0.9101230652070632
0.5,1.7174547768997297,0.7805623724062555,2.404872911887589,0.0932513432804958,0.0987975098222441,0.0240195778392032,-0.3589363742996269,-0.417388541840747,-0.5226509429448545,1.729305331055635,0.7959954706939824,2.425208211088685,-0.4900071922254151,-0.4804282630640516,-0.6020979099606972,1.0199190882774785,-0.2027530812062611,-0.7490120165822456,-0.6618966185965358,9.539054280165146,-1.185635538672465,0.0739576261193932,-0.9053063685145876
0.52,1.7102300672796666,0.7720653083774224,2.3942433919794697,0.0920952182551267,0.0962243418942154,0.023238402350654,-0.3634396389971384,-0.431614124375323,-0.5395991959884837,1.720705187229008,0.7875869054505827,2.4143662529073526,-0.5300071928214616,-0.5204282636600981,-0.6420979105567437,1.1290370594169783,-0.225163234875575,-0.7112791267288004,-0.8474126521814618,9.347972148795634,-1.187175651751006,0.0744677803030095,-0.8985597158756212
0.54,1.7032766097572642,0.7637360240851674,2.383806402978651,0.0915484577296743,0.0923723269807799,0.0224105036659088,-0.3683994475928166,-0.444501943136341,-0.5581575012089474,1.7101050433725788,0.7771783401773807,2.401524294696218,-0.570007193417508,-0.5604282642561446,-0.6820979111527902,1.1566182023235887,-0.2479904297839119,-0.6443909380509011,-0.9279152610231822,9.347972148795634,-1.1899376334820142,0.074528933056405,-0.8894956193072331
0.56,1.6958415145989374,0.7547091261649963,2.372428889168127,0.0917651054980159,0.0869107462519722,0.0214683014225577,-0.3751771282011419,-0.4575804298449012,-0.5786439382535299,1.6995048995161497,0.7667697749041789,2.388682336485083,-0.6100071940135545,-0.600428264852191,-0.7220979117488366,1.2616238264594737,-0.3388840304162671,-0.6539243354280078,-1.0243218522291264,9.143320884997593,-1.1936773316177682,0.0738854436611716,-0.8792599779074523
0.58,1.6882418189217827,0.7454101029717182,2.3606359627371454,0.0926154826978044,0.0807780297636545,0.0205061601370312,-0.384636024557966,-0.4716431757662686,-0.5995968934602727,1.687904755644819,0.7553612096160757,2.374840378259047,-0.6500071946096009,-0.6404282654482374,-0.762097912344883,1.3474586032916234,-0.4729448178412032,-0.7031372960683707,-1.0476477603371392,9.143320884997593,-1.19679403903989,0.0727354250205649,-0.8689409993705924
0.6,1.6808247273665302,0.7363068847902883,2.349040897217025,0.0935708589802427,0.0750872293871812,0.0196101068220265,-0.3957160107315194,-0.4858229666044399,-0.6198684790461346,1.6753046117585877,0.7429526443130714,2.3599984200181097,-0.6900071952056474,-0.6804282660442839,-0.8020979129409295,1.3553318265145875,-0.5539993086776718,-0.708989541908564,-1.0135792792930975,9.119935958482529,-1.1989528671834773,0.0713142136586857,-0.8586953455152894
0.62,1.6727713223685672,0.7264276128535219,2.3364128264691164,0.0944101020791845,0.0697672608078693,0.0187140917934542,-0.4091636689473119,-0.5013229834712953,-0.6418915524061063,1.6690100176938845,0.7218279441834048,2.330656118064132,-0.4846360260480821,-0.5446736252162847,-0.6995968949503888,1.5050795615018722,-0.6723829107896234,-0.7750008433427713,-1.1011536679985834,9.05821784984346,-1.2000293009407896,0.0700018533781405,-0.8494362759726171
0.64,1.6643950899153728,0.7160828019459501,2.3235785419161576,0.0907778228770121,0.0674419246630805,0.0177934237356316,-0.4278712185817113,-0.5307836406665328,-0.6389605049140512,1.6690100176938845,0.7218279441834048,2.330656118064132,-0.4846360260480821,-0.5446736252162847,-0.6995968949503888,1.7510666571403677,-0.9353774817199678,-1.4730328597618747,0.1465523746027541,10.708897870810688,-1.188259597963307,0.0714498829207272,-0.8420252853316336
0.66,1.6556531840894553,0.7052433247414979,2.31081247277478,0.0821034751109235,0.0699137733582177,0.0169693968454852,-0.4447643152480424,-0.5505921893637838,-0.6378296722423159,1.6690100176938845,0.7218279441834048,2.330656118064132,-0.4846360260480821,-0.5446736252162847,-0.6995968949503888,1.302914136657552,-0.8446548333165577,-0.9904274348625508,0.0565416335867652,10.322596859565238,-1.1810491360842768,0.0765605895830068,-0.847667519646683
0.68,1.6470655184527458,0.6946455823299087,2.2986460094067622,0.0728462975395819,0.0749373339507069,0.0163219242151425,-0.4579953709601371,-0.5636396494777327,-0.6428700850305586,1.6641636574334036,0.7163812079312419,2.323660149114628,-0.5046360263461054,-0.5592797151062879,-0.719596895248412,0.9626822058155016,-0.6615527856047326,-0.652373005697443,-0.2520206394121371,10.322596859565238,-1.1730269757188063,0.0831367605994228,-0.8554084466991897
0.7000000000000001,1.6377844249879956,0.6832658600401552,2.285679165689335,0.0634017641352821,0.0816270142031989,0.0157270956603056,-0.469128956632244,-0.5734881652354451,-0.653807034637678,1.654470936912442,0.7054877354269162,2.30966821121562,-0.5446360269421519,-0.5884918948862943,-0.7595968958444584,0.9227226821433426,-0.5566792836053464,-0.4924257878856197,-0.5468474803559664,9.917915587560856,-1.1648042010184267,0.0897659428022021,-0.8632899199090146
0.72,1.628306374608846,0.6717190451774459,2.272438772992855,0.054817367984234,0.0887126515665024,0.0151749212750442,-0.4779154339394638,-0.5806577404129928,-0.6698975527211202,1.6447782163914804,0.6945942629225905,2.2956762733166123,-0.5846360275381983,-0.6177040746663007,-0.7995968964405049,0.9842633843265444,-0.439323865360991,-0.3584787588773841,-0.8045259041721098,9.310695163109813,-1.157097328243075,0.0959381586192579,-0.8702010414172529
0.74,1.618673775632493,0.6600521176571907,2.2588274371987125,0.0473181320462252,0.0954693205693579,0.0146438877908061,-0.4847875085534527,-0.5857911101079127,-0.690425122596646,1.6330854958407164,0.6822401814292645,2.279684335387802,-0.6246360281342448,-0.6469162544463072,-0.8395968970365514,1.1123825993330143,-0.343603730699446,-0.2566684847459977,-1.026378493776292,9.310695163109813,-1.1504229778425663,0.1011338041088485,-0.8751270641014458
0.76,1.6094117526189684,0.648888426875532,2.2454945132858666,0.0412477805661154,0.1011542810647574,0.0141545858811829,-0.4897798854885645,-0.5892365604185831,-0.7120202824203561,1.6213927752899524,0.6698860999359385,2.263692397458992,-0.6646360287302913,-0.6761284342263135,-0.8795968976325979,1.121545677978739,-0.2496188467555865,-0.1722725155335169,-1.0797579911855038,9.095354946210136,-1.1440318045476203,0.1057847820538888,-0.8786738147579245
0.78,1.599568381570068,0.6370714953155154,2.2309998183003787,0.0357645995443282,0.106223857008486,0.013651652727273,-0.4942458970128271,-0.5922843581660561,-0.7363862800014823,1.6087000547242871,0.6568017139481123,2.2467004595152806,-0.7046360293263376,-0.70534061400632,-0.9195968982286442,1.247934461588225,-0.2233005762131312,-0.1523898873736495,-1.2182998790563115,8.988116080643522,-1.1389915987959538,0.1097527615210868,-0.8806967582341051
0.8,1.5896421937824976,0.6252012962498154,2.216003389819855,0.0309796794968678,0.1104317567337223,0.0131618155481136,-0.4981168920028911,-0.5945825520817957,-0.7620891462965842,1.595007334143721,0.642987023465786,2.228708521556668,-0.7446360299223841,-0.7345527937863263,-0.9595968988246908,1.3047065122771166,-0.1935497495031996,-0.1149096957869799,-1.285143314755094,8.903975212620935,-1.1348958039446402,0.1131906838724542,-0.8816214695961002
0.8200000000000001,1.5796435365877142,0.6132935102484423,2.200479270300969,0.026799229171706,0.1138642638008632,0.0126920937187534,-0.5015441948924902,-0.5961212026666943,-0.7890330799279687,1.5748560867194268,0.6074572774072127,2.1941805043003044,-0.5942458985029433,-0.6209851252510122,-0.7948908279252856,1.3602292180473805,-0.1713651444799568,-0.0769325292449329,-1.3471966815692238,8.778552422371831,-1.130933057990309,0.1161226804778234,-0.8829201131539528
0.84,1.5701355931662662,0.6018374368150827,2.185598772597022,0.0197125496670741,0.1163937948355966,0.012015047423746,-0.4991674310962766,-0.607156196050276,-0.775909446099067,1.5748560867194268,0.6074572774072127,2.1941805043003044,-0.5942458985029433,-0.6209851252510122,-0.7948908279252856,0.8655198582265128,0.1188381898106827,-0.5517496691790857,0.6561816914450846,8.778552422371831,-1.113649293127289,0.1204632512982599,-0.8815674230376612
0.86,1.560183675953743,0.5896563911913546,2.1701917463618905,0.009245423937681,0.1180461724972679,0.0110832069775097,-0.4962605181476502,-0.6097106634762274,-0.7659040033539394,1.5748560867194268,0.6074572774072127,2.1941805043003044,-0.5942458985029433,-0.6209851252510122,-0.7948908279252856,0.5363868269429358,0.1453456474313164,-0.1277233712975667,0.5002721372563801,10.74723504852318,-1.115222812874603,0.1287610674187259,-0.8836825344403035
0.88,1.550287811028043,0.5774867189162612,2.154905591755387,-0.0014444472631967,0.1183172178088394,0.0101471427421551,-0.4936327166625727,-0.6069441597547917,-0.7631756148327176,1.5689136277343974,0.6012474261547025,2.1862315960210514,-0.6142458988009665,-0.6267252786680034,-0.8065917375100463,0.2345367103910843,0.1313900742538787,0.138325186071786,0.1364194260610907,10.74723504852318,-1.1179264070251878,0.1368693794610022,-0.8835850180129854
0.9,1.540440423929628,0.5654103218725682,2.1396147721334566,-0.0112065113564723,0.1169505456524435,0.0093198017746229,-0.4913628710190239,-0.6008904734508432,-0.7660207231060162,1.5570287097643385,0.5888277236496823,2.170333779462546,-0.6542458993970129,-0.6382055855019859,-0.8299935566795676,0.3531782772161345,0.1134922821774409,0.3026843151974212,-0.1422554136649323,10.347080242913762,-1.1214926754601011,0.1446736917142072,-0.8811783949186294
0.92,1.5311241269858904,0.5540725639961919,2.124994973542448,-0.0192366483040955,0.1137954894461998,0.0086946419299696,-0.4895499342164522,-0.5930324197252105,-0.7727353070120965,1.5451437917942796,0.576408021144662,2.15443596290404,-0.6942458999930594,-0.6496858923359684,-0.853395375849089,0.5246936850126019,0.0906468401285803,0.3929026862816376,-0.3357291953040131,10.040953655586236,-1.1263994465314842,0.1514009501925073,-0.8763567958363061
0.94,1.52134440179579,0.5423145179952109,2.109437791049307,-0.0262959828951066,0.1082538888691369,0.008245236135626,-0.4889495712848983,-0.5833153524256435,-0.7827270256794177,1.5312588737944184,0.5634143032979426,2.137368055387058,-0.7342459005891059,-0.6611661991699509,-0.8767971950186103,0.69752468501264,0.0300181465776983,0.4858533649783503,-0.499585933366059,9.81302642515675,-1.134038132948907,0.1569612982060191,-0.8675842232747784
0.96,1.511548799883924,0.5307659224604608,2.0936720180014348,-0.0318697094022347,0.1009438853583602,0.0080205293064769,-0.4910318419065097,-0.5723312334755586,-0.7932994786593557,1.5173739557945571,0.5504205854512233,2.120300147870076,-0.7742459011851524,-0.6726465060039334,-0.9001990141881316,0.769356032770655,-0.1041135310805713,0.5492059475042443,-0.5286226489969015,9.645451180008422,-1.1413733647064348,0.1610562951366083,-0.8574326211374764
0.98,1.5021741146853265,0.5200039393793193,2.078500342205293,-0.0359435694750898,0.0932024024848403,0.0079822024197859,-0.4959170060804534,-0.5612957325427245,-0.803164341242492,1.5024890377797948,0.5371398599336543,2.1026471948738563,-0.8142459017811987,-0.6841268128379158,-0.923600833357653,0.7793629187181175,-0.2442582086971845,0.551775046641706,-0.4932431291568173,9.620946746475056,-1.1489292988030453,0.1643294345185071,-0.846175307554484
1.0,1.492177384815081,0.5089055103360421,2.062327421011592,-0.0391508072439396,0.0849898121593808,0.0080775959573457,-0.5037276054022581,-0.549287203521468,-0.8135982461952346,1.4866041197501314,0.5235721267452359,2.0844091963983984,-0.8542459023772452,-0.6956071196718983,-0.9470026525271744,0.8861103254998797,-0.3905299660902361,0.6004264510628243,-0.5216952476371273,9.624358855916398,-1.1555851099509502,0.1667357628703765,-0.8356576251828691
1.02,1.4819982439634651,0.4980516992984343,2.045945214961917,-0.0413590871804768,0.0772763747263257,0.0082705590457274,-0.5139547893255694,-0.5368757644328414,-0.8240902186852425,1.4773782643813038,0.4919391527521831,2.038342125143168,-0.5959170075705695,-0.5679890039971481,-0.779637646616876,0.9601049395547956,-0.5113591961655617,0.6205719544313315,-0.5245986245003942,9.614686833196174,-1.1610028246355335,0.1683827554760319,-0.8263442286620942
1.04,1.471579222641816,0.4874135417445354,2.0297511043465897,-0.044297272552481,0.0719540855156553,0.0083520723177212,-0.5274893048772945,-0.5266347133699488,-0.7948599362582311,1.4773782643813038,0.4919391527521831,2.038342125143168,-0.5959170075705695,-0.5679890039971481,-0.779637646616876,1.6900234087546744,-0.6767257775862567,0.5120525531446263,1.4615141213505656,12.129272634006156,-1.150729211357025,0.1694587563951814,-0.8182084698517581
1.06,1.4614196599879754,0.4775380249731772,2.0149090010967035,-0.0476405596006348,0.0706577798080237,0.0082583655627673,-0.5408228428119051,-0.5134164880005309,-0.7690441284396681,1.4773782643813038,0.4919391527521831,2.038342125143168,-0.5959170075705695,-0.5679890039971481,-0.779637646616876,1.5960581514276089,-0.6666768967305281,0.6609112684708984,1.2907903909281535,12.129272634006156,-1.149684233491027,0.1726102017887962,-0.8241361041654766
1.08,1.4504766486126592,0.4674354128113976,1.9997750607710845,-0.0505548269588323,0.0720323083891094,0.0080947780183299,-0.5525038446434121,-0.4977002566456563,-0.7458864833079893,1.471419094305598,0.4862592627122116,2.030545748676999,-0.6159170078685927,-0.5693276582880329,-0.7749323076917527,1.5163461509763967,-0.5840500915753499,0.7858115677437244,1.1578822565839364,11.837385286505196,-1.146860324357188,0.1753658940959573,-0.8327178289313816
1.1,1.4393227353964928,0.4576597677849972,1.9850607021546045,-0.0523077070443727,0.0748395909269289,0.0079562088526339,-0.5621073892744952,-0.4809801606482851,-0.726688476208918,1.459500754154187,0.4748994826322686,2.014952995744661,-0.6559170084646392,-0.5720049668698023,-0.7655216298415063,1.3604715691797005,-0.4801772315541575,0.8360047998685616,0.959900354953569,11.333701145196756,-1.1443827603481782,0.1772034198526564,-0.8411223417978079
1.12,1.428566384976344,0.4486904699005831,1.9714091239163756,-0.0525778283867041,0.0779477036636556,0.0079129523796564,-0.5695669284540285,-0.4642624445757232,-0.7112727936261837,1.447582414002775,0.4635397025523257,1.999360242812324,-0.6959170090606857,-0.5746822754515718,-0.7561109519912599,1.196630712610834,-0.3729769589766618,0.8358858036280975,0.7707841291367146,11.161542492745866,-1.142139751977969,0.1780414894612613,-0.8496654473075502
1.14,1.417106349477688,0.439596762814626,1.9573344543221536,-0.0509354062964397,0.0810304008054623,0.0080285275320957,-0.5759795284808323,-0.4462182906904421,-0.6970889596294089,1.4336640738215616,0.4520460570432942,1.9842380237724988,-0.7359170096567321,-0.5773595840333413,-0.7467002741410135,1.1915264111503512,-0.3206300013401941,0.902207694264054,0.7091916998387404,11.04352840095089,-1.1401737573618689,0.1773403270302002,-0.8577128728404284
1.16,1.4055314212106111,0.4308581313572511,1.943539473623728,-0.0470961286589861,0.0834608348699724,0.0083490576833921,-0.5811747632149029,-0.4292844332441598,-0.6830819064998396,1.4197457336403478,0.4405524115342628,1.9691158047326736,-0.7759170102527786,-0.5800368926151107,-0.7372895962907671,1.1290964632480258,-0.2597617367035287,0.8466928723141143,0.7003526564784646,11.04352840095089,-1.1377511030884488,0.1748370702096247,-0.865047454816213
1.18,1.393857635914371,0.4224261812952253,1.9300279946559848,-0.0420699993447135,0.0850974622469119,0.0088062344772036,-0.585982876391809,-0.4151806888204713,-0.6687605177065171,1.404827393444233,0.4289918333106871,1.9542288526391047,-0.815917010848825,-0.5827142011968802,-0.7278789184405206,1.0333631211488108,-0.2404056588453051,0.7051872211844251,0.7160694396661227,11.063496141235191,-1.1365857638665215,0.17154288635488,-0.8707069378464669
1.2,1.3826800101974843,0.414656445348105,1.917459325195343,-0.0369364801253578,0.0860236216168024,0.009302951388961,-0.5904093922798878,-0.4036390204311063,-0.6549742043744348,1.388909053233217,0.4173643223725672,1.939577167491792,-0.8559170114448714,-0.5853915097786496,-0.7184682405902741,0.9258328512855768,-0.221325794403937,0.5770834194682495,0.6893156666041178,11.076054615351495,-1.1359913451670058,0.1677328986850753,-0.8757907218645172
1.22,1.3708235284506625,0.4066967826386137,1.904513206748424,-0.0315099771361858,0.0864338603492863,0.0098549251972726,-0.5950433691511187,-0.3931208233492331,-0.6403615993675871,1.3645584920947806,0.4016671468542017,1.8965899687706589,-0.6859828778819251,-0.4342794158530135,-0.6229006742140092,0.9295623117661056,-0.2316988435615452,0.5259098540936591,0.7306302503423845,11.076054615351495,-1.135857631746698,0.1638538807871171,-0.880096489454472
1.24,1.3588604393852246,0.3989187481923407,1.891909056363385,-0.026711316169893,0.0869142517374475,0.0103660827682104,-0.6009724319255738,-0.3850932452101921,-0.6205424076404054,1.3645584920947806,0.4016671468542017,1.8965899687706589,-0.6859828778819251,-0.4342794158530135,-0.6229006742140092,1.1095000640836254,-0.2964531387227576,0.4013789069520518,0.990959586359086,11.445889755294957,-1.13458530066021,0.1603186016927722,-0.8833932227517157
1.26,1.3473975270900125,0.3916799709078766,1.8803105239260876,-0.0227194465578307,0.0876526702787645,0.0108094395665671,-0.6053530533555437,-0.3773827672736934,-0.601384127426506,1.3645584920947806,0.4016671468542017,1.8965899687706589,-0.6859828778819251,-0.4342794158530135,-0.6229006742140092,1.05555792697065,-0.2190310714984933,0.3855238968249352,0.9579140106949656,11.432932317913584,-1.1336064045533552,0.157528881167071,-0.8888263656671183
1.28,1.3352509845177811,0.3842130896668277,1.8684921539517376,-0.0186954270864635,0.0881023034310946,0.0112756878180302,-0.6090967197992647,-0.3698521700602993,-0.5814767566191917,1.3576986633159611,0.3973243526956716,1.8903609620285189,-0.7059828781799483,-0.438099161259522,-0.6137287055155076,1.080541930343441,-0.1871833221860519,0.3765298606697054,0.9953685403657152,11.419333411586194,-1.1332558748447663,0.1547004444324545,-0.8935913500145589
1.3,1.323035288379868,0.3768879464775759,1.857068412775964,-0.0147540788284195,0.0878455165275986,0.011750981009194,-0.6124114365419776,-0.36319074223107,-0.5618970782484882,1.343979005758323,0.3886387643786113,1.8779029485442384,-0.7459828787759948,-0.4457386520725389,-0.5953847681185044,1.047289087249368,-0.1657358371356443,0.3330713914614619,0.9789839185351756,11.40255849348705,-1.1337748390959883,0.1519076288052693,-0.8971087219820799
1.32,1.3107547156773651,0.3696857235886844,1.8460342100398084,-0.010917045064742,0.0866965003048552,0.0122295611258102,-0.6155949858665132,-0.357492023109992,-0.5425048782438708,1.3302593482006844,0.379953176061551,1.8654449350599585,-0.7859828793720413,-0.4533781428855558,-0.5770408307215013,1.023068676753636,-0.1591774662267786,0.2849359560539027,0.9696100002308694,11.40255849348705,-1.1348124491155835,0.1492968251419859,-0.8994637373729707
1.34,1.299029466901776,0.3629398826851653,1.8359104538538615,-0.0074173628519713,0.0845788210180734,0.012678624359759,-0.6185913089970647,-0.3529669646722457,-0.5241233282388147,1.3145396906132436,0.3708856132038399,1.8539041184455285,-0.8259828799680877,-0.4610176336985727,-0.5586968933244981,0.9582999096786928,-0.1498161565275768,0.2262529218873127,0.9190775002528072,11.390854469094847,-1.1367214760162632,0.1466410094911142,-0.9006271036941313
1.36,1.2866237260583573,0.3559225624615263,1.8256348556382849,-0.0039367046442439,0.0810195296951467,0.0131350424931761,-0.6219415538755936,-0.349082844693624,-0.5043823003077076,1.2988200330258026,0.3618180503461288,1.842363301831098,-0.8659828805641342,-0.4686571245115896,-0.5403529559274949,1.0198268388937266,-0.1675122439264431,0.1942059989310879,0.9870513965553552,11.390854469094847,-1.1390585986928252,0.144100127774951,-0.9006767624566691
1.38,1.274138026635372,0.348971742714647,1.815758185973912,-0.0007715010249172,0.0760833203414713,0.0135584004038139,-0.6266555258599041,-0.3461990354608728,-0.4842696550973624,1.2821003754234606,0.3525595002180923,1.8312810836515927,-0.9059828811601806,-0.4762966153246064,-0.5220090185304918,1.0429002647868422,-0.235698599215528,0.1441904616375583,1.0056322605172583,11.437980286257698,-1.1431787012629966,0.1418180924670076,-0.8983404360256944
1.4,1.2615354769249074,0.3420698196349296,1.806288059407694,0.0019971321489726,0.0702396678974333,0.0139363089615002,-0.633646021998897,-0.344113184122923,-0.4637506602190865,1.2643807178062174,0.3431099628197303,1.8206574639070132,-0.945982881756227,-0.4839361061376233,-0.5036650811334886,1.0888606004535355,-0.3495248069496415,0.1042925668974903,1.0259497439137957,11.437980286257698,-1.1478921443404049,0.1399581401384368,-0.8954592037816166
1.42,1.249359506584244,0.33551246949813,1.797625344271299,0.0032032375219137,0.0660066962244083,0.0141871429548013,-0.6477282840738446,-0.3456709679193916,-0.4491525118444771,1.2428052503423768,0.3316617909416033,1.7915447032190437,-0.7266555273500203,-0.3672597946625187,-0.4488871048876017,1.017156245951378,-0.7041131037473836,-0.0778891898234296,0.7299074187304688,11.466560702043353,-1.155735758674552,0.1393675147075719,-0.8903931781477759
1.44,1.236244027946242,0.3285964776219118,1.788805814824976,0.0027739913776169,0.064893496145748,0.0143443142310362,-0.6627109350845894,-0.3457418757976569,-0.4335277419179078,1.2428052503423768,0.3316617909416033,1.7915447032190437,-0.7266555273500203,-0.3672597946625187,-0.4488871048876017,1.0823796636291687,-0.7491325505372404,-0.0035453939132651,0.7812384963284652,11.186542652609203,-1.1526813940184302,0.1397938055628509,-0.8945009136839124
1.46,1.2228496456160818,0.3216882347151091,1.780298832729574,0.0012195412074288,0.0662245970919474,0.0144345259880576,-0.6757044799969404,-0.3449926884990883,-0.4179619016124135,1.2428052503423768,0.3316617909416033,1.7915447032190437,-0.7266555273500203,-0.3672597946625187,-0.4488871048876017,1.014505883932873,-0.649677245617547,0.0374593649284299,0.7782920152747147,11.208758635522829,-1.1484914262666706,0.1411031492488799,-0.9004346455316029
1.48,1.2099043487281091,0.3151493575305972,1.7725018071429255,-0.0009849037787256,0.0687441751914225,0.0144734675783247,-0.6861446838139234,-0.3432332870879338,-0.4035657162939995,1.2355386950688765,0.3279891929949782,1.7870558321701675,-0.7466555276480434,-0.3714719465028478,-0.4418105948456496,0.893509234406444,-0.5220101908491481,0.0879700705577246,0.7198092659206984,11.162927454353849,-1.143644568000692,0.1431851103340958,-0.9076361797863888
1.5,1.1960832491789912,0.308321671547411,1.7645857367546085,-0.003448735813794,0.0718830877741204,0.014504051004827,-0.6952806152465159,-0.3395896156888883,-0.3888291345271989,1.221005584521876,0.3206439971017278,1.7780780900724154,-0.7866555282440899,-0.3798962501835062,-0.4276575747617454,0.8858730532289233,-0.4567965716296251,0.1821835699522767,0.7368290883400297,11.162927454353849,-1.1388520626010064,0.1454688635528759,-0.9152334583141511
1.52,1.1820965040589126,0.3015804984194575,1.7569578818535148,-0.0054752474865486,0.0748808315261844,0.01456545405069,-0.7028931919522942,-0.3348409980026277,-0.3747079555325251,1.2064724739748758,0.3132988012084774,1.7691003479746634,-0.8266555288401364,-0.3883205538641645,-0.4135045546778411,0.8365231470665376,-0.3806288352889153,0.2374308843130279,0.70605894973369,11.138367932155234,-1.1346077358154714,0.1474424221579971,-0.9223159840073074
1.54,1.167969868492314,0.2949420587602407,1.7496053670503355,-0.0068519395823117,0.077335619507025,0.0146764120592629,-0.7094013586865914,-0.3293670330080389,-0.3612635236131958,1.189939363398073,0.3055323901311941,1.7608302568811067,-0.8666555294361828,-0.3967448575448228,-0.3993515345939368,0.7954138492584831,-0.3254083367148608,0.2736982497294399,0.6722215959664685,11.107544684186903,-1.131435362507892,0.1488597810162685,-0.928358973715896
1.56,1.1544316549125866,0.2887411959306214,1.7428647625384457,-0.0074105993702631,0.0791010549759664,0.0148403782163887,-0.7153514230573764,-0.3237244496850097,-0.3489558037896892,1.1734062528212703,0.2977659790539108,1.7525601657875498,-0.9066555300322292,-0.4051691612254812,-0.3851985145100325,0.7394626086350647,-0.2975032185392523,0.2821291661514596,0.6153859911753295,11.07376981734069,-1.1290691350476028,0.1497215982624157,-0.9336688515333216
1.58,1.140060761767596,0.2823322965455896,1.7360201453819348,-0.007067285344603,0.0804861567686314,0.0150844096109196,-0.7214209597125838,-0.3175396993769812,-0.3361661344506354,1.1558731422295665,0.2897889603846111,1.7446439001960907,-0.9466555306282756,-0.4135934649061396,-0.3710454944261283,0.7724410226416921,-0.3034768327603687,0.3092375154014254,0.6394834669526894,11.053303952217902,-1.1270601002998148,0.1497743515887905,-0.9386467035758398
1.6,1.1255694088883037,0.2760477099263114,1.7294295913445457,-0.0056266588301978,0.0814949555642398,0.0154099106620406,-0.7274119987602123,-0.3113727593170671,-0.3235379434096856,1.1373400316229614,0.2816013341232948,1.737081460106729,-0.986655531224322,-0.4220177685867979,-0.356892474342224,0.7638633836287559,-0.2995519523814272,0.3083470029957069,0.6314095520474905,11.05148626213304,-1.1254988692797965,0.1489525280622268,-0.9431257735767627
1.62,1.1116921664439685,0.2701866124362868,1.723402124302552,-0.003245141799932,0.0822098640343887,0.015791732384858,-0.7330456376210192,-0.3061269459171433,-0.3115706021697959,1.1039897137819668,0.2664553115767406,1.719211838659403,-0.8214209612026999,-0.3325439384220647,-0.313414045024714,0.7114662700943357,-0.2816819430403405,0.2622906699961902,0.598367061994487,11.048400290002974,-1.1237976061678026,0.147135824585116,-0.9477205808450996
1.64,1.0969393446401028,0.2640646362645343,1.717242209425467,-0.0014715159000385,0.0836054056293413,0.0161413017376922,-0.7418427914256002,-0.3059566166543865,-0.3053766304001032,1.1039897137819668,0.2664553115767406,1.719211838659403,-0.8214209612026999,-0.3325439384220647,-0.313414045024714,0.5380153654937618,-0.4398576902290507,0.0085164631378392,0.3096985884846304,11.05170444452324,-1.1235985504557806,0.1459678339467929,-0.949845667816964
1.66,1.082030135855809,0.257957901030412,1.711197720473452,-0.0012715388153474,0.08592600794984,0.0163815098052215,-0.7485254475125724,-0.3046002925423478,-0.2993559882285959,1.1039897137819668,0.2664553115767406,1.719211838659403,-0.8214209612026999,-0.3325439384220647,-0.313414045024714,0.4548231514308012,-0.3341328043486136,0.0678162056019338,0.3010321085753692,10.645821921481913,-1.119261052241111,0.1459609442367421,-0.9549038530937392
1.68,1.0677580359347971,0.2521885837817335,1.7055694485340482,-0.0019571683632011,0.0881561775239766,0.0165498636870959,-0.7534422754649748,-0.3027170945828482,-0.2934044658081729,1.0957755041699395,0.26312987219252,1.716077698209156,-0.8414209615007231,-0.3355447862310814,-0.3088636271395297,0.3973104918982935,-0.2458413976201168,0.0941598979749797,0.297576121021148,10.67554587349514,-1.1155861620456728,0.1468118059900428,-0.959494823584528
1.7,1.0526459404503867,0.2461613404201352,1.6997689627103716,-0.0033308753751621,0.0900679378811689,0.0166833760028049,-0.7574956677940877,-0.3000658820215654,-0.2869543180926586,1.0793470849458855,0.2564789934240787,1.7098094173086618,-0.8814209620967696,-0.3415464818491148,-0.2997627913691611,0.4033091958125001,-0.2026696164556474,0.1325606280641406,0.3225073857757166,10.690947360645623,-1.1127235003902756,0.1482875881079786,-0.9633932787320688
1.72,1.0374613989526345,0.2401965435047926,1.6940988113506823,-0.0050790554760585,0.0912168324970863,0.0167949510227494,-0.7608372416290811,-0.2965482098752036,-0.2803909982679639,1.0629186657218317,0.2498281146556374,1.7035411364081674,-0.921420962692816,-0.3475481774671483,-0.2906619555987925,0.4080971089864293,-0.1670786917496669,0.1758836073180919,0.3281659912347356,10.705646786862417,-1.1110392812533652,0.1500329585377872,-0.9661929687155908
1.74,1.0229772426161003,0.2346047230148065,1.6888351115016476,-0.0067770488399068,0.0914934564230487,0.0169054270143012,-0.763743805960076,-0.29226761717979,-0.274014981287372,1.0444902464679755,0.2428771511062944,1.6977278972961916,-0.9614209632888624,-0.3535498730851817,-0.2815611198284239,0.410564192822009,-0.1453282165497449,0.2140296347706793,0.3188008490295907,10.71486211203228,-1.1103358557572824,0.1519450222923524,-0.968194187480367
1.76,1.0076710390627284,0.2288164009143507,1.683425484019852,-0.0082369536369389,0.0908964983785756,0.0170550586029229,-0.7667944046265489,-0.2868244954473038,-0.2672841489735026,1.026061827214119,0.2359261875569514,1.6919146581842155,-1.001420963884909,-0.3595515687032151,-0.2724602840580554,0.4589058456153568,-0.1525299333236474,0.2721560866243089,0.3365416156934697,10.727141441569074,-1.1105033285151866,0.1535840371199632,-0.9694874403308918
1.78,0.9922965588507532,0.223144042720204,1.6781514312532713,-0.0090616502061181,0.0895249650969652,0.0172598932725683,-0.7705915604382997,-0.2807287563861481,-0.2604534049772989,1.0066334079453616,0.2288251816171576,1.6863289399664991,-1.0414209644809551,-0.3655532643212485,-0.2633594482876868,0.4955690933212177,-0.1898577905875387,0.304786953057784,0.3415371998101879,10.739762824644458,-1.1117625137839895,0.1546816914226056,-0.9697068465642154
1.8,0.9768364471949452,0.2175993307994109,1.6730167322707574,-0.0089883449894063,0.0877429815893129,0.0175334833185256,-0.7753065486178987,-0.2741689910972421,-0.2533593726452501,0.986204988661703,0.221574133286913,1.6809707426430416,-1.0814209650770017,-0.3715549599392819,-0.2542586125173182,0.5375568084106268,-0.2357494089799516,0.3279882644453002,0.3547016166024375,10.739762824644458,-1.1132096187107627,0.1549875431731245,-0.9697404638489912
1.82,0.9620525050894548,0.2124543619666034,1.6682732348689209,-0.0079374679619383,0.0860134476618305,0.0178608691864904,-0.7807170607973348,-0.2678596922868973,-0.2463123490986497,0.9537669808288384,0.2091076049008966,1.6651287610044063,-0.8259882253259664,-0.2703884830058686,-0.2432083302432071,0.5448427167274645,-0.2705256089718055,0.3154649405172405,0.3523511773300208,10.780467486541056,-1.11462313991982,0.154390402606656,-0.9699706395468004
1.84,0.9462706528026434,0.2070601524163114,1.663390721783638,-0.009021519862682,0.0876177996324335,0.0180237145318897,-0.7967283303252147,-0.2711602013181634,-0.2425010559379945,0.9537669808288384,0.2091076049008966,1.6651287610044063,-0.8259882253259664,-0.2703884830058686,-0.2432083302432071,0.8393152973054006,-0.800563476393995,-0.1650254515633026,0.1905646580327588,10.780467486541056,-1.1154047162037444,0.1556381055261183,-0.9666224799817972
1.86,0.9302136903652825,0.201647565417923,1.6585803171466396,-0.0137680254081348,0.0944667433878034,0.0178718659531654,-0.8074852831744481,-0.2690941893859381,-0.23870193770143,0.9537669808288384,0.2091076049008966,1.6651287610044063,-0.8259882253259664,-0.2703884830058686,-0.2432083302432071,0.5796846972279949,-0.5378476424616696,0.1033005966112637,0.1899559118282268,10.606500771016728,-1.1047237266862433,0.1600292216804065,-0.9775663612365504
1.88,0.9139952052155426,0.1963316554357054,1.6538393907175295,-0.0192138560434673,0.1038621345228234,0.0175997799371452,-0.8133474891612239,-0.2624956595496807,-0.2356114422131134,0.9455070985755786,0.2064037200708379,1.6626966777019745,-0.8370675583034998,-0.2683204283298127,-0.2397593152963888,0.4675928180443791,-0.293110299338789,0.329926491812868,0.154524774415829,10.58831047926833,-1.0940817812513255,0.1649586107054818,-0.9892014346612272
1.9,0.8985162847206812,0.1914297140700977,1.649383982603585,-0.0238864568893182,0.1137809271862504,0.0173144819799822,-0.8153751679733215,-0.2539509245003003,-0.233561266189142,0.9289873340690592,0.2009959504107205,1.6578325110971102,-0.8592262242585664,-0.2641843189777009,-0.232861285402752,0.4509079733116481,-0.1013839406048822,0.4272367524690207,0.1025088011985725,10.53841272748832,-1.0830952104808222,0.169820616115544,-1.0017041616648594
1.92,0.882213968658965,0.1864585494647411,1.644728628337575,-0.0279102675317285,0.1244808412304208,0.0170293829901446,-0.8144091406820848,-0.2437263447920229,-0.2321364228853566,0.91246756956254,0.1955881807506032,1.652968344492246,-0.8813848902136331,-0.260048209625589,-0.2259632555091154,0.5184240961285304,0.0483013645618368,0.5112289854138682,0.0712421651892697,10.494949486646874,-1.0726366736347248,0.1739392949496228,-1.013981058457568
1.94,0.8659731938639154,0.1817017710569533,1.640093603638,-0.0309258222232765,0.134604113230971,0.0167995007113014,-0.8094851205660545,-0.2326220273444351,-0.231488834799829,0.8948398717582673,0.1903872165580914,1.6484490793820636,-0.9035435561686996,-0.2559121002734772,-0.2190652256154787,0.6082170879061016,0.2462010058015162,0.5552158723793901,0.032379404276378,10.469332316681175,-1.0628026240109467,0.1772064009554669,-1.0260976049854171
1.96,0.8498679952522992,0.1771735683987075,1.6354636362508708,-0.0329230131138565,0.1431332260009383,0.0166721164318687,-0.8012848227916185,-0.221009058339608,-0.2315598712622517,0.8772121739539946,0.1851862523655796,1.6439298142718817,-0.9257022221237664,-0.2517759909213654,-0.2121671957218419,0.7108287045334641,0.4100148887217991,0.5806484502413569,-0.0035518231211353,10.431453863207937,-1.0556998027565954,0.1794898752544721,-1.035772949520237
1.98,0.8347396935998302,0.1730925167474196,1.6310612555549122,-0.0338602521983306,0.1493230339158899,0.0166754510048343,-0.7916569136703003,-0.2093225206921101,-0.231853629600708,0.8590305095008454,0.1800886909068706,1.63958299990904,-0.9478608880788332,-0.2476398815692536,-0.2052691658282052,0.7572286480914461,0.4813954560659084,0.5843268823748943,-0.0146879169228147,10.439701419119956,-1.0511730836574058,0.1810062934899979,-1.043484372974038
2.0,0.8190241683225721,0.1690413188035712,1.6264227711623087,-0.0335925686904282,0.153760466718396,0.0168392931895892,-0.7804654372502355,-0.1965319877133753,-0.2319645549471527,0.8402948783988193,0.1750945321819644,1.6354086362935396,-0.9700195540338998,-0.2435037722171417,-0.1983711359345686,0.8497928906113704,0.5595738210032397,0.6395266489367376,-0.0055462673222331,10.439701419119956,-1.0492160344445909,0.1813486102663941,-1.04937432572258
2.02,0.8035388790119026,0.1652489760482982,1.621787341075186,-0.0317692388962981,0.1561639400244309,0.0171859851029474,-0.7687369260700104,-0.1835083196388244,-0.2315368735660562,0.7951568479163152,0.1626263907128141,1.6194685740748769,-0.7799558122330893,-0.2090603232066837,-0.1992640152093811,0.8765797396479102,0.5864255590112555,0.6511834037275468,0.0213840690548236,10.46840871742188,-1.049473380629573,0.1802191929041132,-1.0535970392022265
2.04,0.7882090455566708,0.1617373557744042,1.617158514807583,-0.0274031056986544,0.1591569522834796,0.0177007457403218,-0.7645931476467268,-0.1693733551072882,-0.2313917479650382,0.7951568479163152,0.1626263907128141,1.6194685740748769,-0.7799558122330893,-0.2090603232066837,-0.1992640152093811,0.7365276358853212,0.2071889211641808,0.7067482265768101,0.0072562800508976,10.509987725352405,-1.0532364148270603,0.1768478046106606,-1.0539886556890343
2.06,0.7737462558765957,0.1586158093010996,1.6127774026770954,-0.0218088899680102,0.1643202841202309,0.0182441938701422,-0.7576515343422481,-0.160222034306538,-0.2298113011123718,0.7951568479163152,0.1626263907128141,1.6194685740748769,-0.7799558122330893,-0.2090603232066837,-0.1992640152093811,0.5797207946961683,0.3470806652239366,0.4575660400375103,0.0790223426333211,10.482687490816716,-1.0467651351408322,0.1716064984543323,-1.0638662606123714
2.08,0.7586985852184581,0.1554879371928445,1.6082109012305672,-0.0158607070461738,0.1708795663022783,0.0188261030331518,-0.7471835286241271,-0.1531681095052021,-0.2268951155960718,0.7873572897939843,0.1605357874807473,1.617475933922783,-0.7776155919456471,-0.2090078837095984,-0.1927460923311157,0.6477675832870037,0.5234002859060505,0.3526962400667952,0.1458092758150023,10.573781786455584,-1.0406370660316595,0.1662844199521687,-1.074243071954061
2.1,0.7438885716799496,0.1524817751263409,1.603714584461298,-0.0103852614496071,0.1778422011925567,0.019402155769282,-0.734113301084668,-0.1478008873163963,-0.2229327997590269,0.7717581735493226,0.1563545810166136,1.6134906536185951,-0.7729351513707626,-0.2089030047154278,-0.179710246574585,0.7337197502278041,0.6535113769729539,0.2683611094402904,0.1981157918522436,10.661655870735558,-1.0351767371376726,0.1616417696802666,-1.0841367049526367
2.12,0.7300821039622567,0.1497132559126176,1.5995238192436625,-0.0057772245452711,0.1844543720931841,0.0199362945198599,-0.7196826275816076,-0.1438440398941075,-0.2184383426588689,0.7561590573046608,0.1521733745524799,1.6095053733144078,-0.7682547107958783,-0.2087981257212572,-0.1666744008180542,0.7811867956839174,0.7215336751530188,0.1978423711144386,0.2247228550078986,10.7347461914851,-1.029973589631781,0.1573496408012755,-1.0942587892042208
2.14,0.7158681828142568,0.1468712957680021,1.5952109990683734,-0.0015667966050993,0.1910907444512179,0.0204799813104368,-0.7023005154370667,-0.1405438857749486,-0.2130751904304378,0.7407939630887432,0.1479974120380547,1.6061718852980469,-0.7635742702209939,-0.2086932467270866,-0.1536385550615235,0.9243812006430616,0.8691056072270442,0.1650077059579438,0.2681576114215586,10.799089879782514,-1.0253274167329405,0.1536920369802123,-1.103968876045223
2.16,0.7020315189908837,0.144087426322187,1.5910101837389543,0.0020122751596642,0.1968046724317774,0.020998600158857,-0.6821630382426859,-0.1379773558366004,-0.2072698454882195,0.7254288688728256,0.1438214495236296,1.6028383972816858,-0.7588938296461094,-0.208588367732916,-0.1406027093049927,1.0557072198019513,1.006873859719043,0.1283264969174122,0.2902672471109133,10.860865074510002,-1.0217613447825664,0.1507831771570327,-1.1125355288357053
2.18,0.6886217371318248,0.1413480476094169,1.5869317222657628,0.0049853554849986,0.2008958437510394,0.0214806801934295,-0.659960491266653,-0.1360117696087326,-0.2008738970699503,0.7101807856712802,0.1396481089840587,1.5998308054092378,-0.754213389071225,-0.2084834887387455,-0.1275668635484619,1.1594446705333654,1.1101273488016428,0.0982793113933871,0.3197974209134618,10.91184315307146,-1.0204313853780274,0.1483373923746471,-1.1196839162645904
2.2,0.6763058274917878,0.138777627363019,1.583183188360045,0.0073091848083128,0.2029903171382816,0.0218957263039485,-0.6377531914437455,-0.1345881727441814,-0.1940184872329405,0.6950497134841068,0.1354773904193421,1.5971491096807031,-0.7495329484963406,-0.2083786097445749,-0.1145310177919312,1.1642459335237516,1.110364991145374,0.0711798432275645,0.3427704918504873,10.967593684191344,-1.0211283201625934,0.1463996084248337,-1.1243411816109152
2.22,0.6637966469824084,0.136080962233502,1.5793129563623047,0.0087330751346259,0.2029210855516247,0.0222391939717558,-0.6144744494476244,-0.1349499152831454,-0.1936926226007468,0.6556237125684922,0.1345474591289803,1.5768880274122654,-0.6463022592110486,-0.1413033777709569,-0.1479894263985349,1.1641916448173215,1.163937099806056,-0.0180871269482033,0.0162932316096875,11.032550189072026,-1.026068880527423,0.1455915999215427,-1.124913121249376
2.24,0.6517591652368571,0.1333831936097718,1.575466787567481,0.0089399117486755,0.1999554384135526,0.0224654197161602,-0.5905534454265707,-0.134746566974539,-0.1907034799239775,0.6556237125684922,0.1345474591289803,1.5768880274122654,-0.6463022592110486,-0.1413033777709569,-0.1479894263985349,1.2053949123129346,1.196050201052684,0.0101674154303205,0.1494571338384639,10.807279676174405,-1.0311870479705367,0.1458119059447839,-1.12236471211511
2.26,0.6401959816202151,0.1306930355260123,1.5717244226731777,0.0082509117558814,0.1940552839920638,0.022600162204307,-0.5675597060369901,-0.1342307547623416,-0.1836158057475064,0.6556237125684922,0.1345474591289803,1.5768880274122654,-0.6463022592110486,-0.1413033777709569,-0.1479894263985349,1.203342468487273,1.1496869694790302,0.0257906106098701,0.3543837088235552,10.807279676174405,-1.0406498339266872,0.146996455002358,-1.117299445858596
2.28,0.6296093581136748,0.1281515453563357,1.5683349835357272,0.0069473119583844,0.1866276214900583,0.022672811444551,-0.5483560860912272,-0.1332917355574677,-0.173475686527505,0.6491606899763817,0.1331344253512707,1.57540813314828,-0.6435706127999277,-0.1423616994034018,-0.1374125322642519,1.0868334668709223,0.960180997288146,0.0469509602436954,0.5070059610000704,11.02254155596438,-1.0522009527269218,0.1489406335139519,-1.1110290442981243
2.3000000000000003,0.6188282271606794,0.1255025278648952,1.5650049979383291,0.0051135007248077,0.1779021736991626,0.0227241960810348,-0.5311067722753897,-0.1316225976921903,-0.159904691963162,0.6362346447921607,0.1303083577958516,1.5724483446203092,-0.6381073199776859,-0.1444783426682915,-0.1162587439956857,1.1005643345529268,0.8624656907918749,0.0834568932638696,0.6785497282171468,11.211414623272503,-1.0641678062614903,0.1513606606223261,-1.1047633173865468
2.32,0.6083607664270482,0.1228975862033301,1.5619722975742454,0.0031366008424693,0.1690682393133293,0.0227837364485381,-0.5167759968974937,-0.1288806330384549,-0.1439378163347062,0.6233085996079397,0.1274822902404324,1.5694885560923386,-0.6326440271554441,-0.1465949859331812,-0.0951049557271196,1.0814696140306297,0.7165387688948033,0.137098232686772,0.7983437814227917,11.371076990836627,-1.075796287896264,0.1539315694317874,-1.0993956643256375
2.34,0.5981506129527796,0.1203589851988935,1.5592753769520142,0.0014770083069918,0.1607480306114465,0.0228845908502158,-0.5051639754630226,-0.1251743700574075,-0.1264954367795682,0.6106557190648308,0.1245503905217688,1.5675864569777962,-0.6271807343332023,-0.148711629198071,-0.0739511674585535,1.0639690216646251,0.5806010717235521,0.1853131490523671,0.8721189777568985,11.49730021142568,-1.0866302967613055,0.1561989654202171,-1.095405520961538
2.36,0.5881466652584273,0.1179018472240697,1.556938653392305,0.0004017568040585,0.1533956829298678,0.023039067635104,-0.4959147419676001,-0.1208095423008913,-0.1080506161471535,0.598002838521722,0.1216184908031052,1.5656843578632538,-0.6217174415109605,-0.1508282724629607,-0.0527973791899873,1.054527678345676,0.4624616747711224,0.2182413878258085,0.9222410316207338,11.621026565871034,-1.0958120926943766,0.1578183785314983,-1.093029668764455
2.38,0.5783048747009673,0.1155373997205208,1.554978227058852,0.0001332275970742,0.1473428180521792,0.0232537163120048,-0.4888578810440627,-0.1159609801863367,-0.0889147206215359,0.5854865402991691,0.1186336750028193,1.5643111034554256,-0.6162541486887188,-0.1529449157278504,-0.0316435909214212,1.0482012428920742,0.3528430461768705,0.2424281057277343,0.9567947762808796,11.66318766880886,-1.1045195177163594,0.1587736764893531,-1.0919354997216568
2.4,0.569065267282816,0.1133827289324774,1.5534750790155705,0.0007911857103178,0.1432528056805568,0.0235174090373167,-0.4841648293665663,-0.1112034156448215,-0.0702744861417011,0.5731068243971723,0.1155959431209112,1.5634666937543116,-0.610790855866477,-0.1550615589927401,-0.0104898026528551,0.9900978434952245,0.2346525838748198,0.2378782270757592,0.9320117239917416,11.66318766880886,-1.1112301639358677,0.1587381060135039,-1.093006103959901
2.42,0.559419723003882,0.1112090720719751,1.5522794515128446,0.0025008746636711,0.1412136591955623,0.0238585445553213,-0.4805651963034605,-0.106513974455832,-0.0502697549683769,0.5538619806487641,0.109739350711204,1.5505324910277754,-0.5028567638891068,-0.1205866396223241,-0.0703966639010407,1.0429974666447732,0.1799816531552922,0.2344720594494725,1.0002365586662116,11.698200433346756,-1.114039375928186,0.1575560405644856,-1.0976671818636072
2.44,0.549827999987143,0.109109297084778,1.5512443202191004,0.0047563103315441,0.1410002118229615,0.0242321034010046,-0.4788140983558196,-0.1037284538191733,-0.0554996341506492,0.5538619806487641,0.109739350711204,1.5505324910277754,-0.5028567638891068,-0.1205866396223241,-0.0703966639010407,0.3089381228524941,0.0875548973820444,0.1392760318329362,-0.2614939591136157,11.72384311337646,-1.1232940029022291,0.1565051422239342,-1.1031487341106496
2.46,0.5402812856224737,0.1070565649874375,1.550077224704687,0.006977493862729,0.141498734094708,0.0245985783720243,-0.4758750467816104,-0.101724733749885,-0.0608093849423314,0.5538619806487641,0.109739350711204,1.5505324910277754,-0.5028567638891068,-0.1205866396223241,-0.0703966639010407,0.3195558313569802,0.1469525787104603,0.1001860034644142,-0.2654875395841114,10.04812464943734,-1.1218648009477876,0.1543867931064021,-1.1018539765306123
2.48,0.5312760073364765,0.1051364818591601,1.548897887723481,0.0088840923908638,0.1422345739508373,0.0249278019057946,-0.4721636270029629,-0.1004652662812862,-0.0630758352424164,0.5488334130098731,0.1085334843149808,1.5498285243887648,-0.5056565404581157,-0.1215117715095216,-0.0666930525569417,0.2263718845205269,0.1855709889323764,0.0629733734299392,-0.113322515004248,10.205722533113658,-1.1206180711839853,0.1525368431440993,-1.101591849373257
2.5,0.5218815530390538,0.103136829362277,1.547632596970459,0.0106118940652047,0.1430787698082371,0.0252488893528749,-0.4674363855849497,-0.0995545257232823,-0.0632408995267497,0.5387762777320909,0.1061217515225343,1.548420591110744,-0.5112560935961333,-0.1233620352839166,-0.0592858298687436,0.2408500882610126,0.2363620709006586,0.0455370279001977,-0.008253214216667,10.37135476138883,-1.1195886262769568,0.1510163725315201,-1.1023846154334498
2.52,0.5125895135776085,0.1011508227207466,1.5463842487571322,0.0120153833410096,0.1438160771730552,0.0255393778422419,-0.4619863823253005,-0.0991002829231369,-0.0615165446207438,0.5287191424543087,0.1037100187300878,1.5470126578327232,-0.516855646734151,-0.1252122990583116,-0.0518786071805455,0.2867153287388813,0.2725001629824614,0.0227121400072707,0.086217745300297,10.504057735986862,-1.118841494352046,0.1498899959904237,-1.1036717090955233
2.54,0.5034130304918858,0.0991687314995394,1.5451880417832349,0.0129753509925835,0.1443010555742755,0.0257889382487747,-0.4559677279366074,-0.0991056011424386,-0.0582025036354961,0.5183820295196258,0.1012057727489216,1.5459750856891123,-0.5224551998721686,-0.1270625628327066,-0.0444713844923474,0.3435371034760722,0.3009327194346517,-0.000265910965088,0.1657020492623836,10.6130025531711,-1.1185902219377013,0.1491601945494277,-1.1053002514291586
2.56,0.4948087894159784,0.0972827538371397,1.544115367168025,0.0133838423225716,0.1444581220315559,0.0259807074785682,-0.4500857088259379,-0.0993845107665013,-0.0548799752674474,0.5080449165849427,0.0987015267677553,1.5449375135455017,-0.5280547530101862,-0.1289128266071016,-0.0370641618041493,0.3380648390219121,0.2941009555334745,-0.0139454812031328,0.1661264184024374,10.701936426146858,-1.1194126324227518,0.1490295939422211,-1.1067687119155487
2.58,0.4858715241663729,0.0952907743787132,1.5430558001276768,0.0132222257550036,0.1443131160894893,0.0261313051590596,-0.4439868566735841,-0.0997667196972417,-0.0512444384574107,0.4975678148218092,0.0961510241922292,1.5440851219690954,-0.533654306148204,-0.1307630903814966,-0.0296569391159512,0.3555249960978144,0.304942607617692,-0.0191104465370219,0.1817768405018332,10.711123857405257,-1.1206662679046893,0.14951388959905,-1.107771843814349
2.6,0.4770546784086419,0.0932924382094181,1.5420713030249606,0.0124469875034627,0.1439097562829002,0.0262310189429257,-0.438040886125527,-0.1000045742293228,-0.0473758249664124,0.4869507242302253,0.0935542650223432,1.5434179109598944,-0.5392538592862216,-0.1326133541558916,-0.0222497164277531,0.3548848787970843,0.2972985274028561,-0.0118927266040555,0.1934306745499162,10.721037081007124,-1.1221476190537576,0.1506153087968713,-1.1085025678763754
2.62,0.4683548256082012,0.0912935720991865,1.5411676298743655,0.0111366224529635,0.1433064510965745,0.0262879337842634,-0.4322881672076921,-0.0998267386701687,-0.0431849002063695,0.4636721813326937,0.0903024383938511,1.5404935782048064,-0.4518437127738453,-0.1047783676369237,-0.0327822350143603,0.3559819194076252,0.2876359458917427,0.0088917779577049,0.2095462380021419,10.735809708182387,-1.1237288255873406,0.1521670300274376,-1.1090814026185654
2.64,0.460174741674784,0.0893974505268341,1.5403450014782112,0.0093348596703311,0.1430057911237565,0.0263046734472536,-0.4289690647841868,-0.099654467730132,-0.0436197960257419,0.4636721813326937,0.0903024383938511,1.5404935782048064,-0.4518437127738453,-0.1047783676369237,-0.0327822350143603,0.1675951412497354,0.1659551211752652,0.0086135470018372,-0.0217447909686193,10.7542681040768,-1.127820825107682,0.154582076288338,-1.108836416220095
