t,x,y,z,roll,pitch,yaw,v_x,v_y,v_z,ref_x,ref_y,ref_z,ref_v_x,ref_v_y,ref_v_z,a_com,a_x,a_y,a_z,thrust,wind_x,wind_y,wind_z
0.0,-2.375326886391464,2.2268135838974104,2.6398008557779886,0.0232993039852117,0.1365696256803416,0.0266966547563478,0.0048040941578969,-1.123007640815377e-05,0.0122079364040334,-2.375185943152013,2.226912026626374,2.640172607847092,0.0155852868684883,-0.0975746236862873,-0.0876567768208103,0.655959522450661,0.2402047078948464,-0.0005615038204076,0.6103968202016705,10.551992019808496,-1.2863195421253248,0.1525312798540498,-1.1742572720274111
0.02,-2.3753230760350674,2.2270575514805446,2.6398093012060184,0.0318540526642083,0.1381258669488086,0.027318195722374,-0.0037746647047882,0.0187607185213861,-0.0113597067851569,-2.375185943152013,2.226912026626374,2.640172607847092,0.0155852868684883,-0.0975746236862873,-0.0876567768208103,1.566377160261314,-0.4289379431342611,0.9385974298897132,-1.1783821594595163,9.195137024271844,-1.3084273141220886,0.1459442890156551,-1.1888894354049808
0.04,-2.375470877138729,2.2274199527571024,2.6393311218478743,0.045665070825443,0.142016469008086,0.0283972461716521,-0.0109262359234531,0.0179732626095854,-0.0377248959261165,-2.375185943152013,2.226912026626374,2.640172607847092,0.0155852868684883,-0.0975746236862873,-0.0876567768208103,1.36646282070465,-0.3575785609332442,-0.039372795590031,-1.3182594570479835,9.195137024271844,-1.301756149332833,0.1302630794170784,-1.1730855952347123
0.06,-2.3757437589668613,2.227713844627804,2.638285372019338,0.0606021693492985,0.1478971513901334,0.029692579322202,-0.0156397386336447,0.0111032290262786,-0.0654422425846614,-2.375030090283329,2.225936280389511,2.639296040078884,0.0177573849910254,-0.1175746239843105,-0.1076567771188335,1.4471228135724132,-0.2356751355095765,-0.3435016791653416,-1.3858673329272433,9.014943600548577,-1.2901639902706774,0.1144048307378005,-1.1586006718757265
0.08,-2.376079676875316,2.2278337588522423,2.6366929405055552,0.0750042291189274,0.1546981275260582,0.0310762593106805,-0.0174346497584754,0.0009249519858962,-0.0923864472653732,-2.3747183845459587,2.223984787915785,2.6375429045424674,0.0221015812360997,-0.157574624580357,-0.14765677771488,1.4429216847536332,-0.0897455562415359,-0.5089138520191199,-1.3472102340355874,9.06040559646135,-1.27846507960938,0.0995840132803155,-1.1479672403232477
0.1,-2.3764223716660178,2.2277212805647366,2.634569295307272,0.0887307050170826,0.1616684827000693,0.0324984287522413,-0.0165281623652877,-0.0119536829158841,-0.1186101532824992,-2.374406678808589,2.2220332954420594,2.635789769006051,0.026445777481174,-0.1975746251764034,-0.1876567783109264,1.461475037077283,0.0453243696593847,-0.6439317450890208,-1.3111853008563032,9.100893631897634,-1.26817313077268,0.0865981075938585,-1.1380559095147091
0.12,-2.376707615129236,2.227352031693043,2.632072402940364,0.1011423655286254,0.1679165198072181,0.0338326251779505,-0.0134443639052634,-0.0265092490938595,-0.1429218467191315,-2.3738777632589656,2.2180818029385314,2.632036633439833,0.0307899737262482,-0.2375746257724499,-0.2276567789069729,1.425160304544947,0.1541899230012164,-0.727778308898769,-1.215584671831614,9.100893631897634,-1.2589552086601892,0.0740392013647916,-1.1273721969201744
0.14,-2.376927631078505,2.226641443322125,2.628940253852078,0.1135638018113128,0.1737685406165747,0.0351678991650187,-0.0086265407228631,-0.0440431323095566,-0.1690543963484191,-2.3733488477093423,2.2141303104350034,2.628283497873614,0.0351341699713225,-0.2775746263684964,-0.2676567795030193,1.591821779413256,0.2408911591200112,-0.8766941607848544,-1.3066274814643772,9.137261750631296,-1.2532744518997514,0.062393299043728,-1.1199138405495346
0.16,-2.3770353359572813,2.225557148706139,2.625282702864066,0.1253460870126353,0.1786524525090632,0.0363815705628341,-0.0023382126865202,-0.0637562062837761,-0.1954034617453284,-2.372711327253592,2.209178817916574,2.6235303622924944,0.0394783662163968,-0.3175746269645428,-0.3076567800990658,1.6751280565200923,0.3144164018171441,-0.9856536987109769,-1.317453269845467,9.113118696946913,-1.248972902517064,0.0516306425278758,-1.1112374284828166
0.18,-2.377005387093393,2.224043956189895,2.621096541263048,0.1361039022923911,0.1824253980026366,0.0373980710833721,0.0050184847561454,-0.0865946849300744,-0.221872121047369,-2.371965201891715,2.2032273253832435,2.617777226696474,0.043822562461471,-0.3575746275605892,-0.3476567806951122,1.7862719763433623,0.3678348721332897,-1.141923932314915,-1.3234329651020296,9.113118696946913,-1.2464775214638344,0.0425668658444067,-1.101780325321677
0.2,-2.3768199607569875,2.2220368030417763,2.6163802459616514,0.1450246582547237,0.1850664355377503,0.0381259815740054,0.0130772730545959,-0.1125460204783747,-0.2483537059987429,-2.371219076529837,2.1972758328499133,2.612024091100453,0.0481667587065453,-0.3975746281566357,-0.3876567812911586,1.897162504318325,0.4029394149225215,-1.2975667774150144,-1.3240792475686978,9.123200997895765,-1.2451831373445117,0.0349687285750391,-1.0902699470927966
0.22,-2.376491199357384,2.21963278180941,2.611411324125519,0.1515113377752953,0.1866155737402393,0.0385195421145203,0.0210465543651795,-0.1387567315667082,-0.2732761059489469,-2.376754462855585,2.219714221943391,2.610002935210679,0.0247756046948766,-0.1865946864201906,-0.3218721225374851,1.8517807913203648,0.3984640655291812,-1.3105355544166752,-1.2461199975101964,9.154404133181744,-1.244847087810639,0.0295432267314426,-1.0778145790425435
0.24,-2.375933844383602,2.2163685163729374,2.605864296153008,0.1512454238667887,0.1873882321968489,0.0382764098289227,0.0341480089170906,-0.1833368446062598,-0.2796599956405515,-2.376754462855585,2.219714221943391,2.610002935210679,0.0247756046948766,-0.1865946864201906,-0.3218721225374851,2.34509522066246,0.6550727275955571,-2.229005651977578,-0.3191944845802319,9.154404133181744,-1.2309613380874282,0.0300671044110706,-1.0600162066406296
0.26,-2.375167235301784,2.2125556787545038,2.600485336657526,0.1446480696345157,0.1874614037722632,0.0374803330174359,0.0457974046334805,-0.2146114952674231,-0.2860856388181212,-2.376754462855585,2.219714221943391,2.610002935210679,0.0247756046948766,-0.1865946864201906,-0.3218721225374851,1.699338904383328,0.5824697858194935,-1.563732533058164,-0.3212821588784859,10.43440466856191,-1.2327658242951378,0.0365533019691787,-1.0572576420870474
0.28,-2.37413230876205,2.2079862044345413,2.594665299158655,0.1361168795197293,0.1869404393381836,0.0364394962183033,0.0569878224136851,-0.2403397468238073,-0.2956948367578105,-2.3765067068086365,2.217848275079189,2.606784213985304,0.0287270286826229,-0.2065946867182138,-0.3418721228355084,1.4828225309255958,0.559520889010227,-1.286412577819214,-0.4804598969844614,10.210981676894336,-1.2358737526384744,0.0447199392407525,-1.0529641563816066
0.3,-2.372884761765207,2.202947795518752,2.588619887621745,0.1278107285203792,0.1858364566808683,0.0353399406302759,0.0671263515212721,-0.2621113556275883,-0.3084832043685153,-2.376011194714739,2.2141163813507854,2.6003467715345545,0.0366298766581154,-0.2465946873142602,-0.3818721234315548,1.360454950114836,0.5069264553793522,-1.0885804401890464,-0.6394183805352394,9.973304831741189,-1.2397940686105182,0.0526974046878971,-1.046849294002798
0.32,-2.3714462116716706,2.1975041232766523,2.5822854233501777,0.1204312388135795,0.1841829772575287,0.0342458322546358,0.0761612920264214,-0.2812787107643029,-0.3242970886836108,-2.3755156826208417,2.210384487622381,2.5939093290838047,0.0445327246336078,-0.2865946879103067,-0.4218721240276012,1.322021737718174,0.4517470252574651,-0.9583677568357318,-0.7906942157547753,9.58949024672529,-1.2429026020335388,0.0592333109628788,-1.0408932383930318
0.34,-2.369923310043449,2.191995332650092,2.5759518892818707,0.1144607794004764,0.1822025187564003,0.0332421032941747,0.0836366645590918,-0.2977995579155061,-0.3415888628029789,-2.3746250281281696,2.2046525938641754,2.5854718866032527,0.0524355726091003,-0.3265946885063531,-0.4618721246236477,1.2528218521510468,0.3737686266335214,-0.8260423575601611,-0.8645887059684054,9.58949024672529,-1.2466558456666896,0.0650955015397746,-1.0331510213479314
0.36,-2.368178507253742,2.1858702839561297,2.5689171813222518,0.1093140258885564,0.1798815261862112,0.0322506947113446,0.0903590115061057,-0.3139644792754831,-0.3610225602030024,-2.373734373635497,2.198920700105969,2.5770344441227007,0.0603384205845928,-0.3665946891023997,-0.5018721252196943,1.3078257010071588,0.336117347350693,-0.8082460679988496,-0.9716848700011744,9.443450621797638,-1.2502574481771191,0.0698731360509044,-1.0235455642975124
0.38,-2.3663095432878896,2.179421467975786,2.561483732097226,0.1049917397871766,0.1775419441292526,0.0313256516831315,0.0961233495341357,-0.3300904270340167,-0.3813609481094451,-2.372646147943438,2.1921888063328616,2.567597001627248,0.0682412685600853,-0.4065946896984461,-0.5418721258157406,1.3294019394499177,0.2882169014015001,-0.8062973879266772,-1.0169193953221356,9.359123908415311,-1.253225241088506,0.0736377992028362,-1.0137909528181563
0.4,-2.3643359709677085,2.1726546937087265,2.553634263727376,0.1010986011208806,0.1753869345823907,0.0304592210418413,0.1008926855767011,-0.345734858664894,-0.4025321764480705,-2.361503375811183,2.1629169466240854,2.5424156846917536,0.1417381657825526,-0.4300904285241328,-0.4813609495995612,1.3376431855191455,0.2384668021282711,-0.7822215815438655,-1.0585614169312696,9.245031512228708,-1.2555230168751614,0.0770919713748407,-1.0038649314620254
0.42,-2.3624016712875813,2.165945451046137,2.5459978535921,0.0984995377240432,0.1755745776600988,0.0299430691659704,0.1030477955891504,-0.3602099399181165,-0.4003434514239597,-2.361503375811183,2.1629169466240854,2.5424156846917536,0.1417381657825526,-0.4300904285241328,-0.4813609495995612,0.7398699103293819,0.107755500622466,-0.7237540626611277,0.1094362512055385,9.245031512228708,-1.2506029867103885,0.0797221896546748,-0.9870130434857112
0.44,-2.3602948905902124,2.1585904115116774,2.5379726824077204,0.097319487165275,0.1790568118510721,0.0298291327087066,0.1078615909766034,-0.3746658125859524,-0.4026849168066171,-2.361503375811183,2.1629169466240854,2.5424156846917536,0.1417381657825526,-0.4300904285241328,-0.4813609495995612,0.7707582966779032,0.2406897693726463,-0.7227936333917911,-0.1170732691328724,10.587482606521917,-1.246107175629142,0.0800318448222039,-0.9942562228287682
0.46,-2.358070196308157,2.150948109361713,2.529839854218498,0.0975725293885883,0.1842673029806582,0.0299784220399064,0.1146635756437184,-0.3889772838521517,-0.410490064354204,-2.3600859941533576,2.158616042338844,2.537602075195758,0.150861129032236,-0.450090428822156,-0.5013609498975844,0.8831839183523992,0.3400992333557534,-0.715573563309968,-0.3902573773793411,10.2097661558264,-1.24139646837716,0.0794011205949209,-1.0008615686010855
0.48,-2.355814821398025,2.143423344961448,2.5219326813412017,0.0989345425160472,0.1899500849900225,0.0302692428600488,0.1226095045983724,-0.4024915954462823,-0.4214724615916896,-2.3572512308377065,2.150014233768361,2.527974856203767,0.1691070555316028,-0.4900904294182024,-0.5413609504936309,0.9570625030498158,0.3972964477326958,-0.675715579706529,-0.549119861874281,9.936968808418897,-1.236183525327802,0.077839205713198,-1.0069265507033789
0.5,-2.353263521676602,2.1352240430868217,2.5133548517274438,0.1015021258554806,0.1961903734263887,0.0306848802432206,0.1322777793313703,-0.4169427425464755,-0.4358879430237054,-2.354416467522056,2.1414124251978786,2.518347637211776,0.1873529820309695,-0.5300904300142489,-0.5813609510896773,1.12928881795241,0.4834137366498951,-0.7225573550096592,-0.720774071600791,9.74506596665742,-1.231243480520595,0.0753348661630291,-1.012142855744789
0.52,-2.3505059093525458,2.1267178981408628,2.5044636229276582,0.1046863144356658,0.2024077974388216,0.0311503870782465,0.1431555603667904,-0.4330952994309954,-0.4526190771632971,-2.350669407881436,2.1308106165975937,2.5067204181899823,0.2055989085303363,-0.5700904306102954,-0.6213609516857238,1.2837075832906892,0.5438890517710084,-0.8076278442259943,-0.8365567069795854,9.597133042312636,-1.2258184430060175,0.0723204356976462,-1.015714253275436
0.54,-2.347517074716209,2.1178747808407774,2.495227417281166,0.1077964962577042,0.2084420143862498,0.0316003477611287,0.1553357475224986,-0.4504258871257338,-0.4701753710573553,-2.3469223482408164,2.1202088079973085,2.4950931991681884,0.2238448350297031,-0.6100904312063419,-0.6613609522817703,1.3756177560351217,0.6090093577854074,-0.8665293847369221,-0.8778146947029081,9.495605303438424,-1.2209685598433635,0.069573604308349,-1.018053015532837
0.56,-2.344435386707427,2.109136903897199,2.486122735013089,0.110181322817291,0.2137748969177758,0.0319494704916498,0.1685097668102422,-0.4682641913994612,-0.4873204805378629,-2.342719140437713,2.1086069993821224,2.4824659801314937,0.2420907615290698,-0.6500904318023882,-0.7013609528778166,1.4015301126398532,0.6587009643871794,-0.8919152136863673,-0.8572554740253813,9.475424990801912,-1.2163539324112278,0.0672094429016793,-1.0199389288684475
0.58,-2.3409046917428875,2.0995684469674325,2.4761802492960223,0.1118109931940153,0.2185944730687098,0.032166389369312,0.1839119435007123,-0.4875167844036363,-0.5060379290044047,-2.3380597844721254,2.0960051907520354,2.468838761079898,0.2603366880284365,-0.6900904323984347,-0.7413609534738631,1.5477663432237785,0.7701088345235071,-0.9626296502087572,-0.9358724233270888,9.468585853985132,-1.212879044141982,0.0656821875917935,-1.0207293696346924
0.6,-2.3370527364699467,2.0896072003661628,2.465857136810482,0.1122590857176587,0.2222640471149499,0.0321642593869196,0.2004948076238508,-0.5075224720550434,-0.5253301759853921,-2.331709094567852,2.0751926077472507,2.4508783528458022,0.2155428134555368,-0.5875167858937524,-0.6060379304945208,1.6181854919226304,0.829143206156925,-1.0002843825703545,-0.9646123490493708,9.426102512946272,-1.2110481319634934,0.0652556436325617,-1.0197929311882878
0.62,-2.332745530670548,2.0791682932144964,2.455413735612947,0.1096793620006366,0.2230417827424168,0.0316122692753303,0.2290621203433853,-0.5344988957459689,-0.5179091788384069,-2.331709094567852,2.0751926077472507,2.4508783528458022,0.2155428134555368,-0.5875167858937524,-0.6060379304945208,1.9993061232735003,1.4283656359767265,-1.3488211845462728,0.3710498573492593,9.426102512946272,-1.2041416957417763,0.0671576288416906,-1.00884463950113
0.64,-2.328129574855541,2.068802281409272,2.445610485812877,0.1046477131936668,0.2196394678081249,0.0304537876525925,0.2549058710836161,-0.554792674444796,-0.5143165575272213,-2.331709094567852,2.0751926077472507,2.4508783528458022,0.2155428134555368,-0.5875167858937524,-0.6060379304945208,1.6527581750559657,1.2921875370115368,-1.0146889349413546,0.1796310655592825,11.113543844119704,-1.2115332593406627,0.0713553429655303,-1.006707722750771
0.66,-2.322786818484452,2.0575172202654537,2.4353171959918147,0.0988569022208687,0.2124472068922363,0.0288555997228364,0.2773862508097843,-0.5724702164387155,-0.5153369990174024,-2.3295536664332963,2.069317439888313,2.444817973540857,0.2218689874465017,-0.6075167861917756,-0.626037930792544,1.4308251678790014,1.1240189863084116,-0.8838770996959788,-0.051022074509055,10.737793335667448,-1.2239531088823934,0.0761667370803567,-0.9982089696995188
0.68,-2.317050552326252,2.0459043697502395,2.4249491082027625,0.0933291686431046,0.2029309832535798,0.0271044024027241,0.2946204792453453,-0.5878990173897934,-0.5212915201633873,-2.3252428101641858,2.057567104170438,2.4326972149309665,0.2345213354284314,-0.6475167867878221,-0.6660379313885905,1.1942810082169348,0.8617114217780497,-0.7714400475538952,-0.2977260572992468,10.066388502386872,-1.237194087347115,0.0804415454126721,-0.9866372896054332
0.7000000000000001,-2.311330389578109,2.034602799554022,2.414950908712957,0.088589328614826,0.192876575409428,0.025444461081023,0.3063157756181073,-0.6010074355585936,-0.5307775532877261,-2.320931953895075,2.045816768452563,2.420576456321076,0.2471736834103612,-0.6875167873838686,-0.7060379319846369,0.9982427166913408,0.5847648186381005,-0.6554209084400076,-0.4743016562169411,10.066388502386872,-1.2509917182796495,0.0843974347280955,-0.9717389129574716
0.72,-2.305115652715884,2.022451297226513,2.4041978737345926,0.0842879762613581,0.1822189695128857,0.023802301825895,0.3142121009636033,-0.613491283836357,-0.5441526539421812,-2.3159884802268675,2.0320664327048856,2.406455697681384,0.259826031392291,-0.727516787979915,-0.7460379325806834,0.9963580421978596,0.3948162672747973,-0.6241924138881694,-0.6687550327227509,9.799993355026343,-1.2635120661953947,0.0876630553783058,-0.9554396941935964
0.74,-2.298784202942026,2.010060249626396,2.393151782122833,0.0807552772625417,0.1722962523011488,0.0223313217267886,0.3183999611365948,-0.6251105537292738,-0.559737681053969,-2.3110450065586603,2.0183160969572085,2.3923349390416906,0.2724783793742208,-0.7675167885759615,-0.7860379331767299,0.9942819969054748,0.2093930086495748,-0.580963494645842,-0.7792513555893943,9.569695616922218,-1.2733312506702226,0.0900906210918621,-0.939483386748672
0.76,-2.2927180356014363,1.998071023508061,2.382353678822355,0.0777842375762555,0.1639850208926305,0.0210924020268371,0.319874145208307,-0.6362560089456141,-0.5760871244568985,-2.305785224190905,2.00356576119463,2.3772141803870968,0.2851307273561506,-0.8075167891720079,-0.8260379337727762,0.9920920953247344,0.073709203585609,-0.5572727608170125,-0.8174721701464716,9.437835542094035,-1.281285525886472,0.0922241396342689,-0.9234579324356892
0.78,-2.286323839079031,1.9852269333164048,2.370636176974482,0.0748065889134875,0.1566127900851273,0.019942981824547,0.3193848690170112,-0.6474789357964087,-0.5948547896875174,-2.300209133123601,1.9878154254171505,2.3610934217176016,0.2977830753380804,-0.8475167897680543,-0.8660379343688227,1.0936392646780717,-0.0244638095647897,-0.5611463425397312,-0.9383832615309452,9.332856523964438,-1.2873707712576845,0.0941796665022285,-0.909313240356067
0.8,-2.279959041137159,1.972163754373957,2.3585276724813484,0.0719021977316974,0.1508035086230033,0.0189485711904579,0.3170061793505525,-0.6581764451728283,-0.6150936953438808,-2.2703545956281803,1.952852986526585,2.3408934374901063,0.3592099173146548,-0.7474789372865248,-0.6948547911776335,1.1507694964186808,-0.1189344833229355,-0.5348754688209778,-1.011945282818172,9.227154323371906,-1.291835986179256,0.0959959144376996,-0.8973269994832197
0.8200000000000001,-2.2736681078091467,1.958865288610028,2.346351764288284,0.0689585397800026,0.1488162371173782,0.0182505191621146,0.3125855397480604,-0.6709405291488686,-0.6015066936659065,-2.2703545956281803,1.952852986526585,2.3408934374901063,0.3592099173146548,-0.7474789372865248,-0.6948547911776335,0.957954211901341,-0.2210319801246002,-0.6382041988020171,0.6793500838987165,9.136314491161556,-1.2879800387462317,0.0979060327806551,-0.8800913425012593
0.84,-2.2677576267700266,1.9460171177232477,2.334994134428462,0.0664940210386812,0.1514974308884268,0.0179376605587954,0.3103148284083513,-0.6809791804750123,-0.5948456374238008,-2.2703545956281803,1.952852986526585,2.3408934374901063,0.3592099173146548,-0.7474789372865248,-0.6948547911776335,0.6129851562164143,-0.1135355669854565,-0.5019325663071839,0.3330528121052833,10.607971359169824,-1.2821573993230326,0.0990319749004047,-0.8898396636179586
0.86,-2.2615520038473447,1.9322973789977944,2.3230990238186364,0.0645036963626862,0.1570699404988457,0.0178353266206893,0.3107738859853918,-0.6905865178790772,-0.5950334667657572,-2.266762496455034,1.9453781971537196,2.33394488957833,0.3671749269741836,-0.767478937584548,-0.7148547914756567,0.4810066156413114,0.0229528788520227,-0.4803668702032471,-0.009391467097819,10.607971359169824,-1.2757481223766591,0.0999221515709035,-0.8996284672850603
0.88,-2.255624913965447,1.919091519766945,2.311747116503198,0.063124294108751,0.1636532015027468,0.0178563599187811,0.3133383889714983,-0.699035865063357,-0.6001354059350201,-2.2595782981087407,1.930428618407989,2.320047793754777,0.383104946293241,-0.8074789381805945,-0.7548547920717031,0.5098968687222586,0.1282251493053249,-0.4224673592139905,-0.2550969584631468,10.203445976821058,-1.2687315450007222,0.1006254115219969,-0.909331862683094
0.9,-2.249315006327868,1.9050271958062484,2.2996459189405227,0.0623787279787971,0.1711401485801793,0.0179638745016107,0.3177492359228467,-0.7069935033969476,-0.6099026356368067,-2.2523940997624474,1.9154790396622583,2.3061506979312245,0.3990349656122985,-0.8474789387766409,-0.7948547926677496,0.6674173258237892,0.2205423475674234,-0.3978819166795266,-0.4883614850893281,9.91269320599531,-1.261954815094252,0.1008827977876319,-0.9180699264702156
0.92,-2.2429004305674103,1.8908107038484785,2.287313760517432,0.0625936800785331,0.1787383906805618,0.0181510899752997,0.3236846028213031,-0.7143272040383437,-0.6229685739056349,-2.244413400450201,1.8985294608867256,2.2902536020778697,0.414964984931356,-0.8874789393726874,-0.8348547932637961,0.8058078061202538,0.2967683449228181,-0.3666850320698078,-0.653296913441409,9.690118953605634,-1.2556709098506191,0.1004537840353484,-0.9256141091234428
0.94,-2.236350318701584,1.87645141355406,2.2747045706788125,0.0639919756292303,0.18618355807138,0.018423727003845,0.3312242299210254,-0.7213944332190405,-0.6373150070659338,-2.2364327011379554,1.8815798821111929,2.274356506224515,0.4308950042504134,-0.927478939968734,-0.8748547938598425,0.8840416414376131,0.3769813549861139,-0.3533614590348399,-0.7173216580149466,9.5291788963641,-1.2499686723367478,0.0991929712964028,-0.9314710904625984
0.96,-2.2299707400985787,1.8626677029364207,2.2624531901808504,0.0662032390376602,0.1928951026700268,0.0187384070537752,0.3400545906686573,-0.7292188959587815,-0.651604396751362,-2.228053751342733,1.8636303033207589,2.257459410356258,0.4468250235694709,-0.9674789405647805,-0.9148547944558888,0.9265313616938902,0.4415180373815941,-0.3912231369870511,-0.7144694842714072,9.485083342334292,-1.2446874762293323,0.0971333604232903,-0.9365353589381192
0.98,-2.223054228754113,1.8479817554898217,2.249254543185237,0.0688249348570083,0.1992243147406534,0.0190608346866411,0.3512268705329924,-0.7390451015005276,-0.6675553419445489,-2.219276551064534,1.844680724515424,2.239562314473101,0.4627550428885283,-1.0074789411608267,-0.9548547950519354,1.0906498123500998,0.5586139932167555,-0.4913102770873034,-0.797547259659348,9.463905805985632,-1.2401710093594145,0.0948241863301088,-0.940445220785507
1.0,-2.2158971549716853,1.833085489323609,2.235728881202199,0.0710814492469718,0.2044130953940417,0.0192950755453544,0.3639475802916254,-0.7500117407328235,-0.6842297537030877,-2.210499350786335,1.8257311457100889,2.221665218589944,0.4786850622075858,-1.0474789417568733,-0.9948547956479818,1.183342343014067,0.6360354879316493,-0.5483319616147952,-0.8337205879269394,9.431035648811305,-1.2368747452384667,0.0928371199062257,-0.9426196701619192
1.02,-2.208474467365771,1.817963051504076,2.2218622540950963,0.0726980298819796,0.2082346044017198,0.0193970566954896,0.3776528457161777,-0.7615977129893626,-0.7016103483767544,-2.205492885227464,1.8110295004147956,2.2158767760880096,0.4150278462133436,-0.8390451029906437,-0.767555343434665,1.249153838301168,0.685263271227618,-0.5792986128269562,-0.8690297336833352,9.379438699558705,-1.23527060660334,0.0914719850325871,-0.94285875877341
1.04,-2.2011061706446826,1.8032921215280728,2.208702204352118,0.0715045528053666,0.2110822838921059,0.0192495614584764,0.3973505449537083,-0.7812004451630259,-0.6827546735691363,-2.205492885227464,1.8110295004147956,2.2158767760880096,0.4150278462133436,-0.8390451029906437,-0.767555343434665,1.6791388688664406,0.9848849618765282,-0.9801366086831632,0.9427837403809036,9.379438699558705,-1.228189738126169,0.0922163172109157,-0.9333081725778348
1.06,-2.1929453483014085,1.787492007530012,2.195208174269211,0.0668055948072564,0.2137572183056023,0.0188285647140299,0.4176409002383945,-0.7968747741101172,-0.6680725718669653,-2.205492885227464,1.8110295004147956,2.2158767760880096,0.4150278462133436,-0.8390451029906437,-0.767555343434665,1.4772840078276337,1.01451776423431,-0.7837164473545655,0.7341050851085495,11.70571083789855,-1.2268679340465776,0.0956446436494696,-0.943805632714862
1.08,-2.1843844835959825,1.7714358219716335,2.1819257339151688,0.0611140878948337,0.2158045072212217,0.0182956835339132,0.4373507335773101,-0.8077240215351131,-0.6612114105498795,-2.20134260676533,1.802639049384889,2.208201222653663,0.4277880413494139,-0.8590451032886669,-0.7875553437326882,1.176073163705904,0.9854916669457814,-0.5424623712497967,0.3430580658542903,11.181542077863924,-1.2272842165135651,0.1001413662077823,-0.9512285818222436
1.1,-2.1758953880651237,1.7560114635930333,2.169364570630741,0.055911856826948,0.2168582977042558,0.0177538863148369,0.4551559163076472,-0.8153594827142682,-0.6613115309783926,-2.193042049841063,1.785858147325076,2.1928501157849696,0.4533084316215544,-0.8990451038847134,-0.8275553443287347,0.9686779954908672,0.8902591365168522,-0.3817730589577517,-0.0050060214256519,10.707930539083463,-1.229656746244833,0.1044034421214969,-0.9561418596926792
1.12,-2.1666069298193515,1.739638634212512,2.1560890397455195,0.0511269347493096,0.217027719752849,0.0171905223484555,0.472614536643873,-0.8215692419378547,-0.6664487139460512,-2.184741492916796,1.7690772452652632,2.177499008916276,0.4788288218936949,-0.9390451044807598,-0.8675553449247811,0.9614509640415856,0.8729310168112903,-0.3104879611793287,-0.2568591483829319,10.329173025340424,-1.232860465613547,0.1083633106962694,-0.9581965392926588
1.14,-2.1569821573439496,1.7231548433344752,2.1426639450948746,0.0472153717887284,0.2163287855659944,0.0166596096036962,0.4888964144904505,-0.8265924121725517,-0.6759661615886201,-2.175164916478922,1.750296343175648,2.1601479020177807,0.5043492121658354,-0.9790451050768062,-0.9075553455208276,0.975850392025666,0.8140938923288765,-0.2511585117348502,-0.4758723821284449,9.789557205213896,-1.2363295043125804,0.1115760342953342,-0.957821529824862
1.16,-2.1470398114208806,1.706580463929784,2.1290219520424687,0.0442259860447392,0.2147424436088776,0.0161692225495207,0.5044431402099604,-0.8308043394730683,-0.6877235781804296,-2.1655883400410483,1.7315154410860327,2.142796795119285,0.529869602437976,-1.019045105672853,-0.947555346116874,0.9970930963253436,0.777336285975494,-0.210596365025828,-0.5878708295904755,9.789557205213896,-1.239670172503303,0.1138642566348763,-0.9548484679974906
1.18,-2.137309428975009,1.69075324128746,2.1158294550959,0.0419218229379807,0.2122636551105481,0.0157152178047665,0.5189384316429982,-0.8350206996963406,-0.700342743173079,-2.155373753846371,1.7117345389815164,2.1244456882058884,0.5553899927101165,-1.059045106268899,-0.9875553467129204,0.9837866795865868,0.7247645716518925,-0.2108180111636159,-0.6309582496324684,9.679356744029974,-1.2437612986365882,0.1157603918867688,-0.949999737904095
1.2,-2.1267764464327708,1.6740088595248908,2.101668544077368,0.0397844103351212,0.2083870985317552,0.0152242476353835,0.533468703117299,-0.8391821333202336,-0.7151253634134057,-2.111362507392859,1.6490022063026428,2.0808123179372457,0.5667105150744806,-0.9350207011864567,-0.8003427446631951,1.057085829169825,0.7265135737150374,-0.2080716811946492,-0.7391310120163364,9.59313327673226,-1.2491624295814332,0.1174048077806797,-0.9430041501899028
1.22,-2.1158896321924856,1.6571681552378128,2.087507442342069,0.0376915397075251,0.2028257023101975,0.0146925379896788,0.5544360052704443,-0.8446252721906505,-0.6986232105828523,-2.111362507392859,1.6490022063026428,2.0808123179372457,0.5667105150744806,-0.9350207011864567,-0.8003427446631951,1.361595175140982,1.0483651076572675,-0.2721569435208459,0.8251076415276726,11.509836835548413,-1.249869115298702,0.1186064340727816,-0.9258454058107172
1.24,-2.104613053815584,1.6402390836834733,2.073667363810966,0.0360144150646506,0.1957842078899292,0.0141601676001414,0.5717627921414505,-0.8481923155180501,-0.6863389119744405,-2.111362507392859,1.6490022063026428,2.0808123179372457,0.5667105150744806,-0.9350207011864567,-0.8003427446631951,1.0768534413668427,0.8663393435503097,-0.1783521663699772,0.6142149304205868,11.509836835548413,-1.2595682213276862,0.1199057169746079,-0.925482084495268
1.26,-2.0936194894362203,1.6240999910166434,2.060673502788375,0.0352659224036671,0.1883446173626431,0.0137069256548051,0.5843133151243,-0.8506232656269128,-0.681992072096528,-2.105695402242114,1.6396519992907783,2.072808890490614,0.576264931760777,-0.95502070148448,-0.8203427449612183,0.6751299180510032,0.6275261491424711,-0.1215475054431369,0.2173419938956255,10.512364158185846,-1.2702438891092414,0.1205525063347162,-0.9221668665804428
1.28,-2.0818295845824,1.6070700583149435,2.047024180931888,0.0357178922657048,0.1802464204193302,0.013318556061999,0.5937056642646203,-0.8523648169388103,-0.6834075112079915,-2.094361191940625,1.620951585267049,2.0568020355973498,0.5953737651333699,-0.9950207020805264,-0.8603427455572648,0.4828371651600294,0.4696174570160194,-0.087077565594873,-0.0707719555731734,10.512364158185846,-1.2803869743341276,0.1201220679674935,-0.915559176073054
1.3,-2.069888912428077,1.5900095591573058,2.0332907717976405,0.0377823489332034,0.1723690068950892,0.0130472523748836,0.599656678474836,-0.8537689273998319,-0.690044226620279,-2.083026981639135,1.60225117124332,2.040795180704086,0.6144825985059629,-1.0350207026765728,-0.9003427461533112,0.4511986474398852,0.2975507105107799,-0.0702055230510811,-0.3318357706143748,9.836725585569184,-1.2891173450246711,0.1184722621604647,-0.9074355084748276
1.32,-2.057861927592756,1.5729103195859078,2.0193763556938342,0.0413743348875985,0.165133217823728,0.0128868708819319,0.6026480628956189,-0.8566440427024201,-0.701028327663206,-2.070737329669016,1.5815507571897889,2.02278832578102,0.6335914318785558,-1.0750207032726191,-0.9403427467493576,0.5870799444652114,0.1495692210391475,-0.1437557651294108,-0.549205052146351,9.836725585569184,-1.2970683843882551,0.1155143135983956,-0.8972460503294162
1.34,-2.046401815749059,1.5565920300776577,2.005936530816083,0.0453404042403284,0.1591480064946437,0.0127841006375076,0.6034810372330833,-0.8611478341224931,-0.713117946182736,-2.0584476776988967,1.5608503431362573,2.004781470857953,0.6527002652511488,-1.1150207038686657,-0.9803427473454044,0.6464071073057619,0.0416487168732215,-0.2251895710036477,-0.6044809259765027,9.60323568797321,-1.3027369676896796,0.1120404087802638,-0.8860724047704934
1.36,-2.034337500431267,1.539300928287405,1.9915283208830736,0.0494222113621264,0.1539936948449514,0.0126962552265572,0.6027828931899964,-0.8677528668110907,-0.727104355767321,-2.0456803048944625,1.5391499290678246,1.9857746159199865,0.6718090986237416,-1.155020704464712,-1.0203427479414506,0.7741665114658967,-0.0349072021543439,-0.3302516344298789,-0.6993204792292484,9.504697809817117,-1.306712259394513,0.1086686330293281,-0.8754091182209562
1.38,-2.022303888490518,1.5218643652097052,1.9768282597120528,0.0529730427160851,0.1502776714320628,0.0126244902958669,0.6005166783645118,-0.8755160272418558,-0.7422290446598544,-2.0324352112557134,1.5164495149844908,1.9657677609671176,0.6909179319963346,-1.1950207050607584,-1.060342748537497,0.8575526275467985,-0.1133107412742306,-0.3881580215382596,-0.7562344446266689,9.359845122838124,-1.3089717479248926,0.1057589768584354,-0.8657866949715876
1.4,-2.010330143962264,1.5042648573754729,1.961813944590479,0.0558519139894165,0.1483659958060276,0.0125931400046018,0.5969249525997946,-0.883954976078643,-0.7584768252389414,-2.0191901176169647,1.493749100901157,1.945760906014249,0.7100267653689275,-1.235020705656805,-1.1003427491335436,0.9328809211054264,-0.1795862882358612,-0.4219474418393598,-0.8123890289543523,9.359845122838124,-1.3095777997571223,0.1035216555966306,-0.8587252426890556
1.42,-1.998939439403327,1.4872875948121438,1.9477169632024085,0.0556726890679539,0.1480416612671441,0.0124441504423789,0.6023974705573856,-0.901568024164136,-0.7245764226554535,-1.9922780545722925,1.4780885638476124,1.9397168074790605,0.6504638172402347,-0.975516028731972,-0.784138161911489,1.929640647232406,0.273625897879548,-0.8806524042746511,1.695020129174396,9.29343953798434,-1.2963510834430492,0.1028555246385562,-0.8431080811816289
1.44,-1.9868297737244769,1.4690928998909274,1.9335594323397567,0.051569773899192,0.1484773667204491,0.0120682416856621,0.6082754554355936,-0.9160584602278372,-0.6934545887986429,-1.9922780545722925,1.4780885638476124,1.9397168074790605,0.6504638172402347,-0.975516028731972,-0.784138161911489,1.741473504073186,0.2938992439104004,-0.724521803185052,1.5560916928405333,12.607750989847773,-1.2957774219570557,0.1054977873944592,-0.8554890815859737
1.46,-1.974609392112613,1.4506715859743389,1.9199280036199984,0.0459319794143526,0.1492787565900885,0.0116180661246215,0.6135153829939544,-0.9250283497663888,-0.6712073085113872,-1.9922780545722925,1.4780885638476124,1.9397168074790605,0.6504638172402347,-0.975516028731972,-0.784138161911489,1.2276575655800803,0.261996377918039,-0.4484944769275911,1.1123640143627822,12.034520074525972,-1.2961514527514848,0.1093425490314249,-0.8658860044793422
1.48,-1.9629086391629376,1.433039650424953,1.907321609693248,0.0406799536852653,0.1501121681991025,0.0112138282230026,0.6179009689932121,-0.9305157955326252,-0.6568858176637168,-1.98577341639989,1.4683334035602926,1.931875425859945,0.6604532450153793,-0.9955160290299953,-0.7925199853618159,0.7975752718304697,0.2192792999628878,-0.2743722883118193,0.7160745423835213,11.483817819552314,-1.2967525502774409,0.1135064857838233,-0.8739871529906491
1.5,-1.950507879050204,1.414388911668126,1.8942902561585784,0.0358591127347491,0.1509461771082731,0.0108493985065001,0.6219259074947244,-0.9343211497146312,-0.647249654544917,-1.9727641400550853,1.4488230829856532,1.916192662621716,0.6804321005656685,-1.0355160296260415,-0.8092836322624698,0.5557348514435275,0.2012469250756154,-0.1902677091003002,0.4818081559399889,11.048585717091555,-1.2975724651825846,0.1172365254452438,-0.8802792966492844
1.52,-1.9380323452881665,1.395676213144594,1.8814006928375635,0.0319718675825601,0.1516953113600435,0.0105608355784557,0.6254105604951511,-0.9368670151971388,-0.6423794784433285,-1.9597548637102808,1.4293127624110138,1.900509899383486,0.7004109561159576,-1.075516030222088,-0.8260472791631236,0.3253569303430059,0.1742326500213331,-0.1272932741253785,0.2435088050794231,10.719279131810254,-1.2982531627373977,0.1202994630623525,-0.8847283143153511
1.54,-1.925489019271323,1.3769229510763186,1.8685853783026052,0.0290929998879318,0.152339134150733,0.010352758555958,0.6287566786788382,-0.9385727533546208,-0.6393852081879948,-1.9457466445879612,1.407802441806572,1.883988953800224,0.7203898116662467,-1.1155160308181344,-0.8428109260637774,0.2401650678339148,0.1673059091843565,-0.0852869078740936,0.1497135127666859,10.453409403308797,-1.2983232855704483,0.1224712395633091,-0.8870544658342926
1.56,-1.9135087917320208,1.3590720994333432,1.8564556465263065,0.0269793034313076,0.1527710771013339,0.0102053989652428,0.6321294711361276,-0.9404220482703528,-0.6375771571497354,-1.9317384254656425,1.3862921212021302,1.8674680082169608,0.7403686672165359,-1.155516031414181,-0.8595745729644313,0.2125127596301665,0.1686396228644693,-0.0924647457866023,0.0904025519129714,10.371459966467228,-1.2983466169836722,0.1242521759784619,-0.8888387622943464
1.58,-1.90082882213236,1.340245400933214,1.8437141090244944,0.0251216968713678,0.1529346718200355,0.0100809184418841,0.6356579863821202,-0.9421606075394876,-0.6367175550429315,-1.9172307349545656,1.3637818005827873,1.8505279714611824,0.760347522766825,-1.1955160320102274,-0.8763382198650851,0.2013201676156579,0.1764257622996312,-0.0869279634567399,0.0429801053401956,10.314326573967264,-1.2986796245209835,0.1257576801278802,-0.8899600757904778
1.6,-1.8880794915516488,1.3213867949776172,1.830976200272734,0.0235448882448762,0.1527484987401723,0.0099805593629317,0.6390429529529109,-0.9436208509574744,-0.6371071903994223,-1.869045922813254,1.2931373705562397,1.811878231272348,0.6978638933395082,-1.0421606090296036,-0.6583363962588996,0.1853518629267851,0.1692483285395341,-0.0730121708993392,-0.0194817678245418,10.254098155686734,-1.2993113776578422,0.1270005533295728,-0.8903781476166542
1.62,-1.8758680113875008,1.3034155442604054,1.8191445745803103,0.02146239091963,0.1524442745807756,0.0098542562371794,0.6462047088252275,-0.9474589721570404,-0.6083189121204585,-1.869045922813254,1.2931373705562397,1.811878231272348,0.6978638933395082,-1.0421606090296036,-0.6583363962588996,1.4956494306690635,0.35808779361583,-0.1919060599782973,1.4394139139481898,10.187214760127064,-1.2931607310787578,0.1282695719528951,-0.8828086456299551
1.64,-1.862870568436672,1.2844536292339472,1.8072606429002775,0.0189909789591095,0.1521549502758872,0.0097176143558152,0.6530915321116779,-0.9485411978842522,-0.5819720835486016,-1.869045922813254,1.2931373705562397,1.811878231272348,0.6978638933395082,-1.0421606090296036,-0.6583363962588996,1.3626765237009195,0.3443411643225202,-0.0541112863605919,1.3173414285928442,12.165069870985462,-1.296097402012915,0.1305761472904423,-0.8935027617618293
1.66,-1.849746151400974,1.2654895601084042,1.7958350198887405,0.0171922175078913,0.1518212167163871,0.0096420338470405,0.6589822364532376,-0.9480479765845934,-0.561894497985383,-1.862067283879859,1.2827157644659437,1.8052948673097589,0.7103050747309857,-1.0621606093276268,-0.6626601645020932,1.046485913591854,0.2945352170779847,0.0246610649829392,1.0038792781609296,11.76275755134975,-1.2989499263610678,0.1323114026554163,-0.901920424420572
1.68,-1.83717719021582,1.2474935314139697,1.785307374382071,0.0165058526881235,0.1514402074911316,0.0096525903718555,0.6637509179635536,-0.9464973778368624,-0.5472797192436939,-1.8481100060130689,1.2618725522853511,1.7921281393845807,0.7351874375139409,-1.1021606099236734,-0.6713077009884805,0.7725549130835673,0.2384340755157976,0.0775299373865501,0.7307389370844575,11.396703160298784,-1.3015253490033212,0.133267182296691,-0.9087256567513432
1.7,-1.8238566922178925,1.228590594673383,1.774491415602168,0.0173388384732818,0.1510127844847361,0.0097814571047254,0.6680075039478083,-0.94405336332959,-0.5352344566234557,-1.8341527281462784,1.2410293401047592,1.7789614114594028,0.7600698002968961,-1.1421606105197195,-0.6799552374748677,0.6503462207617157,0.2128292992127356,0.1222007253636137,0.6022631310119098,11.119390595437835,-1.303803612710542,0.132904743597948,-0.9140211894868394
1.72,-1.8104582015834616,1.20974068242726,1.7638842162649866,0.0202309471980997,0.150614130277094,0.0100597891171984,0.6716246887812433,-0.9415651659534026,-0.5260818078990644,-1.8189513321403408,1.2181861278943649,1.7653623067099051,0.7849521630798513,-1.182160611115766,-0.688602773961255,0.5075582010326489,0.1808592416717491,0.1244098688093775,0.4576324362195627,10.76245194126659,-1.305980876022879,0.1308343026098357,-0.9182295644452504
1.74,-1.7969900322313346,1.190914163866937,1.7534519840017075,0.0246153707001564,0.1502750799103652,0.0104439078956474,0.6750116010206719,-0.941692908324805,-0.5176065768960983,-1.803749936134403,1.1953429156839706,1.751763201960408,0.8098345258628065,-1.222160611711813,-0.6972503104476423,0.456390822608981,0.1693456119714331,-0.0063871185701225,0.4237615501483049,10.76245194126659,-1.3071981601242433,0.1276335056928749,-0.9210375575649572
1.76,-1.7841306203280105,1.1729963898537783,1.7436953848914327,0.0289687520725844,0.1499286118254174,0.0108192921446669,0.6784124872199451,-0.9444246097522326,-0.5098317526800945,-1.787926481058891,1.171499703458675,1.737947908798751,0.8347168886457615,-1.262160612307859,-0.7058978469340295,0.4457468766541622,0.1700443099636572,-0.1365850713713812,0.3887412108001919,10.732858059978753,-1.307798985953232,0.1240142900098827,-0.9236652394750172
1.78,-1.7705245260367242,1.1540632441383794,1.7335814364640387,0.0331367075013249,0.1494126736079403,0.0111780944873125,0.6819836872033752,-0.9487495596661564,-0.5019880564336809,-1.7714809669138054,1.1466564912184782,1.7239164272249343,0.8595992514287167,-1.3021606129039054,-0.7145453834204167,0.4821364741585173,0.178559999171507,-0.2162474956961868,0.3921848123206783,10.722958224945614,-1.3083615298549036,0.12070500831589,-0.9257857194749848
1.8,-1.756848128421078,1.1350313375928407,1.7236184213307495,0.0366535723086346,0.1486774105519119,0.0114807686910489,0.6854293368287033,-0.954161560981561,-0.4947279410581491,-1.7364253416765554,1.1066257661550716,1.7084820336423547,0.7342100890688575,-1.0487495611562725,-0.52937604239333,0.484436618260063,0.1722824812664058,-0.2706000657702323,0.3630057687765892,10.707168571161674,-1.3090178479445802,0.1180385981246954,-0.9272670689985968
1.82,-1.74373795594089,1.1167620646230438,1.7144433826731575,0.0368669047155793,0.1467997665997009,0.0115058670871764,0.6942594504706909,-0.9673755929260954,-0.4713809253149163,-1.7364253416765554,1.1066257661550716,1.7084820336423547,0.7342100890688575,-1.0487495611562725,-0.52937604239333,1.412147913000222,0.4415056820993801,-0.6607015972267205,1.1673507871616418,10.67593672897965,-1.305440714194516,0.1175112763398132,-0.9220264207925102
1.84,-1.7297673712319497,1.0973125693573091,1.70524448350981,0.0333622574843559,0.1425878120616661,0.0112070466512724,0.7021002736886717,-0.9762608914693202,-0.4499667455820516,-1.7364253416765554,1.1066257661550716,1.7084820336423547,0.7342100890688575,-1.0487495611562725,-0.52937604239333,1.2237178316193775,0.392041160899037,-0.4442649271612364,1.070708986643237,11.83054801677281,-1.310235771903926,0.1205404677244833,-0.924465271080214
1.86,-1.715670437298868,1.0777410013409403,1.6964184760815213,0.0287123550373377,0.1364749996273881,0.0108037587997329,0.7067370256663382,-0.9802795562413406,-0.4339063055792195,-1.7290832407858667,1.0961382705435088,1.7031882732184214,0.744655369441954,-1.0687495614542957,-0.5348536395852599,0.8596319976257856,0.2318375988833276,-0.2009332386010198,0.8030220001416011,11.16212122279103,-1.3183961908529662,0.124668092008375,-0.923107131515992
1.88,-1.7015254740962047,1.0581205685801494,1.6878608211446648,0.0245113052569687,0.1295234394438825,0.0104548635238039,0.7072285789230348,-0.9816467805309737,-0.422853552044866,-1.7143990390044896,1.0751632793203834,1.6926007523705549,0.765545930188147,-1.1087495620503425,-0.5458088339691195,0.5573918898618276,0.0245776628348293,-0.0683612144816492,0.5526376767176766,11.16212122279103,-1.3262899756064768,0.1282521539883679,-0.9194602935628888
1.9,-1.6881149636991764,1.039471605769984,1.6798910509776297,0.0214769829091311,0.1230988543067116,0.0102334799476742,0.7042849534432428,-0.9816003758146208,-0.416593777902039,-1.6997148372231126,1.054188288097258,1.6820132315226883,0.7864364909343399,-1.1487495626463886,-0.5567640283529791,0.3458751822630004,-0.1471812739895994,0.0023202358176432,0.3129887071413484,10.854166568090475,-1.333651043381701,0.131177394685762,-0.913716763082104
1.92,-1.6740893274976532,1.0198487094011108,1.671599449791773,0.0193870549689033,0.1172805582662978,0.0101274754072808,0.6982511033248151,-0.980904286707846,-0.4130254373015108,-1.6839861074044258,1.0312132968443302,1.6708779509556286,0.8073270516805328,-1.188749563242435,-0.5677192227368387,0.3522248640343216,-0.3016925059213859,0.0348044553387383,0.1784170300264093,10.603618278508293,-1.3395409209304474,0.1331420441515468,-0.9074922974354186
1.94,-1.6602156583533931,1.000247505652154,1.6633569041598335,0.0185736771939375,0.113311499535079,0.0101645335609884,0.6893649438185396,-0.9794869924378092,-0.4113916167890706,-1.668257377585739,1.0082383055914024,1.6597426703885692,0.8282176124267258,-1.2287495638384816,-0.5786744171206983,0.4572797920467265,-0.4443079753137735,0.0708647135018281,0.0816910256220132,10.42307734899714,-1.3428364611543129,0.1340005705622349,-0.9021625813337064
1.96,-1.6472177786967892,0.9816487596608208,1.6555466313752043,0.0189482167069398,0.1119819524091182,0.010332933690225,0.6794894845737222,-0.9784463820186308,-0.4108246221560175,-1.6520063837483974,0.9842633143235734,1.648333509961913,0.8491081731729186,-1.268749564434528,-0.5896296115045581,0.497315413632196,-0.4937729622408737,0.0520305209589289,0.028349731652652,10.329081979703917,-1.3428670032247312,0.1338763927268433,-0.9000603976522448
1.98,-1.6337291419897813,0.9620892743078936,1.647331243905542,0.0204174398867803,0.1129850388826481,0.0106356954273832,0.6701549388499941,-0.9776440404657504,-0.4107716768575825,-1.6352331258924009,0.9592883230408432,1.6366504696756603,0.8699987339191115,-1.3087495650305745,-0.6005848058884177,0.4684557050577853,-0.4667272861864024,0.0401170776440251,0.002647264921754,10.268607470069584,-1.3402034814330563,0.132849031636793,-0.901478556672976
2.0,-1.6204105003337186,0.9425389482364152,1.6391143121958132,0.0228700438736836,0.1156871358124772,0.0110484512145756,0.6624042009640017,-0.9776133425312796,-0.410939268352718,-1.6002213950472814,0.9132070722846062,1.6267926600626628,0.7431823335619654,-1.0776440419558664,-0.428223345015756,0.3876305168900577,-0.3875368942996227,0.0015348967235373,-0.0083795747567783,10.221303143298428,-1.336377593209621,0.1311480915820816,-0.9049132481690286
2.02,-1.6078758616456148,0.9238956292337186,1.63150503530379,0.0240138039859573,0.1197272876188892,0.0114002974659324,0.6577739384739894,-0.984085913806392,-0.3900469974248278,-1.6002213950472814,0.9132070722846062,1.6267926600626628,0.7431823335619654,-1.0776440419558664,-0.428223345015756,1.1178332771059751,-0.2315131245006152,-0.3236285637556291,1.04461354639451,10.221303143298428,-1.3246296001327535,0.1298397474130675,-0.904714110200357
2.04,-1.5947551156607451,0.9041676667705252,1.6239144719014944,0.0233399633856456,0.1253832973293709,0.011678174230911,0.6548252776249962,-0.9882762416315576,-0.3703692556163095,-1.6002213950472814,0.9132070722846062,1.6267926600626628,0.7431823335619654,-1.0776440419558664,-0.428223345015756,1.0166943625882023,-0.1474330424496572,-0.2095163912582798,0.9838870904259168,11.627888334228372,-1.3182410477209932,0.1306342670891037,-0.918406994759313
2.06,-1.5816722927664018,0.884373797769467,1.616676790440477,0.0218537307834342,0.1318145883117768,0.0119164374968089,0.6538485102996778,-0.9908820633117246,-0.3545611092411713,-1.5927895717116618,0.9024306318650476,1.6225104266125052,0.7577878125043597,-1.0976440422538896,-0.4317136786473907,0.802561326090463,-0.0488383662659186,-0.1302910840083437,0.7904073187569111,11.386667588059936,-1.312134628522635,0.1320882148239065,-0.932066229960418
2.08,-1.5692436299534729,0.8655365633612462,1.6100599973145495,0.0203254826745495,0.1381048683563588,0.0121346835073578,0.6546601653772627,-0.9919451869516244,-0.3427480587560033,-1.5779259250404225,0.8808777510259301,1.61394595971219,0.7869987703891481,-1.137644042849936,-0.4386943459106602,0.5944265673819842,0.0405827538792424,-0.0531561819949955,0.5906525242584004,11.161647586599427,-1.3058590305187636,0.1337944520012035,-0.945651507814258
2.1,-1.5561265889181883,0.8456998204687568,1.6033133108382227,0.0191765220463789,0.1445079531376592,0.0123886077003491,0.6571599821903957,-0.9917430199945624,-0.3326665075925843,-1.5630622783691832,0.8593248701868128,1.605381492811875,0.8162097282739367,-1.1776440434459825,-0.4456750131739296,0.5194411165820066,0.1249908406566524,0.0101083478530994,0.5040775581709483,10.985162692031736,-1.300128941000588,0.1351595520350952,-0.9580866585779956
2.12,-1.542943032782227,0.8258787435949843,1.5967467903210464,0.0190647177653407,0.150385009612512,0.0127053267454394,0.6611846298981731,-0.9904961011422913,-0.3245865493697579,-1.5467380838037044,0.8357719893178932,1.5964679925483964,0.8454206861587252,-1.2176440440420289,-0.452655680437199,0.4556268228454248,0.2012323853888664,0.0623459426135675,0.4039979111413183,10.857412313566783,-1.2952048305849462,0.1356701712345475,-0.9693869617116272
2.14,-1.5296631504960216,0.8060908141669227,1.5903333246452258,0.0205045928135496,0.1554886974625646,0.0131216808714471,0.6666517457522998,-0.9886275143711812,-0.3171838056147595,-1.5304138892382255,0.8122191084489735,1.587554492284918,0.8746316440435137,-1.2576440446380754,-0.4596363477004684,0.4695252586011185,0.2733557927063368,0.0934293385555007,0.3701371877499193,10.758928927008128,-1.291163752319486,0.1348952640044111,-0.9786647484348808
2.16,-1.516930971518639,0.7873155764033573,1.5843752378394405,0.0232334538561706,0.1593859170334833,0.0136020641629776,0.6732755621063771,-0.9881078392855432,-0.3103723300834627,-1.5133594207256271,0.7876662275651527,1.5784664753398574,0.9038426019283022,-1.2976440452341218,-0.4666170149637378,0.4757657096739669,0.3311908177038636,0.0259837542818996,0.3405737765648398,10.743849563816184,-1.2882050602778696,0.1328169301490709,-0.987422267699132
2.18,-1.5033830740046192,0.7675369196318332,1.5782418704408212,0.0266257699404796,0.1622989707989114,0.0141251627294666,0.6811404749863069,-0.9899166727276292,-0.3033335383354008,-1.4955746782659092,0.7621133466664307,1.569203941713215,0.9330535598130908,-1.3376440458301682,-0.4735976822270073,0.5354281518156291,0.3932456439964926,-0.0904416721043022,0.3519395874030967,10.745928849340087,-1.2862435393034233,0.1301964748115154,-0.9942396468198372
2.2,-1.4896717044162535,0.7477043484383232,1.572246986532774,0.0297723171603365,0.1639391896946415,0.0146013362673758,0.689531435705351,-0.9932363953618896,-0.296514612833494,-1.4693260502553038,0.7180410859954518,1.5630751935240512,0.7560629546754282,-1.0848737487407174,-0.2937191526709378,0.5655230436452549,0.4195480359522052,-0.1659861317130251,0.3409462750953385,10.75079888664004,-1.285355711270977,0.1278617435912251,-0.9990140221631776
2.22,-1.476402144662482,0.7287010915673747,1.566874249873983,0.029460672382621,0.1627267207475508,0.014740978391895,0.706574452299042,-1.0055704283370086,-0.2693285465992251,-1.4693260502553038,0.7180410859954518,1.5630751935240512,0.7560629546754282,-1.0848737487407174,-0.2937191526709378,1.718774986246166,0.8521508296845504,-0.6167016487559462,1.3593033117134443,12.259789001962416,-1.277738471380098,0.1277079873727017,-0.9953985254058184
2.24,-1.4620991505703398,0.7085031620441816,1.5617738039731028,0.0250155074583806,0.1570467260726903,0.0144910949523107,0.7220721144329497,-1.0126678830248872,-0.2422745676080664,-1.4693260502553038,0.7180410859954518,1.5630751935240512,0.7560629546754282,-1.0848737487407174,-0.2937191526709378,1.5988035948149684,0.7748831066953843,-0.3548727343939295,1.352698949557939,12.259789001962416,-1.2856654833106491,0.1321794900709414,-0.9964132840180636
2.26,-1.4475471638346151,0.6882302512869237,1.5571685375949498,0.0196639356605197,0.1484978974559162,0.0141577841859267,0.7318034192028516,-1.0141801960431038,-0.2197816681876756,-1.4617654207085495,0.7071923485080446,1.560138001997342,0.7710474506132524,-1.103865163943335,-0.2917962755380451,1.22771730003857,0.4865652384950958,-0.0756156509108318,1.124644971019538,12.009068662549907,-1.2969358563327584,0.1375452178149792,-0.9932871411734258
2.28,-1.432860871824936,0.6679601986976961,1.5529639747472437,0.0150784543711503,0.1388725617047885,0.0139188287136473,0.7359315198293844,-1.0129076230666008,-0.2019789948460596,-1.446644161615041,0.6854948735332302,1.554263618943923,0.8010164424889009,-1.1418479943485704,-0.2879505212722599,0.9159637477427688,0.2064050313266396,0.0636286488251536,0.8901336670808002,11.355919216142864,-1.3086229621538956,0.1420463935597317,-0.9882555691041104
2.3000000000000003,-1.4188818247599306,0.6487431305810878,1.5492564935439344,0.0119797924878973,0.1300752640749459,0.0138324278320572,0.7352180408192088,-1.010367138933184,-0.1891443350658138,-1.4315229025215324,0.6637973985584159,1.5483892358905045,0.8309854343645494,-1.1798308247538056,-0.2841047670064747,0.6551557135612182,-0.0356739505087799,0.1270242066708449,0.6417329890122905,11.355919216142864,-1.3196258515620969,0.1455627475383356,-0.9816942465983904
2.32,-1.4042201636180358,0.6285722000927815,1.5455888530160329,0.010093638882277,0.12215697502441,0.0138852470202317,0.73084518245265,-1.00710221713391,-0.1784174942427438,-1.4149031938342411,0.6402007820633399,1.5427071405503747,0.8609544262401979,-1.2178136551590408,-0.2802590127406895,0.6017614118004693,-0.2186429183279437,0.1632460899636867,0.5363420411534994,11.102457670384863,-1.3282158810020064,0.1477452952478142,-0.9753871249298266
2.34,-1.3896819912393563,0.6084743544216763,1.5421173145570897,0.0098109745867243,0.1164917581467911,0.0140866542601551,0.7231438469174924,-1.0031417687652586,-0.169262515737866,-1.3982834851469503,0.6166041655682637,1.5370250452102452,0.8909234181158464,-1.2557964855642765,-0.2764132584749043,0.6300979124917986,-0.3850667767578752,0.1980224184325751,0.4577489252438907,10.928809258889489,-1.3340969817273052,0.1484849194880377,-0.9709521401762604
2.36,-1.3760361040123894,0.5894492597025945,1.5389823658249546,0.0110045296871052,0.1140035148490747,0.0144087259484106,0.7137580790142058,-0.9998497160844858,-0.1611937816036714,-1.380914551662768,0.5920579783130567,1.5314390937267603,0.9208924099914948,-1.2937793159695117,-0.272567504209119,0.6403802005755359,-0.4692883951643301,0.1646026340386408,0.4034367067097297,10.82323754538993,-1.33600939527325,0.1478289773840268,-0.9700504506111292
2.38,-1.3618594298827604,0.5694829950262394,1.53584756807885,0.0136112244516333,0.1144912141212905,0.0148733765164884,0.7047483292752081,-0.9971713771504912,-0.1527195941796858,-1.362796393381695,0.5665622202977189,1.5259492860999202,0.9508614018671434,-1.3317621463747469,-0.2687217499433338,0.6327735422359967,-0.4504874869498854,0.1339169466997358,0.4237093711992781,10.82323754538993,-1.333376330345895,0.1458543618723051,-0.9734414488156854
2.4,-1.3478416702424378,0.5495462420978926,1.532885261456674,0.016921697871814,0.1172310246971201,0.0154193273829606,0.6977616715659976,-0.9968094828476536,-0.143932818142013,-1.326622013419,0.5196244261687148,1.5282115883698657,0.7895735320978934,-1.0339220849258457,-0.1364800200006325,0.5615865618235502,-0.3493328854605293,0.0180947151418753,0.4393388018836389,10.83627644405351,-1.3286717682978448,0.1432460517759647,-0.9796553535444948
2.42,-1.3339147063823178,0.5293347282676292,1.530211601015356,0.0116349958618652,0.1210608882037281,0.0153845242246099,0.6954185467175682,-1.0190695183489766,-0.1237658397850369,-1.326622013419,0.5196244261687148,1.5282115883698657,0.7895735320978934,-1.0339220849258457,-0.1364800200006325,1.5064083365958878,-0.1171562424214678,-1.1130017750661525,1.0083489178488094,10.83627644405351,-1.31963374549325,0.1474169997313142,-0.982383710123989
2.44,-1.3207177471072298,0.5099188746478504,1.52804099613667,-0.000737621184525,0.1250396066489068,0.0148203366282393,0.6939963363461691,-1.0224519767347615,-0.1057645898199281,-1.326622013419,0.5196244261687148,1.5282115883698657,0.7895735320978934,-1.0339220849258457,-0.1364800200006325,0.9185705027084372,-0.0711105185699556,-0.1691229192892551,0.9000624982554397,11.611502979472789,-1.3129668295709784,0.1592556671228775,-0.991744998597368
2.46,-1.306848421021398,0.4895282242947968,1.526091961657366,-0.0145882631273953,0.1294513114868022,0.014131827630246,0.6931448742033878,-1.0162077449133882,-0.0902832765452233,-1.3187262780980211,0.5092852053194564,1.5268467881698593,0.8065385726624305,-1.0412722264809164,-0.1332321051648219,0.835742902346761,-0.0425731071390655,0.3122115910686784,0.7740656637352399,11.44076418126224,-1.3087544993158,0.1723668489924199,-1.001482123917537
2.48,-1.2929886382040652,0.4693261102233082,1.524414267090741,-0.0267743244532697,0.1339593082358691,0.01352140801825,0.6930016331537887,-1.004504178346442,-0.0784284906071514,-1.3029348074560634,0.4886067636209394,1.5241171877698467,0.8404686537915045,-1.0559725095910582,-0.1267362754932005,0.8329614907406264,-0.0071620524799531,0.5851783283473133,0.5927392969035924,11.22206651481156,-1.3057892160952014,0.183721183169717,-1.0107065562365736
2.5,-1.279123372159213,0.4493960663984618,1.5229425930695044,-0.0363464463487486,0.1384302320844771,0.0130661171318908,0.6936666384145754,-0.9896782161431852,-0.0693389590569771,-1.2871433368141054,0.4679283219224225,1.521387587369834,0.8743987349205786,-1.0706727927012,-0.1202404458215792,0.8701594265576922,0.033250263039336,0.7412981101628358,0.4544765775087146,11.029652274976796,-1.3032423849541044,0.1935405730492819,-1.0198110205407505
2.52,-1.2659300779366138,0.4307538360741187,1.5216979962574908,-0.0429874183229025,0.1425254868301178,0.0127939849242986,0.6951646923926144,-0.9739849899382604,-0.0621284727779927,-1.269655362115694,0.4465148660683986,1.518982778453403,0.9083288160496528,-1.0853730758113416,-0.1137446161499579,0.8667650010520058,0.0749026989019463,0.7846613102462319,0.3605243139492186,10.90368414904151,-1.300973916316852,0.2010405455053422,-1.0285029925355655
2.54,-1.2520014322655315,0.4114579167897944,1.5205336095616284,-0.047679990437906,0.1465810991921135,0.012671622048046,0.6977205900382678,-0.9568326932179916,-0.0546889129514964,-1.2521673874172825,0.4251014102143745,1.516577969536971,0.9422588971787268,-1.1000733589214833,-0.1072487864783366,0.9435053603017164,0.1277948822826724,0.8576148360134539,0.3719779913248174,10.840058962361582,-1.2989050800922346,0.2064014919350435,-1.036857833630027
2.56,-1.238006210821557,0.3925074552730668,1.5195195453570642,-0.0503803345263024,0.1501439877267468,0.0127127279711792,0.7016943981655187,-0.9395652086466024,-0.0470900341265407,-1.2338311606906438,0.4033204472825969,1.51433555636233,0.9761889783078008,-1.1147736420316252,-0.1007529568067152,0.9639763143507788,0.1986904063625449,0.8633742285694523,0.3799439412477866,10.853491033425598,-1.2972408805374305,0.2098079375746869,-1.0445478699666493
2.58,-1.2246264073130135,0.3748260787495504,1.5186998288129008,-0.0514290425460104,0.1528152043825295,0.0128997757058477,0.7064762547797022,-0.9227818660126892,-0.0395780518945842,-1.2146466819357784,0.3811719772730659,1.5122555389294796,1.010119059436875,-1.129473925141767,-0.0942571271350939,0.9499692359481612,0.2390928307091755,0.8391671316956673,0.3755991115978216,10.87787634569122,-1.296371103944406,0.2119842494539694,-1.052333183201936
2.6,-1.2104380881366965,0.3565616995414914,1.517994654826472,-0.0508230185353452,0.154768407608563,0.0132696179873865,0.7120781898128088,-0.9047183912511176,-0.03131764912781,-1.1954622031809132,0.3590235072635348,1.510175521496629,1.044049140565949,-1.1441742082519086,-0.0877612974634726,1.0318733575957884,0.2800967516553287,0.9031737380785664,0.413020138338711,10.91117107518403,-1.2968953431458676,0.2126617733519565,-1.0606902579299344
2.62,-1.1961227076294954,0.3384568342775079,1.517449227817076,-0.0547399224458047,0.1554650471665912,0.0133994941836856,0.7190490952943327,-0.9041616336705904,-0.0238252954007692,-1.1893025945740283,0.3286869854489159,1.5167209262181716,0.8045139968580065,-0.8973109442429509,-0.0390966471521254,0.5124423543358732,0.3485452740761952,0.0278378790263711,0.3746176863520403,10.853373538987398,-1.2986699714940737,0.2175273328138167,-1.064256925482847
2.64,-1.181686560423106,0.3204949258926753,1.5170353492782325,-0.0642261526852395,0.1550377629103353,0.0132258805716965,0.7240855525442494,-0.891127410438975,-0.0179845969764516,-1.1893025945740283,0.3286869854489159,1.5167209262181716,0.8045139968580065,-0.8973109442429509,-0.0390966471521254,0.7572493561661927,0.2518228624958374,0.6517111615807647,0.2920349212158819,10.853373538987398,-1.3011871946780085,0.2275332044132279,-1.0679419657858995
