t,x,y,z,roll,pitch,yaw,v_x,v_y,v_z,ref_x,ref_y,ref_z,ref_v_x,ref_v_y,ref_v_z,a_com,a_x,a_y,a_z,thrust,wind_x,wind_y,wind_z
0.0,-0.8477782129849718,0.595814537644065,2.3673888290397733,0.0191570426644502,0.1366294342560352,0.0262556000389313,0.0061604585194889,-0.0075742634465792,0.0175078433786591,-0.8475986870677066,0.5956591419565404,2.36791748483525,0.0390611770240362,-0.1058364806844611,-0.0824090019238312,1.0023039654967305,0.3080229259744469,-0.3787131723289628,0.8753921689329558,10.555410998489606,-1.2847738676238176,0.1566328171930048,-1.1747509589580345
0.02,-0.8477686858150616,0.5959315068293094,2.367531914260717,0.0254259803354135,0.138923671758659,0.0267354341744349,-0.0049254755320986,0.015358825051766,-0.0042754212357333,-0.8475986870677066,0.5956591419565404,2.36791748483525,0.0390611770240362,-0.1058364806844611,-0.0824090019238312,1.675809579822339,-0.5542967025793772,1.1466544249172652,-1.089163230719624,10.554762183648563,-1.309396045866425,0.1528499916923244,-1.1942617676342395
0.04,-0.8479534345042777,0.5962753580375655,2.36715756247344,0.0398670504479791,0.1448573812411006,0.0279138534081157,-0.0124625710637811,0.0169800529136665,-0.0321269281254235,-0.8475986870677066,0.5956591419565404,2.36791748483525,0.0390611770240362,-0.1058364806844611,-0.0824090019238312,1.4449417158317934,-0.3768547765841269,0.081061393095023,-1.3925753444845093,8.998607641716717,-1.2981918914141573,0.1369483202947949,-1.1794734161360407
0.06,-0.8482299402091247,0.5965517372715523,2.3662822852792016,0.0543088326374604,0.1521169854805912,0.029224399685509,-0.0159480455362701,0.0117369225045128,-0.0585935584120459,-0.8472080752974662,0.5946007771496957,2.367093394816012,0.0456672298399504,-0.1258364809824843,-0.1024090022218544,1.3602586771589829,-0.1742737236244523,-0.2621565204576842,-1.3233315143311195,9.013592923122816,-1.2842809525285566,0.1205691096758937,-1.1664850324198814
0.08,-0.8485598186065234,0.5966972950065974,2.3648247224016994,0.0690374479063979,0.1604253488057658,0.0307050459712258,-0.0165532851666992,0.0027747361558763,-0.0857495593739508,-0.8464268517569855,0.5924840475360066,2.365445214777535,0.0588793354717787,-0.1658364815785308,-0.1424090028179009,1.4301533898509882,-0.0302619815214523,-0.448109317431824,-1.357800048095246,9.013592923122816,-1.2717643317549074,0.105258841805171,-1.1580970088534006
0.1,-0.8488734468274258,0.5966335829886019,2.362833814209682,0.0830918087275761,0.1688351350418473,0.0322456168191513,-0.0145237885173968,-0.008994503861219,-0.1119556158282952,-0.8456456282165048,0.5903673179223173,2.3637970347390582,0.072091441103607,-0.2058364821745772,-0.1824090034139473,1.439957692189093,0.1014748324651179,-0.5884620008547697,-1.3103028227172206,9.053682028040384,-1.260392995168244,0.0911332983376732,-1.149810653636001
0.12,-0.849122050418011,0.5963070280727943,2.3603287623520552,0.0964640195611792,0.177031725673388,0.0338122750290384,-0.0102239532961331,-0.023350971792498,-0.1372651373401306,-0.8442037993944327,0.5862505882788258,2.360148854670779,0.0853035467354353,-0.2458364827706237,-0.2224090040099937,1.4706874528174911,0.2149917610631878,-0.7178233965639518,-1.2654760755917676,9.11006559237103,-1.2507826036303826,0.078762647788584,-1.1418227078757242
0.14,-0.8492611708949894,0.5957083362939367,2.3574790649003337,0.1085566489474416,0.1844826032307343,0.0352995140817964,-0.0044724249136366,-0.039180232201262,-0.1614666584080404,-0.8427619705723605,0.5821338586353343,2.3565006746025,0.0985156523672636,-0.2858364833666702,-0.2624090046060403,1.4742448794413394,0.2875764191248235,-0.7914630204381962,-1.2100760533954882,9.16134863986099,-1.2432894081111614,0.0666570833709881,-1.1364760375437886
0.16,-0.8492734261407627,0.5947305848792447,2.353979581793642,0.1206687257188335,0.1919117637444523,0.0368425174511028,0.0031176285532839,-0.0580139178854832,-0.1872388210150655,-0.8409898391094927,0.5770171289769416,2.35185249451932,0.1117277579990919,-0.3258364839627166,-0.3024090052020867,1.6405189678312908,0.3795026733460281,-0.941684284211062,-1.2886081303512569,9.159928667108034,-1.2369974720854398,0.0554662987865118,-1.1307734173479798
0.18,-0.8491152041114715,0.5933534124479529,2.349965220236037,0.1321724907355001,0.1988170147671538,0.0383339521916956,0.0124539758112919,-0.0789987243173401,-0.2129371506921868,-0.838887405005829,0.5709003993036477,2.346204314421239,0.1249398636309202,-0.365836484558763,-0.3424090057981331,1.7233206530551948,0.4668173629004042,-1.0492403215928443,-1.2849164838560676,9.156452854021154,-1.2319513971598368,0.0455576248132109,-1.1254996163224704
0.2,-0.8487701106907549,0.5916246848210909,2.345674991942304,0.142152163425325,0.2045788486803754,0.039613808704562,0.0234166239229655,-0.1018425726441903,-0.2373660649052716,-0.8484925053209068,0.5894034762320859,2.339318362701428,0.0496529626694215,-0.1789987258074562,-0.312937152182303,1.759824500930966,0.5481324055836794,-1.14219241634251,-1.2214457106542356,9.200570375909592,-1.227413054682781,0.0362908778750347,-1.1185979872363947
0.22,-0.8481110778893259,0.5891585766699327,2.340784803498153,0.146855829836553,0.2089002068360494,0.0403098615036933,0.0419943992346478,-0.1416047348060052,-0.2492999241414392,-0.8484925053209068,0.5894034762320859,2.339318362701428,0.0496529626694215,-0.1789987258074562,-0.312937152182303,2.274082381743504,0.928888765584112,-1.988108108090747,-0.5966929618083844,10.183631338459236,-1.2129759227287464,0.032552251121738,-1.1034761736505114
0.24,-0.8470768803025548,0.5859721515413208,2.33568178257196,0.145059876438672,0.2110027629892457,0.0401941006699331,0.0602925454208951,-0.1744854827927969,-0.2604773525183689,-0.8484925053209068,0.5894034762320859,2.339318362701428,0.0496529626694215,-0.1789987258074562,-0.312937152182303,1.9627153685300207,0.9149073093123644,-1.6440373993395845,-0.5588714188464835,10.183631338459236,-1.2145029030425527,0.0348072061323633,-1.0997690072050934
0.26,-0.8457632218656177,0.5823848202392136,2.330607049739976,0.1404059921887311,0.2112916409738886,0.0396028220286561,0.0769475310561222,-0.2008094730173124,-0.2730062600646897,-0.8479959756942126,0.5876134889740113,2.3361889911796045,0.0570927600410473,-0.1989987261054794,-0.3329371524803262,1.6787752471327586,0.8327492817613545,-1.3161995112257754,-0.6264453773160372,10.050539502325591,-1.2179211985828031,0.040023560038415,-1.0950435613481788
0.28,-0.8440495526144257,0.5781180457556189,2.3249903712472446,0.1348083113267923,0.2099295845091843,0.0386839497873382,0.0934177401865301,-0.2243240920692694,-0.2880661474425169,-0.8470029164408241,0.5840335144578622,2.3299302481359585,0.0719723547842992,-0.2389987267015259,-0.3729371530763726,1.6209605992981988,0.8235104565203967,-1.175730952597849,-0.7529943688913604,9.89209584508808,-1.223397084230094,0.0458734785930693,-1.0882044839194256
0.3,-0.8420193153021736,0.5734076734393608,2.319049820258447,0.1295244751242094,0.2069616969344203,0.0375699872351855,0.1086455776598237,-0.2455639752122541,-0.3051821014756181,-0.8460098571874357,0.5804535399417131,2.3236715050923125,0.086851949527551,-0.2789987272975723,-0.4129371536724191,1.5620303714268218,0.7613918736646824,-1.0619941571492346,-0.8557977016550616,9.73976084890728,-1.2293353003437786,0.0509169541265104,-1.0802145447947529
0.32,-0.8398237976291326,0.5685541168090659,2.3130737306678286,0.1250986654715001,0.2028229580616045,0.0363902655654246,0.1215460679182298,-0.2643669314391874,-0.3229850861540354,-0.8442728181968847,0.5748735653957616,2.3154127620188643,0.1017315442708027,-0.3189987278936187,-0.4529371542684655,1.4464785474032769,0.645024512920303,-0.9401478113466616,-0.8901492339208644,9.608033149295808,-1.2376811877861176,0.0556169355616283,-1.069463019161394
0.34,-0.8372727073132352,0.5630699014823635,2.3064094997097118,0.1211951598538987,0.1975745965620737,0.0351024903796418,0.1326293059869519,-0.2831522717942094,-0.3425132519294392,-0.8425357792063337,0.5692935908498102,2.307154018945416,0.1166111390140546,-0.3589987284896653,-0.492937154864512,1.463793391238706,0.5541619034361046,-0.9392670177511026,-0.976408288770192,9.494198520294049,-1.2471622306843515,0.0595620066908832,-1.0566102915730784
0.36,-0.8345240510040844,0.5572071597004948,2.2993477853154283,0.1177777291648305,0.1921190870922844,0.0338369021888766,0.1415150847039802,-0.3021132291003343,-0.3626668153752309,-0.8404267503472014,0.5627136162889576,2.2978952758570665,0.1314907337573064,-0.3989987290857117,-0.5329371554605584,1.45313547625147,0.4442889358514154,-0.9480478653062452,-1.0076781722895831,9.420308334762922,-1.255155357936594,0.0628773172361999,-1.04282763434624
0.38,-0.8316189163812472,0.5509681537180869,2.2918759216848072,0.114481011249723,0.1869345931856844,0.0326250938882135,0.1484546973494075,-0.3207157537037916,-0.383453489567832,-0.8379457316194877,0.5551336417132038,2.287636532753816,0.1463703285005582,-0.4389987296817581,-0.5729371560566049,1.4372699548798709,0.3469806322713625,-0.9301262301728648,-1.0393337096300526,9.36687278768568,-1.2611089982444168,0.0658063903108564,-1.0293299880357076
0.4,-0.828748029996574,0.5447018401732181,2.284386540080261,0.1113722034940783,0.1826342203200637,0.0315593493796507,0.1533126228505558,-0.3378477865690383,-0.403815347123211,-0.8241961815137768,0.5349323660328974,2.272703247206416,0.1959215267685435,-0.4128968029911108,-0.4834534910579481,1.3525080714880675,0.2428962750574179,-0.8566016432623363,-1.0180928777689529,9.312375849425734,-1.265221702972004,0.0687176648250821,-1.0156335776410064
0.42,-0.8256405082203295,0.537721399964244,2.276315308359422,0.1076909180356416,0.1805404665559912,0.03068960985195,0.1572282378755882,-0.3590532544142703,-0.4009985790628044,-0.8241961815137768,0.5349323660328974,2.272703247206416,0.1959215267685435,-0.4128968029911108,-0.4834534910579481,1.0873569904423672,0.1957807512516174,-1.0602733922615986,0.1408384030203296,9.256095122697843,-1.2611796001790443,0.0722761869220472,-0.9943467902185932
0.44,-0.8224522535903628,0.5303462631155007,2.26830153065146,0.1039911348000277,0.182383617481121,0.03024526038062,0.1618189042795522,-0.3773456442232876,-0.4009753030336077,-0.8241961815137768,0.5349323660328974,2.272703247206416,0.1959215267685435,-0.4128968029911108,-0.4834534910579481,0.9429823496904092,0.2295333201982025,-0.9146194904508632,0.0011638014598358,10.752972220386257,-1.257719234446865,0.0747210221382068,-0.9996815525144596
0.46,-0.819149976146257,0.5226208780889965,2.260222528600856,0.1007378529642787,0.1866329789457315,0.0300722722374185,0.1685076052507698,-0.3942751908664975,-0.4069257394268289,-0.8222369662460914,0.5308033980029863,2.267868712295836,0.2054148926523707,-0.4313330128485746,-0.5034534913559713,0.9575436850305562,0.3344350485608771,-0.8464773321604974,-0.297521819661059,10.371334825771555,-1.2532785520928007,0.0769408604644563,-1.0058869032950648
0.48,-0.8158721940430769,0.5149790989120399,2.252395667009265,0.098027145620421,0.191768093332295,0.0300302406340791,0.1764068693626102,-0.4092990000083853,-0.4166678716985633,-0.8183185357107206,0.5225454619431641,2.2581996424746773,0.2244016244200251,-0.4682054325635023,-0.5434534919520178,0.97854784737443,0.3949632055920221,-0.7511904570943917,-0.4871066135867213,9.82531753904732,-1.247762686420475,0.0791418459029018,-1.0113999605768291
0.5,-0.8122454885851275,0.5066370628746057,2.243923448292444,0.0956124344690529,0.1976590610746044,0.0300474562628181,0.1860267905015289,-0.4241358135614663,-0.4302021582534984,-0.8144001051753497,0.5142875258833418,2.248530572653518,0.2433883561876796,-0.50507785227843,-0.5834534925480642,1.1133854135911327,0.4809960569459343,-0.7418406776540487,-0.6767143277467552,9.82531753904732,-1.2422325340093034,0.0810899205252229,-1.015858671375692
0.52,-0.8084142431232292,0.4980053982136861,2.2351517051427496,0.0936489837528426,0.2036649445468963,0.030091332315606,0.1967698355676353,-0.4383188986923881,-0.446412180232107,-0.8095323380515961,0.5041859688377732,2.2368615028025567,0.262375087955334,-0.5419502719933578,-0.6234534931441107,1.2034717837057305,0.5371522533053202,-0.7091542565460907,-0.8105010989304273,9.513870898294954,-1.237213685946028,0.08273471885063,-1.0194396090781106
0.54,-0.8043503134912778,0.4890959845873013,2.226040953078476,0.0921224760185241,0.2094010225768495,0.0301268401281759,0.2091863290965943,-0.4519735120387546,-0.4638579229952496,-0.8046645709278425,0.4940844117922046,2.2251924329515957,0.2813618197229884,-0.5788226917082855,-0.6634534937401572,1.2698146693033503,0.6208246764479508,-0.6827306673183209,-0.8722871381571295,9.513870898294954,-1.2326426004914357,0.0839455584404447,-1.0218882689827635
0.56,-0.8002423717359528,0.4803747163935505,2.2170546270668345,0.0908189599284733,0.214152779942069,0.0300957407323342,0.2226084096003009,-0.4652913715201981,-0.4811891202314328,-0.7993221355098975,0.4830610442537628,2.212523363085733,0.3003485514906429,-0.6156951114232131,-0.7034534943362035,1.2824663970792172,0.6711040251853275,-0.665892974072177,-0.8665598618091602,9.467352232840312,-1.2290466095783603,0.0851067476065037,-1.023138342061923
0.58,-0.7956321167772662,0.4709225063608193,2.207230984848368,0.0893318170000557,0.2180943837634959,0.0299483871457211,0.2377045370942867,-0.4791524353217043,-0.5002865737616469,-0.7935050317977612,0.4711158662224478,2.198854293204969,0.3193352832582973,-0.6525675311381407,-0.74345349493225,1.4006559948491868,0.7548063746992906,-0.6930531900753101,-0.954872676510704,9.438455326318037,-1.2272492539262192,0.086404712070313,-1.022881789707307
0.6,-0.790711717812622,0.461194442110672,2.1970169195227838,0.0875774319984934,0.2207677349720512,0.0296599913386139,0.2534768033390326,-0.49279213501367,-0.5201244014162628,-0.7837468899225518,0.4469648845947341,2.1822166561602856,0.3076526217467106,-0.5428748222779192,-0.600286575251763,1.4390493357043093,0.7886133122372948,-0.6819849845982856,-0.9918913827307974,9.361274202470668,-1.2268541774472426,0.0879362079872186,-1.0206415198997991
0.62,-0.7854358930440369,0.4510724299558285,2.186695580270312,0.0822883759544422,0.2231821668243543,0.0290918339497524,0.2735114265419495,-0.5162547338533744,-0.510839356252383,-0.7837468899225518,0.4469648845947341,2.1822166561602856,0.3076526217467106,-0.5428748222779192,-0.600286575251763,1.610971550719503,1.0017311601458438,-1.173129941985218,0.4642522581939923,9.361274202470668,-1.2220923905807493,0.0923997466367395,-1.008179975582928
0.64,-0.7800514856173176,0.4411104024872032,2.1770389343837744,0.0746123928750673,0.2259040305247904,0.028390777577137,0.292351113028689,-0.530701048470198,-0.5061736634325575,-0.7837468899225518,0.4469648845947341,2.1822166561602856,0.3076526217467106,-0.5428748222779192,-0.600286575251763,1.2097504726346024,0.941984324336978,-0.7223157308411776,0.2332846409912714,11.132561810906736,-1.2215394530549215,0.0992078208225897,-1.015643243759646
0.66,-0.7739968111100499,0.4303802242647939,2.166911277101756,0.0662364282767535,0.2287624580908228,0.0276193044024167,0.3121282297313933,-0.5413361821379714,-0.5071005260123768,-0.7806703637050847,0.4415361363719549,2.176213790407768,0.3216422386771954,-0.5556192996691621,-0.6202865755497862,1.123720925592362,0.9888558351352134,-0.5317566833886733,-0.046343128990961,10.35716045350364,-1.2220992395771055,0.1065632618849547,-1.0213479866531727
0.68,-0.7675488547124147,0.4194709742902151,2.156704037574612,0.0584528420881498,0.2311470875714129,0.026849226037616,0.3316561835044243,-0.5490492779916148,-0.513546344535866,-0.7745173112701506,0.4306786399263965,2.164208058902733,0.3496214725381649,-0.5811082544516482,-0.6602865761458326,1.098159144485537,0.976397688651548,-0.3856547926821718,-0.3222909261744622,10.065461854919704,-1.223656282075705,0.1135153372576358,-1.0247189679283233
0.7000000000000001,-0.7607147398554784,0.4084302984724706,2.146323959302312,0.0515774870093925,0.2328256460393617,0.0260997548384666,0.3507225505070324,-0.5547165555222268,-0.5241227394559791,-0.7683642588352163,0.4198211434808381,2.1522023273976973,0.3776007063991344,-0.6065972092341341,-0.7002865767418791,1.1263930428510711,0.9533183501304082,-0.2833638765305957,-0.5288197460056543,9.838639271257309,-1.2257035133636724,0.1193774386106168,-1.0259845399848202
0.72,-0.753506160890133,0.3972929422013275,2.1356973223906315,0.0457126507565125,0.2337582715705763,0.0253877923835004,0.3691092162016618,-0.558872064364914,-0.5379947909268042,-0.7608122447072336,0.4076891992961555,2.13819659586286,0.4055799402601039,-0.63208616401662,-0.7402865773379256,1.17022598364262,0.9193332847314688,-0.2077754421343614,-0.6936025735412576,9.838639271257309,-1.2291421927870754,0.1246953512957715,-1.0259706558242083
0.74,-0.7459353045145622,0.3860845868248196,2.124776804783839,0.0408693106356326,0.2340169608867728,0.0247269215781162,0.3869799460732812,-0.5619267722453498,-0.553344576916085,-0.753260230579251,0.3955572551114727,2.124190864328022,0.4335591741210736,-0.657575118799106,-0.780286577933972,1.1877606622294596,0.8935364935809709,-0.1527353940217912,-0.7674892994640359,9.6578918255982,-1.2331172588446828,0.1290597762760015,-1.023790545144778
0.76,-0.7384125876501159,0.375382387254497,2.1141068522398063,0.0369956952178803,0.2335974748050671,0.0241355320800425,0.4039123008260088,-0.5645145801829282,-0.5690189747097454,-0.745008735604744,0.3827880870572279,2.109185132778284,0.4615384079820431,-0.6830640735815919,-0.8202865785300184,1.16091357730444,0.8466177376363793,-0.12939039687892,-0.7837198896830211,9.577879879078864,-1.2371141896949611,0.1326250160934265,-1.0206911290056533
0.78,-0.7301497187030215,0.3640689928926024,2.1025416057652784,0.0334640141431815,0.2322895486229386,0.0235353641221744,0.4214162469082602,-0.5666958797554118,-0.5867203933871376,-0.7360577597837128,0.369381695133421,2.0931794012136438,0.4895176418430126,-0.7085530283640779,-0.8602865791260649,1.249486313918252,0.8751973041125682,-0.1090649786241793,-0.8850709338696083,9.514082603739553,-1.2413018445053088,0.1356092049316084,-1.0167225075148092
0.8,-0.72153952440897,0.3527179009902763,2.090608912784456,0.0304070050377737,0.229870697297411,0.0229506774647884,0.4386234979820386,-0.5683385646396126,-0.6056263844084487,-0.7090789063576085,0.3357341989048318,2.0732055860959213,0.4735644884579905,-0.5688561816530866,-0.6488946800804721,1.2808438621107678,0.8603625536889231,-0.0821342442100414,-0.9452995510655592,9.439907664116618,-1.2462044385266662,0.1380196011893302,-1.0114368010526316
0.8200000000000001,-0.7129180750458707,0.341743788150367,2.0792540619697126,0.0227887061551691,0.2249839372433226,0.0220218592321942,0.4682152688499145,-0.5841047017463473,-0.5865299717521788,-0.7090789063576085,0.3357341989048318,2.0732055860959213,0.4735644884579905,-0.5688561816530866,-0.6488946800804721,1.9293243368494133,1.479588543393795,-0.7883068553367345,0.9548206328134968,9.372553213936952,-1.2425859282660892,0.143748655453788,-0.988947403550216
0.84,-0.7032612388261434,0.3300032365043037,2.067730099022582,0.0094533263825519,0.2160100335884383,0.0207045498856369,0.4950691449034141,-0.5880296797106542,-0.5673009136770973,-0.7090789063576085,0.3357341989048318,2.0732055860959213,0.4735644884579905,-0.5688561816530866,-0.6488946800804721,1.6630489962504609,1.3426938026749768,-0.1962488982153454,0.9614529037540732,12.010319683223315,-1.2585533304201553,0.1559662552230903,-0.9872922537233972
0.86,-0.6931372729163184,0.3182740798817534,2.0565119649144314,-0.0046205262360637,0.2046363278039591,0.0195094174440643,0.5153404463692887,-0.5843240969589518,-0.5557433972275148,-0.7043432614730286,0.3300456370883009,2.0667166392951164,0.4839941367679365,-0.5692882420326215,-0.661329537419139,1.1813479516345462,1.013565073293729,0.1852791375851203,0.5778758224791292,11.516437107995444,-1.2771021475085906,0.1689963045285235,-0.9810424364985512
0.88,-0.6826770396615262,0.3066729647806688,2.0454434759295204,-0.0176271403356213,0.1920936227936717,0.0186155208950256,0.5292028086614451,-0.5759925093926651,-0.5515774128962585,-0.6948719717038687,0.3186685134552392,2.053738745693507,0.5048534333878286,-0.5701523627916915,-0.6861992520964729,0.8350686575695084,0.6931181146078214,0.4165793783143356,0.2082992165628128,10.53986104204887,-1.2948674203807464,0.1804485063074166,-0.9710767974180242
0.9,-0.6725390469228771,0.2958371655712072,2.034949914972829,-0.0284068934713175,0.18011846759909,0.0180714405878141,0.5369803747406795,-0.5652256449832697,-0.5531628734465653,-0.6854006819347089,0.3072913898221774,2.0407608520918976,0.5257127300077208,-0.5710164835507614,-0.7110689667738067,0.6688228249763598,0.3888783039617205,0.5383432204697725,-0.0792730275153419,10.53986104204887,-1.3126780454841709,0.1909997066495585,-0.9592068899422088
0.92,-0.6617581306061632,0.2846717902148635,2.023826056087744,-0.0379842265891791,0.1683277282140974,0.0177722673148609,0.5404031706833635,-0.5520132937887426,-0.5593153614409445,-0.6748864273345545,0.2958710601511622,2.0265394727564217,0.546572026627613,-0.5718806043098313,-0.7359386814511405,0.7485567190830525,0.171139797134201,0.6606175597263508,-0.3076243997189587,9.913719227673027,-1.3287482490295768,0.1997650392528014,-0.9457531476250208
0.94,-0.6509498869568225,0.2737886474659771,2.012552190810476,-0.0457515680078603,0.1580445548305157,0.0176814067678989,0.5400902056149257,-0.5371664634398338,-0.5678178563428423,-0.6643721727344001,0.284450730480147,2.0123180934209453,0.567431323247505,-0.5727447250689013,-0.7608083961284744,0.8555973616429375,-0.0156482534218904,0.742341517445444,-0.4251247450948903,9.913719227673027,-1.3411027348383515,0.206325481611878,-0.9319888647960618
0.96,-0.6407141285005082,0.263736725290672,2.001668025851083,-0.0514880701544773,0.1500252935383862,0.0177237452243357,0.5373856459570436,-0.5220010658337183,-0.5774238707457493,-0.6533364357187483,0.273008797790155,1.997474971218536,0.5882906198673972,-0.5736088458279711,-0.7856781108058082,0.9077161453387728,-0.1352279828941038,0.758269880305773,-0.4803007201453491,9.701737848603443,-1.3513239005301276,0.2116030941531362,-0.9189843504976922
0.98,-0.630015046562082,0.2534714695213526,1.9900016546115444,-0.0560559603779272,0.1435269305042645,0.017838757147443,0.5325487638794281,-0.5055346153803363,-0.5887401785449454,-0.6417792162875994,0.2615452620811863,1.982010106149193,0.6091499164872892,-0.5744729665870411,-0.810547825483142,1.0278597192377357,-0.2418441038807783,0.823322522669101,-0.5658153899598062,9.701737848603443,-1.3597603122604196,0.2155438164112158,-0.9080288964247804
1.0,-0.6194347384491563,0.2435409802738594,1.9780977668147763,-0.0592800321049186,0.1393696207674861,0.01796225022486,0.5256284711069615,-0.4885749181762577,-0.6011017183689711,-0.6033876083681106,0.2281947387523358,1.960564645684297,0.5625392730318405,-0.4870959948875203,-0.5887519325807132,1.1049088742195596,-0.3460146386233265,0.8479848602039264,-0.6180769912012829,9.62856378952256,-1.3658111992708966,0.2181987559409877,-0.9000297738143824
1.02,-0.6094162151358974,0.2344311029078094,1.966930558254516,-0.0617613619125175,0.1363169114092046,0.018096761866502,0.5291466014778926,-0.4710905734944056,-0.5737904888657128,-0.6033876083681106,0.2281947387523358,1.960564645684297,0.5625392730318405,-0.4870959948875203,-0.5887519325807132,1.630937466030139,0.1759065185465536,0.8742172340926085,1.365561475162913,9.5711258375095,-1.3533534236905251,0.2179996603807201,-0.8802379961763888
1.04,-0.5988082563515134,0.2252142901713589,1.95573377780927,-0.0639598097382445,0.1323953484441685,0.0183384130038754,0.5312273346322057,-0.4516156068894432,-0.5476826495854005,-0.6033876083681106,0.2281947387523358,1.960564645684297,0.5625392730318405,-0.4870959948875203,-0.5887519325807132,1.631887746300643,0.1040366577156559,0.973748330248117,1.3053919640156175,12.12069949529905,-1.3638397432104572,0.2218218353385891,-0.8887057336957814
1.06,-0.5881847320910464,0.2164001047522767,1.9449965682591503,-0.0651689053280331,0.1281051223386353,0.0186977165204011,0.5308784277074163,-0.431047539120889,-0.5273018598368134,-0.5977622156377922,0.2233237788034606,1.95467712635849,0.5685373748623229,-0.4834082707889571,-0.5887542833878668,1.4478809848793823,-0.0174453462394696,1.0284033884277122,1.0190394874293518,11.779227128953607,-1.372890234725457,0.2244136643554999,-0.893382334389141
1.08,-0.5775940304390557,0.2080054602276636,1.934620772065324,-0.0648141243741102,0.1238475421503017,0.0191805852684593,0.5280764577951561,-0.4097482625928167,-0.511263720438907,-0.5865114301771553,0.2135818589057102,1.942902087706876,0.5805335785232879,-0.4760328225918307,-0.5887589850021739,1.3404589991446785,-0.1400984956130113,1.0649638264036143,0.8019069698953218,11.192318415983207,-1.3818499545297365,0.2257263765343299,-0.8963310989359435
1.1,-0.5676079599717405,0.200428013030382,1.9250286302708663,-0.0625427469726148,0.1203310881579158,0.0197443593512973,0.523140973689157,-0.3892713649578463,-0.4992039075253323,-0.5752606447165185,0.2038399390079598,1.9311270490552612,0.5925297821842529,-0.4686573743947043,-0.588763686616481,1.2135705867645774,-0.2467742052999544,1.0238448817485202,0.6029906456787332,11.192318415983207,-1.389922072091043,0.2251877864665815,-0.8985255384884889
1.12,-0.5572189088908402,0.1928502989219525,1.9151571174644224,-0.058297332632063,0.1177908750314601,0.0203889789614071,0.5159142294640919,-0.3701822841993936,-0.4886432270881017,-0.5634100490728334,0.1944667915200657,1.919351775322932,0.6045259858452179,-0.4612819261975779,-0.5887683882307881,1.1490722427186053,-0.3613372112532542,0.9544540379226364,0.5280340218615287,10.999813874807842,-1.3965877941359348,0.2228920498138625,-0.9007724941954534
1.14,-0.5469868387300574,0.1856249992613024,1.9054922450572809,-0.0532993641229057,0.1169595445680316,0.0209799521641092,0.5078488449375226,-0.3535781687228485,-0.4783656785217412,-0.5515594534291484,0.1850936440321716,1.9075765015906023,0.6165221895061829,-0.4539064780004516,-0.5887730898450952,1.056379527979607,-0.4032692263284676,0.8302057738272528,0.513877428318027,10.849900415131742,-1.398497371767758,0.2197958571311039,-0.9042232246158084
1.16,-0.5374094274644404,0.1790522462849565,1.8965007313301063,-0.0483355884680474,0.1175609088429242,0.0214815074548036,0.500865219741949,-0.3393347864715114,-0.4686244291208518,-0.5394089526939392,0.1759048827492057,1.8958011103179149,0.6285183931671477,-0.4465310298033251,-0.5887777914594025,0.9307750785236536,-0.3491812597786803,0.7121691125668572,0.487062470044472,10.849900415131742,-1.3986266383657686,0.2162521638389352,-0.9098094591696776
1.18,-0.527461083139147,0.1724100847533974,1.8872351313690925,-0.0431492168519734,0.1191937701664632,0.0219636793525918,0.4944757033941628,-0.3257929359854249,-0.4584594963684139,-0.5269585468672059,0.1669005076711679,1.88402560150487,0.6405145968281127,-0.4391555816061988,-0.5887824930737096,0.904894319254644,-0.3194758173893058,0.6770925243043235,0.5082466376218925,10.845675395953547,-1.3978278374753068,0.2126754614334527,-0.916734196618154
1.2,-0.5176299281458823,0.1660252137594603,1.8781700976666211,-0.0381338158674467,0.121459272293724,0.0224156501726873,0.4890800390388634,-0.3135057507543424,-0.4485735312698105,-0.5027372979694388,0.1561204379541261,1.864312156550672,0.5004532683511558,-0.3150039411441473,-0.4495860355540571,0.8333972952151707,-0.2697832177649739,0.6143592615541232,0.49429825493017,10.825711975922786,-1.3966130122817246,0.2093580129213412,-0.9240645257898776
1.22,-0.5082977308209811,0.1601650938630561,1.869848445334812,-0.0341268577871967,0.1217552925695554,0.0228662832870307,0.4931904631343825,-0.3036864352475846,-0.4279083023359059,-0.5027372979694388,0.1561204379541261,1.864312156550672,0.5004532683511558,-0.3150039411441473,-0.4495860355540571,1.1622889379979553,0.2055212047759547,0.4909657753378899,1.03326144669523,11.599974481606296,-1.3883827495200902,0.2057175150375197,-0.9278825843767332
1.24,-0.4983978713641553,0.1542017319997613,1.86150474681488,-0.0306701758406902,0.1179411817212925,0.0234204407459664,0.496119015274284,-0.2931966252994382,-0.4076726070848165,-0.5027372979694388,0.1561204379541261,1.864312156550672,0.5004532683511558,-0.3150039411441473,-0.4495860355540571,1.1490168544013153,0.1464276069950754,0.5244904974073233,1.0117847625544711,11.599974481606296,-1.3971639683423027,0.2040870554292055,-0.9313870422164512
1.26,-0.4884828042554567,0.1484441783569307,1.8535361730238071,-0.0275567164783483,0.1110728222430889,0.0240244018870618,0.4947262894408497,-0.2831630086572853,-0.3901587268040835,-0.4977327652859272,0.1529703985426846,1.8598162961951312,0.5016487813425543,-0.3128461421758918,-0.4478113433911858,1.0116189384554002,-0.0696362916717152,0.5016808321076455,0.8756940140366515,11.450023230752777,-1.4082496394339687,0.202718278397233,-0.9294431762951316
1.28,-0.4791342563563818,0.1431537996067556,1.8462673209357068,-0.0247694075424678,0.10326573571068,0.024597209209827,0.4891118175834673,-0.2742969436335615,-0.3758388302860901,-0.4877236999189041,0.1466703197198017,1.85082457548405,0.5040398073253515,-0.3085305442393807,-0.444261959065443,0.887677925162437,-0.2807235928691198,0.4433032511861889,0.7159948258996685,11.126305787387537,-1.4200783586906005,0.2013017710010206,-0.9248757235941124
1.3,-0.4694502741247924,0.1377585740528966,1.8388903163420984,-0.0220014916108356,0.0949667922885119,0.0251635090119784,0.4793208773200322,-0.2657622957062906,-0.3626942997273654,-0.477714634551881,0.1403702408969188,1.8418328547729688,0.5064308333081486,-0.3042149463028697,-0.4407125747397003,0.9239607812210836,-0.4895470131717511,0.4267323963635439,0.657226527936236,11.126305787387537,-1.4303386742804398,0.1998131468544637,-0.9186944942737012
1.32,-0.4599985846474416,0.1325259450786943,1.831756234963551,-0.0194270860673062,0.0875400093658468,0.025671836318819,0.4661990847407278,-0.2579795290186037,-0.3514432034785622,-0.467586017885718,0.1342859419708614,1.8330186032781748,0.5088218592909458,-0.2998993483663587,-0.4371631904139576,0.9478133579575294,-0.6560896289652229,0.3891383343843452,0.562554812440158,10.89483725504033,-1.4383594235310937,0.1982986994359752,-0.9123691188742336
1.34,-0.4512919635319173,0.1276924089440967,1.8251750079322584,-0.0171824317188778,0.0820546573520493,0.0260913244865476,0.4508785053062922,-0.2512234235093926,-0.3418701332426409,-0.457457401219555,0.128201643044804,1.8242043517833808,0.511212885273743,-0.2955837504298476,-0.4336138060882148,0.964376469020688,-0.7660289717217772,0.3378052754605537,0.4786535117960649,10.89483725504033,-1.4442516740882818,0.1969318422687628,-0.9071795603993124
1.36,-0.4424675275560032,0.1227373787467039,1.8184371586772892,-0.0150322849856127,0.0788136092661866,0.0264613540170175,0.4322610033496895,-0.2446663282525685,-0.3324480446309828,-0.4472690089038221,0.1222252340671593,1.8154788348967303,0.51360391125654,-0.2912681524933366,-0.4300644217624721,1.0935979964286588,-0.9308750978301388,0.3278547628412051,0.4711044305829054,10.843000419559758,-1.4466391350970076,0.1954925218587228,-0.9043223923833786
1.38,-0.4340256583288184,0.1179083760873446,1.8118814990319492,-0.0130932164597073,0.0787829336600852,0.026762043195755,0.4132498172039624,-0.2385725650101523,-0.3236077117843139,-0.4370208409385193,0.1163567150379275,1.806842052618224,0.5159949372393372,-0.2869525545568255,-0.4265150374367294,1.091685204124797,-0.9505593072863529,0.3046881621208086,0.4420166423334454,10.774884236863729,-1.4428479400425522,0.1939342968650902,-0.9058090502004514
1.4,-0.4259484897886729,0.1131971326719356,1.805498651157164,-0.0113622590975694,0.081415303891833,0.0270131413321931,0.3958055402283306,-0.2328483785977975,-0.3151189888465112,-0.4133631674686203,0.1059797478368369,1.7957011134427336,0.4131404926011447,-0.2327056653894107,-0.3274973388405102,1.011345052888384,-0.8722138487815889,0.2862093206177432,0.4244361468901364,10.774884236863729,-1.4369769880975811,0.1926028814825842,-0.911008457286726
1.42,-0.4185572698720233,0.108831287640504,1.79963029902249,-0.0097172882889164,0.0851030336921529,0.0272409953410163,0.3832129144213376,-0.2271241586012728,-0.3030410288757802,-0.4133631674686203,0.1059797478368369,1.7957011134427336,0.4131404926011447,-0.2327056653894107,-0.3274973388405102,0.91817486942594,-0.6296312903496498,0.2862109998262321,0.6038979985365456,10.75092028443396,-1.427279854833397,0.1910000701025153,-0.9183456571819708
1.44,-0.4110213674369082,0.1043448898813052,1.793691416928996,-0.0080078038101854,0.0892368892115503,0.0274811107075528,0.3711838341078866,-0.2218415112992348,-0.2915793532262162,-0.4133631674686203,0.1059797478368369,1.7957011134427336,0.4131404926011447,-0.2327056653894107,-0.3274973388405102,0.8717441488203349,-0.6014540156725534,0.2641323651019031,0.5730837824782037,11.004819361238331,-1.4220545007610623,0.1898586333580484,-0.928120602166004
1.46,-0.4037144665074239,0.0999588306040319,1.7879637653148428,-0.0064660109794033,0.0934629020041964,0.0277128743493752,0.3602532831575925,-0.217035261337081,-0.2817677854241788,-0.4092317625426089,0.1036526911829428,1.7924261400543284,0.4131186276805812,-0.2315322854652624,-0.3282752642517495,0.7727286805691472,-0.5465275475147052,0.2403124981076865,0.4905783901018673,10.91448747258346,-1.4170347007438462,0.1888717626605366,-0.937143257825704
1.48,-0.3969648208591886,0.0958768304222185,1.782691684788155,-0.0052317044166431,0.0974191467157972,0.0279203805895982,0.3508897238308255,-0.2128907142504839,-0.2736917849927988,-0.4009689526905859,0.0989985778751546,1.7858761932775182,0.4130748978394541,-0.2291855256169657,-0.329831115074228,0.6520645995347325,-0.4681779663383484,0.2072273543298558,0.4038000215690035,10.761979435283138,-1.4113054814409178,0.1879849649988083,-0.9468073921442132
1.5,-0.3900413595695108,0.0916610998026777,1.7772974129694987,-0.0042740244476952,0.1013957823834556,0.0281179573607561,0.3420528680702238,-0.2089050454149503,-0.2662166866137907,-0.3927061428385631,0.0943444645673664,1.779326246500708,0.4130311679983271,-0.2268387657686691,-0.3313869658967066,0.6120716289293102,-0.4418427880300835,0.1992834417766806,0.373754918950403,10.761979435283138,-1.4060226991016782,0.1873932368993024,-0.9559289886630308
1.52,-0.3832846845319688,0.0875221938044833,1.7720423445434634,-0.0037550727148199,0.1050822581736027,0.0282867992794346,0.334140325984717,-0.2051757500199024,-0.2597128546184332,-0.3844455194785965,0.089807689251993,1.772698507182774,0.4129874381572,-0.2244920059203725,-0.3329428167191851,0.545013295760475,-0.3956271042753423,0.1864647697523938,0.3251915997678739,10.66259301627997,-1.401189613751784,0.1871662936596659,-0.9641352515138084
1.54,-0.3766772935449691,0.0834566598109736,1.766909471163793,-0.0037286298651927,0.1084082654023999,0.0284218978750054,0.3270540338537024,-0.2015339548073644,-0.2539113215265223,-0.37618489611863,0.0852709139366196,1.7660707678648395,0.412943708316073,-0.2221452460720758,-0.3344986675416636,0.4927879735562777,-0.3543146065507263,0.1820897606269009,0.2900766545955474,10.66259301627997,-1.3970253704662865,0.1873374877991324,-0.9710386690473276
1.56,-0.3705247325842735,0.0796632430422688,1.7621351099577638,-0.0041405936555493,0.1111978490518806,0.0285195358082584,0.3209745192753323,-0.1979327781095854,-0.2489539924676298,-0.3679253660046916,0.0807928076174537,1.7594041322763438,0.4128999784749459,-0.2197984862237792,-0.3360545183641422,0.4315787370671228,-0.3039757289185069,0.180058834888952,0.2478664529446214,10.63351179419351,-1.3932112305179896,0.1879304066429484,-0.9775352976114958
1.58,-0.364167443501128,0.075747085573801,1.7572058636620196,-0.0049615920055713,0.1137322707656426,0.0285948554348406,0.3151126618415508,-0.193845399460383,-0.244262321934067,-0.3596669291367814,0.0763733702944951,1.7526986004172858,0.4128562486338188,-0.2174517263754825,-0.3376103691866207,0.4274336474572284,-0.293092871689074,0.204368932460118,0.2345835266781407,10.607484188136368,-1.390025107798171,0.1888928189167739,-0.9832814644149672
1.6,-0.3579228467124571,0.0719176722688562,1.7523644846102628,-0.0060505849973126,0.115866102146499,0.0286513778214085,0.309665950245405,-0.189278581514065,-0.240139908924292,-0.3484118104090504,0.0660548156007818,1.7449927475653162,0.3319728675216827,-0.1694514349015432,-0.2500931640043485,0.410842982140272,-0.2723355798072924,0.2283408973159026,0.2061206504887516,10.556634875855709,-1.387572933076848,0.1900515214046043,-0.988149010929252
1.62,-0.3517853544855595,0.0681342663637848,1.7476733804376785,-0.0088895084520124,0.1180072466883047,0.0285837669094434,0.3044621548817898,-0.1884390638504076,-0.22883726766622,-0.3484118104090504,0.0660548156007818,1.7449927475653162,0.3319728675216827,-0.1694514349015432,-0.2500931640043485,0.6235663066239363,-0.2601897681807602,0.0419758831828667,0.5651320629035991,10.556634875855709,-1.3819504751562508,0.1923136079708372,-0.9892904090934804
1.64,-0.3460471718342247,0.0645966377182802,1.743421365657577,-0.0131431737218744,0.120367917492862,0.0284047719620532,0.2999117991834136,-0.1836827829707749,-0.2193701970597975,-0.3484118104090504,0.0660548156007818,1.7449927475653162,0.3319728675216827,-0.1694514349015432,-0.2500931640043485,0.5765270389467714,-0.227517784918807,0.2378140439816364,0.4733535303211245,11.030900302394002,-1.3792735081942873,0.1967551584680428,-0.998279926094766
1.66,-0.3400944932572963,0.0610007189097899,1.7391211208129511,-0.0176804590995984,0.1230217565528338,0.0282051221568141,0.2956794201947971,-0.1760952601394763,-0.2112449292629765,-0.3450920817338336,0.0643603012517664,1.7424918159252727,0.3353449086577091,-0.1645726419897752,-0.2512593324184048,0.5947762423567702,-0.2116189494308251,0.3793761415649285,0.4062633898410495,10.90680927892572,-1.3770152121979786,0.2013570371884606,-1.0065914445332789
1.68,-0.334220641930772,0.0575753667001677,1.7349644516258018,-0.0216456829417905,0.1256953617199054,0.0280405209159607,0.2919992586814939,-0.1669242593796522,-0.2048363652848734,-0.3384526243833999,0.0609712725537355,1.7374899526451857,0.3420889909297619,-0.1548150561662393,-0.2535916692465174,0.5888984122115918,-0.1840080756651596,0.4585500379912066,0.3204281989051552,10.806655548069102,-1.3752766714977305,0.2053212457869279,-1.0140300587828617
1.7,-0.3287033898933845,0.0545008670564069,1.7311221922558218,-0.024698973275004,0.1281474618278797,0.0279330319578536,0.2890058183781013,-0.157311397413382,-0.1999401749206429,-0.3318131670329663,0.0575822438557046,1.732488089365099,0.3488330732018146,-0.1450574703427034,-0.25592400607463,0.5597778133226669,-0.1496720151696329,0.4806430983135074,0.2448095182115264,10.724128807427403,-1.3737426411623286,0.2088579250668701,-1.0212795554974028
1.72,-0.3229521030832494,0.0514664895047668,1.7271689265692824,-0.0271806537035347,0.1305643626394978,0.0278737882439982,0.2863329411498695,-0.1467268280230727,-0.1956890549876469,-0.32483650556893,0.0546810944488506,1.7273696092436062,0.3555771554738674,-0.1352998845191675,-0.2582563429027427,0.585767450743441,-0.1336438614115864,0.529228469515465,0.2125559966497978,10.619074236310553,-1.3725653708830563,0.2117344911163365,-1.0280044267774775
1.74,-0.3172491751289266,0.0486487745432074,1.723294900689494,-0.0289485114566468,0.1327655258605764,0.0278704368954711,0.2841361089838408,-0.1356738783806144,-0.191949229984264,-0.3178598441048937,0.0517799450419965,1.7222511291221136,0.3623212377459202,-0.1255422986956316,-0.2605886797308552,0.5936751182682862,-0.1098416083014391,0.5526474821229144,0.1869912501691453,10.619074236310553,-1.3717992309033828,0.2140123085830161,-1.0347725979339646
1.76,-0.311584963125075,0.0460604706117359,1.719490916075085,-0.0298474309030968,0.1346864567154797,0.0279372201877777,0.2824114116945827,-0.1238576338024646,-0.188646573492497,-0.3107145805840561,0.0491227352807308,1.7170743405799185,0.369065320017973,-0.1157847128720956,-0.2629210165589679,0.619487200377943,-0.0862348644629029,0.5908122289074932,0.1651328245883487,10.601452210112257,-1.371651494247505,0.215520986999732,-1.041721318367145
1.78,-0.3062326553559578,0.0438263199513706,1.7159345323634512,-0.0296260113340466,0.1362056681213303,0.0280866852794931,0.2810780453526205,-0.1120675966383828,-0.1858815690891711,-0.3034007150064172,0.0467094651650535,1.71183924361702,0.3758094022900257,-0.1060271270485597,-0.2652533533870804,0.6091553403745181,-0.0666683170981091,0.5895018582040868,0.1382502201662971,10.587803497165623,-1.3721147546043595,0.2161001469561408,-1.0489040046159732
1.8,-0.3006240003332998,0.0417169533524481,1.7122444189425712,-0.0280499498941201,0.137480096888117,0.0283490122920262,0.2798610610628051,-0.0996255799024014,-0.1832921126386018,-0.2921787530883268,0.0382229401194514,1.7066404539089923,0.2959031389125413,-0.0937204189838781,-0.176610708275613,0.6383379119429875,-0.0608492144907685,0.6221008367990694,0.1294728225284647,10.5750710945822,-1.3731063571000262,0.2153834849711426,-1.0558414762698405
1.82,-0.2949962071576446,0.0398801443826723,1.708702235526462,-0.0242298242234635,0.1375853389465516,0.0287983228098748,0.2830382554122873,-0.0855772261435603,-0.1705305798497131,-0.2921787530883268,0.0382229401194514,1.7066404539089923,0.2959031389125413,-0.0937204189838781,-0.176610708275613,0.9621688084606156,0.1588597174741052,0.7024176879420557,0.6380766394444362,10.563898749011967,-1.3652269288237016,0.211792743130676,-1.05979867387815
1.84,-0.2895918161571232,0.0383513458997718,1.705581888290613,-0.0193322866472544,0.1358653268087171,0.0293461204036219,0.2855224504008448,-0.0763068709498398,-0.1586320853241699,-0.2921787530883268,0.0382229401194514,1.7066404539089923,0.2959031389125413,-0.0937204189838781,-0.176610708275613,0.764337756056341,0.1242097494278782,0.463517759686026,0.5949247262771601,11.244948193770142,-1.3718455515148988,0.2083050635675226,-1.07257330107376
1.86,-0.2838665679326788,0.0369035144206826,1.7025270871579377,-0.0142253614789967,0.1325364817710861,0.0299249596908641,0.2866950039096952,-0.0690494718507464,-0.1475445335030907,-0.2892197216992014,0.0372857359296126,1.7048743468262364,0.2988681576245255,-0.0900509834529771,-0.1747565361129014,0.6651663867028984,0.0586276754425213,0.3628699549546699,0.5543775910539602,11.159864605423536,-1.3792219204448202,0.2045545886193985,-1.0816400309624066
1.88,-0.2781383657613473,0.035582028510078,1.6996774225462057,-0.0096694589693128,0.1281128068762603,0.0304506461326371,0.2858890326283066,-0.0634154989149335,-0.1379760214282496,-0.2833016589209505,0.0354113275499351,1.701342132660724,0.3047981950484938,-0.0827121123911752,-0.1710481917874781,0.5566589262606745,-0.0402985640694325,0.2816986467906464,0.4784256037420525,11.074881765815917,-1.3866499307964109,0.2012586566993501,-1.087250662792316
1.9,-0.2724512959063087,0.0343607595175669,1.697005949389097,-0.0058070215696326,0.1232245787028458,0.0309016760051998,0.2826871370853028,-0.0589046033079265,-0.1296511421508565,-0.2773835961426997,0.0335369191702575,1.6978099184952118,0.3107282324724621,-0.0753732413293733,-0.1673398474620549,0.4997597653592964,-0.1600947771501881,0.2255447803503517,0.4162439638696544,10.924644186607113,-1.3941032364476222,0.1982188093509793,-1.090624434219253
1.92,-0.2671328564658971,0.0332759042310069,1.6946121080400471,-0.0027927784952838,0.1188828895842664,0.0312577622910549,0.2771857950733482,-0.0554135229119057,-0.1227498266359558,-0.2711690314932505,0.0320294543436701,1.694463121545971,0.3166582698964304,-0.0680343702675714,-0.1636315031366317,0.4745539013120284,-0.2750671005977312,0.17455401980104,0.3450657757450341,10.924644186607113,-1.4003988836845374,0.1956693801046369,-1.0923492326639737
1.94,-0.2616716382493328,0.0321997990275556,1.6922298469072583,-0.0002613164998118,0.115488709131623,0.0315647663534953,0.2690761330750089,-0.0523151741302336,-0.1158578486663918,-0.2649544668438012,0.0305219895170826,1.6911163245967296,0.3225883073203987,-0.0606954992057695,-0.1599231588112084,0.5542241045668118,-0.4054830999169673,0.1549174390836023,0.3445988984782009,10.858057775320049,-1.40394212018835,0.193540968833912,-1.0936667288427018
1.96,-0.2563938794729544,0.031181727556865,1.689980909621561,0.0017022025221117,0.1141737142943028,0.0318185570379555,0.2592798273891352,-0.0495520311842233,-0.109388933255095,-0.2585916512587528,0.0291979964670402,1.687862236255624,0.3285183447443671,-0.0533566281439675,-0.1562148144857852,0.603012086590478,-0.489815284293682,0.1381571473005171,0.3234457705648424,10.858057775320049,-1.403000610990205,0.1916955886935337,-1.095919993621107
1.98,-0.2513064257355425,0.0302158690418671,1.6878578918575693,0.0031986309386759,0.1149792069059006,0.0320361362417613,0.2502341099910607,-0.0471156293212033,-0.1032480117537333,-0.2520805847381051,0.0280574751935428,1.6847008565226542,0.3344483821683354,-0.0460177570821656,-0.1525064701603619,0.5600713663673628,-0.4522858699037263,0.1218200931509982,0.3070460750680854,10.838244388436578,-1.3989035737663418,0.1902284569339011,-1.099622675180402
2.0,-0.2466275308434674,0.0293398785026083,1.6859525810400795,0.0041435923511939,0.1171395995125949,0.0322103909139896,0.2429343045290221,-0.0451706582855963,-0.0976305532012573,-0.2387947202359895,0.0278600875758069,1.6826954912698826,0.2457292100310494,-0.0485239444684765,-0.1142758023597552,0.4707066833542512,-0.3649902731019283,0.097248551780352,0.2808729276237979,10.818321558846035,-1.3932252002750398,0.1891740537875263,-1.1051610035793218
2.02,-0.241801539190393,0.0285137372508948,1.6840408268410132,0.0063844321296092,0.119101222640838,0.0324756326389582,0.2400412823525697,-0.0382922419089519,-0.0939563004993414,-0.2387947202359895,0.0278600875758069,1.6826954912698826,0.2457292100310494,-0.0485239444684765,-0.1142758023597552,0.4158795561261432,-0.1446511088226201,0.3439208188322176,0.1837126350957965,10.80692671883935,-1.3884182085058605,0.1871417000042372,-1.1131407983683668
2.04,-0.2372692639143243,0.0278214739460636,1.6822808600333023,0.0099729358707485,0.1194769191476451,0.0328138375626153,0.2370541952834137,-0.0352026726064296,-0.0914782903169978,-0.2387947202359895,0.0278600875758069,1.6826954912698826,0.2457292100310494,-0.0485239444684765,-0.1142758023597552,0.2480355926959152,-0.149354353457802,0.1544784651261139,0.1239005091171779,10.66524294802548,-1.3890836857761386,0.1836571469101629,-1.117152024266754
2.06,-0.2325684597424402,0.0271291232347439,1.6804721907842148,0.0138385843681458,0.1188216454655898,0.0331533231838897,0.2330935504092712,-0.0342513170807193,-0.0895472270178666,-0.236337428135679,0.0273748481311221,1.681552733246285,0.2448282300390472,-0.0488056074979312,-0.1164813604809595,0.2253929381137641,-0.1980322437071233,0.0475677762855147,0.0965531649565608,10.619641480786411,-1.3898533522943513,0.1799006055384478,-1.118457907805027
2.08,-0.2279567151923524,0.0264397752554684,1.678694649034629,0.0172347577350476,0.1175266161135311,0.0334353822606036,0.2282012425811836,-0.0346506562778484,-0.0882956919768839,-0.231422843935058,0.0264043692417526,1.67926721719909,0.2430262700550427,-0.0493689335568405,-0.1208924767233683,0.253280909455976,-0.2446153914043805,-0.0199669598564551,0.0625767520491336,10.582294886220552,-1.390697103532777,0.1766818162492604,-1.1178436396194944
2.1,-0.2236759775599287,0.025769213749478,1.677023930398683,0.0198784701025367,0.1160950604858002,0.0336442270294775,0.2225937215397639,-0.0358035643867625,-0.0876240810627713,-0.226508259734437,0.0254338903523831,1.6769817011518948,0.2412243100710382,-0.0499322596157498,-0.1253035929657771,0.2882037064192587,-0.2803760520709838,-0.0576454054457019,0.033580545705629,10.516034198821217,-1.3912765149685495,0.1738293656795176,-1.1158996189985666
2.12,-0.2192950038953167,0.0250352271371702,1.6752747090779874,0.0220618352635892,0.1147828541258413,0.0338119173353045,0.215753891426694,-0.0374617520854123,-0.0873467112989298,-0.2216837735330163,0.0244352451600681,1.674475629292579,0.2394223500870337,-0.0504955856746591,-0.1297147092081858,0.3521711104190182,-0.341991505653498,-0.0829093849324912,0.0138684881920751,10.516034198821217,-1.3907948112551949,0.1715070118594514,-1.1132393140440686
2.14,-0.2150569460251574,0.0242636541587318,1.6735261762402094,0.0236587465197416,0.1139598552376811,0.0339372941691273,0.2084298900005186,-0.0395571520510819,-0.0875343487139638,-0.2168592873315955,0.0234365999677531,1.6719695574332638,0.2376203901030292,-0.0510589117335684,-0.1341258254505946,0.3810082207323984,-0.3662000713087671,-0.1047699982834795,-0.0093818707516998,10.46074701910311,-1.3887477745309074,0.1696702187573041,-1.1102658673878296
2.16,-0.2109674714430587,0.0234444946561473,1.671769308467723,0.0245718364455408,0.1137093459343502,0.0340187768683289,0.2009639748925367,-0.0421669946696048,-0.0881332349434529,-0.2120798501297748,0.0224238716239654,1.669353207667888,0.2358184301190247,-0.0516222377924777,-0.1385369416930033,0.3965785912304233,-0.3732957553990959,-0.130492130926146,-0.0299443114744529,10.46074701910311,-1.385882928983033,0.1685204597018096,-1.1073432794565694
2.18,-0.2072197787610502,0.022614394446253,1.6700862068297235,0.0246693311352473,0.1139862736795603,0.0340480582079406,0.1939813745001352,-0.0449912347796177,-0.0889975556576722,-0.2073454619275543,0.0213970601287049,1.666626579996452,0.2340164701350202,-0.052185563851387,-0.1429480579354121,0.3790781276201487,-0.3491300196200725,-0.1412120055006453,-0.0432160357109634,10.436661517480388,-1.382008737973918,0.1680813854251235,-1.1043794384058316
2.2,-0.2034147812884993,0.0216825549439808,1.6682942569440211,0.0238603536288152,0.114742929626879,0.0340208072310246,0.1869582442768623,-0.0479671844131775,-0.0901576465327538,-0.1975207100360434,0.0203648327072721,1.66563632904684,0.2130864643285072,-0.0350085194187974,-0.08996909198436,0.3857669153549283,-0.3511565111636486,-0.1487974816779896,-0.058004543754081,10.416434334086262,-1.377588556180927,0.1685635244262236,-1.101658976344843
2.22,-0.1997673431233505,0.0206561196569407,1.6665593866145256,0.0209582626731167,0.1169189057723032,0.0338746355262579,0.1784191593959113,-0.0538521134043081,-0.0828402864547177,-0.1975207100360434,0.0203648327072721,1.66563632904684,0.2130864643285072,-0.0350085194187974,-0.08996909198436,0.6346103496366303,-0.4269542440475463,-0.2942464495565285,0.3658680039018057,10.398195572399343,-1.3658252545547764,0.170595919473782,-1.0988796735164217
2.24,-0.1962734594052864,0.0195556782032509,1.6649761064323618,0.0162872897632092,0.1211171822196779,0.0336344317865651,0.171733953918294,-0.0554942316548057,-0.0759137853721686,-0.1975207100360434,0.0203648327072721,1.66563632904684,0.2130864643285072,-0.0350085194187974,-0.08996909198436,0.4882748761536266,-0.3342602738808653,-0.082105912524881,0.3463250541274554,10.866010235230531,-1.3576867221189526,0.1747385483976822,-1.1061255818659133
2.26,-0.1930561639351165,0.0185107150718114,1.6635878512166462,0.0117655683874103,0.1261229182550454,0.0333973434708451,0.1674829669487027,-0.0543863745711236,-0.0705828053647397,-0.1953898453927583,0.0200147475130841,1.6647366381269963,0.2169074822941817,-0.0330119763466334,-0.0901633992496975,0.3453895821138275,-0.2125493484795668,0.055392854184106,0.266549000371441,10.866010235230531,-1.3494962838659652,0.1794032282235032,-1.1151141541822596
2.28,-0.1897344089915277,0.0174512954498324,1.662225764136111,0.0075009276815315,0.1317373046200896,0.0331637253919403,0.1651089628065423,-0.0516242948333865,-0.0659678624491537,-0.1911281161061882,0.0193145771247081,1.662937256287309,0.2245495182255305,-0.0290188902023052,-0.0905520137803726,0.2939501584398687,-0.1187002071080189,0.1381039868868515,0.2307471457793003,10.742002747321749,-1.342208938635694,0.183735485079892,-1.1246680604496844
2.3000000000000003,-0.1864391386679741,0.0164604371637508,1.6609458991404238,0.0039709631946692,0.137126594692515,0.0329595557757464,0.1646444034631329,-0.0477288882192482,-0.062272345791137,-0.186866386819618,0.0186144067363322,1.661137874447622,0.2321915541568792,-0.0250258040579771,-0.0909406283110477,0.2694756549426168,-0.0232279671704707,0.1947703307069191,0.1847758329008346,10.704275923681053,-1.3363773273825972,0.1874815058059848,-1.13423326485264
2.32,-0.1833020423824888,0.0155984458992809,1.659791817842743,0.0013154759959699,0.1416701026578435,0.0327982078028154,0.1656382973881288,-0.0433381889238275,-0.0594137526103865,-0.1822225557364804,0.0181138906551726,1.6593190618814009,0.2398335900882281,-0.021032717913649,-0.0913292428417228,0.2666346770863838,0.049694696249794,0.2195349647710308,0.1429296590375248,10.678395441973407,-1.332334438113918,0.1904422921755703,-1.142899978555172
2.34,-0.1799675607923849,0.0147849001506398,1.6586334798865414,-0.0008203387855149,0.1456325790863322,0.0326639929107767,0.1677958897014915,-0.0383312666408204,-0.0565882957508648,-0.1775787246533429,0.0176133745740131,1.65750024931518,0.2474756260195769,-0.0170396317693209,-0.091717857372398,0.3070329046037823,0.1078796156681369,0.2503461141503592,0.1412728429760854,10.678395441973407,-1.3294576660658457,0.192951497344021,-1.1512340944467645
2.36,-0.1765800863101994,0.0140769950992159,1.6575297583005584,-0.0022949137703105,0.1486293201094136,0.0325713776668729,0.1708363217172357,-0.0327742567279661,-0.0539423883618717,-0.1727438426719215,0.0172126856464618,1.6556717213856922,0.2551176619509257,-0.0130465456249928,-0.0921064719030731,0.3432397555829252,0.1520216007872082,0.2778504956427108,0.1322953694496555,10.682301152071886,-1.3282500942885016,0.1948648335104096,-1.1590649395350543
2.38,-0.1731259596255569,0.0134867932321624,1.6564768209441725,-0.0029452229617606,0.1505925225865225,0.0325363516756332,0.1743443865300993,-0.026640095509162,-0.0514954043240684,-0.1677179097922165,0.0169118238725186,1.6538334780929371,0.2627596978822745,-0.0090534594806647,-0.0924950864337482,0.3739056815254245,0.1754032406431807,0.3067080609402077,0.1223492018901654,10.683897918825096,-1.3287444588409856,0.1959578138546001,-1.165917635039316
2.4,-0.1697787416169278,0.0130431325061638,1.6555199125800757,-0.0026353698333903,0.1515662393985238,0.0325694532247032,0.1777377986613285,-0.020487117587312,-0.0493605103966974,-0.164408740299052,0.0121547884567043,1.6539020507279691,0.1817208822788576,-0.016430985875001,-0.0672198956520694,0.3671925764509442,0.1696706065614603,0.3076488960925003,0.106744696368553,10.68303747216396,-1.3306330940285842,0.1961150831570133,-1.172282128320537
2.42,-0.1661510421760025,0.0127123876346952,1.65454760743354,-0.0009073431004466,0.1506046448612474,0.0327038131337916,0.184873868993542,-0.013094926347331,-0.0480189915828398,-0.164408740299052,0.0121547884567043,1.6539020507279691,0.1817208822788576,-0.016430985875001,-0.0672198956520694,0.5180918447598913,0.356803516610675,0.3696095619990482,0.0670759406928799,10.679771487114522,-1.3314838465243668,0.1944544625009987,-1.1765308255807705
2.44,-0.1623844899350858,0.0125146534872509,1.6535936123715234,0.0022432307043228,0.1463467909782229,0.0329260938898629,0.1910723828800538,-0.0074854506715731,-0.0474520459254415,-0.164408740299052,0.0121547884567043,1.6539020507279691,0.1817208822788576,-0.016430985875001,-0.0672198956520694,0.418954708580301,0.3099256943255912,0.2804737837878939,0.028347282869913,10.63955935408012,-1.342822637305521,0.1918180914570444,-1.1769896444107666
2.46,-0.1585306243443916,0.0124000007959499,1.6526445857338614,0.0056882006001171,0.1397257202286402,0.0331354653977802,0.1935752092320444,-0.0043459301609603,-0.0474803074419303,-0.1625915314762634,0.0119904785979543,1.6532298517714483,0.1831961814286093,-0.0143891639481688,-0.0703647939176696,0.200758110036004,0.1251413175995266,0.156976025530643,-0.0014130758244398,10.540225671212283,-1.3555550734689952,0.1888939054883673,-1.1733005675425028
2.48,-0.1548620363258787,0.0123336817003955,1.6517360719817902,0.0086337764431161,0.1326436281468564,0.0332759556886454,0.1922612584633068,-0.0027347271477209,-0.0481269414241338,-0.1589571138306862,0.0116618588804543,1.6518854538584071,0.1861467797281126,-0.0103055200945044,-0.0766545904488701,0.1088643339147189,-0.0656975384368777,0.080560150661971,-0.0323316991101756,10.540225671212283,-1.3672601545287302,0.1858778781084339,-1.1662817640868752
2.5,-0.1510614154105322,0.0122880596963247,1.6507608317066924,0.0112066143848047,0.125474748469652,0.0333597310117688,0.1876929351261098,-0.0018605558307594,-0.049379188167697,-0.1553226961851091,0.0113332391629543,1.6505410559453657,0.1890973780276159,-0.00622187624084,-0.0829443869800705,0.2408416259253273,-0.228416166859853,0.0437085658480732,-0.0626123371781608,10.493722764093036,-1.376178679931982,0.1831854078560622,-1.1577623599608506
2.52,-0.1473824193474998,0.0122535753270373,1.6497544312431796,0.0132080380141568,0.1194515961276028,0.0333929330345503,0.1802836599955016,-0.0015599456968413,-0.0512123881162934,-0.1515407486245568,0.0112088016381375,1.6488821682057644,0.1920479763271193,-0.0021382323871756,-0.0892341835112709,0.3819304467609133,-0.3704637565304078,0.0150305066959041,-0.0916599974298163,10.451146115500704,-1.3825992761571229,0.1809693542457606,-1.1490836853168187
2.54,-0.143881184031203,0.0122192064253935,1.6487053731133805,0.0146178559310313,0.1155004672673913,0.0333967477532667,0.1701754266853638,-0.0018075336255028,-0.0535863309149775,-0.1477588010640045,0.0110843641133207,1.6472232804661628,0.1949985746266226,0.0019454114664887,-0.0955239800424713,0.5193103235205849,-0.5054116655068885,-0.0123793964330731,-0.1186971399342054,10.414902321555928,-1.3857048391527602,0.1793475345512424,-1.141717510289111
2.56,-0.1407595287231745,0.0121778548016654,1.6476612437143712,0.0153467631935615,0.1144385019005987,0.0333894186895986,0.1592320752309853,-0.0024615205153245,-0.0561953736974336,-0.1439030885459646,0.0110620176848455,1.6454071478132817,0.1979491729261259,0.0060290553201531,-0.1018137765736717,0.5634530684688707,-0.5471675727189276,-0.0326993444910863,-0.1304521391228073,10.388434020805107,-1.3824458654702287,0.1779833165864961,-1.1355603762577569
2.58,-0.1376846360201746,0.0121190008984202,1.6465058691951036,0.0153741172001889,0.1159156919575799,0.033366136490329,0.1491318706187671,-0.0033342883372131,-0.0592128995500406,-0.1399736110704371,0.0111417623527119,1.64343377024712,0.2008997712256292,0.0101126991738175,-0.1081035731048721,0.5288698307493729,-0.5050102306109069,-0.0436383910944313,-0.1508762926303478,10.360148587042204,-1.3752803662420607,0.1773149598355661,-1.1321114217676898
2.6,-0.1347915250421443,0.0120432015622759,1.6452883185433895,0.0145744473415967,0.1192132075933433,0.0333098079647779,0.1409467433289096,-0.0041308396786914,-0.0623961503094122,-0.1302280424892362,0.0119522864815596,1.6435452242176016,0.1553920654344624,-0.001056850041208,-0.0610283120928233,0.4409191767995078,-0.4092563644928784,-0.0398275670739143,-0.1591625379685834,10.333476260553653,-1.3671028485524817,0.1775138506744134,-1.1311088134261629
2.62,-0.1320129190259749,0.0119840037504521,1.6440968605948532,0.0138978186031944,0.1230745222381469,0.033265689453546,0.1375380914373099,-0.0019138844351105,-0.0561447736069495,-0.1302280424892362,0.0119522864815596,1.6435452242176016,0.1553920654344624,-0.001056850041208,-0.0610283120928233,0.3728723271652141,-0.170432594579982,0.1108477621790432,0.3125688351231392,10.918325303725396,-1.350155257286743,0.1770273954281868,-1.1324872174163896
