t,x,y,z,roll,pitch,yaw,v_x,v_y,v_z,ref_x,ref_y,ref_z,ref_v_x,ref_v_y,ref_v_z,a_com,a_x,a_y,a_z,thrust,wind_x,wind_y,wind_z
0.0,0.9992871522745566,0.5478885468079432,2.399135367326213,0.0109042116740478,0.1362426356441004,0.0256937298840545,0.0039224751565278,-0.0011716214850433,0.0088699296019617,0.9994092906996324,0.5477592588792042,2.399404277978374,-0.095966513237562,-0.1034940225154409,-0.0910597785379403,0.4884520431975663,0.1961237578263922,-0.0585810742521676,0.4434964800980882,10.547389701909196,-1.2860774988557042,0.1655064295723522,-1.169499529635942
0.02,0.9994880298982955,0.5481362236919342,2.399082863731907,0.0185691551004359,0.1311324202679261,0.0261568809321067,0.0156584139703643,0.0218006848094847,-0.0151832020347536,0.9994092906996324,0.5477592588792042,2.399404277978374,-0.095966513237562,-0.1034940225154409,-0.0910597785379403,1.7635278973302992,0.5867969406918256,1.1486153147264049,-1.2026565818357722,10.546950497942817,-1.296375913530598,0.158599518102719,-1.1762383905981142
0.04,0.9998807927081657,0.5486179896675402,2.398461141774454,0.0334298315153215,0.1165294532239768,0.0267708394384263,0.0216838532584573,0.0243800545053042,-0.0457394941954918,0.9994092906996324,0.5477592588792042,2.399404277978374,-0.095966513237562,-0.1034940225154409,-0.0910597785379403,1.5625668443738605,0.301271964404649,0.1289684847909734,-1.527814608036907,9.158594561478369,-1.3274121671042003,0.1439309599524409,-1.1462358422007397
0.06,1.0002665135811095,0.5490454487034383,2.397308852964473,0.0480016437323656,0.0973624430302024,0.0269112954140414,0.0177810244271979,0.0201655418361067,-0.0739072929604052,0.9984496255672568,0.5467243186540498,2.398493680192995,-0.1159665135355852,-0.1234940228134641,-0.1110597788359635,1.43737527909867,-0.1951414415629716,-0.210725633459872,-1.4083899382456695,8.845452767063762,-1.3575504872146844,0.1287766926884887,-1.1039772670248238
0.08,1.000496027591636,0.5493692146298246,2.395531520268352,0.0627553183235545,0.075384530516881,0.0265585091727028,0.0046890821979775,0.0120886083158237,-0.1022603444312804,0.9965302953025056,0.5446544382037409,2.3966724846222363,-0.1559665141316316,-0.1634940234095106,-0.15105977943201,1.6128633963656174,-0.6545971114610194,-0.4038466760141501,-1.4176525735437602,8.852355876892034,-1.380779864933487,0.1144767076169364,-1.0561408202354658
0.1,1.0003797184564418,0.5494991049023661,2.393199927842656,0.0767898969545422,0.0543266720616337,0.0258384406898392,-0.0160636703640685,0.000990760067883,-0.1294307908961257,0.9946109650377544,0.5425845577534322,2.394851289051477,-0.1959665147276781,-0.203494024005557,-0.1910597800280564,1.797270246606541,-1.037637628102301,-0.5548924123970366,-1.3585223232422663,8.883903739729703,-1.3960044700787686,0.1012212662355949,-1.0101862074253116
0.12,0.9997822357753678,0.5493776730612129,2.390335119189442,0.0901358726163167,0.0361442501408358,0.0249614711134811,-0.0426300966286718,-0.0128673094917739,-0.1556823811507838,0.9906916347432008,0.538514677273321,2.3910300934509165,-0.2359665153237245,-0.2434940246016035,-0.2310597806241028,1.99183777407408,-1.328321313230166,-0.6929034779828491,-1.3125795127329032,8.98637932377369,-1.4019677493309717,0.0896548116388218,-0.9683683178134254
0.14,0.9986843096146678,0.5489819172796159,2.387124901630197,0.1022127269250462,0.0224216492769896,0.0241585421401463,-0.0714348072811885,-0.0283334972656309,-0.1809027634201268,0.986772304448647,0.5344447967932099,2.387208897850355,-0.275966515919771,-0.28349402519765,-0.2710597812201494,2.064571385205176,-1.4402355326258385,-0.7733093886928489,-1.2610191134671502,8.98637932377369,-1.4006003308743675,0.0785697183215037,-0.928554059019995
0.16,0.9969119939788844,0.5482242824452258,2.38322453093731,0.1143213792113977,0.0121238188240358,0.0235026729099112,-0.1042138569099177,-0.046874753185701,-0.207822757644001,0.9818529741391924,0.5293749162981976,2.382387702234893,-0.3159665165158175,-0.3234940257936964,-0.3110597818161958,2.314589787991408,-1.638952481436457,-0.9270627960035072,-1.34599971119371,8.975189063459311,-1.3966414064177208,0.0682797251127175,-0.9006349940289015
0.18,0.9944597527572876,0.5470722986407434,2.378784162134257,0.1258363078408943,0.0065904857384003,0.0232217934924485,-0.1393795202955588,-0.0676418617266646,-0.2348688325044225,0.9759336438148364,0.5233050357882841,2.3765665066045294,-0.3559665171118639,-0.3634940263897428,-0.3510597824122422,2.449176822863093,-1.7582831692820535,-1.0383554270481783,-1.3523037430210745,8.964988788021401,-1.3885027563528756,0.0589166319489144,-0.879348268617452
0.2,0.9912965527905346,0.5454750054831965,2.3738030347477084,0.1365372989768685,0.0063735777377379,0.0234955649507,-0.1743986579991336,-0.0911022612172114,-0.2618080899275197,0.9874907767425096,0.5436902055544102,2.367040720509036,-0.2393795217856749,-0.1676418632167807,-0.3348688339945386,2.501226669189481,-1.750956885178742,-1.1730199745273395,-1.3469628711548596,8.983390006065292,-1.3703069822750478,0.050466467213585,-0.8655453337216423
0.22,0.9876375256961192,0.5433347949483966,2.36871053655718,0.1410963264689122,0.0114248419843514,0.0240805270588226,-0.2081210927717162,-0.1300018360786106,-0.2724467271145944,0.9874907767425096,0.5436902055544102,2.367040720509036,-0.2393795217856749,-0.1676418632167807,-0.3348688339945386,2.6284787104839245,-1.6861217386291287,-1.9449787430699583,-0.5319318593537375,8.984942395095004,-1.3378734771465663,0.0448170380876329,-0.8630531819100892
0.24,0.9831562676388044,0.5403805430351383,2.363141501961774,0.1398574840876859,0.0214486230415471,0.0249381039203128,-0.2375077553621194,-0.1628726179603749,-0.2839624389320483,0.9874907767425096,0.5436902055544102,2.367040720509036,-0.2393795217856749,-0.1676418632167807,-0.3348688339945386,2.2785279559308567,-1.4693331295201617,-1.643539094088217,-0.5757855908726933,10.014850260746698,-1.313126194323643,0.0439707268934631,-0.8754135139482055
0.26,0.9781488377922266,0.5368161439308781,2.357310898902937,0.1354181518686619,0.0338524604438638,0.0258670216554656,-0.261230736672225,-0.191021900760844,-0.2983562441985659,0.985096981524653,0.5420137869222423,2.3636920321690904,-0.2593795220836981,-0.1876418635148039,-0.3548688342925618,1.9763246155875012,-1.1861490655052778,-1.407464140023455,-0.7196902633258812,9.8095898922993,-1.291197345280967,0.0460859191632053,-0.8877251361450396
0.28,0.9730016318501072,0.532956501850884,2.3514804056871323,0.1303375011973178,0.0462108284854222,0.0267053551024797,-0.279078615701178,-0.2136543097428043,-0.3146297091517824,0.9803093910889396,0.5386609496579068,2.3569946554892,-0.2993795226797445,-0.2276418641108504,-0.3948688348886082,1.654991226368299,-0.8923939514476481,-1.1316204490980128,-0.8136732476608233,9.594116847545592,-1.2701032111777777,0.0493027816506582,-0.901528844304574
0.3,0.9672609067051184,0.5284601264791057,2.3449813876582435,0.1251828561256086,0.0585880962352115,0.0274503368496226,-0.2937777914113402,-0.2347373831014426,-0.3345608818810932,0.975521800653226,0.5353081123935711,2.350297278809309,-0.339379523275791,-0.2676418647068969,-0.4348688354846547,1.6262021669902953,-0.7349587855081108,-1.0541536679319174,-0.9965586364655415,9.406788410646186,-1.2523490870865566,0.0528337444865377,-0.9127042225807817
0.32,0.9612618891673882,0.5235610216521109,2.3380554060808207,0.1206367361515665,0.0694821213853686,0.0279924883461137,-0.3052363423247879,-0.2541315379134249,-0.3571625507949587,0.9687342101877102,0.5299552750994332,2.341599902099616,-0.3793795238718374,-0.3076418653029433,-0.4748688360807011,1.5955148601620748,-0.5729275456723859,-0.9697077405991128,-1.1300834456932751,9.093836133687546,-1.238127211003754,0.0560055847799323,-0.9200458242319456
0.34,0.955375817523104,0.5185600816935168,2.3310396267610853,0.1169978293913239,0.07797914844607,0.0282903392932825,-0.3137992401725171,-0.2714314248854791,-0.3802188393225966,0.9619466197221944,0.5246024378052953,2.332902525389923,-0.4193795244678839,-0.3476418658989898,-0.5148688366767477,1.503497380664648,-0.4281448923864589,-0.8649943486027128,-1.152814426381893,9.093836133687546,-1.2259767574237546,0.0589207322623832,-0.9243630557382688
0.36,0.949015946594628,0.512941362645178,2.3231680537130868,0.1136321445022674,0.0849484225498913,0.0283756997580332,-0.3217307385884175,-0.2894789140531576,-0.4057744515203257,0.9541590292417774,0.5182496004962561,2.3232051486653287,-0.4593795250639303,-0.3876418664950362,-0.554868837272794,1.6137765080546516,-0.3965749207950203,-0.9023744583839228,-1.2777806098864586,9.015977203400324,-1.2177902187959786,0.0616402786589842,-0.925385154230347
0.38,0.942504705661653,0.5069654162176236,2.314775297606978,0.1104485428358573,0.0901441387409184,0.0282512286759813,-0.3290154444902021,-0.3071223842328076,-0.4322421026169442,0.9453714387464592,0.5108967631723158,2.312507771925833,-0.4993795256599768,-0.4276418670910826,-0.5948688378688405,1.6316368580569791,-0.3642352950892297,-0.8821735089825006,-1.3233825548309208,8.94988173976435,-1.2115318804072417,0.0642142551916259,-0.9239177082085004
0.4,0.935851603125778,0.5006426155217437,2.305844573549141,0.1073236155528608,0.0938479117128825,0.0279518953821277,-0.3359911361458398,-0.3241701846623953,-0.4594789989045786,0.9260539334371428,0.4916092970059832,2.2931631924761318,-0.4290154459803182,-0.386705567163754,-0.5322421041070603,1.6440318525996835,-0.3487845827818886,-0.852390021479385,-1.3618448143817212,8.903041118501278,-1.2070975626307985,0.0666018464018505,-0.920672380112202
0.42,0.9294278840752764,0.4942524232884123,2.2970677557670656,0.1027630911779644,0.096256079003274,0.0274285248051248,-0.3399076284119143,-0.3463796973716589,-0.4628964152512299,0.9260539334371428,0.4916092970059832,2.2931631924761318,-0.4290154459803182,-0.386705567163754,-0.5322421041070603,1.1404824647265746,-0.1958246133037244,-1.1104756354631788,-0.1708708173325634,10.218699082832243,-1.1920748542157638,0.0691854112493667,-0.919233100341398
0.44,0.922936124352012,0.48749751664814,2.2882131070149625,0.0970901664818088,0.0975212758973651,0.0267065371694112,-0.3433313759572701,-0.3633039201638684,-0.4692899933939464,0.9260539334371428,0.4916092970059832,2.2931631924761318,-0.4290154459803182,-0.386705567163754,-0.5322421041070603,0.9206372872115494,-0.1711873772677868,-0.8462111396104754,-0.3196789071358286,10.218699082832243,-1.1905034296077277,0.0734069485579466,-0.9185481693132798
0.46,0.9160285156876592,0.4800703318990844,2.2787070526323863,0.0913153635093528,0.0974080624326636,0.0258254668179259,-0.3473365940071706,-0.3784350521503446,-0.481173316389185,0.9217637789773396,0.4877422413343457,2.287840771435061,-0.4490154462783414,-0.4026222037499432,-0.5522421044050835,0.9826066001057832,-0.200260902495028,-0.7565565993238099,-0.5941661497619294,9.9063510988517,-1.1908723540069863,0.077814123602411,-0.9146326595596505
0.48,0.909035792238636,0.4723598634205125,2.2689190734450344,0.0860712215966939,0.095750800987863,0.0248557204493322,-0.351822882715087,-0.3918251516287453,-0.4971763593578769,0.9131834700577334,0.4800081299910705,2.27719592935292,-0.4890154468743878,-0.4344554769223218,-0.59224210500113,1.0671444778825006,-0.224314435395817,-0.6695049739200376,-0.8001521484345964,9.615723341543344,-1.192040592769838,0.0817286713287788,-0.9082746371233098
0.5,0.9023038391819584,0.46480083002619,2.259290001771792,0.081695551335645,0.0926358711361512,0.0238657518981969,-0.3566927022100619,-0.4032634012077072,-0.5155745768588007,0.904603161138127,0.4722740186477955,2.2665510872707784,-0.5290154474704343,-0.4662887500947003,-0.6322421055971764,1.1102286955347924,-0.2434909747487446,-0.5719124789480917,-0.9199108750461872,9.39053740692816,-1.1942524914202923,0.0849113183718253,-0.8999162707314474
0.52,0.895106524270049,0.4566200259488926,2.248751766789404,0.0777697107761425,0.0877211152624349,0.0227660777247558,-0.3630841836652183,-0.4142704716226665,-0.5373737712161547,0.8940228521887184,0.4629482436459015,2.2539062451588348,-0.5690154480664807,-0.4981220232670789,-0.6722421061932229,1.2621524362583705,-0.3195740727578194,-0.5503535207479676,-1.0899597178677,9.214471002542268,-1.1983991081575744,0.0877457936488858,-0.8880984131025658
0.54,0.8877564492872687,0.4482260406234049,2.237766476624171,0.0745404730563151,0.0816587203494893,0.0216569264275702,-0.3718601376137337,-0.4246495829601368,-0.5600756681976082,0.8834425432393097,0.4536224686440075,2.241261403046891,-0.6090154486625272,-0.5299552964394575,-0.7122421067892694,1.32298851697454,-0.4387976974257745,-0.5189555668735135,-1.1350948490726764,9.069192340478368,-1.202378496239417,0.0898908905035056,-0.8749181678808323
0.56,0.8802019548902075,0.4396224291051188,2.226321698916412,0.071737193844741,0.075330735334553,0.0205876929294022,-0.3832867190058075,-0.435152245166408,-0.5832439356076345,0.8718622342749999,0.443500861812804,2.2276165609200462,-0.6490154492585736,-0.561788569611836,-0.7522421073853157,1.394311022074353,-0.5713290696036877,-0.5251331103135609,-1.1584133705013155,9.01849035066516,-1.2051865633294507,0.0914048732878212,-0.8642170488160403
0.58,0.8727923002681887,0.4312564271992397,2.215015591615657,0.0692229320130446,0.0697656451184647,0.0196406933441956,-0.3961488436201797,-0.4448869552477416,-0.6056967668990985,0.8592819252957888,0.4325834231522911,2.2129717187783005,-0.68901544985462,-0.5936218427842145,-0.7922421079813622,1.3823245485107667,-0.6431062307186097,-0.4867355040666793,-1.1226415645731955,8.99055018384388,-1.2070619874599946,0.0927956403139763,-0.8539835513824429
0.6,0.8647104283506041,0.4222554812392005,2.202645973079584,0.0666828847013863,0.0648839368966576,0.0187442979347925,-0.4114901907120327,-0.4546335100018444,-0.6301124902125271,0.8529848580871797,0.4090120794368526,2.1847307532707028,-0.4961488451102958,-0.4691195122911748,-0.6606396504502192,1.521906538757666,-0.7670673545926515,-0.4873277377051399,-1.2207861656714336,8.960534702830955,-1.2078742926951402,0.0940820643522958,-0.8450678855908855
0.62,0.8562931159489399,0.4128693015166341,2.1901204895707984,0.0587296572388972,0.0628012326649246,0.0176838492681835,-0.4294965859155693,-0.4805163582935781,-0.6191645819561078,0.8529848580871797,0.4090120794368526,2.1847307532707028,-0.4961488451102958,-0.4691195122911748,-0.6606396504502192,1.668838517584777,-0.9003197601768292,-1.294142414586685,0.5473954128209668,8.913085869038696,-1.190745618945728,0.0983127619020393,-0.8390360809413961
0.64,0.8475238327498575,0.4031025274137289,2.177847041407745,0.0452805534073981,0.0647492167052869,0.0165037035802419,-0.4460226217562808,-0.4936180470958616,-0.6088520480944901,0.8529848580871797,0.4090120794368526,2.1847307532707028,-0.4961488451102958,-0.4691195122911748,-0.6606396504502192,1.1737892322808356,-0.8263017920355747,-0.6550844401141759,0.5156266930808839,10.806829514236597,-1.1849001336477505,0.1070850992436058,-0.8445288707611905
0.66,0.8389120307870542,0.3936644154396396,2.1663182118487416,0.0316484992496572,0.068842323727045,0.0154145662967514,-0.459357641010434,-0.4988373921264404,-0.6052066301462884,0.8480233696360767,0.4043208843139408,2.1781243567662005,-0.5161488454083191,-0.4739660236998614,-0.6716282271604433,0.7388392468492976,-0.6667509627076601,-0.2609672515289374,0.1822708974100861,10.806829514236597,-1.1782362027273277,0.1173634814792622,-0.8518499167912004
0.68,0.8295989362950662,0.3836762551788249,2.154201969199951,0.0179990242682047,0.0742791978201077,0.0143161318561632,-0.4710126154249952,-0.4995172787935906,-0.6068672996002404,0.8381003927338708,0.3949384940681174,2.164911563757196,-0.5561488460043654,-0.4836590465172347,-0.6936053805808917,0.5896153354508621,-0.5827487207280574,-0.0339943333575121,-0.0830334726976023,10.393857850518543,-1.171588089439036,0.1273820894133235,-0.859136460648992
0.7000000000000001,0.820074499840695,0.3737134564528372,2.141999318686684,0.0057235522680821,0.0799715404500367,0.0132756691498193,-0.4806848660408417,-0.4967043865955662,-0.6135246569566225,0.8281774158316649,0.3855561038222939,2.151698770748192,-0.5961488466004119,-0.493352069334608,-0.71558253400134,0.6037077137655804,-0.4836125307923294,0.1406446099012193,-0.3328678678191032,10.0655383738831,-1.1658692795689114,0.1361062882773851,-0.8652200036359347
0.72,0.8108632869135423,0.3643282300868113,2.130241243754589,-0.0043882618737073,0.0850427717666559,0.0123614800834752,-0.488362103124835,-0.4915424998153282,-0.6238301338968182,0.8162544388996567,0.3756890624356017,2.1373871200681647,-0.6361488471964584,-0.5030450921519813,-0.7375596874217882,0.6924375411196712,-0.383861854199663,0.2580943390119022,-0.515273847009784,9.800843357389567,-1.1605710996080332,0.1441561523057362,-0.8705648594345101
0.74,0.8010247119392374,0.3545741646309001,2.117635910507176,-0.0133977843543604,0.0896291565448689,0.011496843860608,-0.4950355422337544,-0.4842583731315362,-0.6362272004284293,0.8043314619676484,0.3658220210489095,2.1230754693881377,-0.6761488477925048,-0.5127381149693546,-0.7595368408422366,0.7925915557132452,-0.3336719554459688,0.3642063341895984,-0.619853326580555,9.598337899583385,-1.1558742201036118,0.1509438379599885,-0.8744754514915343
0.76,0.7910597035269874,0.3449805106971143,2.1047718951330463,-0.0208262352588427,0.0933309423267583,0.0107482112034202,-0.5011063491329291,-0.4756082149989534,-0.6495924759742931,0.791408485020739,0.355712654091783,2.1082143898726,-0.7161488483885512,-0.5224311377867279,-0.7815139942626849,0.8519250591199639,-0.3035403449587331,0.4325079066291398,-0.6682637772931932,9.48739250924882,-1.1525130098212817,0.1562934410126708,-0.8769166873631993
0.78,0.7809779635672397,0.3355729212051567,2.091631515304292,-0.0267824688250701,0.0962649921882213,0.010123581829062,-0.5067589731164073,-0.4658419147577696,-0.6637758486429473,0.7774855080589285,0.3453609615642222,2.092803881521551,-0.7561488489845977,-0.5321241606041012,-0.8034911476831332,0.9062296046773484,-0.2826311991739105,0.4883150120591928,-0.7091686334327052,9.45276047650259,-1.149739358356154,0.1608359288293455,-0.8787011345002496
0.8,0.7712983703745421,0.326824623573425,2.078878931734642,-0.031222259051671,0.0984491742683464,0.0096431394239507,-0.5118634292613863,-0.4557627327012534,-0.6778882115911911,0.7556400149114193,0.3122808254672682,2.058442722872144,-0.5539208465464209,-0.4526156189364009,-0.6480876174280663,0.9038862918633304,-0.2552228072489504,0.50395910282581,-0.7056181474121903,9.422003994632178,-1.1476514343354232,0.1643777767736542,-0.8798394129817788
0.8200000000000001,0.7609657426448316,0.3177717842235619,2.0654915029076992,-0.0368804046826912,0.102632826991514,0.0090180712659203,-0.520568041475775,-0.4489798711645163,-0.6584511459390263,0.7556400149114193,0.3122808254672682,2.058442722872144,-0.5539208465464209,-0.4526156189364009,-0.6480876174280663,1.117560966565129,-0.4352306107194337,0.3391430768368536,0.9718532826082372,9.422003994632178,-1.1328326382462326,0.1677966903890998,-0.8797779218080678
0.84,0.750499957254999,0.308914202051421,2.052530046663939,-0.0436203784596557,0.1102191888758604,0.0081819669797606,-0.5250317868284685,-0.4369241868155282,-0.6388996707688919,0.7556400149114193,0.3122808254672682,2.058442722872144,-0.5539208465464209,-0.4526156189364009,-0.6480876174280663,1.1699623167270314,-0.223187267634678,0.6027842174494036,0.9775737585067223,11.643746794632534,-1.1251997557086777,0.1731968634804573,-0.8932779309071263
0.86,0.7405102346639852,0.300755443187932,2.0405370926157738,-0.0494598599142466,0.118920785703446,0.0073362006724958,-0.5259342796978174,-0.42264192103503,-0.6245164418804272,0.7501008064459551,0.3077546692779042,2.051961846697864,-0.5633532212324237,-0.4499703597721272,-0.6449499711850901,1.01448864269392,-0.0451246434674423,0.7141132890249119,0.719161444423233,11.397444684957918,-1.1175327574475014,0.178562747569813,-0.9075386182212184
0.88,0.7300109467846962,0.2924769473310579,2.028173853733726,-0.0544908321012595,0.1285554914804074,0.0064738601523024,-0.523631364879942,-0.4061138668507436,-0.6127262185627447,0.7390223895150266,0.2987023568991762,2.0390000943493023,-0.5822179706044291,-0.4446798414435797,-0.6386746786991377,1.021627815862902,0.1151457408937683,0.8264027092143189,0.5895111658841268,11.140261183853909,-1.1103217289937282,0.1830475468262487,-0.9208716892380032
0.9,0.7195949640527017,0.2845406528234961,2.0160145922209414,-0.0582081216691508,0.1376636439946621,0.0057160409497305,-0.5178857384531553,-0.3885731184330971,-0.6039147683877524,0.7279439725840983,0.2896500445204482,2.026038342000741,-0.6010827199764346,-0.4393893231150322,-0.6323993862131854,1.0226579734614722,0.2872813213393332,0.8770374208823262,0.4405725087496148,10.954584039801375,-1.104407278946729,0.1865171195185456,-0.9329779251228536
0.92,0.7093250500299649,0.2769623810693655,2.004005687732198,-0.0605459335218936,0.1453052027915288,0.0051395381763343,-0.509398690281879,-0.370512105873258,-0.5974109426286992,0.7159223181845696,0.2808622580581475,2.0133903542764773,-0.61994746934844,-0.4340988047864847,-0.626124093727233,1.0494402208467526,0.4243524085638162,0.9030506279919526,0.3251912879526586,10.806338619437156,-1.10060784997644,0.1887738453317609,-0.9425262254980664
0.94,0.6997472007607359,0.2701033809502144,1.992715915141634,-0.0614786558565597,0.1507087727861819,0.0048064564893624,-0.4993303346288034,-0.3526327311351488,-0.5913059967493786,0.7039006637850409,0.2720744715958468,2.0007423665522133,-0.6388122187204456,-0.4288082864579372,-0.6198488012412806,1.0704136942929936,0.5034177826537783,0.8939687369054594,0.3052472939660322,10.705258091114048,-1.098480240748019,0.1900081633971254,-0.9500319060369424
0.96,0.6898820317585378,0.2632568570402919,1.9809609046867631,-0.0607604181795888,0.154287217572976,0.0047259576144379,-0.4878095712757507,-0.3331454204001873,-0.5844812504226014,0.6914073906512122,0.2634189480917599,1.9882512611400984,-0.657676968092451,-0.4235177681293898,-0.6135735087553282,1.1822229383061051,0.5760381676526372,0.9743655367480758,0.3412373163388604,10.771325308380256,-1.0992954651494409,0.1897849156252442,-0.9549113832877624
0.98,0.6802523762134599,0.2568043572062195,1.9693479644084035,-0.0578650900740628,0.1557780443049928,0.0049483572106131,-0.4758688411367965,-0.3135030889682791,-0.5770933745638508,0.6784424987830832,0.2548956875458866,1.9759170380401323,-0.6765417174644565,-0.4182272498008423,-0.6072982162693759,1.2072519724943185,0.5970365069477096,0.9821165715954122,0.3693937929375279,10.771325308380256,-1.102199224226445,0.1878539556033158,-0.9576109040712242
1.0,0.6708651802033077,0.2507207024232776,1.9578914956891809,-0.0532251437355218,0.1551835342003297,0.0054295313039957,-0.4636127831787049,-0.2964173199428195,-0.5688781853483644,0.65645893415662,0.2411292027578055,1.940493295680211,-0.5029501369846893,-0.3034604858406207,-0.5597941639111418,1.1287424348691062,0.6128028979045769,0.8542884512729776,0.4107594607743181,10.847979182722156,-1.1066832754519047,0.1843201502179918,-0.9586738232342672
1.02,0.6621056309764157,0.24521142980683,1.9471686144144005,-0.0489240751833222,0.1547053008013661,0.0058844318718982,-0.4588580975263117,-0.2841461725233913,-0.5602913273631317,0.65645893415662,0.2411292027578055,1.940493295680211,-0.5029501369846893,-0.3034604858406207,-0.5597941639111418,0.7856879544401979,0.2377342826196643,0.6135573709714098,0.4293428992616366,10.847979182722156,-1.114316432779999,0.1807708415207846,-0.9567034347506104
1.04,0.6529982306790049,0.2396655434925596,1.936060727720735,-0.0448968315268395,0.1559097661187022,0.0062572268626362,-0.4519269067679788,-0.2711869645658874,-0.5509442631044079,0.65645893415662,0.2411292027578055,1.940493295680211,-0.5029501369846893,-0.3034604858406207,-0.5597941639111418,0.870847412683393,0.3465595379166436,0.6479603978751969,0.467353212936189,10.875582872797168,-1.1139538783438423,0.1777768506555992,-0.9624631172398234
1.06,0.644051414415314,0.234374501340257,1.925140553264904,-0.040996759827979,0.1576351197086858,0.0066150095760946,-0.4430675339851824,-0.2587289122008697,-0.5415485484959075,0.6514294327867731,0.2380945978993993,1.9348953540411,-0.5083663961542678,-0.301451965215089,-0.5563343217805999,0.8971775295871854,0.4429686391398207,0.6229026182508868,0.4697857304250208,10.896709239733354,-1.1143327782218315,0.1748974089120877,-0.9681454076127282
1.08,0.635297399663632,0.2293244993763846,1.9144084817287,-0.037123844037655,0.1590850325588247,0.0069990624681895,-0.4328292417124375,-0.2470580486060899,-0.5321274763551218,0.6413704300470794,0.2320253881825869,1.9236994707628767,-0.5191989144934249,-0.2974349239640257,-0.5494146375195164,0.9080036976686704,0.511914613637246,0.5835431797389864,0.4710536070392845,10.903353532720756,-1.115490887796717,0.1721773634021,-0.9728868134131722
1.1,0.6271796696546349,0.224734720237071,1.904388417829019,-0.03347792084558,0.1597397863259116,0.0074011386068974,-0.4222924243573838,-0.2367895334156512,-0.5230802829820749,0.6313114273073855,0.2259561784657745,1.9125035874846537,-0.530031432832582,-0.2934178827129624,-0.5424949532584328,0.8635951483758683,0.5268408677526815,0.5134257595219377,0.4523596686523468,10.921822152256029,-1.117870872762815,0.1693405234651474,-0.976672148873
1.12,0.618854748185817,0.2201043469170748,1.8940288745562803,-0.0297320733914215,0.1593933679938872,0.0078612204550745,-0.4108373625034281,-0.2268983384347226,-0.5133317443085229,0.6207107986507339,0.2200878208115153,1.9016536884194848,-0.5408639511717391,-0.289400841461899,-0.5355752689973492,0.9001224729147086,0.5727530926977864,0.4945597490464276,0.4874269336775982,10.921822152256029,-1.1213183577259278,0.1665783621175103,-0.9791341248853328
1.14,0.6107629010759197,0.2156628376909228,1.8838667201052777,-0.0261242156317144,0.1576843486385435,0.0083552515802604,-0.3990595545964192,-0.2178480157871236,-0.5033580861530871,0.6101101699940822,0.214219463157256,1.8908037893543168,-0.5516964695108962,-0.2853838002108357,-0.5286555847362656,0.8945654756941179,0.5888903953504471,0.4525161323799501,0.4986829077717913,10.937925404297856,-1.125585394289032,0.1640589912201343,-0.9800917104713378
1.16,0.6032927064827625,0.2116036509907619,1.8744004459446304,-0.0228394268621111,0.1545268598697008,0.0088516402263251,-0.3880136921543438,-0.2099690796500981,-0.4935724197554415,0.5992387283789516,0.2084515315342733,1.880126882395675,-0.5625289878500533,-0.2813667589597723,-0.5217359004751819,0.8364328702690178,0.5522931221037697,0.3939468068512738,0.4892833198822777,10.965789600213611,-1.1317521570637643,0.1615397188951167,-0.9790004982738064
1.18,0.5956486714527328,0.207484327237167,1.864641320737852,-0.0195576907592439,0.1494159173639886,0.0093927410363626,-0.3772328385582864,-0.2024540132742684,-0.4828084406469907,0.5880964738053421,0.2027840259425673,1.8696229675435605,-0.5733615061892104,-0.277349717708709,-0.5148162162140983,0.8493619268897016,0.5390426798028675,0.3757533187914844,0.5381989554225419,10.965789600213611,-1.1401679083568002,0.159187722048505,-0.9751145906649996
1.2,0.5881961448458219,0.2035073011355666,1.8551034485634963,-0.016486963876042,0.1428056035328776,0.0099329716622115,-0.3689144693469611,-0.1956873899105993,-0.4714693290150132,0.5767870295248185,0.1973616265734535,1.8405008987055025,-0.4162550234666765,-0.2127239680748742,-0.4448847954188432,0.7803171001011767,0.4159184605662669,0.3383311681834561,0.5669555815988714,11.005368775362513,-1.1499046423564847,0.1570221551065203,-0.9691662326988696
1.22,0.5808803404911074,0.1996889901679796,1.845840895575616,-0.0126735402102798,0.1356717466306992,0.0105123174254768,-0.3633022066201742,-0.187063741670899,-0.4550854707052539,0.5767870295248185,0.1973616265734535,1.8405008987055025,-0.4162550234666765,-0.2127239680748742,-0.4448847954188432,0.9673360519887044,0.2806131363393443,0.4311824119850177,0.8191929154879651,11.005368775362513,-1.1573934099358034,0.1542858750056901,-0.9638333302461046
1.24,0.5740161328703567,0.1961941700322416,1.837357947883324,-0.0083450163668526,0.1290073402279898,0.0110799546810491,-0.3597122375251135,-0.1814554668896737,-0.4386870196542672,0.5767870295248185,0.1973616265734535,1.8405008987055025,-0.4162550234666765,-0.2127239680748742,-0.4448847954188432,0.8849432481758722,0.1794984547530353,0.2804137390612651,0.8199225525493348,11.332770165841794,-1.1651796592540191,0.1508107810806564,-0.9599900289010002
1.26,0.5668456952748473,0.1926106697633532,1.828767914919432,-0.0038206049683952,0.1222582089544014,0.0116382308264049,-0.3577098959108369,-0.1773072670902963,-0.4211641526922651,0.5726244792901518,0.1952343868927048,1.8360520507513136,-0.4240594604483544,-0.2147779590349954,-0.4373000663732136,0.9059081080383448,0.1001170807138268,0.2074099899688694,0.8761433481001085,11.352622711365257,-1.1715433522933376,0.1472896094454718,-0.956918433711251
1.28,0.559696487051097,0.1890954305696763,1.8205292335341288,0.0003907569512078,0.1159387473613289,0.0121399428491726,-0.3574720796884283,-0.1744848028722182,-0.4035779144644056,0.5642993788208183,0.1909799075312073,1.827154354842937,-0.4396683344117105,-0.2188859409552377,-0.4221306082819547,0.89064391850082,0.0118908111204296,0.141123210903904,0.8793119113929743,11.352622711365257,-1.1769810464153674,0.1439930075961072,-0.9543169774128618
1.3,0.5525335442238594,0.1856249727438413,1.8126420068851483,0.0041682062300475,0.1102389858029255,0.0125835269781878,-0.3590087171938491,-0.1727277380548274,-0.3860260811508437,0.5559742783514847,0.1867254281697098,1.81825665893456,-0.4552772083750665,-0.22299392287548,-0.4069611501906957,0.8853182821203883,-0.0768318752710384,0.0878532408695398,0.877591665678093,11.351449922913162,-1.1813870903963544,0.1411744861688733,-0.9522133581307364
1.32,0.5456824622876106,0.1823515488079062,1.8054732326851997,0.0072986882034483,0.1057078525789723,0.0129563091507038,-0.3621936994407111,-0.171896355029102,-0.3694625958560582,0.5468687341839834,0.1822655497122002,1.810117435930746,-0.4708860823384225,-0.2271019047957223,-0.3917916920994366,0.8443701125082361,-0.1592491123431016,0.0415691512862678,0.8281742647392787,11.348767246952775,-1.184780720203001,0.1385856676170291,-0.951197100520482
1.34,0.5383895465892682,0.1789160941836437,1.7982679131805357,0.0101260547689454,0.1022488646216187,0.0133109880123435,-0.3670441391156805,-0.1716812199590218,-0.3519423943571641,0.5377631900164821,0.1778056712546906,1.8019782129269324,-0.4864949563017786,-0.2312098867159646,-0.3766222340081777,0.9090249016126352,-0.2425219837484671,0.0107567535040112,0.8760100749447025,11.344957960316606,-1.1862884214050706,0.1364631128750592,-0.9517661720476032
1.36,0.5309843758183347,0.1754775720245379,1.791411388993036,0.0124591434285892,0.10058187739846,0.0136410566163541,-0.3731533368515235,-0.1721342131348385,-0.3346082406706558,0.5282674239998968,0.173243093249175,1.7942182263753998,-0.5021038302651346,-0.2353178686362069,-0.3614527759169186,0.9192393374693744,-0.3054598867921504,-0.0226496587908325,0.8667076843254129,11.34935076401598,-1.185306356215807,0.134573159417902,-0.9550216692773128
1.38,0.5238393063629536,0.1721975544345005,1.785215323512832,0.0141939478041763,0.1006478068699708,0.0139391356716806,-0.3784665251927894,-0.1730111814713028,-0.3184916896307316,0.5183814361342277,0.1685778156956532,1.786837476276149,-0.5177127042284906,-0.2394258505564492,-0.3462833178256597,0.8496208878602981,-0.2656594170632936,-0.0438484168232153,0.8058275519962133,11.34935076401598,-1.181815095365249,0.133069939483683,-0.9612523034989086
1.4,0.5162205613036317,0.1687232563161929,1.779020617497196,0.0155203128175587,0.1019049876400238,0.0142358988396809,-0.3829798417862577,-0.174355095717041,-0.3018538381595942,0.5049159801033142,0.1635469953609354,1.7692907390312955,-0.3950987598704618,-0.1771085104582754,-0.2978439123862829,0.8645724864758351,-0.2256658296734159,-0.0671957122869118,0.8318925735568694,11.328777293679195,-1.1775071887745547,0.1320162945900743,-0.968521284551281
1.42,0.5084590076229594,0.1651773848905904,1.7730908179630909,0.0149203076955572,0.1057075837247134,0.0144399493522316,-0.3925809184365601,-0.1797893976208563,-0.2923167142415429,0.5049159801033142,0.1635469953609354,1.7692907390312955,-0.3950987598704618,-0.1771085104582754,-0.2978439123862829,0.7291588349856634,-0.4800538325151204,-0.2717150951907665,0.4768561959025669,11.313726065066476,-1.178114077955571,0.1329422823208551,-0.9710570178823636
1.44,0.5005398866497194,0.1615377201922083,1.7673354511438195,0.0115526349153059,0.1127913964435389,0.0144918175239683,-0.3983151220279638,-0.1833021820075002,-0.2836763311820478,0.5049159801033142,0.1635469953609354,1.7692907390312955,-0.3950987598704618,-0.1771085104582754,-0.2978439123862829,0.5474416964150732,-0.2867101795701848,-0.1756392193321951,0.4320191529747524,10.874340593388297,-1.166295881611852,0.1358250551477912,-0.9835352675448852
1.46,0.492951742846748,0.1580540846978855,1.762025066588569,0.0072726022152469,0.1209122216740697,0.0144582996656055,-0.3998443693132498,-0.1830092335619239,-0.2757728849702223,0.5009649925046096,0.1617759102563526,1.7663122999074328,-0.3984252068059962,-0.1779279762556699,-0.2937143569373932,0.4027681655572436,-0.0764623642643014,0.0146474222788198,0.3951723105912741,10.85123091213154,-1.1551205487186889,0.1400322129865787,-0.9968831781001236
1.48,0.4849717196407287,0.1544199452516652,1.7565938223414694,0.0029072763881703,0.1296628453187445,0.0144030475787067,-0.3978057221687845,-0.1803901586075589,-0.2678082791972039,0.4930630173072003,0.1582337400471871,1.760355421659707,-0.4050781006770652,-0.1795669078504589,-0.2854552460396137,0.4314237502613219,0.1019323572232666,0.1309537477182501,0.398230288650922,10.833521096576987,-1.1452814546627474,0.1443003554892623,-1.0095676612540498
1.5,0.4770668039010366,0.150854502249099,1.7513172138524034,-0.0008358596805485,0.1376770839635274,0.0143617438683549,-0.3926297708367263,-0.1763449130057946,-0.2602897902095272,0.4851610421097911,0.1546915698380216,1.754398543411981,-0.4117309945481341,-0.1812058394452479,-0.2771961351418343,0.4992047696793458,0.2587975666029085,0.2022622800882112,0.3759244493838354,10.82698691089081,-1.1375248034654766,0.1481405441525604,-1.020720767254771
1.52,0.469293290316284,0.1473808044155298,1.74618764959359,-0.0037782589212624,0.1442710715053873,0.0143598993188745,-0.38499904682294,-0.1713958912316657,-0.2530638809678101,0.4769264222188284,0.1510674530491167,1.7488546207091449,-0.4183838884192031,-0.182844771040037,-0.2689370242440548,0.5808066155462365,0.3815362006893141,0.2474510887064449,0.361295462085856,10.820594932942186,-1.1324158616073392,0.1511905537562162,-1.0293777810227462
1.54,0.4620658497455152,0.1441778001307208,1.7414451789247407,-0.0058484293969167,0.148904296627639,0.0144075275868079,-0.3762556232340555,-0.1661757652673263,-0.2465132134793854,0.4686918023278657,0.1474433362602117,1.743310698006308,-0.4250367822902721,-0.184483702634826,-0.2606779133462753,0.6054098109589426,0.4371711794442262,0.2610062982169717,0.3275333744212336,10.82142416988154,-1.129802223118072,0.1537809181782288,-1.0362776485679122
1.56,0.4546447583415513,0.1409161528032621,1.736586783411825,-0.0073262569537577,0.1520143926106556,0.0145163226713195,-0.3663917733029511,-0.1603311585922791,-0.2396704505109055,0.4602908600901263,0.143778246181437,1.7379732530759158,-0.431689676161341,-0.186122634229615,-0.2524188024484959,0.6676046129487031,0.4931924965552225,0.2922303337523579,0.3421381484239955,10.82142416988154,-1.130019309443329,0.1557677578194345,-1.041040398610381
1.58,0.4474245549041801,0.137777856785174,1.731866003188535,-0.007961485165096,0.1534049455921004,0.0146999188381715,-0.3563014969078769,-0.153912161042115,-0.2327432125655547,0.4517235955056102,0.1400721828127926,1.7328422859179682,-0.43834257003241,-0.187761565824404,-0.2441596915507164,0.6910206813647348,0.5045138197537102,0.3209498775082087,0.3463618972675386,10.830541494513454,-1.1320552095223904,0.1569504619658252,-1.0441331550349366
1.6,0.4407507486786276,0.1349190760117019,1.7275117483205082,-0.0076087889028559,0.1533054829918496,0.0149562545968366,-0.3468372741615738,-0.1474598306777901,-0.2259379028153346,0.4296094800587862,0.1300822487330682,1.7202288425602572,-0.353953341426136,-0.139831257549247,-0.2171408483607307,0.6661762531764185,0.4732111373151521,0.3226165182162413,0.3402654875110045,10.842661364577909,-1.1354942626418625,0.1572495589022916,-1.0461945322419182
1.62,0.4338730378062843,0.1319803220727569,1.7230434385883682,-0.0080501702827886,0.1530450044288143,0.0151741782044292,-0.3414885027572496,-0.1463673115732695,-0.2214054954127092,0.4296094800587862,0.1300822487330682,1.7202288425602572,-0.353953341426136,-0.139831257549247,-0.2171408483607307,0.3547734149877666,0.2674385702162107,0.0546259552260341,0.226620370131271,10.860092045065358,-1.142577197944276,0.1583400468641991,-1.0430810771878316
1.64,0.4271045719163441,0.1290804604781953,1.7186640378354476,-0.0104460759819352,0.1537312910777948,0.0152543260554416,-0.3355091505289733,-0.1433293352422655,-0.2167317724706705,0.4296094800587862,0.1300822487330682,1.7202288425602572,-0.353953341426136,-0.139831257549247,-0.2171408483607307,0.4087347532216729,0.2989676114138168,0.1518988165502,0.2336861471019358,10.675689289907496,-1.142745535960532,0.161102618156851,-1.0456029548923929
1.66,0.4204661067546702,0.1262716223107869,1.714382695046943,-0.0134743829723222,0.1548116304650669,0.015292882474652,-0.3285968765293774,-0.1376046393793384,-0.2116497274683328,0.4260699466445248,0.1286839361575757,1.71805743407665,-0.3534837103297878,-0.1370150768506734,-0.2140203755197659,0.5157006301486553,0.3456136999797937,0.2862347931463518,0.2541022501168818,10.706834138248269,-1.1433793993448595,0.1643813823099505,-1.048314484260774
1.68,0.4142951222094581,0.1237262619725356,1.7104123331271155,-0.0160968153075383,0.1558525873312939,0.0153529144272058,-0.3213247797141755,-0.130694135351072,-0.2065428918606039,0.4189908798160021,0.1258873110065908,1.7137146171094353,-0.3525444481370915,-0.1313827154535262,-0.2077794298378363,0.562845955699077,0.3636048407600928,0.34552520141332,0.2553417803864449,10.73409285265825,-1.144648803863253,0.1676545426188804,-1.0511567014833176
1.7,0.4079540212007512,0.121196954923844,1.7063407672814728,-0.0183214907344854,0.1567214484481064,0.0154634729633818,-0.3131710729670162,-0.1226750575889815,-0.2008689846727729,0.4119118129874794,0.1230906858556059,1.709371800142221,-0.3516051859443952,-0.1257503540563791,-0.2015384841559067,0.6383215581688564,0.4076853373579686,0.400953888104523,0.2836953593915517,10.75738297326916,-1.146568794001435,0.1704521789759839,-1.0538089543439553
1.72,0.4017801927501643,0.1188352489675432,1.7023859284412426,-0.0198807064962307,0.157192346889904,0.0156345267970845,-0.3046760013801756,-0.1140353658661701,-0.1948987859891334,0.4048797092685915,0.1205756787744783,1.7053410304591026,-0.3506659237516988,-0.1201179926592319,-0.1952975384739771,0.6753772772548959,0.4247535793420298,0.4319845861405741,0.2985099341819758,10.781572577944644,-1.149025897061298,0.1725600516364488,-1.0561720642705883
1.74,0.3960734066705775,0.1167571353577241,1.6987408151521772,-0.0206317185331391,0.1572000519260743,0.0158627802597472,-0.2965301548094907,-0.1052526334034859,-0.1890931988993686,0.3978476055497036,0.1180606716933507,1.7013102607759845,-0.3497266615590025,-0.1144856312620847,-0.1890565927920476,0.6655750283046024,0.407292328534245,0.4391366231342106,0.2902793544882362,10.802650536226793,-1.1523613960933383,0.1740900524586206,-1.05841653482359
1.76,0.3902317439074482,0.1147545204577021,1.6950249428485165,-0.020430658766265,0.1567506337413246,0.0161866993366163,-0.2881286817094379,-0.0955601824061457,-0.1827858138505401,0.3908389833856331,0.1156864736471518,1.6974355147349145,-0.3487873993663062,-0.1088532698649375,-0.182815647110118,0.7146878037663285,0.4200736550026368,0.4846225498670052,0.3153692524414289,10.814587686620143,-1.1562620594429232,0.1746614668451017,-1.060424173450101
1.78,0.3845551724121978,0.1129479780724714,1.691437399749322,-0.0189864789419104,0.1558841888839225,0.0166079439712058,-0.2800193725738752,-0.0857074210035217,-0.1762693208059395,0.38385384277638,0.1134530846358816,1.693716792335893,-0.3478481371736099,-0.1032209084677903,-0.1765747014281884,0.716419017603328,0.4054654567781368,0.4926380701312037,0.3258246522300265,10.829711600215887,-1.1605415601197089,0.1740369711479909,-1.0623213027721754
1.8,0.3790369440707299,0.1113339487718793,1.687982604506172,-0.0162191726960648,0.154665013792722,0.017125422362374,-0.2722688626017657,-0.0765192202464496,-0.1695175266762032,0.370554203783504,0.1086626070222954,1.682623933709025,-0.2720122978676188,-0.0951556019099963,-0.1548114717355097,0.6893478112505519,0.387525498605476,0.4594100378536025,0.3375897064868169,10.85531916938544,-1.164686511190645,0.1722276912551447,-1.0640299298247868
1.82,0.3739173036075107,0.1100081289949817,1.684815585627385,-0.011060278147271,0.1536705934582583,0.0177826755303969,-0.26693987556647,-0.0650154605494526,-0.1641623474003266,0.370554203783504,0.1086626070222954,1.682623933709025,-0.2720122978676188,-0.0951556019099963,-0.1548114717355097,0.688136133089559,0.2664493517647831,0.5751879848498502,0.2677589637938321,10.85531916938544,-1.17064012170956,0.1679535777636749,-1.0672325403475655
1.84,0.368640278987651,0.1087785551175793,1.6815980806235205,-0.0039194514283495,0.1531411055217744,0.0185725746341456,-0.2610039533187074,-0.0589068558564204,-0.1578378030806441,0.370554203783504,0.1086626070222954,1.682623933709025,-0.2720122978676188,-0.0951556019099963,-0.1548114717355097,0.5304481244166253,0.2967961123881285,0.3054302346516119,0.3162272159841245,10.78604024260585,-1.1727515513740665,0.1615842258453059,-1.0703690901991258
1.86,0.3634861206813657,0.1076319671383036,1.6785137759830255,0.0031496009333719,0.1529096665160681,0.0193402496686296,-0.2546914124849743,-0.0561587782421925,-0.1508939920275551,0.3678340808048278,0.1077110510031954,1.68107581899167,-0.2704108829263675,-0.0970452380912912,-0.1505199019214238,0.4889187414396426,0.3156270416866585,0.1374038807113939,0.3471905526544486,10.865196834470224,-1.174145348404432,0.1552003186602463,-1.0738396315195622
1.88,0.3584619549786678,0.1065157579473164,1.6755736236969203,0.0094491216765524,0.1527870046638094,0.0200398153931684,-0.2480518004651317,-0.0555252403171518,-0.1434818774067988,0.3623938348474754,0.1058079389649955,1.6779795895569596,-0.2672080530438649,-0.100824510453881,-0.1419367622932519,0.498561082586007,0.331980600992128,0.0316768962520364,0.3706057310378166,10.865196834470224,-1.17521553404059,0.1497731601042634,-1.0771706158026448
1.9,0.3538143078086697,0.1054527406493562,1.6729208875469082,0.0145444237802514,0.1526421293072224,0.0206292565403094,-0.241530470041707,-0.0562793043248383,-0.1361318866585186,0.3569535888901231,0.1039048269267955,1.6748833601222497,-0.2640052231613624,-0.1046037828164709,-0.1333536226650799,0.4927441704854969,0.3260665211712324,-0.0377032003843275,0.367499537414008,10.895387985608975,-1.1763293402785353,0.1449188940964251,-1.080495935388065
1.92,0.349056947344059,0.1043089006191011,1.6702823785637575,0.0189908070619477,0.1523777001977191,0.0211710998885536,-0.2345715112881826,-0.0579961941777983,-0.1280951736586476,0.3516734844268958,0.1018127512704661,1.672216287668948,-0.2608023932788599,-0.1083830551790607,-0.124770483036908,0.5384319212833398,0.3479479376762226,-0.085844492648,0.401835649993551,10.919802676570724,-1.1775166554400605,0.1409506256192881,-1.0835611278603887
1.94,0.3444392710447764,0.1031213490860253,1.6678065672327116,0.0225312361432594,0.1519449683235545,0.0216336338801963,-0.2275924191544369,-0.0605167780192322,-0.1198922556382171,0.3463933799636686,0.0997206756141367,1.6695492152156464,-0.2575995633963573,-0.1121623275416505,-0.1161873434087361,0.5530572618701265,0.3489546066872864,-0.1260291920716943,0.4101459010215253,10.94372252462199,-1.1788030208574956,0.1379818331258452,-1.0862451222522838
1.96,0.340181106386422,0.1019405478506529,1.6656074438903083,0.0251257225754966,0.1513549092547771,0.0220039754881593,-0.2210332425583391,-0.0634955146749817,-0.11200504486473,0.3411933462475039,0.0975341181487425,1.667096721253049,-0.2543967335138548,-0.1159415999042404,-0.1076042037805642,0.5340968158220764,0.3279588298048877,-0.1489368327874756,0.3943605386743521,10.966146552837928,-1.180266924626573,0.1356158325813593,-1.0887122314349815
1.98,0.3358315747016409,0.1006337201877694,1.6634560339509716,0.027149599477734,0.1505527010640324,0.0223287812201935,-0.2143106788450494,-0.0669319857871384,-0.1035425821400038,0.3360733832784017,0.0952530788742836,1.664858805781156,-0.2511939036313522,-0.1197208722668302,-0.0990210641523922,0.5670438077241213,0.3361281856644874,-0.1718235556078327,0.4231231362363113,10.966146552837928,-1.181735847985097,0.1339367804343716,-1.09085311138646
2.0,0.3316140964778516,0.0992537154210856,1.6614749584032404,0.0284870294702946,0.1495915082132138,0.0225910846435052,-0.2078203357373961,-0.0708521602955059,-0.0949846106833584,0.3251160407593884,0.0972871208984124,1.6582789048439714,-0.2272800283560171,-0.082470114811346,-0.0941178537986032,0.5716887205548868,0.3245171553826642,-0.1960087254183756,0.4278985728322672,10.979353391644509,-1.183251715689387,0.1329117247235098,-1.0926242478541237
2.02,0.3277513956716791,0.0978603995552596,1.6596867575458798,0.0287506213586516,0.1474306826745843,0.0227264327522619,-0.1992358129466473,-0.0754303142349252,-0.0936518072582545,0.3251160407593884,0.0972871208984124,1.6582789048439714,-0.2272800283560171,-0.082470114811346,-0.0941178537986032,0.4909936099580995,0.4292261395374391,-0.2289076969709647,0.0666401712551986,10.987325982470791,-1.185618609992865,0.1328958751529382,-1.0933949112591836
2.04,0.3238583611230511,0.0963053886796137,1.6578321347749227,0.0278652149005157,0.1425066408525105,0.0227086774654179,-0.1908263232723966,-0.0797621662919219,-0.0917871198225071,0.3251160407593884,0.0972871208984124,1.6582789048439714,-0.2272800283560171,-0.082470114811346,-0.0941178537986032,0.4820827679404985,0.4204744837125324,-0.2165926028498362,0.0932343717873672,10.55299091977122,-1.1933503215502037,0.1341814389596851,-1.0871264350650145
2.06,0.3201020505310539,0.0946683434169939,1.65602669021021,0.0259837170939467,0.1355224258798258,0.0225709094743475,-0.1856327062084685,-0.0836513814922295,-0.0887763457601521,0.3228432404758282,0.096462419750299,1.6573377263059854,-0.2298738982582106,-0.0855777406161875,-0.092232908130323,0.3576465207980457,0.2596808531964076,-0.1944607600153775,0.1505387031177515,10.596136814510828,-1.2034007114404646,0.1364482505646414,-1.0784914800718564
2.08,0.3164112334478413,0.0929645273466354,1.6542921466599436,0.0233987556997657,0.1277996710835733,0.0223829646064454,-0.183966048234423,-0.0863035585957405,-0.0848037264260589,0.3182976399087078,0.0948130174540721,1.6554553692300134,-0.2350616380625977,-0.0917929922258705,-0.0884630167937628,0.2529500769146393,0.0833328987022749,-0.1326088551755526,0.1986309667046597,10.643415780235957,-1.212259191507774,0.1391433607121671,-1.0704917802546063
2.1,0.3129052763501302,0.0913138488634645,1.652724026316091,0.0209703739507947,0.1207203151050315,0.0222333257252826,-0.185276074458326,-0.0873511063155477,-0.0804529473914673,0.3137520393415875,0.0931636151578451,1.6535730121540413,-0.2402493778669848,-0.0980082438355536,-0.0846931254572025,0.2331458939185332,-0.0655013111951485,-0.0523773859903611,0.217538951729581,10.679445096265226,-1.2202014342157828,0.1418847863429444,-1.0631008138775369
2.12,0.3091622573850814,0.0895634180553777,1.6511664782449722,0.0188074929666241,0.1142288748300557,0.0221418483520346,-0.1891013285675911,-0.0876902808515583,-0.0755163786494204,0.3089470517842478,0.0912034502811341,1.6518791496448972,-0.2454371176713719,-0.1042234954452366,-0.0809232341206423,0.3127192003670472,-0.1912627054632576,-0.0169587268005304,0.2468284371023435,10.70417337215531,-1.2262183982820742,0.1441733101343342,-1.0571224985867584
2.14,0.3053168288204195,0.0878114326178769,1.6497072184597357,0.0171550340270865,0.1093768171613331,0.0221289989702345,-0.1953979889084302,-0.087551975023637,-0.0706668425255469,0.3041420642269081,0.089243285404423,1.6501852871357532,-0.250624857475759,-0.1104387470549196,-0.077153342784082,0.3974451552311553,-0.314833017041953,0.0069152913960673,0.2424768061936769,10.721795228697374,-1.2305062976429204,0.1459727280285974,-1.0531517943773063
2.16,0.3013196444923155,0.086065789179042,1.6483424626590533,0.0160631084582817,0.1070435914335942,0.02220343613499,-0.2039387384793737,-0.0870729461729276,-0.0660578764661916,0.2992073831744588,0.0871277392374698,1.6485856719100231,-0.2558125972801461,-0.1166539986646027,-0.0733834514475218,0.4858406117485267,-0.4270374785471764,0.0239514425354692,0.2304483029677645,10.718164035754851,-1.231019013821413,0.1471029806984581,-1.0522871927892234
2.18,0.2973640695856593,0.084419513488775,1.6471285427145126,0.0156128577734821,0.1074290321331242,0.0223564907077946,-0.211671062463784,-0.0862902534922187,-0.0619649255185821,0.2941430086268997,0.0848568117802746,1.647080303967707,-0.2610003370845332,-0.1228692502742857,-0.0696135601109615,0.4391858646742266,-0.386616199220513,0.0391346340354453,0.2046475473804765,10.68656243731948,-1.2262265451704548,0.1475267709693385,-1.0551364552874634
2.2,0.2930597158965478,0.0827042240908435,1.645931964535399,0.0158313549265284,0.1098318576879774,0.0225942561466775,-0.2181003944168931,-0.0853186841429034,-0.0579305703677112,0.2867805164624701,0.080105000814164,1.6440302964385836,-0.2202543119880197,-0.0845962821535368,-0.0501174844338991,0.38261036919808,-0.3214665976554551,0.0485784674657631,0.2017177575435406,10.68656243731948,-1.2201960105031278,0.1473365540680004,-1.060465620054496
2.22,0.2886408406491845,0.080943596113123,1.6448146678622255,0.0147325128309598,0.1137535358457901,0.0227605155724138,-0.2232115978880693,-0.0903161967709242,-0.0540044863887401,0.2867805164624701,0.080105000814164,1.6440302964385836,-0.2202543119880197,-0.0845962821535368,-0.0501174844338991,0.4077795630022571,-0.2555601735588136,-0.2498756314010371,0.1963041989485551,10.674471880701276,-1.2128850956498751,0.1484160244401397,-1.0652491942013924
2.24,0.2841439387177064,0.079112071284394,1.6437745475373258,0.0113111272548161,0.1186432629389662,0.0227683511369165,-0.2260132138145703,-0.0919807247643919,-0.0502162845785439,0.2867805164624701,0.080105000814164,1.6440302964385836,-0.2202543119880197,-0.0845962821535368,-0.0501174844338991,0.2498508464836357,-0.1400807963250483,-0.0832263996733875,0.189410090509812,10.674471880701276,-1.2054240016353883,0.1516529881549086,-1.0725567046690965
2.26,0.2798408201050103,0.0773759744862483,1.642854521669429,0.0076748649500162,0.1234690691396253,0.0227357039216183,-0.2266899912023787,-0.0906426593629039,-0.0468358653475042,0.2845779733425899,0.0792590379926286,1.6435291215942445,-0.2219709618928668,-0.0842574878858005,-0.0477479962169625,0.1849032235311987,-0.0338388693904193,0.0669032700744018,0.1690209615519869,10.664142927163084,-1.1987939914396375,0.1556229657802566,-1.0800142293593942
2.28,0.2753158168754247,0.0755939192455785,1.6419534823602675,0.0042226834578403,0.1282097313241051,0.022709749204831,-0.2256688765446834,-0.0876627838199563,-0.0434661856518621,0.2801728871028295,0.0775671123495579,1.6425267719055665,-0.2254042617025611,-0.0835798993503277,-0.0430090197830893,0.230635397580467,0.0510557328847652,0.1489937771473812,0.1684839847821036,10.656469685398406,-1.1934460782516318,0.159321017624889,-1.0867986819837023
2.3000000000000003,0.2708267719894893,0.0738825409269218,1.641117923296361,0.0014273057555038,0.1322393749182364,0.0227151809271582,-0.2232370537563127,-0.0837126228821937,-0.0402740907818938,0.2757678008630691,0.0758751867064872,1.6415244222168883,-0.2288375615122554,-0.082902310814855,-0.0382700433492162,0.2815448595123965,0.1215911394185365,0.1975080468881285,0.1596047434984121,10.65522386230714,-1.1895793923956726,0.1624445911915905,-1.0926535788675973
2.32,0.2663980326982701,0.0722571187137256,1.640345141311517,-0.0006343416238854,0.1353263337497196,0.022763784557919,-0.2197954498395655,-0.0791979340507562,-0.0371727631320082,0.271191049632824,0.0742171404901901,1.640759021349904,-0.2322708613219497,-0.0822247222793822,-0.033531066915343,0.3234396619016503,0.1720801958373596,0.2257344415718766,0.1550663824942816,10.65522386230714,-1.1873638691797983,0.1647817633027149,-1.097148880104806
2.34,0.2622602538984427,0.0708006042855225,1.6396684792808878,-0.0019351091045346,0.1373298749757114,0.0228536194315827,-0.2159928261350257,-0.0744541291818249,-0.0342137691342615,0.2666142984025789,0.072559094273893,1.63999362048292,-0.235704161131644,-0.0815471337439095,-0.0287920904814698,0.3380801574757279,0.1901311852269896,0.2371902434465646,0.1479496998873352,10.659293788011382,-1.1864988470093594,0.1665965869010151,-1.100829708923679
2.36,0.2579839988429342,0.0693687110438657,1.6390177996462294,-0.0025161913540371,0.1385315686687296,0.0230039426713764,-0.2118828325970294,-0.0690411522172853,-0.0310058805752628,0.2619517146770914,0.0709179877709827,1.6393466940267825,-0.2391374609413383,-0.0808695452084367,-0.0240531140475966,0.3757755829879141,0.2054996768998132,0.2706488482269814,0.1603944279499369,10.678369225592178,-1.1870012011094977,0.1676367633980571,-1.1037693887954183
2.38,0.2537890718045918,0.0680486871525017,1.6384324014280651,-0.0021170564812777,0.1389473172001761,0.0232237169289606,-0.2078765592274371,-0.0633162115827676,-0.027689724134269,0.2572032984563616,0.0692938209814592,1.6388182419814916,-0.2425707607510326,-0.080191956672964,-0.0193141376137235,0.3867236258680095,0.2003136684796153,0.2862470317258829,0.165807822049686,10.678369225592178,-1.18853851200466,0.1677456628539331,-1.106318191586953
2.4,0.2496716470243242,0.066843092025813,1.6379148886785324,-0.0006033063603661,0.1387377899666467,0.0235197766982962,-0.2041446767988147,-0.0576721565124016,-0.0242269303964872,0.2433952438432199,0.0648828765733633,1.6370479152213515,-0.1929440245700184,-0.0622944914630156,-0.0334997734967497,0.380043565163278,0.1865941214311203,0.2822027535182996,0.173139686889092,10.688251803604544,-1.190783500346876,0.1667578330078462,-1.1085896196406513
2.42,0.2457720162541807,0.0657960669888671,1.6374288848557403,0.0018466788563231,0.1395069191394934,0.0238676414436496,-0.2061325480967806,-0.0530674283362461,-0.0271188009592747,0.2433952438432199,0.0648828765733633,1.6370479152213515,-0.1929440245700184,-0.0622944914630156,-0.0334997734967497,0.2894739592151346,-0.0993935648982938,0.2302364088077771,-0.1445935281393747,10.698671847668264,-1.1980459076990195,0.1650532855497626,-1.1103577644321254
2.44,0.2416411572657101,0.0647672749963583,1.6368539583151889,0.0048847346296775,0.1423240285445647,0.0242686240801648,-0.2065663683454406,-0.0501715101062336,-0.0301982417607728,0.2433952438432199,0.0648828765733633,1.6370479152213515,-0.1929440245700184,-0.0622944914630156,-0.0334997734967497,0.2124705747450542,-0.0216910124330033,0.1447959115006249,-0.1539720400749049,10.305549844624691,-1.1939511136266752,0.1620970720880958,-1.1130109233345664
2.46,0.237524572056607,0.0637816777787106,1.6362219680527492,0.007741665741771,0.1463593221015766,0.0246663819796996,-0.2048482495032645,-0.0485071197054851,-0.032867008510578,0.2414658035975197,0.0642599316587331,1.636712917486384,-0.1899575176385346,-0.0620901474390652,-0.0346617833692458,0.1791957290702676,0.0859059421088048,0.0832195200374228,-0.1334383374902595,10.324828169180364,-1.1893760275534828,0.159490825341159,-1.1168639248834435
2.48,0.233666049415015,0.0628689260823517,1.6355749079751354,0.0100852403243181,0.1506356672203458,0.0250262989963661,-0.2012718542204762,-0.0475917676066381,-0.0351269439714848,0.2376069231061194,0.0630140418294728,1.6360429220164492,-0.1839845037755672,-0.0616814593911644,-0.0369858031142381,0.2164242417745671,0.1788197641394165,0.0457676049423504,-0.1129967730453426,10.35028003978914,-1.1848432439814942,0.1571913280506482,-1.1214424328617156
2.5,0.2296963081813469,0.0619229087073198,1.634849405082042,0.0121326307570917,0.155055074480272,0.0253786465207024,-0.1957760356542595,-0.04701834388783,-0.0373039408455958,0.233748042614719,0.0617681520002125,1.6353729265465142,-0.1780114899125996,-0.0612727713432636,-0.0393098228592303,0.2969518137002729,0.2747909283108349,0.0286711859404063,-0.1088498437055461,10.39308449053442,-1.1812323239798272,0.1553886644517294,-1.1258858219695047
2.52,0.2258528063218213,0.0609846941286724,1.634082677659301,0.0137598491528075,0.1589879169398368,0.0256971613567349,-0.1887880330145001,-0.0468064306948554,-0.0392562243832671,0.230187812816467,0.0605426965733472,1.6345867300893295,-0.1720384760496321,-0.0608640832953628,-0.0416338426042226,0.3629342196118462,0.3494001319879716,0.010595659648728,-0.0976141768835658,10.39308449053442,-1.1787728058641,0.1540548857610919,-1.129701615296214
2.54,0.2221615792345533,0.0600462789708087,1.633277107138646,0.0149062955489445,0.1621480882682195,0.0259703038005306,-0.1807112371705461,-0.0470067323880775,-0.0412090583704831,0.226627583018215,0.0593172411464819,1.6338005336321448,-0.1660654621866647,-0.060455395247462,-0.0439578623492148,0.4155968974103552,0.4038397921976966,-0.0100150846611062,-0.097641699360803,10.414279665792492,-1.177811416465399,0.1532829182706173,-1.132423369682768
2.56,0.2188119400819626,0.0591479097594787,1.6324759355598064,0.0154596956113969,0.1643053537250584,0.0261767285715144,-0.1723465236034005,-0.0475067026524775,-0.0430256641252684,0.2232166785665372,0.0581020029208142,1.6329562366813355,-0.1600924483236972,-0.0600467071995612,-0.0462818820942071,0.4287145314600186,0.4182356783572816,-0.0249985132200009,-0.0908302877392627,10.419678582339657,-1.1781126353516904,0.1530663535120427,-1.1341829168228474
2.58,0.215623930835293,0.0582390109098618,1.6316410911114774,0.0154258920960671,0.1656192054278984,0.0263251151619681,-0.1637169495299281,-0.0481122033750353,-0.0447479000717104,0.2199550994614336,0.056896981896344,1.6320538392369013,-0.1541194344607297,-0.0596380191516604,-0.0486059018391994,0.4410279936403735,0.4314787036736184,-0.0302750361278879,-0.0861117973220984,10.42738076896785,-1.1794551854604474,0.1534561267381577,-1.1348061203644568
2.6,0.2126007716023394,0.0573192259640329,1.6307750796663736,0.0147816387294068,0.1661301165029117,0.0264146853707329,-0.1550566173616172,-0.0486264173161562,-0.0463125920538334,0.2074380833587966,0.05583340074111,1.629403696107892,-0.1526900827959003,-0.02264019382053,-0.0350072009890974,0.4407778075222385,0.433016608415547,-0.0257106970560461,-0.0782345991061535,10.435866858327245,-1.182116711897844,0.1545688634824868,-1.134555885776998
2.62,0.2096296183602768,0.0562637757180917,1.6298669056557211,0.0109053306838681,0.1650817996055286,0.0262636283179807,-0.1425130063938207,-0.0554772234788224,-0.0441967307012059,0.2074380833587966,0.05583340074111,1.629403696107892,-0.1526900827959003,-0.02264019382053,-0.0350072009890974,0.7224136461428987,0.6271805483898232,-0.3425403081333065,0.1057930676313784,10.698322338516846,-1.180539540708354,0.1585218533409647,-1.1312956805379624
2.64,0.2069073762805278,0.0551479956928453,1.6290132338007848,0.0041466575924363,0.1614719672125966,0.0259068377772825,-0.130543016601527,-0.0552596707060319,-0.0412603686856389,0.2074380833587966,0.05583340074111,1.629403696107892,-0.1526900827959003,-0.02264019382053,-0.0350072009890974,0.6163404228245746,0.5984994896146886,0.0108776386395205,0.1468181007783463,10.698322338516846,-1.1883372657204363,0.1660561970516429,-1.1281979837702367
