t,x,y,z,roll,pitch,yaw,v_x,v_y,v_z,ref_x,ref_y,ref_z,ref_v_x,ref_v_y,ref_v_z,a_com,a_x,a_y,a_z,thrust,wind_x,wind_y,wind_z
0.0,2.298063873796774,1.7044839170768715,2.3555219470456548,0.0206245261359004,0.1363851647916006,0.0263636740727441,0.0007484852553717,-0.0070678779087875,-0.0021112847379216,2.298080567791198,1.704364577982132,2.355456385292197,-0.0993930347329348,-0.1048058704563744,-0.1021675634470879,0.3707177213042841,0.037424262768586,-0.3533938954393764,-0.1055642368960805,10.546568973841204,-1.2834688269234944,0.1546553379545979,-1.1600510396747488
0.02,2.298197559071838,1.7046159544349686,2.355240466760334,0.0271777924230927,0.1313538492540893,0.026685814013782,0.0121796426007433,0.0155852733763376,-0.0274391109318724,2.298080567791198,1.704364577982132,2.355456385292197,-0.0993930347329348,-0.1048058704563744,-0.1021675634470879,1.7925787298696223,0.5715578672685814,1.1326575642562575,-1.266391309697544,10.546568973841204,-1.2966946179892649,0.1484584876547206,-1.1667102687454225
0.04,2.2985195343779017,1.704962897006184,2.354362364008607,0.0414583237888704,0.1169121630647428,0.0271248820809651,0.0181207607778538,0.0170761954657752,-0.0590226693305992,2.298080567791198,1.704364577982132,2.355456385292197,-0.0993930347329348,-0.1048058704563744,-0.1021675634470879,1.6086025728850426,0.2970559088555247,0.0745461044718793,-1.5791779199363398,9.059105303509114,-1.326526407299903,0.1344205880035826,-1.1341825607119738
0.06,2.2988520043646465,1.705250291580119,2.352859452969582,0.0563397487966077,0.0968481726697664,0.0270609815793178,0.0138777026433065,0.0112174356959672,-0.0895599179039884,2.297086637443869,1.7033165192775683,2.3544347096577267,-0.119393035030958,-0.1248058707543976,-0.1221675637451111,1.5691177129253455,-0.2121529067273633,-0.2929379884903987,-1.5268624286694583,8.785769686494405,-1.35417334487673,0.1206858014177914,-1.092760875162267
0.08,2.2989984854192835,1.7053777375002117,2.350883360973776,0.0699579401597204,0.0761741812511956,0.0265309551218856,0.0012744933320808,0.0022104139183486,-0.116885576774538,2.2950987767492106,1.701220401868441,2.3523913583887848,-0.1593930356270045,-0.1648058713504441,-0.1621675643411576,1.5705563973913106,-0.6301604655612878,-0.4503510888809279,-1.3662829435274804,8.798665900259493,-1.3769072628268386,0.1069753178068377,-1.0466891843938175
0.1,2.2988178592071784,1.7052969151499875,2.3482530700436106,0.0836188218697771,0.0553289022528637,0.0256368277531775,-0.0190816789256477,-0.0101268658691842,-0.1446581658102079,2.293110916054552,1.6991242844593135,2.3503480071198437,-0.199393036223051,-0.2048058719464905,-0.202167564937204,1.8288650328047689,-1.0178086128864274,-0.6168639893766474,-1.388629451783492,8.8560096448482,-1.3913304135108189,0.0942912208828237,-1.0003429765992813
0.12,2.2981648754994164,1.7049407736570543,2.345077345777402,0.0966144037686901,0.0372466817606064,0.0246077538229181,-0.0451938136655116,-0.0251504443443849,-0.1715144568542747,2.2891230553300908,1.6950281670203835,2.346304655821099,-0.2393930368190974,-0.244805872542537,-0.2421675655332504,2.0179270672629284,-1.305606736993195,-0.7511789237600348,-1.342814552203342,8.898264202404334,-1.3969424439297622,0.0832749606747211,-0.9580185157957812
0.14,2.297022719441784,1.7043010046283626,2.3415623930689318,0.1083775637573526,0.0235231643219123,0.0236819345517739,-0.0735643247935329,-0.0416709369189053,-0.1971246923251193,2.2851351946056297,1.690932049581454,2.342261304522355,-0.2793930374151439,-0.2848058731385835,-0.2821675661292969,2.081884205138505,-1.4185255564010668,-0.8260246287260196,-1.2805117735422311,8.948175026562694,-1.3966356858762818,0.0726077344801778,-0.9204800964171562
0.16,2.295212320653082,1.7032655650084336,2.3373331522432044,0.1201741951408408,0.013129692297595,0.0229172527755683,-0.1059111445381636,-0.0612549057930203,-0.2244662735905418,2.2801473338662674,1.685835932127623,2.3372179532087096,-0.3193930380111903,-0.3248058737346299,-0.3221675667253433,2.333136649741949,-1.6173409872315336,-0.9791984437057498,-1.3670790632711232,8.947194475642391,-1.3930136619445213,0.0626964254071389,-0.8930674307271
0.18,2.292731119468795,1.7018129310656955,2.332555391955578,0.1313085866422855,0.0073722111255765,0.0225365791064517,-0.1406049970538731,-0.0832213366630645,-0.2519375849072169,2.2741594731120043,1.6797398146588909,2.331174601880164,-0.3593930386072367,-0.3648058743306763,-0.3621675673213897,2.4702532425886607,-1.7346926257854764,-1.0983215435022091,-1.3735655658337564,8.938420671621316,-1.3849710447450618,0.053827581642244,-0.8709979216363907
0.2,2.28954550210758,1.6998736657051088,2.327226520153693,0.1409183375849049,0.00687824676673,0.0226826398072317,-0.1754488082535475,-0.1091883272771812,-0.2794388889118333,2.2857008696161016,1.6976518642325422,2.319958512710217,-0.2406049985439892,-0.1832213381531806,-0.3519375863973331,2.571331125325223,-1.7421905599837209,-1.298349530705836,-1.3750652002308184,8.956639065152558,-1.3668452956608097,0.0462529704978791,-0.8571028963164474
0.22,2.2866933186223397,1.697970740233688,2.322950557748448,0.1441348170026304,0.0102387530683986,0.0230339497442958,-0.202600429874625,-0.1413471854397442,-0.2890276891380024,2.2857008696161016,1.6976518642325422,2.319958512710217,-0.2406049985439892,-0.1832213381531806,-0.3519375863973331,2.1583256269336357,-1.357581081053874,-1.6079429081281509,-0.4794400113084546,8.96489922645651,-1.3411390060885338,0.0422587882634368,-0.8526814083037892
0.24,2.282312195009886,1.6947801009947137,2.3170315201378395,0.1424657210634265,0.0192517111151251,0.0237361670597389,-0.2329115486765339,-0.174831229046809,-0.3021254781364021,2.2857008696161016,1.6976518642325422,2.319958512710217,-0.2406049985439892,-0.1832213381531806,-0.3519375863973331,2.351327909899981,-1.5155559400954437,-1.674202180353236,-0.6548894499199848,9.971996789616696,-1.3177815376288695,0.0414934532238956,-0.8641146083930741
0.26,2.2776431746512587,1.691181165060485,2.311144172871737,0.1380532982067188,0.0303049587775027,0.0245269067370171,-0.2565699741347036,-0.201638025491219,-0.3168096631362346,2.2832948196306617,1.6958196508510104,2.316439136846244,-0.2606049988420125,-0.2032213384512038,-0.3719375866953563,1.932582934754104,-1.182921272908484,-1.340339822220503,-0.734209249991627,9.735493657489316,-1.2948166381895831,0.0436698447881285,-0.8768798284312238
0.28,2.272294807144594,1.6868923380364755,2.304621994663009,0.1326672465096625,0.0428355031266944,0.0253693358037873,-0.2765948508390364,-0.2256297722053362,-0.3347497212685936,2.278482719659782,1.692155224087947,2.309400385118297,-0.3006049994380589,-0.2432213390472503,-0.4119375872914027,1.801697313098474,-1.001243835216639,-1.1995873357058608,-0.8970029066179497,9.534450988803655,-1.2739284252860843,0.04680135334679,-0.8905038705835864
0.3,2.266591194076353,1.6821509418779457,2.2977130371382533,0.1274812618059963,0.0550000493165198,0.0261096707046262,-0.2924751135206637,-0.247231013217733,-0.3553644490931429,2.273670619688902,1.6884907973248833,2.3023616333903503,-0.3406050000341054,-0.2832213396432967,-0.4519375878874492,1.690978532827503,-0.7940131340813644,-1.0800620506198355,-1.030736391227466,9.1963189549233,-1.2559852367532216,0.0502804452771662,-0.9013357483886124
0.32,2.260607143242578,1.676997228897952,2.290363660913296,0.12284591944148,0.0659068016340855,0.0266693594708485,-0.3050213975148452,-0.2671109241372279,-0.3785462282496598,2.26685851968822,1.6828263705320174,2.293322881632601,-0.3806050006301518,-0.3232213402393432,-0.4919375884834956,1.650768749016066,-0.6273141997090781,-0.9939955459747464,-1.1590889578258403,9.1963189549233,-1.2414582769437543,0.05344774686542,-0.9087553004736444
0.34,2.2547149666924406,1.6717447601335569,2.282938431717359,0.1190556675340916,0.0746364506115405,0.0270015377084062,-0.3145711266319437,-0.284877385621021,-0.4019118546884471,2.260046419687538,1.6771619437391514,2.284284129874852,-0.4206050012261983,-0.3632213408353897,-0.5319375890795421,1.543370482695277,-0.4774864558549252,-0.8883230741896536,-1.1682813219393684,9.06463750365856,-1.2293970553742282,0.0564367638183831,-0.9139285686546872
0.36,2.2483301149711674,1.6658524273197122,2.274629880617495,0.1154880539330907,0.0820231145651547,0.0271348699891631,-0.3233774466678508,-0.3033521661739111,-0.4277608048394956,2.2522343196719548,1.6704975169313845,2.274245378102202,-0.4606050018222448,-0.4032213414314361,-0.5719375896755885,1.6485122178525522,-0.4403160017953544,-0.9237390276445072,-1.2924475075524244,8.991975528455441,-1.2204846679171495,0.0592717935550135,-0.915513840183215
0.38,2.241778340473297,1.6595948481156209,2.265794500502343,0.1120669462133612,0.087757083656673,0.0270645197388689,-0.3313532607021143,-0.3213728181071687,-0.454501917632639,2.24342221964147,1.662833090108716,2.263206626314651,-0.5006050024182912,-0.4432213420274825,-0.611937590271635,1.660906844937723,-0.3987907017131753,-0.901032596662879,-1.3370556396571698,8.881039021111064,-1.2134175227197683,0.0620046363545865,-0.914690428506351
0.4,2.2350728961365665,1.652983516538598,2.2564157253913404,0.1086735462764257,0.0920705770878943,0.0268206209748982,-0.3388283336880634,-0.3387332640462507,-0.4820118568490186,2.2252106774381915,1.6435262072102623,2.243069404620712,-0.4313532621922304,-0.4213728195972848,-0.5545019191227551,1.6688757855499252,-0.3737536492974536,-0.868022296954099,-1.3754969608189782,8.881039021111064,-1.2078435131193874,0.0645008828959465,-0.9126868004368368
0.42,2.228590916174669,1.64637473127343,2.2472086000555898,0.1057847271921889,0.0950361392573119,0.0264794094762161,-0.3431477554770945,-0.3561678217704646,-0.4858006871401112,2.2252106774381915,1.6435262072102623,2.243069404620712,-0.4313532621922304,-0.4213728195972848,-0.5545019191227551,0.9178459056470286,-0.2159710894515554,-0.8717278862106964,-0.1894415145546335,8.838765407885148,-1.1934060799194464,0.0657805385589615,-0.91239842787423
0.44,2.221688072860891,1.6390767503281032,2.237417088395443,0.1035645926594387,0.0968490771053593,0.0260342272407273,-0.3470112541066259,-0.3728893998199479,-0.493489017013754,2.2252106774381915,1.6435262072102623,2.243069404620712,-0.4313532621922304,-0.4213728195972848,-0.5545019191227551,0.9402768347291413,-0.1931749314765696,-0.836078902474166,-0.3844164936821381,10.156654344550589,-1.1912937905423266,0.0671171553686577,-0.9124054909836248
0.46,2.214705004733618,1.6314444790984133,2.227419320952509,0.1020568379107906,0.0971772184871673,0.0254838918935709,-0.3511972820565779,-0.3895051223217542,-0.5060830707024441,2.220897144816269,1.6393124790142894,2.237524385429484,-0.4513532624902537,-0.441372819895308,-0.5745019194207783,1.0632676668746444,-0.2093013974976021,-0.8307861250903159,-0.6297026844345022,9.843903768497512,-1.1906033258508295,0.0679551837100072,-0.9093320554627764
0.48,2.207634573528111,1.623485821415182,2.217125903387687,0.1010334592476712,0.096009228274239,0.024815916135028,-0.3557385752022981,-0.4055573246592486,-0.5225901291690159,2.212270079572425,1.630885022622344,2.2264343470470287,-0.4913532630863001,-0.4813728204913545,-0.6145019200168248,1.1734346195443173,-0.227064657286008,-0.8026101168747191,-0.8253529233285928,9.583469886096282,-1.1908710642907931,0.0683868711598867,-0.9041069441303428
0.5,2.2008291017435613,1.615632829947494,2.20701497685097,0.1005308379468043,0.0934416815869848,0.0240686394544772,-0.3605031819021817,-0.4203051772138193,-0.5408664902369416,2.20364301432858,1.6224575662303982,2.215344308664573,-0.5313532636823466,-0.5213728210874009,-0.6545019206128713,1.198150664421132,-0.23823033499418,-0.7373926277285336,-0.9138180533962814,9.38487984578842,-1.1921670088375322,0.0684357377300975,-0.8962552932824357
0.52,2.193560084050155,1.6070693152589248,2.195975278657303,0.100626532474488,0.0891248313419148,0.0231640207379825,-0.366321241884615,-0.4353107457596852,-0.5622196622731382,2.193015949054933,1.6120301098086502,2.202254270252316,-0.5713532642783931,-0.5613728216834474,-0.6945019212089177,1.3369506959414068,-0.2909029991216644,-0.7502784272932966,-1.0676586018098344,9.107333916424976,-1.195092104229728,0.0680098900766076,-0.8859327583857256
0.54,2.1861556083948392,1.5982062798003382,2.18449966544613,0.1014741777976741,0.083415575743873,0.0221682631904856,-0.3741377219453192,-0.4503274918457464,-0.584246756199159,2.1823888837812864,1.601602653386902,2.1891642318400586,-0.6113532648744395,-0.6013728222794938,-0.7345019218049642,1.3890580354851625,-0.3908240030352117,-0.7508373043030564,-1.101354696301038,9.072997498254152,-1.198301938644973,0.0669168946478994,-0.8757421306289433
0.56,2.178950620280796,1.5894952608596655,2.173187501920664,0.102645926568635,0.077512017428905,0.0211914682123449,-0.3840324350064329,-0.4658116805612762,-0.6053821642410369,2.170761818492738,1.590175196950253,2.1750741934129,-0.6513532654704859,-0.6413728228755402,-0.7745019224010106,1.4003311392636648,-0.4947356530556834,-0.7742094357764906,-1.0567704020938928,9.061324527354373,-1.201112461009278,0.0653765704381623,-0.8646093383919863
0.58,2.1711414056203737,1.579999326377427,2.160841840686147,0.1037853505361848,0.0715320596890581,0.0201721682980453,-0.3964935956247545,-0.4829337323074021,-0.6280772489078306,2.1581347531892887,1.5777477404987026,2.1599841549708403,-0.6913532660665324,-0.6813728234715867,-0.814501922997057,1.552024522990501,-0.6230580309160794,-0.8561025873062955,-1.1347542333396854,9.061324527354373,-1.2027981649478134,0.0638292249193567,-0.8542404536467575
0.6,2.163062785123332,1.57015025185477,2.148038534296092,0.1043793781807171,0.0663375719683333,0.0191914115035426,-0.4108680988106323,-0.5010391921387016,-0.6511117509828371,2.151316725839136,1.555852639762057,2.1294379782407558,-0.4964935971148706,-0.5829337337975182,-0.7267639514572881,1.63173397294649,-0.7187251592938926,-0.905272991564976,-1.1517251037503284,9.02003685316322,-1.2032499425312335,0.0626852523008033,-0.8447920030668852
0.62,2.15464087051917,1.5598775819011477,2.135029780895065,0.1031434955851093,0.0643102789785644,0.018416593836955,-0.4303769749964609,-0.5247886396048458,-0.6485620767248584,2.151316725839136,1.555852639762057,2.1294379782407558,-0.4964935971148706,-0.5829337337975182,-0.7267639514572881,1.5420224899486146,-0.9754438092914292,-1.187472373307208,0.1274837128989348,9.02003685316322,-1.1922575685653427,0.0622822176989396,-0.8385909648097399
0.64,2.146292579787945,1.5497022664619795,2.122695971569153,0.100100261076724,0.0665827575147796,0.0179896491239297,-0.4469069599210751,-0.5446892795490765,-0.6498796253955114,2.151316725839136,1.555852639762057,2.1294379782407558,-0.4964935971148706,-0.5829337337975182,-0.7267639514572881,1.295194779075162,-0.826499246230708,-0.9950319972115372,-0.0658774335326461,10.554105453345072,-1.1844921037372629,0.0634029207839384,-0.8445601267248152
0.66,2.137198640662932,1.5386172612454934,2.109632832876713,0.0961818830303839,0.0716035971396823,0.0177505013423898,-0.4612594817966149,-0.5625375888384903,-0.6565954510785063,2.146351789867987,1.5500233024240817,2.1221703387261823,-0.5164935974128938,-0.6029337340955414,-0.7465012919671796,1.1933768718250706,-0.7176260937769935,-0.8924154644706861,-0.3357912841497446,9.851607283503654,-1.1759754274578855,0.0653931870081015,-0.852168021733014
0.68,2.127846555967165,1.5271982358369156,2.0963773416860154,0.0922343655013856,0.0779666471412109,0.0176267053862335,-0.4729431127472945,-0.5783753800504082,-0.6685851375014379,2.13642191792569,1.538364627748131,2.107635059697037,-0.5564935980089403,-0.6429337346915879,-0.7859759729869626,1.1522754045628756,-0.5841815475339796,-0.7918895605958987,-0.5994843211465817,9.851607283503654,-1.1677949269759855,0.0675369029822106,-0.8594150195671484
0.7000000000000001,2.118768683815231,1.51607174666859,2.0835228310797533,0.0887087747211201,0.0843637805809608,0.0175435953318487,-0.4818708327173008,-0.5920214278991449,-0.6839147970449255,2.1264920459833925,1.526705953072181,2.093099780667891,-0.5964935986049867,-0.6829337352876343,-0.8254506540067457,1.1190590550459143,-0.4463859985003149,-0.6823023924368343,-0.766482977174382,9.573219537028308,-1.1594330881458963,0.0697842738812985,-0.8662399829822933
0.72,2.10905030362641,1.5040930996266153,2.069642658412525,0.0853999629604255,0.0908092933505397,0.0174457606162025,-0.4893614356944267,-0.6051264685266794,-0.7034539327390761,2.1145621740112928,1.5130472783664282,2.076590767587756,-0.6364935992010332,-0.7229337358836808,-0.8649253350265287,1.234533359699814,-0.3745301488562919,-0.655252031376724,-0.9769567847075278,9.350262231339002,-1.151553897735319,0.071849602232713,-0.8712416377785348
0.74,2.099199960822949,1.4918612580545685,2.055350038370728,0.0825782321615059,0.0965009622762109,0.0173085920043786,-0.4952201168938066,-0.6174313664699781,-0.724898839019876,2.102632302039193,1.4993886036606754,2.060081754507621,-0.6764935997970797,-0.7629337364797273,-0.9044000160463116,1.2704513609178965,-0.2929340599689967,-0.6152448971649349,-1.0722453140399937,9.07368886162385,-1.1445076820023787,0.0736000610040628,-0.8746926126719241
0.76,2.08924191344281,1.479381096841747,2.040613176562624,0.0799576110363006,0.1012944375211805,0.0171067762660759,-0.5002573538166273,-0.6298476002486461,-0.7476969520245044,2.089702430052192,1.4847299289400215,2.042585874401992,-0.716493600393126,-0.8029337370757736,-0.9438746970660948,1.3222051406977005,-0.2518618461410327,-0.6208116889333981,-1.1399056502314209,9.07368886162385,-1.1389958362480028,0.0751871598440407,-0.8763390754425339
0.78,2.079694364823085,1.46729820677098,2.026180539420782,0.0774094291809037,0.105105805162274,0.0168500150812225,-0.5044755785261656,-0.6412804802438744,-0.7703722647806859,2.0757725580502897,1.4690712542044666,2.0241031272708674,-0.7564936009891725,-0.8429337376718201,-0.9833493780858776,1.2871227343148948,-0.2109112354769182,-0.5716439997614176,-1.1337656378090757,9.012437394495464,-1.1340771960065803,0.0769304873103527,-0.8769103063289038
0.8,2.06956236595306,1.4543520697032353,2.01051117502558,0.0746605015606993,0.1084180681739312,0.0165214985651885,-0.5084795591674972,-0.6526217346732136,-0.7954142039590131,2.054470585896776,1.4352341827587864,1.987661926181748,-0.6044755800162818,-0.7412804817339905,-0.7988133120766139,1.389023605647329,-0.200199032066578,-0.5670627214669599,-1.25209695891636,8.956574040899795,-1.130071159935285,0.0787578493127507,-0.8764267413556213
0.8200000000000001,2.059418740713252,1.4411378736761804,1.9947548512454447,0.0713252262839951,0.1106400739269873,0.0160742311257617,-0.5054707928136651,-0.6679705813333972,-0.7767444356001563,2.054470585896776,1.4352341827587864,1.987661926181748,-0.6044755800162818,-0.7412804817339905,-0.7988133120766139,1.217784894124523,0.1504383176916035,-0.7674423330091773,0.9334884179428404,8.889276916434028,-1.1113774893510993,0.0797998055171842,-0.8781806958454201
0.84,2.049345702279182,1.4276366256122537,1.979416553161856,0.0675027458882522,0.1113447076322196,0.0154928820997272,-0.5021727485730562,-0.6811862212083701,-0.7585234834592183,2.054470585896776,1.4352341827587864,1.987661926181748,-0.6044755800162818,-0.7412804817339905,-0.7988133120766139,1.1374679446476097,0.1649022120304488,-0.6607819937486492,0.9110476070468998,11.275142771545688,-1.1129382344462666,0.0823482269439803,-0.8805197701302375
0.86,2.039835544902874,1.414585293816684,1.9651213845824484,0.0639716253631484,0.1104574416307271,0.0148565421104648,-0.4991801859052586,-0.6919479424568926,-0.7471054342476957,2.0484258300966136,1.4278213779414466,1.9796737930609816,-0.624475580314305,-0.7612804820320137,-0.8045015215357995,0.7986581298471002,0.1496281333898785,-0.5380860624261241,0.5709024605761281,11.275142771545688,-1.1149536558769004,0.0849024499259836,-0.8810432791368504
0.88,2.029884551259996,1.4006413406283584,1.9502637498836355,0.0606431134488673,0.1074470515667368,0.0141031019995915,-0.4961952704157162,-0.7018841022774337,-0.7394379482630944,2.036336318496288,1.4129957683067669,1.9636975268194488,-0.6644755809103514,-0.8012804826280602,-0.8158779404541707,0.6450335917281795,0.1492457744771164,-0.496807991027054,0.3833742992300659,10.913191933716009,-1.1183256514662518,0.0871395997058819,-0.8784992889198829
0.9,2.019985969855396,1.3865093569918086,1.935517741540049,0.057832524756007,0.1018463843286543,0.013257708782638,-0.4943130906894662,-0.7108981233947342,-0.7354961306223325,2.0242468068959623,1.398170158672087,1.947721260577917,-0.7044755815063979,-0.8412804832241066,-0.8272543593725419,0.5008320665104923,0.0941089863125022,-0.450701055865027,0.1970908820380923,10.643238111558276,-1.1245413902502468,0.0889870489011713,-0.8718708548763993
0.92,2.010588110640935,1.372923601165272,1.9215586229049788,0.0556496234840971,0.094573077141132,0.0124058361237101,-0.495425823395366,-0.718825991641424,-0.7340522200092724,2.0101572952658344,1.3813445490076048,1.9311761733904664,-0.7444755821024444,-0.8812804838201531,-0.838630778290913,0.4067374671399199,-0.0556366352949894,-0.3963934123344892,0.0721955306530075,10.286686620409457,-1.1322824454355886,0.0904973570501463,-0.862110661916899
0.94,2.0006413942051307,1.3584654303363657,1.9068937045695948,0.053914152304288,0.0856772323557363,0.0115107692654155,-0.4995585626339717,-0.7266492257372704,-0.7324924085389054,1.9960677836357064,1.3645189393431227,1.9146310862030156,-0.7844755826984908,-0.9212804844161996,-0.8500071972092843,0.4492091304610057,-0.2066369619302843,-0.3911617047923199,0.0779905735183494,10.286686620409457,-1.1395932563797602,0.0914517166498215,-0.8510836761882522
0.96,1.990575579040711,1.3438453464659526,1.8922631155922975,0.0525418834389498,0.076345340740414,0.0106460071808432,-0.5071166877012255,-0.7349314942024501,-0.7306181063216813,1.9809782719906768,1.3466933296637391,1.8978015885426047,-0.8244755832945372,-0.961280485012246,-0.8613836161276555,0.5684061801719156,-0.377906253362692,-0.4141134232589827,0.0937151108612033,10.283918075686415,-1.1465307755919756,0.0920830333872221,-0.8397464106057816
0.98,1.980325480737512,1.329058378595633,1.877671823713471,0.0512189302096057,0.0674030264397113,0.0098320766154445,-0.5177290169673606,-0.7432891870981285,-0.7285923674650582,1.964888760330747,1.3278677199694549,1.880687680409236,-0.8644755838905837,-1.0012804856082924,-0.8727600350460267,0.6829644590067887,-0.5306164633067545,-0.4178846447839224,0.101286942831158,10.297456653172048,-1.1521209144486906,0.0926040870413995,-0.8297980979847499
1.0,1.970365205963214,1.314856179708023,1.86384639926051,0.0498599319310201,0.059829265805184,0.0091237706704971,-0.5302543744748479,-0.751173664437507,-0.7268073120316982,1.954439029889144,1.2918939192407264,1.8412422053402184,-0.6177290184574767,-0.8432891885882446,-0.715192059608558,0.7453790755476515,-0.6262678753743645,-0.3942238669689235,0.0892527716679969,10.302122353128652,-1.1565300780193115,0.0931945199769817,-0.8207401386503703
1.02,1.9595650510171687,1.299704628128848,1.8495511261173276,0.0472516042919561,0.0548504708646185,0.0084718138731858,-0.5493737427508562,-0.7629504997450162,-0.7016245271338368,1.954439029889144,1.2918939192407264,1.8412422053402184,-0.6177290184574767,-0.8432891885882446,-0.715192059608558,1.6870215976283334,-0.955968413800412,-0.5888417653754585,1.2591392448930705,10.292421558109709,-1.1534046296607547,0.0944154767877406,-0.8121692957146339
1.04,1.9483767602679996,1.2843548734051204,1.835783454551216,0.043769188614,0.054857878311528,0.0080209171386575,-0.5679110329013937,-0.7712818104366722,-0.6766666764071053,1.954439029889144,1.2918939192407264,1.8412422053402184,-0.6177290184574767,-0.8432891885882446,-0.715192059608558,1.6092981209706998,-0.9268645075268755,-0.4165655345828023,1.2478925363365756,11.697129513684558,-1.15021200066697,0.0963997746254765,-0.8171945460162273
1.06,1.936849914900275,1.2688620964497068,1.8224747699887116,0.0405376257434152,0.0581579418305533,0.0077450488416669,-0.5834743026309681,-0.7775956724046331,-0.655621201190602,1.9482617397045687,1.283461027354844,1.8340902847441327,-0.6377290187554999,-0.8632891888862678,-0.712511998037258,1.3462840011624666,-0.7781634864787224,-0.3156930983980455,1.0522737608251675,11.697129513684558,-1.145529505399673,0.0982506345731273,-0.8248406749998124
1.08,1.925638792763442,1.2540404030511052,1.8101838955161216,0.0380764000334894,0.0629831686585531,0.0075988802885743,-0.5955927056613988,-0.7824205376613602,-0.639202823379833,1.93590715933542,1.2665952435830792,1.8197864435519613,-0.6777290193515464,-0.9032891894823144,-0.7071518748946579,1.0484490291505268,-0.6059201515215329,-0.2412432628363547,0.8209188905384468,11.189210665240353,-1.1390252821788724,0.0998076515142453,-0.8338067314350344
1.1,1.9136174390668643,1.2383474579853204,1.797555688676001,0.036245032704346,0.0687334756351675,0.0075273159592811,-0.6056779747386561,-0.7867413348469553,-0.6246159608322105,1.92355257896627,1.2497294598113142,1.8054826023597903,-0.7177290199475929,-0.9432891900783608,-0.7017917517520579,0.9126314969128604,-0.5042634538628687,-0.2160398592797541,0.7293431273811268,11.189210665240353,-1.1322889067174584,0.1008638201692854,-0.8427997694556518
1.12,1.90141945402464,1.2225763963227527,1.7851904234091318,0.035352245064183,0.0743293605355403,0.0075222438331801,-0.6135020443230917,-0.7903037600510058,-0.6126503947034316,1.909197998567318,1.230863676009747,1.7914467673247492,-0.7577290205436393,-0.9832891906744072,-0.6964316286094578,0.7366846526478007,-0.39120347922178,-0.1781212602025239,0.598278306438943,11.01877090358812,-1.1265603682581078,0.1012834711666993,-0.8505435125587705
1.14,1.8890860125442457,1.2067407817979516,1.7730538032937813,0.0356582321841654,0.0792012294080951,0.0075861274835975,-0.6194193794317205,-0.7932640089991434,-0.6016280195438378,1.8948434181683664,1.2119978922081798,1.777410932289708,-0.7977290211396858,-1.0232891912704536,-0.6910715054668578,0.6427882286989852,-0.2958667554314398,-0.1480124474068811,0.5511187579796906,10.875101530291431,-1.1212702644297563,0.1008725434653143,-0.8576504655565733
1.16,1.877269270506449,1.191634865559019,1.7617225787263646,0.0370044451521722,0.0829663652755954,0.0077030915950814,-0.6241421385962848,-0.7967534177931336,-0.5916955714367502,1.8794888377545127,1.1921321083917114,1.7635091003332315,-0.8377290217357322,-1.0632891918665,-0.6857113823242577,0.5769184371686333,-0.2361379582282108,-0.1744704396995089,0.4966224053543799,10.829696306502228,-1.1169923915866402,0.099593527721072,-0.863474778981659
1.18,1.864741370679944,1.1756544953542891,1.7499960337095963,0.039264224199815,0.0860518662730437,0.0078672834485568,-0.6283822028445359,-0.8012094283691463,-0.5815013055811895,1.863134257325759,1.171266324560342,1.7497412714553209,-0.8777290223317786,-1.1032891924625463,-0.6803512591816576,0.5953092293436377,-0.2120032124125592,-0.2228005288006374,0.5097132927780357,10.806214390173407,-1.1132167483318602,0.0976149609801368,-0.8686434646911109
1.2,1.8521346400283747,1.1595661204489551,1.7384701263507831,0.0418452192228107,0.0882742749325509,0.0080336499852611,-0.6321107360854729,-0.8074679972613522,-0.5716102059146094,1.8333222605377169,1.1355940239358318,1.7209209684305369,-0.7283822043346521,-0.9012094298592624,-0.5305009377311243,0.6142179933083192,-0.1864266620468457,-0.3129284446102942,0.4945549833290041,10.79929756159163,-1.1102991987364577,0.0954873932629102,-0.8725525209766027
1.22,1.8401086115452896,1.1440843392508424,1.7278448978627066,0.0419792728191293,0.0896045538808296,0.0080081768539457,-0.6336694119328594,-0.8208723062836478,-0.5472939615817548,1.8333222605377169,1.1355940239358318,1.7209209684305369,-0.7283822043346521,-0.9012094298592624,-0.5305009377311243,1.3904897601362498,-0.0779337923693279,-0.6702154511147806,1.215812216642731,10.79196519857851,-1.1033923906704342,0.0947661392285236,-0.8777890096286828
1.24,1.8274239547874,1.127549070814139,1.7171674719951366,0.0389436573998897,0.0900573380284487,0.0077325021788217,-0.6348041188950212,-0.8315334125747245,-0.5218130291543788,1.8333222605377169,1.1355940239358318,1.7209209684305369,-0.7283822043346521,-0.9012094298592624,-0.5305009377311243,1.3822306831785676,-0.056735348108089,-0.5330553145538319,1.2740466213688018,11.848424530940065,-1.102709672368262,0.0970414130947036,-0.8801963287841996
1.26,1.814717780244999,1.11084723636982,1.706982285706671,0.0346636090345662,0.0893445054223093,0.0073431480711161,-0.6358499676958784,-0.8378887688571761,-0.4980563725591792,1.8260384384943704,1.126581929637239,1.7156159590532256,-0.7483822046326752,-0.9212094301572856,-0.5203008641611112,1.2307143106478782,-0.0522924400428614,-0.3177678141225826,1.1878328297599798,11.764028281208084,-1.1031999441334903,0.1003470180005465,-0.8815726566169942
1.28,1.8019908950476784,1.094050313311912,1.6972531450927155,0.0307449570139507,0.0872052758365259,0.0069543262294162,-0.636927425839815,-0.8416245674729076,-0.476043024554108,1.811470794407677,1.1085577410400538,1.7050059402986033,-0.7883822052287217,-0.9612094307533322,-0.4999007170210851,1.1177036701890248,-0.053872907196828,-0.1867899307865739,1.1006674002535577,11.638551941222431,-1.1045335721722047,0.103234533795868,-0.8819137639614127
1.3,1.789877386997668,1.0780382341555248,1.6884069991887567,0.0278550044379983,0.0836035301970744,0.0066210201538454,-0.6382773956115889,-0.8439016616373831,-0.4562309145219415,1.7969031503209842,1.0905335524428683,1.6943959215439808,-0.8283822058247682,-1.001209431349379,-0.479500569881059,0.9994089254970484,-0.0674984885886964,-0.1138547082237761,0.990605501608327,11.530629628097811,-1.1073000992179172,0.1056074352279489,-0.8804961004349053
1.32,1.7770893716297191,1.0611437168263913,1.6794972808324196,0.0258255366631755,0.077981465011256,0.0063176052749277,-0.6407933531580142,-0.8456205527250431,-0.4357981247748446,1.7803355062044888,1.070509363815881,1.6848059101463595,-0.8683822064208147,-1.041209431945425,-0.4591004227410329,1.0329369847620389,-0.1257978773212653,-0.0859445543829995,1.0216394873548418,11.456405663396254,-1.1122252327237885,0.1071986183550674,-0.8762380872031691
1.34,1.7642234294022876,1.044222326551405,1.671000410090692,0.0249911102573422,0.0709273345947582,0.0060838109987647,-0.6460425725907434,-0.846649186739755,-0.4149076957220176,1.7637678620879935,1.0504851751888935,1.6752158987487384,-0.9083822070168612,-1.0812094325414716,-0.4387002756010068,1.078218923271571,-0.2624609716364579,-0.0514317007355935,1.0445214526413504,11.427892612727192,-1.1179414066604558,0.1078356038795576,-0.8706758309066432
1.36,1.7512159974051935,1.0272757109166308,1.6629282815154829,0.025300545488232,0.0634455210780364,0.0059321219503675,-0.6546611508390096,-0.8480598004254929,-0.3933517707927574,1.746200217956597,1.0294609865470048,1.6661358910296178,-0.9483822076129076,-1.121209433137518,-0.4183001284609807,1.1628925375413868,-0.4309289124133086,-0.0705306842868958,1.0777962464630086,11.458142688890804,-1.1236461686924537,0.1075947259311408,-0.8648232956374752
1.38,1.7386707139121933,1.0111458871411243,1.655665672755018,0.0264844345750064,0.0567857283076605,0.0058641422008105,-0.6655551391521081,-0.8498185617412,-0.3722164851093291,1.727632573810299,1.0074367978902148,1.657565886988998,-0.988382208208954,-1.1612094337335643,-0.3978999813209546,1.1921330920367958,-0.5446994156549256,-0.0879380657853534,1.0567642841714158,11.554868475983312,-1.1280931889433434,0.106559503485882,-0.8601246999153304
1.4,1.7252165361221958,0.9941244036961612,1.6484610223213347,0.0285275786527056,0.0508993879627683,0.0058736977769569,-0.6794805370009332,-0.8523198296554847,-0.3493406699492856,1.7053929569545878,0.9686549590540644,1.6370548484995515,-0.7655551406422242,-0.949818563231316,-0.3124675598406791,1.344875427003902,-0.6962698924412591,-0.1250633957142366,1.143790758002175,11.554868475983312,-1.1312563935660442,0.1048783105218526,-0.8567549617108797
1.42,1.7114106621643874,0.9769787186510812,1.641698507503356,0.0291267200127083,0.0484147700173042,0.0058778604233003,-0.7004175607315295,-0.8616451702100204,-0.3281200383300319,1.7053929569545878,0.9686549590540644,1.6370548484995515,-0.7655551406422242,-0.949818563231316,-0.3124675598406791,1.5617587405499678,-1.0468511865298125,-0.4662670277267855,1.061031580962685,11.610568316497847,-1.1321688683005908,0.1043370741832813,-0.8546167302069329
1.44,1.697201659735894,0.9596736236489872,1.635364780853688,0.0272439584136004,0.050638249456864,0.0058549989765605,-0.7188758211233472,-0.8682457827865913,-0.3062586556575719,1.7053929569545878,0.9686549590540644,1.6370548484995515,-0.7655551406422242,-0.949818563231316,-0.3124675598406791,1.4681582982003918,-0.9229130195908876,-0.3300306288285426,1.0930691336230007,11.58433119593883,-1.1246176430341477,0.1054134807031931,-0.8625923547676997
1.46,1.683396012870422,0.9431344071953696,1.6297501253344564,0.0244413380485852,0.0553469168674444,0.0058372082589081,-0.733072261506692,-0.8721812427487566,-0.285852531369012,1.6977374055481655,0.9591567734217512,1.6339301729011446,-0.7855551409402474,-0.9698185635293392,-0.3005177747869491,1.258408392724538,-0.7098220191672389,-0.1967729981082688,1.0203062144279933,11.59236061640695,-1.1164433500049569,0.1075493373289403,-0.8725009881407328
1.48,1.6686092841949374,0.9256738967075524,1.6242524775604597,0.0217044121015338,0.0615653410235521,0.0058613824651962,-0.7445494620149665,-0.8737658696541137,-0.2650368103245611,1.6824263027353212,0.9401604021571248,1.627680821704331,-0.8255551415362938,-1.0098185641253858,-0.276618204679489,1.1911458942303352,-0.5738600254137249,-0.079231345267855,1.0407860522225447,11.535403860922996,-1.1082524532803313,0.1096643824806819,-0.883611606775432
1.5,1.6536267171729826,0.9081970827927238,1.619159250366412,0.0199078981977573,0.0679037021855327,0.0059516490964982,-0.7529754623229437,-0.8741172056660758,-0.2453531690929135,1.6671151999224767,0.9211640308924984,1.6214314705075177,-0.8655551421323403,-1.0498185647214322,-0.252718634572029,1.0707084690983248,-0.4213000153988566,-0.0175668005981011,0.9841820615823824,11.411813808753324,-1.1011244129506683,0.1110693773613132,-0.8937912747075464
1.52,1.6385030337023432,0.8907225206978687,1.6144508506101911,0.0193562424635618,0.0735415236627655,0.0061181142459423,-0.7589230521310725,-0.8735579631143556,-0.2264977758418639,1.64980409707983,0.9001676595980698,1.6163770978160767,-0.9055551427283868,-1.0898185653174786,-0.228819064464569,0.9889545381476552,-0.2973794904064408,0.0279621275860064,0.942769662552477,11.411813808753324,-1.0949733953241734,0.1116555075534073,-0.903496680728528
1.54,1.6240438014549012,0.8741383805485835,1.6103222823705403,0.0203616546486479,0.0777549492045735,0.0063693440609527,-0.7628457864410857,-0.8724198815667255,-0.2090522733197192,1.632492994237183,0.8791712883036411,1.6113227251246365,-0.9455551433244332,-1.1298185659135251,-0.2049194943571089,0.895863594982753,-0.196136715500661,0.0569040773815088,0.8722751261072359,11.36896698995224,-1.0903981765349775,0.1109381767758435,-0.9118641512189276
1.56,1.608750734818439,0.8566942827529115,1.60633478462917,0.0230219932052011,0.0808639373449155,0.0067305086529366,-0.7662742180051371,-0.8722956248579491,-0.1906222577066427,1.614181891379635,0.8571749169943114,1.606865841685882,-0.9855551439204796,-1.1698185665095715,-0.1810199242496489,0.9373300622210196,-0.1714215782025685,0.006212835438818,0.9215007806538263,11.348952772934354,-1.086707451189382,0.1088141709430977,-0.9185558828762131
1.58,1.5933932375595736,0.8392243435395594,1.6027186200909451,0.0264618649883466,0.0827687147758068,0.0071290133135157,-0.7693512523783822,-0.8748856400516294,-0.1719120430437964,1.594870788507186,0.8341785456700804,1.6030064474998145,-1.025555144516526,-1.209818567105618,-0.1571203541421889,0.9568809382146438,-0.1538517186622567,-0.1295007596840147,0.935510733142314,11.365491006618868,-1.085193588773634,0.1062149498084908,-0.9236355464082122
1.6,1.578747841679116,0.822559538673678,1.599635080446874,0.0294943564062839,0.0836342368384599,0.007472261190768,-0.7721975314165093,-0.8791005536297873,-0.1536148676310341,1.5549256749406546,0.7954800615369779,1.5941230179387555,-0.8693512538684983,-0.9611219679382108,-0.1415529499439639,0.94954387592098,-0.1423139519063532,-0.2107456789078976,0.9148587706381148,11.438889461425788,-1.08507057409912,0.1036864555682694,-0.9274410959596892
1.62,1.563242596498519,0.8048100458467906,1.596627857068758,0.0284205044204063,0.0843386923360602,0.0075359585320254,-0.7782249198086059,-0.8944700319475352,-0.1487329412550685,1.5549256749406546,0.7954800615369779,1.5941230179387555,-0.8693512538684983,-0.9611219679382108,-0.1415529499439639,0.8607895790047204,-0.30136941960483,-0.768473915887391,0.2440963187982786,11.438889461425788,-1.0848681318849414,0.1047585984616193,-0.9317030266882104
1.64,1.547626616584681,0.7868395885490654,1.593703574603608,0.0224070089909771,0.0851092092512426,0.007268790453148,-0.7830445821290166,-0.9008890333051944,-0.1437690732014251,1.5549256749406546,0.7954800615369779,1.5941230179387555,-0.8693512538684983,-0.9611219679382108,-0.1415529499439639,0.4718916967016918,-0.2409831160205378,-0.3209500678829635,0.2481934026821716,10.53324120993966,-1.0855426058751207,0.1101198511153466,-0.9329177757530142
1.66,1.5319194450474625,0.7688117417415032,1.5908853086013213,0.0158716987947627,0.0854192231518746,0.0069701520702953,-0.7874705236185404,-0.901548220069664,-0.1383099777002718,1.5462321624019697,0.7858688418575959,1.592707488439316,-0.8893512541665215,-0.9783692335155272,-0.1354811313239974,0.3529348698763427,-0.2212970744761899,-0.0329593382234816,0.2729547750576655,10.60158930435864,-1.0855069234457693,0.1156114746896028,-0.9337604675582624
1.68,1.516917189698782,0.7517049502769982,1.5883110193341423,0.010679123257737,0.0851867010830557,0.006765707260602,-0.7915672311302017,-0.8994512125646064,-0.1329540779024422,1.5288451373245997,0.7666464024988316,1.5898764294404366,-0.929351254762568,-1.0128637646701597,-0.1233374940840644,0.3530797203067634,-0.2048353755830623,0.1048503752528851,0.2677949898914789,10.625302259264572,-1.0857065208794423,0.1205220529693975,-0.9342578508157846
1.7,1.50104072796839,0.7337542770894004,1.5857145462616329,0.0066936947968877,0.084359981310949,0.006666166642875,-0.7959230713510533,-0.896005069764376,-0.1269646131349295,1.5114581122472297,0.7474239631400674,1.5870453704415572,-0.9693512553586144,-1.0473582958247922,-0.1111938568441313,0.4084205321431726,-0.2177920110425835,0.1723071400115183,0.299473238375636,10.625302259264572,-1.0862471251895471,0.1241509976907279,-0.9343834794903928
1.72,1.485075360646529,0.7158789444195478,1.583243120690052,0.004237762562279,0.0829142792456728,0.0066868356425542,-0.8004524191958197,-0.8920061345857528,-0.1204587572548889,1.492071087140057,0.7264767972235716,1.5848214933046747,-1.009351255954661,-1.0818528269794248,-0.0990502196041983,0.4439387209784078,-0.2264673922383164,0.1999467589311576,0.3252927940020293,10.681667820795155,-1.0872685154268005,0.1264938672052245,-0.9341528601156788
1.74,1.469016463348807,0.6980901157623486,1.5809046061216228,0.0033237624767842,0.0808152868003606,0.0068264297111984,-0.8053003351909919,-0.8873753606148128,-0.1137221428635993,1.4726840620328852,0.7055296313070757,1.582597616167792,-1.0493512565507073,-1.1163473581340575,-0.0869065823642653,0.4752060882478051,-0.2423957997586101,0.2315386985470013,0.3368307195644799,10.681667820795155,-1.0892765051956128,0.1275467394611427,-0.9336055782073788
1.76,1.4536601062578518,0.6812735149504673,1.5788121022083443,0.0038500951339048,0.0784020022433755,0.0070626169467249,-0.8109952547850461,-0.8831840848534286,-0.1068784377367415,1.4522970369108117,0.6837201021117141,1.5806773299619077,-1.0893512571467536,-1.15084188928869,-0.0747629451243323,0.4920243935875796,-0.2847459797027107,0.2095637880692114,0.3421852563428931,10.69318029700662,-1.091712278672121,0.1274015641750963,-0.9323335808454352
1.78,1.4373661301124387,0.6636533192316787,1.5767571478363993,0.0057698097482941,0.0758640901226966,0.0074079749636697,-0.8182071318625925,-0.8791851956916211,-0.0989435280913529,1.430910011773837,0.6610482096374867,1.5790606346870215,-1.1293512577428,-1.1853364204433223,-0.0626193078843993,0.5721998702170029,-0.3605938538773223,0.1999444580903731,0.3967454822694297,10.723451330929493,-1.0939226499559038,0.1260534562364631,-0.931301898012557
1.8,1.4209129990987197,0.646099578056554,1.5748702168401725,0.0088188992864171,0.0738680711476654,0.0078311021801772,-0.8267950942523142,-0.8767749425057766,-0.0901554543066642,1.396455773519309,0.6196940594470977,1.5718099714318317,-0.9182071333527086,-0.9036760569137692,-0.0476190525347408,0.626084377844313,-0.4293981194860852,0.1205126592922267,0.4394036892344327,10.771870388466596,-1.094730717325039,0.1238189965034319,-0.9310275445415762
1.82,1.405096819656107,0.6291945359600221,1.5732432945720145,0.003852184129777,0.073612806887655,0.0077023390973739,-0.8373458117629308,-0.8978150949503392,-0.0814490315803316,1.396455773519309,0.6196940594470977,1.5718099714318317,-0.9182071333527086,-0.9036760569137692,-0.0476190525347408,1.2547982423171309,-0.5275358755308268,-1.0520076222281294,0.4353211363166298,10.824342377643916,-1.0892193494842557,0.1278183365687173,-0.9308218670734434
1.84,1.3882508119438264,0.611192125870764,1.571721642995514,-0.0092743488467452,0.0751444439822664,0.0070398589015785,-0.8465083536911419,-0.900125076033895,-0.0711344039718759,1.396455773519309,0.6196940594470977,1.5718099714318317,-0.9182071333527086,-0.9036760569137692,-0.0476190525347408,0.6994278552748109,-0.4581270964105544,-0.1154990541777922,0.5157313804227854,10.894137613221574,-1.089835068928352,0.1395010578892034,-0.933638603981328
1.86,1.3712377658321713,0.5932635637139632,1.5703955804715308,-0.0231804227402664,0.0774816994195297,0.0063202248974457,-0.8542141108527517,-0.8924515391348987,-0.0620845999662207,1.387273702185782,0.6106572988779599,1.5713337809064842,-0.9382071336507318,-0.9085742291581986,-0.0373541574234184,0.7073910066482515,-0.3852878580804908,0.3836768449498151,0.4524902002827572,10.90755096099656,-1.0889223705553812,0.1519413836722025,-0.9376207360986182
1.88,1.3540847606193491,0.5755538929320628,1.569232854733312,-0.0351939992302309,0.0799664466847268,0.0057281077336137,-0.8606368808946065,-0.8793527365804246,-0.0546517419130048,1.3689095595187275,0.5925837777396846,1.5703813998557894,-0.9782071342467784,-0.918370573647058,-0.0168243672007736,0.818654356567691,-0.3211385020927437,0.6549401277237077,0.3716429026607969,10.819766258007803,-1.0875310664115585,0.1623396419160907,-0.9413865165583531
1.9,1.337680912176351,0.5590029214740524,1.568256594880444,-0.0441386681036933,0.082042483752063,0.0053501253242453,-0.8657550909219072,-0.8640925194986016,-0.0484813556697224,1.3505454168516735,0.5745102566014092,1.5694290188050946,-1.0182071348428248,-0.928166918135917,0.0037054230218711,0.8618932150493069,-0.2559105013650309,0.7630108540911507,0.3085193121641207,10.74616308183613,-1.085974145225987,0.1711254207608654,-0.9448284017858564
1.92,1.3203172420444131,0.5419068278342241,1.567354281872136,-0.050997782445246,0.0836354127995687,0.0051661048643804,-0.8703457393859984,-0.846728537874234,-0.0420630906877942,1.3301812741548171,0.5559469182386908,1.569503127265532,-1.0582071354388711,-0.937963262624776,0.0242352132445159,0.9536456844007684,-0.2295324232045592,0.8681990812183793,0.3209132490964109,10.710651543327003,-1.084729633163558,0.1776811084901317,-0.9477918473766724
1.94,1.3028670422479096,0.5251672883526508,1.566583488276543,-0.055482226338702,0.08445590024308,0.0052022225207435,-0.8744852136962747,-0.8285221495918611,-0.0353047752445617,1.3098171314579603,0.5373835798759725,1.5695772357259694,-1.0982071360349177,-0.9477596071136354,0.0447650034671607,0.9928275901235274,-0.2069737155138196,0.9103194141186433,0.3379157721616222,10.75480067107128,-1.0839924417210778,0.1822835376250813,-0.9510090432813888
1.96,1.2853311509166157,0.5087941073659449,1.5659563380464314,-0.057937325105667,0.0846265931666475,0.0054330472903866,-0.8789434397331987,-0.8102277978104854,-0.0277320040148412,1.2884529887462028,0.5185753329010326,1.5701645889419729,-1.138207136630964,-0.9575559516024944,0.0652947936898055,1.0147733128570076,-0.2229113018461959,0.9147175890687864,0.378638561486026,10.75480067107128,-1.0839330894201256,0.1850438715313895,-0.9535919668744216
1.98,1.2685858932416043,0.4935801909135776,1.5655104126534631,-0.0587047783556845,0.0844690546224524,0.0057947241869165,-0.8835140986351545,-0.7924296915580025,-0.0195804999776203,1.266088846019544,0.4995221773138714,1.5712651869135426,-1.1782071372270104,-0.9673522960913538,0.0858245839124503,1.0051250258568931,-0.2285329450977924,0.8899053126241452,0.407575201861045,10.80959079115746,-1.0846102295822022,0.1866164015224237,-0.956650328767408
2.0,1.250862904539707,0.4779340017377975,1.5652191168157137,-0.0577007729312125,0.0841713955998974,0.0063215444798863,-0.8885584313725655,-0.7733166932111551,-0.0099224925433972,1.2244101883098466,0.4539587063356775,1.564531387654582,-0.9435944965092714,-0.7836126595784416,0.01768739730045,1.1000330746979996,-0.2522166368705503,0.955649917342366,0.4829003717111558,10.952382344506988,-1.085322810167132,0.1866070518732007,-0.9603391857247264
2.02,1.2329294864624676,0.4625376426857367,1.5649736092148012,-0.0585235621504301,0.0868709184259855,0.0065585237282919,-0.9041634514115098,-0.7665482549269896,-0.0159712103876454,1.2244101883098466,0.4539587063356775,1.564531387654582,-0.9435944965092714,-0.7836126595784416,0.01768739730045,0.902656350420436,-0.7802510019472131,0.3384219142082756,-0.3024358922124115,10.952382344506988,-1.0860739330124354,0.1878207173980125,-0.960402177661715
2.04,1.2147261725327356,0.447330625348204,1.5646010914762614,-0.0628871457025374,0.0943486407503843,0.0062659514892409,-0.9147250352587764,-0.7537611169641157,-0.0209323582108455,1.2244101883098466,0.4539587063356775,1.564531387654582,-0.9435944965092714,-0.7836126595784416,0.01768739730045,0.8655503139160308,-0.5280791923633288,0.6393568981436948,-0.2480573911600033,10.113026897822238,-1.078117224330019,0.1919228484515532,-0.9678733692561684
2.06,1.1972870929671144,0.4331715160701252,1.5641684556190074,-0.0673533043746696,0.1035771862507437,0.0058096553883024,-0.9200459560856864,-0.7373916938660291,-0.0243844530420559,1.214974243344754,0.446122579739893,1.5647082616275867,-0.9556105760840948,-0.7818492531825294,0.0251409767560641,0.8777630228798777,-0.2660460413455079,0.8184711549043322,-0.1726047415605194,10.113026897822238,-1.0676624165027735,0.1966146510498684,-0.9778854957531148
2.08,1.178870779455324,0.418626294576779,1.5636504381009193,-0.0712614906982606,0.1138574347383341,0.0053190118394405,-0.9209595623742765,-0.7181471528797874,-0.0272100281862066,1.1961023534145685,0.4304503265483242,1.5650620095735956,-0.9796427352337416,-0.7783224403907051,0.0400481356672923,0.973615567250405,-0.0456803144294915,0.9622270493120866,-0.1412787572075365,10.18957415449404,-1.056946448443827,0.2006858204487093,-0.9888047969379216
2.1,1.1604806292846936,0.404479256934828,1.5630829218348394,-0.0739713574268977,0.1233852843593613,0.0049474404703557,-0.9178103391125056,-0.6977655194700428,-0.029378089126456,1.177230463484383,0.4147780733567554,1.5654157575196046,-1.0036748943833884,-0.7747956275988808,0.0549552945785205,1.0368571211144857,0.1574611630885403,1.0190816704872263,-0.1084030470124692,10.2511564150318,-1.0479071906123238,0.2036352793721933,-0.9986679756362088
2.12,1.14218825921678,0.3907479090025905,1.5624805703145477,-0.0753406768056401,0.1312492608888682,0.0047891131552263,-0.911511821573952,-0.6765685607930314,-0.0307143682854546,1.157156965596715,0.3992821608047777,1.566514863411175,-1.0277070535330353,-0.7712688148070564,0.0698624534897487,1.1076642342438114,0.3149258769276797,1.0598479338505715,-0.0668139579499319,10.308159495994914,-1.040643492505586,0.2056485333292509,-1.0076232130762046
2.14,1.1249499061875323,0.3781047187886026,1.5618892812025045,-0.0750844743881211,0.1366639457836373,0.0049111189682328,-0.9034972804624174,-0.6556217928874889,-0.0314576577939797,1.1370834677090476,0.3837862482528001,1.567613969302745,-1.051739212682682,-0.7677420020152321,0.0847696124009769,1.1219987012142956,0.4007270555767273,1.0473383952771254,-0.0371644754262531,10.379254176523318,-1.0362011517456071,0.2062241758664217,-1.014785965683579
2.16,1.1069768028890914,0.3652275432550559,1.5612615214443923,-0.0729068430827683,0.1401805896930961,0.00535292657488,-0.8943258750684041,-0.6334032190295288,-0.0312143642862976,1.1164091658426385,0.3683785060206181,1.5690857541670966,-1.0757713718323287,-0.7642151892234077,0.099676771312205,1.2019139870575648,0.4585702697006644,1.1109286928980056,0.0121646753841068,10.427179050981067,-1.0341825718559083,0.2050272456816788,-1.020144725873218
2.18,1.0891908045436682,0.3527805708163305,1.5606556928585076,-0.0689429115731306,0.1417102698845385,0.0060795456791438,-0.8848483531380624,-0.612978963354874,-0.0292688017713468,1.0951340599974884,0.3530589341082317,1.5709302180042284,-1.0998035309819754,-0.7606883764315834,0.1145839302234332,1.1299987337419422,0.473876096517084,1.021212783732739,0.0972781257475388,10.598705475219504,-1.0328233421705495,0.2021125916300412,-1.0240293963753573
2.2,1.071596062654346,0.3407143102988112,1.5601115904624228,-0.0643359673496685,0.1414994459428226,0.0069776980445353,-0.8752392575242977,-0.5949080681752,-0.0252285100499055,1.044948386886765,0.3221316226485868,1.5591922527699402,-0.8819927709753246,-0.5879421869165186,0.0051279323173124,1.0430914728627405,0.4804547806882386,0.9035447589836988,0.2020145860720651,10.598705475219504,-1.033553600068171,0.1988725453660254,-1.0269555728918138
2.22,1.0558142461968003,0.3300669141984744,1.5595664387187331,-0.0625077223810093,0.1427620754254942,0.0075356440870621,-0.8781253518944239,-0.587769675482941,-0.0356649171522718,1.044948386886765,0.3221316226485868,1.5591922527699402,-0.8819927709753246,-0.5879421869165186,0.0051279323173124,0.6484689355483684,-0.1443047185063106,0.356919634612951,-0.5218203551183165,10.708853985517637,-1.0392366083974915,0.1975587435677447,-1.0243983962559722
2.24,1.0382570992016915,0.3184294019991687,1.5587552074431867,-0.0638556250034221,0.1478371614489294,0.0076956935132607,-0.8769268175716258,-0.5760324049246195,-0.044877293705342,1.044948386886765,0.3221316226485868,1.5591922527699402,-0.8819927709753246,-0.5879421869165186,0.0051279323173124,0.7484448650998349,0.0599267161399019,0.5868635279160761,-0.4606188276535108,9.74412253695391,-1.0324587282590814,0.1991771630549454,-1.0286001575688926
2.26,1.0216404206376593,0.3076190990743959,1.5578381498501737,-0.0668958806027691,0.1544317169643526,0.0076082602391742,-0.8719465944554026,-0.5620927047549976,-0.0511135770061965,1.036128459177012,0.3162522007794216,1.5592435320931133,-0.881421654542777,-0.5829348316288475,0.0120072791350443,0.8031330719669638,0.2490111558111629,0.6969850084810936,-0.3118141650427237,9.941648145800173,-1.0256678339938932,0.2027982476067191,-1.0347711994511553
2.28,1.00428490279702,0.2965634935603877,1.5567669902092702,-0.0703873319161941,0.1621379678420237,0.0074317703239335,-0.8635681225593669,-0.5441797867680181,-0.055621994967375,1.0184886037575054,0.3044933570410912,1.5593460907394596,-0.8802794216776819,-0.5729201210535053,0.025765972770508,1.014146506469343,0.4189235948017844,0.8956458993489735,-0.2254208980589238,10.10887031123002,-1.0184255192024687,0.2068846588673459,-1.0426882596893403
2.3000000000000003,0.9871259322047083,0.2858891332001657,1.555625406924174,-0.0731698211844639,0.17001764781873,0.0072799906225843,-0.852508430637933,-0.5244034291563213,-0.0583472092265536,1.0008487483379989,0.2927345133027609,1.5594486493858055,-0.8791371888125867,-0.5629054104781631,0.0395246664059717,1.141104616743332,0.5529845960716928,0.9888178805848412,-0.1362607129589292,10.243075294124536,-1.011585040329675,0.2102676238760141,-1.0512500844322412
2.32,0.9710520995582008,0.2761251643072743,1.5545052466307778,-0.0748400644023194,0.1773618686888768,0.0072085182579711,-0.8398426835321342,-0.5046286144706895,-0.0594511389186302,0.9832660045617472,0.2814764050931976,1.5602391427139253,-0.8779949559474916,-0.5528906999028209,0.0532833600414354,1.1754606611496818,0.633287355289941,0.9887407342815902,-0.0551964846038342,10.474697096671662,-1.0049973618701196,0.2129417623080681,-1.0605095077922564
2.34,0.9544171436135692,0.2662589536668248,1.553311326523534,-0.0753988724871623,0.1846294615290696,0.007254209627462,-0.8241445432188101,-0.4831483605785306,-0.0598648200772066,0.9656832607854954,0.2702182968836343,1.5610296360420446,-0.8768527230823965,-0.5428759893274787,0.0670420536768991,1.3304172735173885,0.784907015666203,1.0740126946079425,-0.0206840579288186,10.474697096671662,-0.9993700424239532,0.2145204916419694,-1.0699678376544544
2.36,0.9381261634492792,0.2568324459800734,1.5521169107192994,-0.0743015975589883,0.1908405634175319,0.0075070155141001,-0.8056567032605311,-0.4607608933352063,-0.0595194782389048,0.948129072830871,0.2592105564384547,1.5621640967110506,-0.8757104902173013,-0.5328612787521366,0.0808007473123628,1.451824866227968,0.9243919979139535,1.1193733621662176,0.0172670919150907,10.543508193548403,-0.9950336415706024,0.2145816698954533,-1.078709805993603
2.38,0.9222300897326547,0.2478567090148887,1.550942531374859,-0.0711165819672379,0.1953513558951661,0.0080511850609539,-0.7849885529908157,-0.4385290169707583,-0.0579013026211286,0.930603440697874,0.2484531837576585,1.5636425247209431,-0.8745682573522062,-0.5228465681767944,0.0945594409478265,1.519907278903554,1.033407513485768,1.1115938182224006,0.0809087808888085,10.70840586146096,-0.9919319212032144,0.2126072460323612,-1.08656101700173
2.4,0.9075257976711772,0.239716070285072,1.549873477532913,-0.0668521804222334,0.1978075733578133,0.0088016988948533,-0.7640385699392116,-0.4198521999111695,-0.0546817554740771,0.8829806620831141,0.2259302581663508,1.5480474662438026,-0.763920980233214,-0.4208623269192026,-0.0257322511527563,1.4125250167447765,1.0474991525802058,0.9338408529794368,0.1609773573525763,10.70840586146096,-0.9915637936194152,0.2092994539605778,-1.092821792662633
2.42,0.8924137743043643,0.2314949940387508,1.5486373707420404,-0.0620118018166626,0.1993561338277594,0.0096964116525552,-0.7484931332807142,-0.4034892360707893,-0.0700406955255205,0.8829806620831141,0.2259302581663508,1.5480474662438026,-0.763920980233214,-0.4208623269192026,-0.0257322511527563,1.36501302745503,0.7772718329248696,0.8181481920190137,-0.7679470025721696,10.816867591402117,-0.9989950829454756,0.205693944210821,-1.0949163072959422
2.44,0.8776209907430047,0.2235851811975424,1.547106137685029,-0.0572546184868971,0.2005963723471223,0.0106093441794121,-0.7315716202983692,-0.3884027857715588,-0.0822008529388873,0.8829806620831141,0.2259302581663508,1.5480474662438026,-0.763920980233214,-0.4208623269192026,-0.0257322511527563,1.2862814744066349,0.8460756491172505,0.7543225149615251,-0.6080078706683402,9.607530764726109,-0.9981759583286116,0.2017250510693058,-1.0952700946776586
2.46,0.863895242135759,0.2163409120125033,1.5454751965826734,-0.0530454692938637,0.2012448808023518,0.0114866895670119,-0.714161737018371,-0.3749255516835481,-0.0888764516272838,0.875341452280782,0.2217216348971587,1.547790143732275,-0.7597074656816937,-0.4173289889088915,-0.0192984408590818,1.1503298356718352,0.8704941639999075,0.673861704400533,-0.3337799344198248,10.19915821720042,-1.0001478888797837,0.1981749729929824,-1.0967291895564493
2.48,0.8498133503298407,0.2089849772925023,1.5436618900768584,-0.0490299551809123,0.2013102290467544,0.0124116260690239,-0.6949774302338972,-0.3613990717544494,-0.0919259476303562,0.8600630326761176,0.2133043883587747,1.54727549870922,-0.751280436578653,-0.4102623128882693,-0.0064308202717329,1.183535711275616,0.9592153392236902,0.6763239964549334,-0.1524748001536208,10.19915821720042,-1.003249820583075,0.1951816287509309,-1.098579135692467
2.5,0.8361229118081411,0.201894278616362,1.5418255515945514,-0.0454177907150431,0.2006934877966172,0.0133360931958523,-0.6750749454905439,-0.3483752145528379,-0.0914113223737071,0.8447846130714534,0.2048871418203906,1.5467608536861648,-0.7428534074756122,-0.403195636867647,0.006436800315616,1.1895320450939535,0.995124237167666,0.6511928600805766,0.0257312628324547,10.434263347280648,-1.0069191141207603,0.1928017884315185,-1.1006586688149655
2.52,0.822837350851321,0.1950590447759752,1.5400339628442223,-0.0421541784859125,0.1992704104708794,0.0142638460236932,-0.6545890827724312,-0.3358247147533019,-0.0877795603739272,0.8299275449219411,0.1968232290830377,1.546889589692477,-0.7344263783725715,-0.3961289608470247,0.0193044209029649,1.2148820022398863,1.024293135905635,0.6275249899767993,0.1815880999889947,10.63829119455022,-1.0117203933383228,0.1906985986116131,-1.1027219006181763
2.54,0.8105969448863334,0.1887935740217327,1.5384152919197285,-0.0393194738913076,0.1970237868003273,0.0151531391757438,-0.6350098015273589,-0.3243547178586062,-0.0827821111442625,0.8150704767724288,0.1887593163456847,1.5470183256987893,-0.7259993492695308,-0.3890622848264025,0.0321720414903139,1.161769750898438,0.9789640622536178,0.5734998447347844,0.2498724614832366,10.810029306624529,-1.0178391257813142,0.1889293994257273,-1.104164964919737
2.56,0.7981118268918178,0.1824298059766352,1.5368281904578949,-0.0365449755779866,0.193566579550183,0.0161024229227127,-0.6146479992342647,-0.3126825116728601,-0.0761137266051367,0.8004240843504926,0.1808720705088473,1.5474687522197854,-0.7175723201664902,-0.3819956088057802,0.0450396620776628,1.2199495299266248,1.0180901146547072,0.583610309287308,0.3334192269562906,10.90131208918774,-1.0252060778955463,0.1873904521707088,-1.1046220353990608
2.58,0.786028757677181,0.1762950843364606,1.5353917614270265,-0.0339228799673015,0.1888775225272795,0.0170670001565847,-0.5948673117015804,-0.3014425124309385,-0.0678396004562623,0.7859883676561324,0.1731614915725255,1.5482408692554652,-0.7091452910634495,-0.374928932785158,0.0579072826650117,1.2104486211231555,0.989034376634218,0.5619999620960797,0.4137063074437195,10.984482673763525,-1.0329751748129672,0.186017149843015,-1.1035881192041768
2.6,0.7749034682334435,0.1706707711022217,1.5341953135880613,-0.0315467471377392,0.1833817832190278,0.0179898252568186,-0.5775056268129825,-0.2912154512510934,-0.0584849014153225,0.7562853920921019,0.1612229587149137,1.5319997814042132,-0.6092377531383479,-0.2767429976991737,-0.0129514116173035,1.110778191960284,0.8680842444298953,0.5113530589922533,0.4677349520469904,11.068784384150604,-1.0424065842278551,0.1847620506031005,-1.1023285022465468
2.62,0.7635585310685798,0.1649056821454138,1.533027517086319,-0.030664485603767,0.1753991714272109,0.0188964020609976,-0.5585079510985123,-0.2854399164755373,-0.0592522163948448,0.7562853920921019,0.1612229587149137,1.5319997814042132,-0.6092377531383479,-0.2767429976991737,-0.0129514116173035,0.9935507747136376,0.9498837857235098,0.2887767387778045,-0.0383657489761175,11.151919648047624,-1.053719490894151,0.1853540720097488,-1.10206119957191
2.64,0.7525509703207568,0.1592720641771198,1.5318645043473835,-0.032124676180641,0.1646824433130009,0.0197254853991474,-0.5437376057513825,-0.2780407919564693,-0.056685618267763,0.7562853920921019,0.1612229587149137,1.5319997814042132,-0.6092377531383479,-0.2767429976991737,-0.0129514116173035,0.8359090430006272,0.7385172673564866,0.3699562259533995,0.1283299063540892,10.450194083518,-1.0677459897925412,0.1876469481264009,-1.090586218858666
