t,x,y,z,roll,pitch,yaw,v_x,v_y,v_z,ref_x,ref_y,ref_z,ref_v_x,ref_v_y,ref_v_z,a_com,a_x,a_y,a_z,thrust,wind_x,wind_y,wind_z
0.0,0.3543968907284059,1.4283533435194022,2.500757871302377,0.0232330595949118,0.1365566320692283,0.0263857692934078,0.0045374951829846,-0.0013752164489539,0.0152472598278179,0.3545290477120966,1.4284209620104642,2.501220821331005,-0.0955609875465544,-0.0986960249487393,-0.0846172911903958,0.7983718041646921,0.2268747591492305,-0.0687608224476963,0.7623629913908994,10.55371415341051,-1.2858447799671693,0.1520950489678795,-1.1756802910348532
0.02,0.3546146458128141,1.4285675787690413,2.5008275111023357,0.0307176000474191,0.1312980759316982,0.0267493962531677,0.0171400805082275,0.0185424878230122,-0.0078376921525529,0.3545290477120966,1.4284209620104642,2.501220821331005,-0.0955609875465544,-0.0986960249487393,-0.0846172911903958,1.6495871515939675,0.6301292662621465,0.9958852135983084,-1.1542475990185468,9.206700543247734,-1.296826831485402,0.1444550113597839,-1.1809841700267345
0.04,0.3550446559550446,1.4289572538010296,2.5003659866918806,0.0450192068903773,0.1162218191890779,0.0271113148003294,0.0238390406340405,0.0186427260328863,-0.0370970583314824,0.3545290477120966,1.4284209620104642,2.501220821331005,-0.0955609875465544,-0.0986960249487393,-0.0846172911903958,1.5008302899217454,0.3349480062906496,0.0050119104937046,-1.4629683089464762,9.206700543247734,-1.328240110873734,0.130263397941772,-1.149653753839803
0.06,0.3554943295002948,1.429266774150219,2.499321221808592,0.0597420615851458,0.0953080935586091,0.0269176868280067,0.0197801180922903,0.0119354543956312,-0.0657889467004914,0.353573437836631,1.4274340017609768,2.5003746484191014,-0.1155609878445776,-0.1186960252467625,-0.104617291488419,1.4871842548886876,-0.2029461270875098,-0.3353635818627556,-1.4345944184504498,8.921584554640049,-1.3574817671848078,0.1165143527185177,-1.1083167428122789
0.08,0.3557560859281563,1.4294023476386852,2.497717586833566,0.073882321398752,0.0726766615590822,0.0262011365275279,0.0060262536511264,0.0016340386264721,-0.093087597259871,0.3516622180857,1.425460081262002,2.498682302595294,-0.1555609884406241,-0.1586960258428089,-0.1446172920844654,1.6128424258728034,-0.6876932220581933,-0.5150707884579558,-1.3649325279689797,8.907565100931606,-1.3810417670485866,0.1028685365777783,-1.058829506676268
0.1,0.3556717883877237,1.4293124006326785,2.495697467113386,0.0866839366719671,0.0522610255950186,0.025213428577544,-0.0144080104783357,-0.0108452829876585,-0.1181831327443813,0.3497509983347688,1.4234861607630271,2.4969899567714857,-0.1955609890366705,-0.1986960264388554,-0.1846172926805119,1.7342711147019731,-1.0217132064731114,-0.6239660807065339,-1.2547767742255134,8.944869612606908,-1.3963707156261098,0.090198616961181,-1.0118994386636808
0.12,0.3551056198648677,1.4289348412133576,2.493060078801533,0.0995232153036464,0.0336221548104694,0.0240604620603716,-0.0413061532194696,-0.0265396268110597,-0.1442135290162994,0.3458397785540354,1.4195122402342502,2.4932976109178755,-0.235560989632717,-0.2386960270349018,-0.2246172932765583,2.029411269951604,-1.3449071370566952,-0.7847171911700583,-1.301519813595904,8.983622781503982,-1.4022648188454774,0.0785984898402167,-0.9670621006323852
0.14,0.3539545489781436,1.4282178758376831,2.489899769186652,0.1117449292929618,0.0189307787657047,0.0229951034131832,-0.0722464292925587,-0.0446330454574772,-0.1704932112289194,0.341928558773302,1.415538319705473,2.4896052650642653,-0.2755609902287635,-0.2786960276309483,-0.2646172938726048,2.222214086777978,-1.5470138036544523,-0.9046709323208748,-1.3139841106310015,9.004216970524794,-1.4005550045551596,0.0686212693996858,-0.9283973888385628
0.16,0.352259190939174,1.4271800810236717,2.4864090393022296,0.1228076828480618,0.0091335439932091,0.022230018666595,-0.1044329503452561,-0.0639177084304574,-0.1956318560512394,0.3370173389776674,1.4105643991617949,2.4849129191957537,-0.3155609908248099,-0.3186960282269948,-0.3046172944686512,2.2582193355384708,-1.6093260526348705,-0.9642331486490102,-1.2569322411160015,9.004216970524794,-1.3961737531275458,0.0587990592029354,-0.8998603695637153
0.18,0.3497954258478563,1.4256472830445863,2.48221163227097,0.1331515791672736,0.0036949248011394,0.021815664225336,-0.1402464667696872,-0.0881789648883678,-0.2227614838635735,0.3311061191671317,1.4045904786032153,2.479220573312341,-0.3555609914208563,-0.3586960288230412,-0.3446172950646977,2.553053675912077,-1.7906758212215572,-1.2130628228955207,-1.3564813906167026,9.009732439684283,-1.3862959802340349,0.0504119020199773,-0.8779442883283494
0.2,0.3466134007412039,1.423601611079908,2.477470438240988,0.1414218816208743,0.0035614528577187,0.0219140294770766,-0.1755450296692011,-0.1148472688202896,-0.2498729318508121,0.342783102509372,1.4212383348001685,2.471073558077792,-0.2402464682598034,-0.1881789663784839,-0.3227614853536896,2.594329195255026,-1.7649281449756928,-1.333415196596089,-1.3555723993619315,9.006238122235118,-1.3675646664277827,0.0438312598685881,-0.8637975499386311
0.22,0.3429329978190172,1.4210204627278242,2.472598078351387,0.1437444810816442,0.0085168641042199,0.0223375120265013,-0.2095112429635223,-0.1540703972061131,-0.2605187638431123,0.342783102509372,1.4212383348001685,2.471073558077792,-0.2402464682598034,-0.1881789663784839,-0.3227614853536896,2.6483443812759706,-1.69831066471606,-1.9611564192911772,-0.532291599615009,9.006130487008704,-1.335525943627944,0.0402845170308018,-0.8595952998467427
0.24,0.3384175061005041,1.4175733943223885,2.467278694896004,0.1396682268663525,0.0185003116336327,0.0229957103647063,-0.239515932216417,-0.1873058584236273,-0.2708657110675064,0.342783102509372,1.4212383348001685,2.471073558077792,-0.2402464682598034,-0.1881789663784839,-0.3227614853536896,2.297790556364993,-1.500234462644734,-1.6617730608757084,-0.5173473612197027,10.09078241307725,-1.3107301005611498,0.0414916924688102,-0.8729554376721336
0.26,0.3333629998321759,1.41354053820152,2.4617228150011963,0.1332670082687461,0.0309099374113978,0.0237689756025669,-0.263882062656424,-0.2138191239577236,-0.2840947382466126,0.3403806378267739,1.4193565451363834,2.467845943224255,-0.2602464685578266,-0.2081789666765071,-0.3427614856517129,1.9181167339388288,-1.2183065220003522,-1.3256632767048124,-0.6614513589553089,9.64318530654964,-1.2891542819026454,0.0451146750926858,-0.8851635432088141
0.28,0.3281595060203843,1.4092610022832568,2.456171082512796,0.1269615096878431,0.0433128071077416,0.0244918505158256,-0.28231089667282,-0.235240752385534,-0.2996205159982685,0.3355757084615778,1.4155929658088138,2.461390713517181,-0.300246469153873,-0.2481789672725536,-0.3827614862477593,1.6121087606740965,-0.9214417008198,-1.071081421390524,-0.7762888875827989,9.64318530654964,-1.268451287891699,0.0493557912275094,-0.8994045065797319
0.3,0.3223480646726218,1.404345728314093,2.449978001644133,0.1209099098347489,0.0557683148510668,0.0251376709619966,-0.2975798934496449,-0.2551538165517948,-0.3190334393088697,0.3307707790963818,1.411829386481244,2.4549354838101074,-0.3402464697499195,-0.2881789678686001,-0.4227614868438057,1.586295983197644,-0.7634498388412458,-0.9956532083130396,-0.9706461655300592,9.252878066055928,-1.25077627458878,0.0535834105212083,-0.9109359881219712
0.32,0.3162672005625558,1.399050877569047,2.4433660952362968,0.1157357098667225,0.0667640927904412,0.0256019673640634,-0.3095845604490594,-0.2733844369890886,-0.3413206719736896,0.3239658497013834,1.406065807123872,2.446480254073231,-0.3802464703459659,-0.3281789684646465,-0.4627614874398522,1.5597982971776498,-0.6002333499707246,-0.9115310218646894,-1.114361633240993,9.10230322204825,-1.2366645391278297,0.0572261849783186,-0.9185917546917238
0.34,0.3102934611013255,1.3936957932755574,2.436653180857713,0.111688750152779,0.0753761296964405,0.0258474034439077,-0.3186469564977126,-0.2895560030806663,-0.3641995662077565,0.317160920306385,1.4003022277665,2.4380250243363557,-0.4202464709420124,-0.368178969060693,-0.5027614880358987,1.4723199154485185,-0.4531198024326555,-0.8085783045788858,-1.1439447117033483,9.10230322204825,-1.2249888224780003,0.06052648292179,-0.9230383350462242
0.36,0.3038313083299986,1.3877272068162378,2.4291033059028018,0.1080406650386246,0.08248052762178,0.0258993671821716,-0.327078965203232,-0.3064249226383276,-0.3896402361063488,0.3093559908964854,1.393538648394227,2.428569794584578,-0.4602464715380588,-0.4081789696567394,-0.5427614886319451,1.5834194822771526,-0.4216004352759733,-0.8434459778830616,-1.2720334949296113,9.018896602320638,-1.216755636145877,0.0634469168744915,-0.9243773730323576
0.38,0.2972080792572111,1.3814250388945193,2.421033744037784,0.1046970149037234,0.0878220058464969,0.0257619491318644,-0.3348354434905727,-0.3228812565378632,-0.4160694904611703,0.3005510614716847,1.3857750690070527,2.4181145648179,-0.5002464721341052,-0.4481789702527858,-0.5827614892279915,1.6042750438958782,-0.3878239143670331,-0.8228166949767829,-1.3214627177410787,8.949239984818632,-1.2103632816570573,0.066116462389522,-0.923253515529441
0.4,0.2904338368412413,1.3747997738146636,2.412426173210361,0.1015178650601269,0.0916807168218636,0.0254681595973755,-0.3422547545822781,-0.338748243932942,-0.4433428043040243,0.2804663070826825,1.365280976067626,2.4002302695147253,-0.4054768493710239,-0.4228812580279794,-0.5160694919512865,1.62067972934345,-0.370965554585273,-0.7933493697539401,-1.3636656921426986,8.898936810540363,-1.2057822902202788,0.0685177853431277,-0.9203192281331396
0.42,0.2838349516762542,1.36820303224017,2.403968054141692,0.0989133456462355,0.095826539098764,0.0252576340588364,-0.3515097487938851,-0.3549712116198293,-0.4456464509631075,0.2804663070826825,1.365280976067626,2.4002302695147253,-0.4054768493710239,-0.4228812580279794,-0.5160694919512865,0.9409388746839118,-0.4627497105803457,-0.8111483843443623,-0.1151823329541612,8.853396490138039,-1.1916527474801617,0.0698530035601198,-0.9192688756658172
0.44,0.2767258343412753,1.3609427251533412,2.3949958361347785,0.0970795051464637,0.1016962627039083,0.0252395913999122,-0.3586296123253121,-0.3703629937613802,-0.4518101984653017,0.2804663070826825,1.365280976067626,2.4002302695147253,-0.4054768493710239,-0.4228812580279794,-0.5160694919512865,0.9022072897481992,-0.3559931765713536,-0.7695891070775479,-0.3081873751097058,10.261427748136157,-1.1839893812558295,0.070673941424524,-0.9258031398887347
0.46,0.269499396581542,1.3533773039871562,2.385843120588142,0.0961773604876975,0.1079667964505143,0.0253186838702117,-0.3634796831125421,-0.3854346308479935,-0.4633732685935233,0.2764115385889722,1.3610521634873465,2.3950695745952126,-0.4196051305471141,-0.4428812583260026,-0.5360694922493097,0.9802831502962416,-0.2425035393614966,-0.7535818543306649,-0.5781535064110804,9.934810650058353,-1.177266361720254,0.0709667798180008,-0.93091978420214
0.48,0.2621958867526806,1.3455169146973305,2.3764087369118627,0.0960716327671046,0.113842845670238,0.0254123572975642,-0.3665490204173346,-0.399925857489765,-0.4794716119809006,0.2683020016015517,1.3525945383267868,2.384748184756187,-0.4478616928992946,-0.482881258922049,-0.5760694928453561,1.0938157304725686,-0.1534668652396265,-0.7245613320885747,-0.8049171693688684,9.64694366671938,-1.171974333635866,0.0707781677845595,-0.9339632262875645
0.5,0.2552137085842374,1.33778504576625,2.36711601313432,0.0967392264711316,0.1186201866666766,0.0254779012587946,-0.3682567554821355,-0.4133107751456185,-0.4979005839118443,0.2601924646141313,1.344136913166227,2.374426794917161,-0.4761182552514751,-0.5228812595180955,-0.6160694934414026,1.1420369807246131,-0.0853867532400437,-0.6692458827926739,-0.9214485965471808,9.4240453391576,-1.1671654463184886,0.0699515973814605,-0.9353000754367712
0.52,0.2478375279330795,1.3293743219053695,2.3569294541968,0.0983485861530071,0.122564843513066,0.0255075404096685,-0.3692778790692015,-0.4271420420962056,-0.5199004741250385,0.2506700995091018,1.3336792879758652,2.362105405048333,-0.5043748176036555,-0.562881260114142,-0.6560694940374491,1.3003286202255402,-0.0510561793533037,-0.6915633475293531,-1.0999945106597102,9.253897644169228,-1.1637664663760694,0.0684138720102859,-0.934570070309634
0.54,0.2404475993915673,1.3206820520401876,2.346290028255079,0.100869538395916,0.1253056679811385,0.0254846738178132,-0.3696994496813829,-0.4416667758820486,-0.5429828488593059,0.2411477344040722,1.3232216627855031,2.349784015179505,-0.5326313799558361,-0.6028812607101884,-0.6960694946334955,1.3637646760931796,-0.0210785306090671,-0.7262366892921535,-1.154118736713372,9.113022016914329,-1.1612147896957672,0.0662089637260816,-0.9324895487885294
0.56,0.2330504194037858,1.3116730508198202,2.335181522481941,0.1034265098585791,0.1269438891988385,0.0253528939829788,-0.3700740793035444,-0.4584096260966566,-0.5666891749893967,0.2309189552402382,1.3117640375802402,2.336462625295776,-0.5608879423080165,-0.6428812613062348,-0.7360694952295419,1.451252286172899,-0.0187314811080752,-0.8371425107303987,-1.1853163065045411,9.068020286093088,-1.159178219084401,0.0637213704087735,-0.9301665116888804
0.58,0.2260146776455154,1.3027935006494251,2.3241852814140502,0.1052643633693362,0.1277107454461348,0.0251019760190196,-0.3705734863909034,-0.4752449335445058,-0.5895915573034708,0.2199837620175997,1.299306412360076,2.3221412353971456,-0.589144504660197,-0.6828812619022813,-0.7760694958255884,1.4214394992071608,-0.024970354367948,-0.8417653723924584,-1.1451191157037022,9.047850374127847,-1.1578271645963945,0.0617542602246099,-0.9266734557788128
0.6,0.218595254386727,1.293097361843854,2.31213410600774,0.106411847635403,0.1278972313437172,0.0247136207265724,-0.3713955589880576,-0.493411623244548,-0.6143308951137048,0.2074860033259703,1.2790312539722,2.2947057035488765,-0.3930398013474492,-0.5752449350346219,-0.6895915587935869,1.5352029615831608,-0.0411036298577111,-0.9083344850021102,-1.2369668905116982,9.028893523641273,-1.157036112062442,0.0604667566004726,-0.9223241464352356
0.62,0.211109193458727,1.282974669469215,2.29982314354737,0.1055317199826377,0.1301574879101815,0.0244018957598503,-0.3766505204388983,-0.5177230358593456,-0.6142630699652987,0.2074860033259703,1.2790312539722,2.2947057035488765,-0.3930398013474492,-0.5752449350346219,-0.6895915587935869,1.243647863572643,-0.262748072542035,-1.2155706307398817,0.0033912574203043,8.991444377203152,-1.1471401397829786,0.0604555797351809,-0.9172411890638186
0.64,0.203929135309103,1.2729255331502096,2.2881291074414296,0.102353779762938,0.1357826000455256,0.0243019313873843,-0.3784349783825856,-0.5383939020114241,-0.6168042120154674,0.2074860033259703,1.2790312539722,2.2947057035488765,-0.3930398013474492,-0.5752449350346219,-0.6895915587935869,1.0451392258319798,-0.0892228971843656,-1.0335433076039235,-0.1270571025084377,10.538073074064414,-1.1394364418339638,0.0623610533150348,-0.925205995855676
0.66,0.1963660282589339,1.2619638059873928,2.2757145351313097,0.0979994608044023,0.1435219466065944,0.0242898737633415,-0.3774453350438116,-0.5564112638981253,-0.624759942083089,0.2035556053124958,1.2732788046218535,2.2878097879609407,-0.3975330643387583,-0.5952449353326451,-0.7095915590916101,0.9860253092633984,0.0494821669386968,-0.9008680943350612,-0.3977865033810812,10.17406595821285,-1.1319784717936208,0.0655117505971901,-0.933286814794221
0.68,0.1888469323622942,1.250668904587175,2.26308948807627,0.0936086596926073,0.152062319718704,0.0243224655674156,-0.3742439459995091,-0.5720634185125943,-0.6375483838607867,0.1956948092855468,1.2617739059211617,2.2740179567850687,-0.4065195903213767,-0.6352449359286916,-0.7495915596876566,1.023209508104018,0.1600694522151252,-0.7826077307234502,-0.6394220888848834,9.85063225605154,-1.125188447883943,0.0687477569381249,-0.9404166771599212
0.7000000000000001,0.1814106394577557,1.2390800052281292,2.2501627957415846,0.0895604916109088,0.1608047647589439,0.0243657071880166,-0.3692861910004107,-0.5860453714065146,-0.6544848190586552,0.1878340132585978,1.250269007220469,2.260226125609197,-0.415506116303995,-0.675244936524738,-0.789591560283703,1.125741065443657,0.2478877499549225,-0.6990976446960118,-0.8468217598934236,9.5922030362035,-1.1184003586075038,0.0720137047565001,-0.9470418983277534
0.72,0.1744529391502209,1.2278237956115623,2.2375388463172263,0.0861733159961161,0.1689966819475492,0.0244018456901835,-0.3631561730710122,-0.5981704859826077,-0.6735222791465764,0.1795238909325179,1.2367641084899743,2.244434294403523,-0.4244926422866134,-0.7152449371207845,-0.8295915608797495,1.1694233727539871,0.3065008964699245,-0.6062557288046555,-0.9518730043960588,9.389605005359954,-1.1120481535155655,0.0749321628822269,-0.9529842015701572
0.74,0.1672708628728157,1.2157364194603275,2.2238428718205547,0.0831881014887436,0.1773272499128736,0.0244320053420755,-0.3551849167837151,-0.609988383291352,-0.6951617827782149,0.171213768606438,1.2232592097594794,2.228642463197849,-0.4334791682692317,-0.755244937716831,-0.869591561475796,1.295638588709731,0.3985628143648528,-0.5908948654372137,-1.081975181581929,9.23322352796913,-1.105379407191908,0.077268684199751,-0.9592587287505066
0.76,0.16026374677315,1.2034102205782862,2.2097009850821068,0.0805351286425157,0.1852661570295482,0.0244340177116184,-0.345747158474255,-0.6219511735286061,-0.7179538174194771,0.1626789831307926,1.2087543110140837,2.2118506319772737,-0.44246569425185,-0.7952449383128773,-0.9095915620718424,1.3708177078452284,0.4718879154730071,-0.5981395118627053,-1.1396017320631058,9.157654332626407,-1.0995835458193368,0.0792630555399935,-0.9643128378126464
0.78,0.153799023930332,1.191481527659761,2.1958346589512536,0.0780349796465699,0.1922668315648809,0.0243786303227295,-0.3351272440047732,-0.6329898085449421,-0.7405237450724301,0.1539195345055818,1.1932494122537864,2.1940588007417974,-0.4514522202344683,-0.8352449389089238,-0.9495915626678888,1.363850872183727,0.5309957234740897,-0.5519317508168031,-1.1284963826476535,9.075182088328802,-1.0941684105152505,0.0813556955859993,-0.9689165795926948
0.8,0.14722972353587,1.178705421837426,2.1807640476106505,0.0753878066127529,0.1987262771193163,0.0242344288513778,-0.3222916022904329,-0.6439457196167153,-0.765397363614756,0.1370426617300934,1.159832037232514,2.158808471697632,-0.334398008009678,-0.7329898100350583,-0.8333028450136838,1.5028993521030036,0.6417820857170159,-0.5477955535886592,-1.243680927116292,9.075182088328802,-1.0901239011918196,0.083497509092854,-0.9723550585853244
0.8200000000000001,0.1409736786561706,1.165691544943046,2.1654797750712818,0.0726203893866067,0.2045354300487243,0.0240206970192808,-0.3037792245410216,-0.6566942625801336,-0.761799834012618,0.1370426617300934,1.159832037232514,2.158808471697632,-0.334398008009678,-0.7329898100350583,-0.8333028450136838,1.138173643238675,0.925618887470564,-0.637427148170916,0.1798764801068997,9.023555145171484,-1.0828337448576613,0.0856580553890631,-0.9653300442286132
0.84,0.1353783796129315,1.1531133949606958,2.1510028427156715,0.0702683189112594,0.2098573903164757,0.023813564997931,-0.2860130004184791,-0.6668199946730973,-0.7623754525024202,0.1370426617300934,1.159832037232514,2.158808471697632,-0.334398008009678,-0.7329898100350583,-0.8333028450136838,1.022864246413824,0.8883112061271264,-0.5062866046481818,-0.0287809244901127,10.683664407030848,-1.0822824448745194,0.0876977898295164,-0.9718667010378368
0.86,0.1298537563939309,1.139672682835653,2.1357014955688567,0.0683380691436779,0.2152344700719738,0.0236113595414243,-0.2673018283663264,-0.6767724214063754,-0.7679648173888862,0.1336986816499966,1.1525021391321633,2.1504754432474957,-0.3342521608106589,-0.7529898103330814,-0.8518586650019345,1.0959011785747237,0.9355586026076336,-0.4976213366639059,-0.2794682443232998,10.339060690958831,-1.0818730861868386,0.0892808216545981,-0.9772344022454396
0.88,0.1247138272171531,1.1260394829293343,2.1202420316695227,0.0669221679451411,0.2200718799066392,0.0234046237048238,-0.2475905320327811,-0.6860615686247896,-0.7778691599933398,0.127010721489803,1.137842342931462,2.1338093863472216,-0.3339604664126209,-0.7929898109291279,-0.888970304978436,1.1967868039260403,0.9855648166772631,-0.4644573609207114,-0.4952171302226804,9.83525682401978,-1.0815453003775544,0.0903939087775811,-0.9815471907282216
0.9,0.1199782072060718,1.1122284300879963,2.1045484898825704,0.0661281945385016,0.2238032523767045,0.0231666393013947,-0.2270012426990686,-0.6946077154776649,-0.7911068824940498,0.1203227613296095,1.123182546730761,2.117143329446948,-0.3336687720145828,-0.8329898115251744,-0.9260819449549376,1.2963340216780932,1.0294644666856243,-0.4273073426437623,-0.661886125035499,9.83525682401978,-1.0824791945967318,0.0909686951635629,-0.9838872479033298
0.92,0.1158654236353576,1.0989565260479233,2.089368059051235,0.066161839116997,0.2259541434909503,0.0229051040977693,-0.2070949673754746,-0.7021124719932037,-0.8061373184091482,0.1136493858893178,1.1065227505002575,2.098621690547849,-0.3333770776165446,-0.8729898121212208,-0.9631935849314388,1.3023969934452864,0.9953137661797008,-0.3752378257769417,-0.751521795754917,9.66815807897092,-1.0852753991837838,0.0908737942887258,-0.9839565034999798
0.94,0.1119453320944064,1.0848359259085805,2.073072007354685,0.0672628441921063,0.2266530154246401,0.0226029305998321,-0.1860589210250441,-0.7096629847453142,-0.822685862784163,0.1069760104490261,1.089862954269754,2.0801000516487504,-0.3330853832185066,-0.9129898127172672,-1.0003052249079405,1.390485355738313,1.0518023175215274,-0.3775256376055247,-0.8274272187507425,9.504007871741123,-1.0894728935904052,0.0897917845168303,-0.981658829754506
0.96,0.1084511466038064,1.0705524713354155,2.056441856641749,0.069290279625229,0.225513149120092,0.0222404545140613,-0.1645533971197363,-0.71834280164273,-0.8394640563528136,0.1003099273686854,1.0722031580243494,2.060650621750239,-0.3327936888204685,-0.9529898133133136,-1.0374168648844415,1.431201033434455,1.0752761952653913,-0.4339908448707907,-0.8389096784325312,9.504007871741123,-1.0948443032977286,0.087955444588807,-0.9777633156432608
0.98,0.1055331116789027,1.056807709740659,2.0403314224935523,0.071506889298091,0.2223252647473998,0.0217629044410566,-0.1438401483341222,-0.7281061158678238,-0.855493192987403,0.0936511366482957,1.0535433617640435,2.040273400852316,-0.3325019944224304,-0.99298981390936,-1.0745285048609432,1.3975820201002476,1.0356624392807017,-0.48816571125469,-0.801456831729469,9.496632138077985,-1.1025965668923852,0.0857261460248766,-0.9709309359362608
1.0,0.1028759437096306,1.042126637047112,2.0230431888105755,0.0735262344379951,0.2165376764908313,0.0210507508722712,-0.12344581202918,-0.7394451450346351,-0.8724070245684067,0.0983411042621966,1.0204024039472677,1.9975567628441824,-0.1608337045057779,-0.8281061173579399,-0.8686787508967129,1.4409894469733622,1.0197168152471106,-0.5669514583405644,-0.845691579050184,9.491096371679305,-1.114027362109125,0.0838738500307381,-0.9606224332929986
1.02,0.1007275962454173,1.0271189320748602,2.0058435592878605,0.0729827692021731,0.2078900107821602,0.019940859092841,-0.092496353155159,-0.7603438012304569,-0.844289680828475,0.0983411042621966,1.0204024039472677,1.9975567628441824,-0.1608337045057779,-0.8281061173579399,-0.8686787508967129,2.337310342239212,1.5474729437010504,-1.0449328097910882,1.4058671869965844,9.469244280147905,-1.113358629338366,0.0836604612138055,-0.9332457448539402
1.04,0.0991706960001568,1.0117082846391947,1.9892633863686395,0.0685803980597733,0.1961715273127113,0.0183773657745876,-0.0655640288449567,-0.7786611459962801,-0.8151753648064506,0.0983411042621966,1.0204024039472677,1.9975567628441824,-0.1608337045057779,-0.8281061173579399,-0.8686787508967129,2.1843297653114626,1.346616215510113,-0.9158672382911626,1.4557158011012206,12.529570625398264,-1.1303955036891953,0.0869018352495658,-0.9213847370490208
1.06,0.0981380385847752,0.9967821151440096,1.9740047222552035,0.0629168320229308,0.183008801096603,0.0167366714822071,-0.0451216223579717,-0.7912673698655105,-0.7923137058836185,0.0967327672171388,1.0121213427736884,1.988869975335215,-0.164232415740109,-0.8481061176559631,-0.8713158624785748,1.6579085559253486,1.0221203243492516,-0.6303111934615191,1.1430829461416048,12.15569121804674,-1.1497402784667758,0.0915398581379934,-0.9068820176238208
1.08,0.0974112106731369,0.9808476929948162,1.9583704148267944,0.0569316528840798,0.1677255112618698,0.0150350583800643,-0.0293044803402301,-0.8013879788841353,-0.7724439320360637,0.0935160931270233,0.9955592204265294,1.9714964003172808,-0.1710298382087713,-0.8881061182520096,-0.8765900856422988,1.3669460681298389,0.7908571008870806,-0.5060304509312386,0.993488692377742,11.400014446113346,-1.169070339980604,0.0961077441576964,-0.8898641093697861
1.1,0.0969388190860826,0.9647337924561548,1.943085583018857,0.051507274102225,0.1517400200208205,0.0134547405123679,-0.0192966351381982,-0.8095151820825933,-0.7569292934624554,0.0902994190369077,0.9789970980793706,1.9541228252993463,-0.1778272606774335,-0.928106118848056,-0.8818643088060227,1.0086034992584447,0.5003922601015932,-0.4063601599229027,0.7757319286804121,11.400014446113346,-1.1866235884284992,0.0999204157830858,-0.8725242238379186
1.12,0.0966222785010081,0.949289805083248,1.928819846809592,0.0470530842639175,0.1366147719714309,0.012109307459103,-0.0149228606157074,-0.8158475369608648,-0.7454484017328773,0.086742873823359,0.9604349757024097,1.936485539123226,-0.1846246831460958,-0.9681061194441024,-0.8871385319697467,0.6910851915362052,0.218688726124543,-0.316617743913572,0.5740445864789057,11.1016789056157,-1.2032419816596365,0.1032385061556719,-0.8538303419457689
1.14,0.0963300212631001,0.9329144437205458,1.9140290258583577,0.0432030951737376,0.1214258969759887,0.0108788932034267,-0.0149340671919419,-0.8214460960291821,-0.7342532099303128,0.0831863286098104,0.9418728533254483,1.9188482529471056,-0.1914221056147581,-1.0081061200401489,-0.8924127551334706,0.6258520366767912,-0.0005603288117285,-0.2799279534158649,0.5597595901282226,10.86231811579728,-1.2167622721085385,0.1057450040626789,-0.835333525433503
1.16,0.0959911531520935,0.916426605126092,1.8994529329683356,0.0399688248080568,0.1075888982835121,0.0098265131889374,-0.019244671022801,-0.8270257146280899,-0.7239404771563929,0.0794598478345451,0.9223107309335862,1.901079111191892,-0.1982195280834203,-1.0481061206361952,-0.8976869782971946,0.6246317042109271,-0.215530191542954,-0.2789809299453938,0.5156366386959987,10.789829485155678,-1.2276703515098566,0.1077006941662521,-0.8186051949220456
1.18,0.0955253174178752,0.8998313116792346,1.8850712784157728,0.037047748959579,0.0956289098994707,0.0089347529870631,-0.0272284479294607,-0.8321746801121765,-0.7147240541966641,0.0755634314975634,0.9017486085268228,1.8831781138575856,-0.2050169505520826,-1.0881061212322416,-0.9029612014609184,0.6618062243290033,-0.3991888453329859,-0.2574482742043305,0.4608211479864399,10.724247118363564,-1.2355350826472835,0.1092860944572397,-0.805170747295611
1.2,0.0949064909299547,0.8839757223604071,1.8715685083728504,0.0344807111005125,0.0862866692199177,0.008226780944085,-0.0375125102391094,-0.8365359787966155,-0.7070736685438541,0.0941638950214021,0.8582225776736258,1.84933507570594,-0.0465199903999159,-0.9321746816022928,-0.6774466835053646,0.6769624517658733,-0.5142031154824327,-0.2180649342219454,0.3825192826404977,10.582407348605557,-1.241169332081952,0.1107542767210948,-0.793953301219481
1.22,0.0940069540455983,0.8671741975525735,1.857777516709631,0.0313909163983094,0.0800252673856105,0.0076203223653543,-0.05206884034669,-0.8430541345535605,-0.6710348878839266,0.0941638950214021,0.8582225776736258,1.84933507570594,-0.0465199903999159,-0.9321746816022928,-0.6774466835053646,1.970511870128557,-0.7278165053790302,-0.3259077878472516,1.8019390329963747,10.582407348605557,-1.231614186421082,0.1117713798580603,-0.7816375600183496
1.24,0.0928037985351918,0.8502674714728348,1.8447296686728964,0.0280817189577952,0.0790485091268312,0.0071984903028809,-0.0669259928644781,-0.8472172427957212,-0.6359204016914735,0.0941638950214021,0.8582225776736258,1.84933507570594,-0.0465199903999159,-0.9321746816022928,-0.6774466835053646,1.9177418959108845,-0.7428576258894075,-0.2081554121080353,1.7557243096226582,12.285188244379242,-1.2283148876044554,0.113582149183029,-0.7886694238348949
1.26,0.0913290138250689,0.8332995742176178,1.8323329604866867,0.0253501345801104,0.0819775887798699,0.0069448581277607,-0.0793102846028512,-0.8495541573091022,-0.6055067097239016,0.093698695117403,0.8489008308576028,1.842560608870886,-0.0503782988940069,-0.9521746819003158,-0.6699912093671048,1.646074504998429,-0.6192145869186532,-0.1168457256690513,1.520684598378591,12.285188244379242,-1.2238309652473376,0.1151052370196358,-0.798322189952658
1.28,0.0897260094295729,0.8171472912847466,1.821084838326696,0.0235963119956152,0.0870357913157332,0.0068290247949875,-0.0884493772933252,-0.850797949820282,-0.5800415316172753,0.0927682953094047,0.830257337225557,1.8290116752007788,-0.058094915882189,-0.9921746824963624,-0.6550802610905849,1.354202099963427,-0.456954634523702,-0.0621896255589893,1.2732589053313148,11.96829698480451,-1.2175696697828355,0.116184919797299,-0.8105685016629095
1.3,0.0878815698807135,0.8001275028057911,1.8097416344365376,0.0228582088212543,0.0936247656957154,0.0068228656582357,-0.095200705000883,-0.8512287552788009,-0.555748253053347,0.0918378955014063,0.8116138435935111,1.8154627415306717,-0.0658115328703711,-1.0321746830924088,-0.6401693128140652,1.2608820350676633,-0.3375663853778882,-0.0215402729259461,1.2146639281964189,11.731148016031511,-1.210632045089021,0.1165200199868194,-0.8235729643398481
1.32,0.0859313338612764,0.7831085400592495,1.7988581850400078,0.023703705272204,0.1005985170562157,0.0069506483276171,-0.0992558988052614,-0.8509097886059457,-0.5338348446683244,0.0905216648439989,0.7909703499316629,1.80265935527439,-0.0735281498585531,-1.0721746836884551,-0.6252583645375455,1.1143875039435756,-0.2027596902189177,0.0159483336427623,1.0956704192511268,11.57118218605774,-1.2043761732661182,0.1158239480833428,-0.8357262759501363
1.34,0.0840290185157232,0.7669476865767278,1.7889194735731624,0.0262657308382933,0.1069287105927735,0.0072096455123045,-0.1006659006725195,-0.8506109392824308,-0.513470571712433,0.0892054341865915,0.7703268562698147,1.7898559690181088,-0.0812447668467352,-1.1121746842845015,-0.6103474162610256,1.0207607814834554,-0.0705000933629081,0.0149424661757435,1.0182136477945691,11.44077124715932,-1.196889083659067,0.1136446827359525,-0.848455972015591
1.36,0.0820194063032804,0.7499105875778097,1.7788744335397653,0.0301215390654017,0.1128213753100549,0.0075725827567376,-0.1001030791167254,-0.8533998935016271,-0.4921336388048254,0.0876962881044795,0.7486833625930654,1.7774253564687403,-0.0889613838349173,-1.152174684880548,-0.5954364679845059,1.0762896213893696,0.0281410777897082,-0.1394477109598169,1.0668466453803815,11.42911237417411,-1.1897855247095277,0.1104931559127597,-0.861276985362446
1.38,0.0800395745082484,0.7327913493486946,1.7692540682922924,0.0339292134878439,0.1176422962430408,0.0079284928846694,-0.0978547236627129,-0.8584093652521408,-0.4709974231342382,0.085994226597663,0.7260398689014149,1.765367517626285,-0.0966780008230993,-1.1921746854765944,-0.580525519707986,1.091890015455261,0.1124177727006243,-0.2504735875256847,1.0568107835293576,11.445734074954087,-1.183576506494356,0.1073230189529287,-0.8732878169321463
1.4,0.0781180762032279,0.7155572096888406,1.7600535715499694,0.0371925800391276,0.1212271308036846,0.0082263222737214,-0.0944084047906071,-0.8646973118764321,-0.4501318515857844,0.0842921650908465,0.7033963752097644,1.7533096787838298,-0.1043946178112814,-1.232174686072641,-0.5656145714314663,1.103163023494052,0.1723159436052911,-0.3143973312145609,1.0432785774226931,11.455107493093236,-1.1788637853720856,0.104672697944203,-0.8830273075948988
1.42,0.0763180042586992,0.6989085428955135,1.7517224885908262,0.0348028862646636,0.1250401173942443,0.0081539821681239,-0.0948080451846873,-0.8848765272333272,-0.4277875181475042,0.0751468383251127,0.6898708810860875,1.7457041971355804,-0.0769132221793917,-0.9359847433720864,-0.4370468298117227,1.5055145977917128,-0.0199820197040116,-1.0089607678447576,1.1172166719140064,11.457885766908475,-1.1732630245634836,0.1062653664013963,-0.8909018710186083
1.44,0.0744407311267564,0.6811043429449242,1.7434087224574757,0.0265514437900876,0.130478929970295,0.0077162252553653,-0.0925978389933147,-0.8934981523165755,-0.4048245429077617,0.0751468383251127,0.6898708810860875,1.7457041971355804,-0.0769132221793917,-0.9359847433720864,-0.4370468298117227,1.2313769349243802,0.1105103095686295,-0.4310812541624131,1.148148761987125,11.714732597038164,-1.1651438912748386,0.112703936230531,-0.9024288933358882
1.46,0.0726336341969577,0.6632123541677295,1.7355278191458188,0.0175324596811783,0.1363560022490519,0.0072084599849888,-0.0880333838136174,-0.8951532823217789,-0.3844508526471941,0.0751468383251127,0.6898708810860875,1.7457041971355804,-0.0769132221793917,-0.9359847433720864,-0.4370468298117227,1.0472117279413196,0.2282227589848626,-0.0827565002601726,1.018684513028381,11.614231772127823,-1.1595167782269695,0.1197519198362097,-0.914494319721379
1.48,0.0710211733022531,0.6462250329770582,1.7283954221088933,0.0099233761595874,0.1416894456969514,0.0067633378655087,-0.0818399819282348,-0.8931251884134559,-0.3673811464537193,0.0743777061033188,0.6805110336523666,1.7413337288374633,-0.0727249218827274,-0.9514998189960756,-0.4302567111472197,0.913573014797381,0.3096700942691308,0.1014046954161518,0.8534853096737405,11.452688771434625,-1.154467670277788,0.1265829418841086,-0.926460108430887
1.5,0.0694674610236773,0.628407931382417,1.7212215524593488,0.0034894606748367,0.1465869809632213,0.0063815198653138,-0.073785781447075,-0.8889098706965256,-0.3509944513558118,0.072839441659731,0.6617913387849249,1.7325927922412288,-0.064348321289399,-0.9825299702440538,-0.4166764738182135,0.9369669485595098,0.4027100240579901,0.2107658858465144,0.8193347548953761,11.321862467612846,-1.1505247681400592,0.1322258722101454,-0.937046544186185
1.52,0.0680883053875193,0.6106898170310561,1.7143613975564245,-0.001202998215169,0.1504560887734547,0.0061136648440998,-0.0645211849247299,-0.8833968190360221,-0.3359051295642504,0.0713011772161432,0.6430716439174832,1.7238518556449942,-0.0559717206960705,-1.013560121492032,-0.4030962364892073,0.9272460831172582,0.4632298261172569,0.2756525830251766,0.754466089578068,11.24473157322882,-1.1479375533502858,0.1365168781032717,-0.9461988681825884
1.54,0.0669044502152957,0.5930913486938911,1.707795324868468,-0.0041802223134352,0.1531049005041989,0.005973521506095,-0.0544136870867268,-0.8771796982596183,-0.3214671100175612,0.0701817428022218,0.6228004414876426,1.71578993091521,-0.047595120102742,-1.0445902727400105,-0.3895159991602011,0.9344390185081768,0.5053748919001535,0.3108560388201897,0.7219009773344637,11.187484415017934,-1.146769550702346,0.1392967078285519,-0.9534102268397032
1.56,0.0659719057848361,0.5764845705708532,1.701822769380177,-0.0057925687034636,0.1544452255857877,0.0059419720837147,-0.0443692928697687,-0.8714275625125991,-0.3079491749421598,0.0690623083883003,0.6025292390578019,1.707728006185426,-0.0392185195094135,-1.0756204239879883,-0.3759357618311948,0.8898194894760472,0.5022197108479078,0.287606787350958,0.6758967537700694,11.169101770672569,-1.1467992602455703,0.1411670469443939,-0.9595243439152004
1.58,0.0651963575365917,0.5591230227053463,1.6958142880306766,-0.0063997979155506,0.1546745512118555,0.0060062186647046,-0.0338214616503734,-0.8651214829026823,-0.2936027072702383,0.0681522889892121,0.5814822828467618,1.7000055873888669,-0.0308419189160851,-1.1066505752359663,-0.3623555245021887,0.9445164346650412,0.5273915609697626,0.3153039804958402,0.7173233835960718,11.169309931317912,-1.1481552425983528,0.1420984694724831,-0.9642582359027316
1.6,0.0646300417831367,0.5418908872397153,1.6900936848801162,-0.0057506944268426,0.1537811063205173,0.0061788109427151,-0.0234172009625213,-0.8585256764159462,-0.2791709835548087,0.063505284454073,0.5158669485602122,1.6811341526671646,-0.013862848209979,-0.8808457190482979,-0.2606226116751169,0.9487201287389104,0.5202130343926062,0.3297903243368039,0.7215861857714834,11.186212795440042,-1.1502316799434813,0.1419832818260538,-0.9680150787887404
1.62,0.0642799861220455,0.5245413169804788,1.6846645817884578,-0.0117322357301902,0.1514603048344648,0.0059194313711044,-0.0122741897228372,-0.871902488032326,-0.2644367061516271,0.063505284454073,0.5158669485602122,1.6811341526671646,-0.013862848209979,-0.8808457190482979,-0.2606226116751169,1.1403998411760488,0.5571505619842017,-0.6688405808189857,0.7367138701590781,11.195779131840936,-1.151117052267081,0.147029001470748,-0.9695989350647316
1.64,0.0641453726870748,0.5079884144832146,1.679776266417103,-0.0230935151413096,0.147681131592775,0.005358985225966,-0.002615788331832,-0.8690475983599641,-0.2508559948702226,0.063505284454073,0.5158669485602122,1.6811341526671646,-0.013862848209979,-0.8808457190482979,-0.2606226116751169,0.8453857571842551,0.4829200695502622,0.1427444836180902,0.6790355640702267,11.221728505876854,-1.1562675597889798,0.157972984724111,-0.9674123007532244
1.66,0.0641836647406155,0.4907175498263014,1.6748964232743495,-0.035352138241723,0.1422380941336125,0.0048829389282746,0.0056281280444954,-0.8580540213633026,-0.2379003914116279,0.0633666559719732,0.5070584913697292,1.6785279265504134,-0.0098711255219001,-0.883990566277421,-0.2540265925560926,0.944283529160811,0.412195818816377,0.5496788498330796,0.6477801729297336,11.169499417286715,-1.1647701480303858,0.1694619943552518,-0.9635784880279056
1.68,0.0643547088125576,0.4737188710327671,1.6702603957585056,-0.0459395271918516,0.135970616776135,0.0046646205636085,0.010786200126222,-0.8425643701475929,-0.2263964361587801,0.0630893990077736,0.4894415769887633,1.6733154743169112,-0.0018876801457424,-0.8902802607356672,-0.2408345543180441,0.998593997633856,0.2579036040863278,0.7744825607854833,0.5751977626423876,11.0840521176533,-1.1737738155366744,0.1790979369157419,-0.9590394955133748
1.7,0.0645979995384431,0.457059237939522,1.6658435188405574,-0.0542080562043291,0.1297360824831336,0.0047067123871712,0.0131000153453724,-0.8245152515577949,-0.2158853476649762,0.062812142043574,0.4718246626077973,1.6681030220834088,0.0060957652304153,-0.8965699551939135,-0.2276425160799955,1.0507228512570987,0.1156907609575189,0.9024559294898982,0.5255544246901944,10.954146049432891,-1.1826036281631032,0.187299032781155,-0.954398016215159
1.72,0.0648466429446428,0.4415839924737896,1.661836858351131,-0.0597854419183297,0.1244985921614642,0.0049398613873992,0.0128442783330752,-0.8059177631876495,-0.2063632632316629,0.0629340573481824,0.453893263503919,1.6635501717618089,0.0140792106065731,-0.9028596496521596,-0.214450477841947,1.0447512467715705,-0.0127868506148567,0.9298744185072704,0.4761042216656658,10.954146049432891,-1.1907089623899327,0.1933903751423868,-0.9504923794104022
1.74,0.0650793346188588,0.4256792062815079,1.657815694878214,-0.0635851589599972,0.1204057709617504,0.0052958299791613,0.0102852311200035,-0.7859178065337507,-0.1962285267105095,0.0630559726527907,0.4359618644000407,1.658997321440209,0.0220626559827308,-0.909149344110406,-0.2012584396038984,1.1283393473926242,-0.1279523606535894,0.9999978326949432,0.5067368260576716,10.937751440628745,-1.1968282761927027,0.197629281127745,-0.9485442864420488
1.76,0.0652404404555328,0.41017675795097,1.6539990622785898,-0.0655614260686712,0.1185034624795824,0.0056723101875291,0.0059838609683614,-0.7656349821498292,-0.1859260640934942,0.0633774740918029,0.4178732229347063,1.6547742720745602,0.0300461013588886,-0.9154390385686522,-0.1880664013658499,1.1576220088455416,-0.2150685075821046,1.014141219196074,0.5151231308507642,10.955570881297716,-1.1993053550258148,0.2003039844053825,-0.950246110143824
1.78,0.0653180718069113,0.3950873709382356,1.6503908120141093,-0.0656669072149433,0.1188975661908445,0.0060488174413773,0.0022817393150501,-0.7446659807774536,-0.1754150461049715,0.0638985616652191,0.3996273391079158,1.6508810236648626,0.0380295467350463,-0.9217287330268984,-0.1748743631278013,1.1873144301801983,-0.1851060826655622,1.048450068618778,0.5255508994261345,10.98696244096118,-1.1983064601548423,0.2013641617243527,-0.9555325953430788
1.8,0.0653375817934289,0.380422257512208,1.6469965130615438,-0.0635800299676477,0.1208617069395121,0.0064907439013128,6.691930013884051e-05,-0.723260382599943,-0.164537406043589,0.0654321587726638,0.3578540718993629,1.6416200597088608,0.0089733069148235,-0.710615233025264,-0.1525064535083214,1.2056410269442686,-0.1107410007455665,1.070279908875532,0.5438820030691252,10.98696244096118,-1.1962810335160108,0.2006657806511211,-0.9632561140134168
1.82,0.0653497870778947,0.3666955893453387,1.6439219967703662,-0.065246738892583,0.1227526985962466,0.0066684394925153,0.0011792983405335,-0.7204192527219085,-0.1597797752597317,0.0654321587726638,0.3578540718993629,1.6416200597088608,0.0089733069148235,-0.710615233025264,-0.1525064535083214,0.2825971372328292,0.0556189520197355,0.142056493901721,0.2378815391928662,11.015660969812416,-1.1952966505077642,0.2032954890237982,-0.9726411774267976
1.84,0.0653856117969982,0.3524158232579979,1.640776455745497,-0.0724459759254257,0.1238308921955839,0.0065514109636387,0.0022801058512642,-0.7067119795020156,-0.155030064340525,0.0654321587726638,0.3578540718993629,1.6416200597088608,0.0089733069148235,-0.710615233025264,-0.1525064535083214,0.7274284674737903,0.0550403755365354,0.6853636609946478,0.2374855459603336,10.634581183486262,-1.195473878651888,0.2104450334108152,-0.9737984070284812
1.86,0.0654400119238271,0.3384921176703772,1.6377246262921494,-0.0803846677399206,0.1242472220064185,0.0064535166826472,0.0030526745404477,-0.6862630241659977,-0.1503976074777997,0.065521891841812,0.3507479195691103,1.6400949951737775,0.0103116204347782,-0.7038050834748261,-0.1479247349889914,1.0490666009588845,0.0386284344591739,1.0224477668008936,0.2316228431362643,10.634581183486262,-1.1974027328690946,0.2181006027554451,-0.9749650416417964
1.88,0.065505888174397,0.32501936938249,1.634765698016975,-0.0871416915078161,0.1242438349491117,0.0064991812393393,0.0034527387275039,-0.662368652547502,-0.145714093663996,0.0657013579801085,0.336535614908605,1.6370448661036112,0.0129882474746876,-0.6901847843739501,-0.1387612979503313,1.217616881494985,0.0200032093528093,1.1947185809247862,0.2341756906901845,10.65384818880102,-1.200205013709293,0.2253069194311854,-0.9762636529058478
1.9,0.0655724908407908,0.3126816738302843,1.6320443963883744,-0.091953897031786,0.1240382076359119,0.0066979681917348,0.00351677057161,-0.6379515228666995,-0.1409471480495049,0.0658808241184049,0.3223233102480997,1.6339947370334449,0.0156648745145969,-0.6765644852730743,-0.1295978609116713,1.243909253540728,0.003201592205305,1.2208564840401226,0.2383472807245587,10.677698070095175,-1.203022731282846,0.2310592546786867,-0.9777102904714572
1.92,0.0656412683107629,0.3002019314543736,1.6292839506391528,-0.0953612736858114,0.1237534417044846,0.0070538103006165,0.0033441075129545,-0.6116027520980338,-0.135294973597915,0.0661941216086969,0.3087920205426382,1.631402779815211,0.0183415015545063,-0.6629441861721985,-0.1204344238730112,1.3474370204045916,-0.0086331529327753,1.3174385384332854,0.2826087225794915,10.712792205247752,-1.205776590511813,0.2353634472401207,-0.9796071305373876
1.94,0.0657042459380784,0.2882561008202056,1.6266414041585646,-0.0971498303851867,0.1235012122816663,0.0075411988809831,0.0029567373750515,-0.5845718737830429,-0.1292046352248827,0.0665074190989888,0.2952607308371767,1.6288108225969775,0.0210181285944157,-0.6493238870713226,-0.1112709868343511,1.3855600488625683,-0.0193685068951487,1.351543915749548,0.304516918651615,10.761259450861871,-1.2084321867950905,0.2381972715765449,-0.9820427481773366
1.96,0.0657579685716632,0.2768629694091997,1.6241256867963103,-0.097011745308423,0.1233451661706246,0.0081710697906812,0.0024410046127613,-0.5564745667853664,-0.1226460500877418,0.0668876322652785,0.2820699486092372,1.6264479513047108,0.023694755634325,-0.6357035879704468,-0.1021075497956911,1.442861462342194,-0.0257866381145084,1.4048653498838215,0.327929256857045,10.831147569098905,-1.2111271899883265,0.2395886515358726,-0.985367375364248
1.98,0.0657989493306007,0.2665665351766058,1.621862773579824,-0.0946406925852063,0.1233060443992213,0.0089264992936583,0.0019083544547951,-0.5291566548382913,-0.1158534717833548,0.0673347611075659,0.2692196738588195,1.6243141659384104,0.0263713826742344,-0.6220832888695709,-0.0929441127570311,1.40773856713539,-0.0266325078983134,1.3658955973537557,0.3396289152193532,10.831147569098905,-1.213774078762502,0.2389376860057591,-0.9900253299587028
2.0,0.0658319808936417,0.2562664280794308,1.6196299106867078,-0.0900366237207468,0.123372439094983,0.0098650395942977,0.0014428668767455,-0.5029357490129169,-0.1077016495254516,0.0658943670533405,0.2401087024346912,1.6160700999906563,0.0150124179135358,-0.4978627709185754,-0.0814257693564444,1.373139456785906,-0.0232743789024774,1.3110452912687198,0.4075911128951593,10.874177897986556,-1.2157402997221107,0.2362943930178,-0.995475188825099
2.02,0.0658511402145001,0.2464577182290373,1.6175373652503715,-0.0845439807702554,0.1235735583198295,0.0108562787196897,0.0005255439880196,-0.4796157834868123,-0.1019391543404036,0.0658943670533405,0.2401087024346912,1.6160700999906563,0.0150124179135358,-0.4978627709185754,-0.0814257693564444,1.20194490740902,-0.0458661444362974,1.1659982763052328,0.2881247592523984,10.923238836105156,-1.219002869145542,0.23304811008277,-1.0006558845629865
2.04,0.0658544319656863,0.2375502792203713,1.615671546090052,-0.0791990378986588,0.123914212281438,0.0117953028889128,-0.00010595487066,-0.4593314621238668,-0.0947414583984254,0.0658943670533405,0.2401087024346912,1.6160700999906563,0.0150124179135358,-0.4978627709185754,-0.0814257693564444,1.076637486386353,-0.0315749429339821,1.014216068147275,0.3598847970989083,10.75775357355269,-1.2199293632801913,0.2291870674177176,-1.0052686811096412
2.06,0.0658482731743675,0.2285744725045256,1.6138718619780428,-0.073804709687339,0.1244084624378116,0.0127575848664375,-0.0004437564527423,-0.4394254438593862,-0.0855405459141547,0.0660444912324759,0.2351300747255055,1.615255842297092,0.0176332306052839,-0.4916039941346323,-0.0745402288710623,1.0966089362187166,-0.016890079104116,0.995300913224026,0.4600456242135356,10.87217475748912,-1.2203818137186024,0.2255170044466495,-1.0103931145780127
2.08,0.0658389812081954,0.2199845156259628,1.6122712181938632,-0.0687749871269737,0.1250034672204717,0.0136874639723324,-0.0004439246430109,-0.4206460356363624,-0.074999915230474,0.0663447395907466,0.2251728193071339,1.613627326909963,0.0228748559887802,-0.4790864405667459,-0.0607691479002981,1.0767672316301893,-8.409513429382906e-06,0.9389704111511936,0.5270315341840373,10.970441734428276,-1.2207166381921677,0.2223319937740614,-1.0156237125915777
2.1,0.065833158442592,0.2121621685698826,1.6109546958601382,-0.0643511438781443,0.1256181869488211,0.014542767480389,-0.0001516704567563,-0.4037513655989215,-0.0641205317238055,0.0666449879490173,0.2152155638887624,1.611998811522834,0.0281164813722765,-0.4665688869988595,-0.0469980669295339,1.0048336599514307,0.0146127093127282,0.8447335018720414,0.5439691753334253,11.045195771202998,-1.2210644722403734,0.2193280090428767,-1.0216020648996784
2.12,0.0658359447262174,0.2042649495574871,1.6097995269218073,-0.060082465003066,0.1262751663434608,0.0154148783670481,0.0004360139631833,-0.3869144736543115,-0.051946325311558,0.0672073175764628,0.2058841861487853,1.611058850184243,0.0333581067557728,-0.4540513334309732,-0.0332269859587698,1.0392757154623615,0.029384220996986,0.8418445972305011,0.6087103206123743,11.101378421618392,-1.2213526718744885,0.2166720224329478,-1.0278101459924005
2.14,0.0658530777152563,0.1966955632824497,1.6088925611804106,-0.0562085507627713,0.1269055909393203,0.0162598086540101,0.0012577285333342,-0.3709005382895093,-0.039377604428952,0.0677696472039083,0.196552808408808,1.6101188888456528,0.0385997321392691,-0.4415337798630868,-0.0194559049880056,1.0186928945071194,0.0410857285075436,0.8006967682401112,0.628436044130299,11.17495246544695,-1.2215705908781282,0.2145204620460268,-1.0344648543908297
2.16,0.0658867141411825,0.1897963013504822,1.6082652175742502,-0.0527891043942411,0.1274404221480566,0.0170459767671041,0.0022419560112271,-0.3562121931020574,-0.0272999275249744,0.0684630174659413,0.187534369508028,1.6095232045313312,0.0438413575227653,-0.4290162262952005,-0.0056848240172415,0.9520851688148168,0.0492113738946447,0.7344172593725967,0.6038838451988792,11.17495246544695,-1.2221105482263812,0.2125914214709973,-1.0425785526997793
2.18,0.0659439978391247,0.182828048536479,1.6078548720491534,-0.0493985650343157,0.1279008745363658,0.017861361508304,0.0034365576491054,-0.3414622755732245,-0.014368923162823,0.0692874283625616,0.1788288694464452,1.609271797241279,0.0490829829062616,-0.4164986727273141,0.0080862569535226,0.9825960690876118,0.059730081893918,0.7374958764416434,0.6465502181075687,11.190194632932617,-1.2227063370929114,0.2108098963147611,-1.0505295363280511
2.2,0.0660263624526559,0.1761476718484783,1.6077044302997077,-0.046202831029937,0.128239086989895,0.0186650838609333,0.0047358381527098,-0.3273879611306527,-0.0013274574120987,0.06611582572158,0.1657549347578178,1.6071364258910124,0.006219054505631,-0.3268358200799531,0.0029865468239732,0.9615798013981284,0.0649640251802211,0.7037157221285867,0.6520732875362166,11.211653447161552,-1.2234267881138836,0.2091721813664829,-1.0584000724758733
2.22,0.0661474313086369,0.1697581066861662,1.6077111485408155,-0.0425177158470273,0.1276198678373844,0.0195394444916591,0.0072343568379965,-0.3127251563950891,0.0008384346778043,0.06611582572158,0.1657549347578178,1.6071364258910124,0.006219054505631,-0.3268358200799531,0.0029865468239732,0.7515509411861256,0.124925934264332,0.7331402367781847,0.1082946044951565,11.224748815171552,-1.2280299033705242,0.2073575349927394,-1.0648791094295136
2.24,0.0663047049725645,0.1639377351224878,1.6077491817642091,-0.0385778953689456,0.1253609086205072,0.0204574062506966,0.0090593469220855,-0.3008250100629619,0.0031294427126127,0.06611582572158,0.1657549347578178,1.6071364258910124,0.006219054505631,-0.3268358200799531,0.0029865468239732,0.6127658389397602,0.0912495042044508,0.595007316606358,0.114550401740419,10.51913250556845,-1.2327572869605723,0.2044526292379364,-1.064755145290477
2.26,0.0664950543779125,0.15803866181275,1.6078507004870737,-0.0345854718791968,0.1216243183757358,0.0214419354118296,0.0097119745539324,-0.2897664012946842,0.0069695939666969,0.0661780162666363,0.1624865765570183,1.6071662913592522,0.0067755538769361,-0.3239105289812989,0.0064576408213325,0.5862284374924223,0.0326313815923431,0.5529304384138845,0.1920075627042103,10.598439155765844,-1.2385431896082009,0.2017016477033385,-1.0636186603891764
2.28,0.0666793984473007,0.1523496625448427,1.608041617647931,-0.0309774107226807,0.1170576312706475,0.022400502700286,0.0084973065185791,-0.2797089643226483,0.01197634950966,0.0663023973567489,0.1559498601554192,1.6072260222957315,0.0078885526195463,-0.3180599467839903,0.0133998288160511,0.5650111900431143,-0.0607334017676629,0.5028718486017936,0.2503377771481537,10.678310379964389,-1.244888715736272,0.199313887435413,-1.0618518403512154
2.3000000000000003,0.0668156050972661,0.1468533456520719,1.608341864509439,-0.0278073594664665,0.1124135143433372,0.0233030907418876,0.0049899824886741,-0.2704324536833228,0.0178281682078496,0.0664267784468615,0.1494131437538202,1.6072857532322111,0.0090015513621565,-0.3122093645866818,0.0203420168107696,0.575757660758304,-0.1753662014952493,0.4638255319662748,0.292590934909481,10.73975247918588,-1.2506256785136065,0.1974058765186978,-1.060222782567275
2.32,0.0668558983017853,0.1417971212033568,1.608741611996972,-0.0252045706441654,0.1087843409298803,0.0240875314098038,-0.0006661842397869,-0.2622355939151683,0.0239492106787556,0.0666068094741046,0.1431689564620865,1.6076925935684263,0.0101145501047667,-0.3063587823893732,0.0272842048054882,0.5844824485165826,-0.2828083364230543,0.409842988407727,0.3060521235453006,10.786956052381356,-1.2551575415114695,0.1957454993164155,-1.0596067923387504
2.34,0.0667605075163767,0.1366377731865224,1.6092879172952028,-0.022852069526025,0.1066847150001837,0.0248244538246838,-0.0086572931950193,-0.2541245435608164,0.0303461784051498,0.0667868405013478,0.1369247691703529,1.608099433904642,0.0112275488473769,-0.3005082001920647,0.0342263928002067,0.653008721759819,-0.3995554477616203,0.4055525177175972,0.319848386319709,10.82398951316918,-1.2567752153089444,0.1943626078050011,-1.061233343073518
2.36,0.0665000716443216,0.1316372278249542,1.6099599098736328,-0.0208207924948528,0.1068205777773324,0.0254747150982069,-0.0167201297183729,-0.2463363538061275,0.0365108553505188,0.0669946964971562,0.130826846433552,1.6086798289407251,0.0123405475899872,-0.2946576179947562,0.0411685807949253,0.6396649011359957,-0.4031418261676832,0.3894094877344406,0.3082338472684484,10.826565100947846,-1.25376785707598,0.1930931498635295,-1.065963096175612
2.38,0.066090692675855,0.1267892571456734,1.610753026650191,-0.0190351291336467,0.1087202684944792,0.0260623538937178,-0.0235624369416597,-0.2388446755394549,0.0424761425182003,0.0672303774615298,0.1248751882516838,1.6094337786766766,0.0134535463325974,-0.2888070357974476,0.0481107687896438,0.5884876005110089,-0.3421153611643376,0.3745839133336301,0.2982643583840736,10.810602034161093,-1.2495787356505574,0.1920909171088908,-1.0721581491575778
2.4,0.0655899251783617,0.1223198023709778,1.6116157860476938,-0.0175257719372395,0.1115951199696522,0.0265812766473616,-0.0286269702848208,-0.23200754538398,0.0480262415509501,0.064912570828772,0.1148470233687007,1.612876833776101,-0.0107690878395202,-0.2151987660363526,0.0254281132891553,0.5079356406579137,-0.2532266671580546,0.3418565077737481,0.2775049516374913,10.798690479603463,-1.2443700733143723,0.1912145220316442,-1.0797917961931565
2.42,0.0649471364345412,0.117705447498625,1.6125352846871146,-0.0175708719232528,0.1157477648797967,0.0269878932122537,-0.0352148021869819,-0.2294550350996156,0.0430847313080267,0.064912570828772,0.1148470233687007,1.612876833776101,-0.0107690878395202,-0.2151987660363526,0.0254281132891553,0.4310839866076955,-0.3293915951080547,0.1276255142182158,-0.2470755121461679,10.798690479603463,-1.2441738761120609,0.1922326667256525,-1.0843824594774956
2.44,0.064189720828998,0.1131518203064154,1.6133340681429125,-0.0202619580467026,0.1210222086214266,0.0271769476400297,-0.0399384772798264,-0.2257294027371887,0.0370971565612565,0.064912570828772,0.1148470233687007,1.612876833776101,-0.0107690878395202,-0.2151987660363526,0.0254281132891553,0.4243951408501371,-0.2361837546422235,0.1862816181213464,-0.2993787373385133,10.118013552283628,-1.2370879839088236,0.1950943773236708,-1.088182631844676
2.46,0.0633607360970166,0.108709584543608,1.6140157177136183,-0.0243803417314806,0.1267565585275136,0.0272340959417647,-0.0425310304005192,-0.218362783340825,0.0313634021202338,0.0648048799503768,0.1126950357083372,1.6131311149089926,-0.0082104180190923,-0.2104695841357322,0.0220185074433464,0.4844180864822336,-0.1296276560346421,0.3683309698181855,-0.2866877220511338,10.12751598799241,-1.23039257827177,0.1996983372659021,-1.0932713623968815
2.48,0.0625442343713166,0.1046549665494467,1.614559140595358,-0.0281586580602185,0.1321217269479246,0.0272758116902077,-0.0431778502250405,-0.2088884473653411,0.0261115587614195,0.0645894981935864,0.1083910603876101,1.6136396771747756,-0.0030930783782365,-0.2010112203344913,0.0151992957517284,0.5425939474580966,-0.0323409912260628,0.4737167987741958,-0.2625921679407128,10.169691755270833,-1.2249940941711666,0.2043066092085218,-1.0981593869561286
2.5,0.0616880044053479,0.1005951124875791,1.6150246377185349,-0.0314586222450749,0.1373200470640178,0.0273581137606867,-0.0423047338236587,-0.1976890358298272,0.0207162187275938,0.064374116436796,0.104087085066883,1.6141482394405589,0.0020242612626192,-0.1915528565332503,0.0083800840601104,0.6230947862740609,0.043655820069088,0.5599705767756965,-0.269767001691287,10.169691755270833,-1.2212484274882334,0.2083276466372179,-1.102651308171961
2.52,0.0608640749825635,0.0967691786843342,1.6153846238083458,-0.0338822137952003,0.1418063165819471,0.0275076112012504,-0.0401008784736718,-0.1856856008071912,0.0155476040775636,0.0644146016620484,0.100256027936218,1.614315841121761,0.0071416009034749,-0.1820944927320094,0.0015608723684925,0.6626726343882315,0.1101927674993452,0.6001717511317963,-0.2584307325015103,10.187794295003188,-1.2190422716021996,0.2113969000238052,-1.106454317166211
2.54,0.060093887345781,0.0931881043710965,1.6156395149496758,-0.0354351895508528,0.1454655399228298,0.027734852252673,-0.037029147737472,-0.1732053473301441,0.0101992080673038,0.0644550868873008,0.096424970805553,1.6144834428029633,0.0122589405443307,-0.1726361289307685,-0.0052583393231254,0.6960560258514089,0.1535865368099881,0.6240126738523546,-0.267419800512988,10.209196264423554,-1.2183963907938409,0.2138587437191261,-1.1098442451577577
2.56,0.0594252659554875,0.0900241562144611,1.6157814471944494,-0.0359535707060938,0.1481434585676654,0.028039051862448,-0.0335359851779965,-0.1606287002981823,0.0050106218517246,0.0646235056035745,0.092830372769919,1.614480564191875,0.0173762801851865,-0.1631777651295275,-0.0120775510147434,0.7023098713352522,0.1746581279737747,0.6288323515980937,-0.2594293107789606,10.20682891710021,-1.219571845116434,0.215429000997283,-1.1133619289872827
2.58,0.0587958037850659,0.0869550404455364,1.6158237742394397,-0.0352351301277637,0.1501625078900565,0.0284711527922428,-0.0296170096939513,-0.1470662816583815,-0.000501493608258,0.0649198578108697,0.0894722338293161,1.6143072052884964,0.0224936198260423,-0.1537194013282866,-0.0188967627063613,0.7577614813546933,0.1959487742022614,0.6781209319900394,-0.2756057729991348,10.20682891710021,-1.2221247533498687,0.2157413625848857,-1.116467771007595
2.6,0.0582461774692665,0.0841587731504935,1.6157568493008274,-0.0329856868272635,0.1514482453449207,0.0290304597702034,-0.0255948300151071,-0.1334627968720216,-0.0059046547916406,0.0573149533003684,0.0796017263626173,1.6157986995590266,-0.0184159763252446,-0.1345734750076833,-0.00975820483794,0.758990906525309,0.2011089839422102,0.6801742393179933,-0.2701580591691304,10.209170958858522,-1.2253217268471943,0.2145929596812298,-1.1189702370285397
