t,x,y,z,roll,pitch,yaw,v_x,v_y,v_z,ref_x,ref_y,ref_z,ref_v_x,ref_v_y,ref_v_z,a_com,a_x,a_y,a_z,thrust,wind_x,wind_y,wind_z
0.0,-1.8467950224461689,0.5753221681438105,1.935640496239868,0.0210415914887127,0.1366387870230795,0.0264842549912396,0.0062850902434188,-0.0063409766700043,0.0066451805936199,-1.84660563911868,0.5752176750544808,1.9358481448658125,0.106152572366446,-0.104116908471437,-0.0933158297940413,0.5564817373896491,0.3142545121709409,-0.3170488335002165,0.332259029680998,10.55013347939166,-1.285377317602757,0.154711178749199,-1.167851372048207
0.02,-1.846782513496088,0.5754518873012798,1.935567673803019,0.0276184571957957,0.1389428161790219,0.0269842492065255,-0.004751946771405,0.0154202025355722,-0.0150107536400117,-1.84660563911868,0.5752176750544808,1.9358481448658125,0.106152572366446,-0.104116908471437,-0.0933158297940413,1.6312147268333437,-0.5518518507411948,1.0880589602788275,-1.0827967116815855,10.550081131927982,-1.309193747944937,0.1498661834296216,-1.1859212374609067
0.04,-1.8469691434685769,0.5757904875638072,1.934945985693903,0.0420264444649659,0.1448951880997107,0.0281671207300155,-0.0128540136264469,0.0165087019156691,-0.0463014512675579,-1.84660563911868,0.5752176750544808,1.9358481448658125,0.106152572366446,-0.104116908471437,-0.0933158297940413,1.6170467496663214,-0.4051033427520952,0.0544249690048477,-1.5645348813773103,9.238676968100664,-1.2998038963202374,0.134190232984267,-1.1712611266683213
0.06,-1.8472742259438224,0.5760654846532587,1.9336975664657632,0.0571242804005368,0.1525960344790257,0.029554012127806,-0.0168696972818708,0.0105911311663566,-0.07686603251528,-1.8455441133950157,0.5741765059697664,1.934914986567872,0.1261525726644692,-0.1241169087694603,-0.1133158300920645,1.5695038910768593,-0.2007841827711956,-0.2958785374656245,-1.5282290623861032,8.793657176272973,-1.2852369103219914,0.1180687625189592,-1.1578268775214722
0.08,-1.8476225770532844,0.5761832775667943,1.9318628615513675,0.0717201482802231,0.160951728081372,0.0310431330141502,-0.0174781598183494,0.00117741718752,-0.105097279736026,-1.8434210619476863,0.5720941678003377,1.933048669971991,0.1661525732605157,-0.1641169093655067,-0.153315830688111,1.488280515538418,-0.03042312682393,-0.4706856989418316,-1.411562361037299,8.872301710475313,-1.2724006788339988,0.1037792453842512,-1.1480733028993688
0.1,-1.8479374328063527,0.576093611896234,1.92961701275418,0.0849626253244929,0.1689556738971478,0.0325108604131144,-0.0154238359063143,-0.0103979897729932,-0.1299183963562904,-1.8412980105003576,0.570011829630909,1.9311823533761103,0.2061525738565621,-0.2041169099615532,-0.1933158312841575,1.3732244202185464,0.1027161956017575,-0.578770348025666,-1.24105583101322,8.990617623694106,-1.2604057650943317,0.0899090892667258,-1.1389080714756452
0.12,-1.8482024365887069,0.5757350947880473,1.9267579735432456,0.0982413268747074,0.1771540107771776,0.0340786427410423,-0.0109565025554737,-0.0251307116840415,-0.1546385455508397,-1.8371749590232265,0.5659294914316779,1.9273160367504272,0.2461525744526086,-0.2441169105575996,-0.2333158318802039,1.4561043389611488,0.2233666675420282,-0.7366360955524146,-1.2360074597274673,9.104482338001617,-1.2505385186332136,0.0770958870609311,-1.1320637909111475
0.14,-1.8483572622747844,0.575056189423235,1.9234113006798983,0.1108650441459742,0.1849745098517183,0.0356422762767395,-0.0045570371686817,-0.0422885638039389,-0.1788001369868793,-1.8330519075460951,0.5618471532324468,1.923449720124744,0.2861525750486551,-0.2841169111536461,-0.2733158324762504,1.5158558204254762,0.3199732693396001,-0.8578926059948716,-1.2080795718019774,9.18829751866815,-1.242932108872378,0.065180729467556,-1.1275439411646204
0.16,-1.848365454858914,0.5740096240994612,1.9195870720116808,0.1228606963367384,0.1923558994851018,0.0371791143733022,0.003585435175673,-0.0617594477223267,-0.2024520360603593,-1.8279288560540627,0.5567648150183147,1.91858340348416,0.3261525756447015,-0.3241169117496925,-0.3133158330722969,1.5849507139214143,0.407123617217741,-0.9735441959193856,-1.1825949536740044,9.225743005142249,-1.2368866290089229,0.054636572545381,-1.1234492143364738
0.18,-1.8482071229502672,0.5726336843587857,1.9155207031560688,0.1336992424342461,0.1989452065714756,0.0385976974382424,0.0128078129887505,-0.0823093019787823,-0.2244352707621676,-1.821805804547129,0.5506824767892813,1.9127170868286745,0.3661525762407479,-0.3641169123457389,-0.3533158336683433,1.573698962987758,0.4611188906538732,-1.0274927128227842,-1.0991617350904106,9.265131480064156,-1.2315213475465627,0.0443079462146728,-1.1188815011973146
0.2,-1.8478363208581372,0.5707323962750215,1.9107908664781088,0.1442238840128182,0.2054452269942304,0.0400105992945111,0.0239343820575689,-0.1067966057894601,-0.2473807659076984,-1.8475667323008296,0.5685182192598466,1.9042989396179604,0.1128078144788666,-0.1823093034688985,-0.3244352722522837,1.767713448662709,0.5563284534409219,-1.2243651905338897,-1.1472747572765438,9.340099016479144,-1.2269440835957386,0.0350672378890267,-1.1136563762904277
0.22,-1.8472001317188904,0.568162080379957,1.905694339682002,0.1489606153070117,0.2115154292589324,0.0409716110734381,0.0393709989368174,-0.14699456170706,-0.2602684282196584,-1.8475667323008296,0.5685182192598466,1.9042989396179604,0.1128078144788666,-0.1823093034688985,-0.3244352722522837,2.247363255293364,0.7718308439624242,-2.009897795879993,-0.644383115597999,9.340099016479144,-1.2137242917753923,0.0315932829686412,-1.1014041116376825
0.24,-1.8462415548486768,0.5648607772876978,1.9003620203138163,0.1470757857933812,0.21717386070522,0.0413800138637904,0.0558145244851836,-0.1803444784749568,-0.2722790511676733,-1.8475667323008296,0.5685182192598466,1.9042989396179604,0.1128078144788666,-0.1823093034688985,-0.3244352722522837,1.953753787254676,0.8221762774183121,-1.6674958383948375,-0.600531147400743,10.004462415313355,-1.2094560955092435,0.0338667116175239,-1.1017898588647363
0.26,-1.8450213272802984,0.561160834545793,1.895063525396899,0.1424532518110275,0.2222054185901777,0.0414771216211332,0.0719024599785549,-0.2068318569055892,-0.2847716473370137,-1.8464386541560407,0.5666951262251576,1.9010545868954376,0.1328078147768898,-0.2023093037669217,-0.344435272550307,1.6706793854721391,0.8043967746685646,-1.3243689215316212,-0.6246298084670199,9.897303187467514,-1.2069102105537426,0.0392544591330861,-1.1024756592730045
0.28,-1.843402064543612,0.5567705209819898,1.88921712340075,0.1369855934551963,0.2271656090856826,0.0414431536607134,0.0892634148411262,-0.2306537067995263,-0.299286189197805,-1.844182497866464,0.5630489401557796,1.894565881450392,0.1728078153729363,-0.2423093043629682,-0.3844352731463534,1.6428292756234408,0.8680477431285659,-1.1910924946968575,-0.725727093039566,9.897303187467514,-1.2047876692639214,0.0451768999515133,-1.103243550099968
0.3,-1.841431046455437,0.5519290017298089,1.8830640397281115,0.1318704069217499,0.2318087623991714,0.0413471904820498,0.1070712578256863,-0.2523198550780712,-0.3153007827575098,-1.8419263415768865,0.5594027540864016,1.888077176005346,0.2128078159689827,-0.2823093049590146,-0.4244352737423998,1.6147820749819264,0.8903921492280031,-1.0833074139272412,-0.8007296779852402,9.79083369152795,-1.2031020724832686,0.0503496947480433,-1.104368879319628
0.32,-1.8392242178764815,0.546942727468643,1.8769103169670147,0.1276088849328618,0.2359475208135014,0.0412266558782666,0.1244167789004866,-0.2715463677236231,-0.3316733047385524,-1.8376701852575068,0.5537565679872213,1.8795884705304984,0.2528078165650291,-0.322309305555061,-0.4644352743384463,1.5318170304295766,0.8672760537400175,-0.961325632277596,-0.8186260990521305,9.706307210795783,-1.2020745077828074,0.0551900037088241,-1.104825322211619
0.34,-1.836539547589711,0.541310496544694,1.8700896626396952,0.1238635350755935,0.24003460444411,0.0410849042511325,0.1432144248729982,-0.2907388527123167,-0.3495765356723557,-1.833414028938127,0.5481103818880411,1.8710997650556505,0.2928078171610757,-0.3623093061511075,-0.5044352749344928,1.6141783142036985,0.9398822986255772,-0.959624249434679,-0.8951615466901625,9.636663297481393,-1.2016679453166146,0.0592773261846337,-1.104500466913031
0.36,-1.8334724088583991,0.5352919344399772,1.862906467773069,0.120569991121192,0.243861070517035,0.0409131750412528,0.1626355505622819,-0.3100720530410552,-0.3678400526010225,-1.8281578726038463,0.5414641957739595,1.861611059565901,0.3328078177571221,-0.402309306747154,-0.5444352755305392,1.6465940670014787,0.9710562844641862,-0.9666600164369238,-0.9131758464333396,9.598043714492633,-1.2016057543289718,0.0628962943259018,-1.103404782334513
0.38,-1.8300105367864845,0.5288897798719482,1.85535592272792,0.1173575985455148,0.2474416274273869,0.0406904711117511,0.1826518940816614,-0.3290386484608302,-0.3862882640295967,-1.8219017162546645,0.5338180096449769,1.8511223540612507,0.3728078183531685,-0.4423093073432004,-0.5844352761265856,1.6588567257426212,1.0008171759689737,-0.9483297709887512,-0.9224105714287112,9.586135124016437,-1.2011237001258737,0.0661772093957097,-1.1016324607274786
0.4,-1.8263458374596384,0.5224620262583273,1.847839100993495,0.1142878276479516,0.2506280123530077,0.0404291371476759,0.2021628583598158,-0.3464900169829859,-0.404021998004325,-1.8208779420824013,0.5124378474489066,1.83604150952644,0.2826518955717775,-0.4204694540843615,-0.4511390637689575,1.5809121663188157,0.9755482139077216,-0.8725684261077865,-0.8866866987364164,9.576196248803171,-1.2005794980577775,0.0695370611732963,-1.0998720377412616
0.42,-1.821987271439153,0.5152871728331192,1.83983078877028,0.11006390238107,0.2531046973210628,0.0399606237016316,0.2330076539482201,-0.3695838954582594,-0.3943708571169064,-1.8208779420824013,0.5124378474489066,1.83604150952644,0.2826518955717775,-0.4204694540843615,-0.4511390637689575,1.9861225782601812,1.5422397794202138,-1.1546939237636749,0.482557044370932,9.56224850828039,-1.1924143619727023,0.0737267537623991,-1.086509184020926
0.44,-1.817002923701244,0.5076866118502456,1.8320469740932772,0.1051120284388053,0.2541315018537184,0.0392619488662407,0.2636691340097171,-0.3891330548854854,-0.3848055724608786,-1.8208779420824013,0.5124378474489066,1.83604150952644,0.2826518955717775,-0.4204694540843615,-0.4511390637689575,1.8800203884689075,1.5330740030748469,-0.977457971361298,0.4782642328013897,11.445569430103204,-1.197067106503829,0.0779573081597272,-1.0924186783670906
0.46,-1.8117093415869796,0.5001257394533122,1.824786869129592,0.1005900801255823,0.2538176680934558,0.0384667878001822,0.2918936127462087,-0.4057339170506058,-0.3798522390695203,-1.818051423126684,0.508233152908063,1.8315301188887505,0.3026518958698008,-0.4387556152090678,-0.4641092237168296,1.655857282692217,1.411223936824582,-0.8300431082560233,0.2476666695679114,11.195924681152064,-1.2022528177386895,0.0821172723336858,-1.0970748491626297
0.48,-1.8055694513355456,0.4918432481741412,1.817213704426575,0.0962721099702086,0.2520104330422706,0.0375116346227168,0.3204741363904288,-0.4216266738351412,-0.3778509123225008,-1.812398385215248,0.4998237638263758,1.8225073376133711,0.3426518964658472,-0.4753279374584803,-0.490049543612574,1.638163116678674,1.4290261822110044,-0.7946378392267694,0.1000663373509763,10.934761331045593,-1.2084592951722004,0.085845619365501,-1.098295765044115
0.5,-1.798870774756443,0.4832551112017558,1.8096495462604796,0.0924986194958968,0.2485665544722232,0.0364436111791691,0.347803996878305,-0.4364025148928318,-0.3787555203717716,-1.8067453473038129,0.4914143747446886,1.813484556337992,0.3826518970618937,-0.5119002597078929,-0.5159898635083183,1.5540793649068556,1.3664930243938112,-0.7387920528845293,-0.0452304024635391,10.72511404983652,-1.2157811827129552,0.0888740539863254,-1.0967986987052718
0.52,-1.7920167740235218,0.474831733728233,1.802421792414165,0.0894225347583917,0.2437079184378478,0.0353291058157717,0.372022813672908,-0.4496055162454738,-0.3819451503688434,-1.7990923093625748,0.4811763695505307,1.8031647590678257,0.4226518976579401,-0.5484725819573054,-0.5419301834040626,1.3883840167318893,1.2109408397301484,-0.6601500676321009,-0.1594814998535892,10.54418338250889,-1.226339961443061,0.0916486673892169,-1.0916543261418894
0.54,-1.7843354620007643,0.465700615501425,1.79474186907879,0.0867331233153005,0.2374694532409257,0.0341094660201144,0.3945273584856565,-0.4628788571064699,-0.3858682333029648,-1.791439271421337,0.4709383643563729,1.7928449617976592,0.4626518982539866,-0.585044904206718,-0.567870503299807,1.3210097412104762,1.1252272406374246,-0.6636670430498037,-0.1961541467060706,10.392080826208256,-1.238020728964981,0.0938567511989744,-1.08411845720679
0.56,-1.776230108730547,0.4563001183466704,1.7869758556556368,0.0843362771744852,0.2307556010673426,0.0328859431646184,0.4146325549106807,-0.4764326340859706,-0.3905252014008089,-1.7827862334651978,0.4597860511059797,1.7818766565300992,0.502651898850033,-0.6216172264561305,-0.5938108231955513,1.2345152343766237,1.0052598212512114,-0.677688848975036,-0.2328484048922025,10.262283836043936,-1.2486176532251685,0.0956286907403843,-1.075800671372693
0.58,-1.7677476283484552,0.4466299667838046,1.7791065998083435,0.0819076281098818,0.2239244037503464,0.0316688723822006,0.4323995341275727,-0.4897673098567189,-0.3961029291100675,-1.7731331954941576,0.4477194297993512,1.7702598432651455,0.5426518994460795,-0.658189548705543,-0.6197511430912956,1.1451966804910472,0.8883489608445982,-0.6667337885374158,-0.2788863854629342,10.262283836043936,-1.2582688993080984,0.0973022176731487,-1.0672925329173155
0.6,-1.7593818533257877,0.4372007315990885,1.771518270658668,0.0795077692861544,0.2176120702392792,0.030540019220046,0.4471769264962669,-0.5019896070918176,-0.4023419512139638,-1.7461276516420765,0.4221416012909686,1.7593014533528402,0.5323995356176888,-0.5541352672699156,-0.4111190648697192,1.0083170033951987,0.7388696184347121,-0.6111148617549328,-0.3119511051948131,10.188290324140326,-1.267715924314479,0.0991266527655346,-1.058017017966116
0.62,-1.7501955478259463,0.4269072471494932,1.7637184559900652,0.0736696933296159,0.2107421388347445,0.0291342591386019,0.4707636278796716,-0.5249611243430771,-0.3754199086871385,-1.7461276516420765,0.4221416012909686,1.7593014533528402,0.5323995356176888,-0.5541352672699156,-0.4111190648697192,2.126510910382902,1.1793350691702342,-1.1485758625629727,1.346102126341267,10.108340277473872,-1.266321348275792,0.103556927354437,-1.0378633668308217
0.64,-1.740560114464174,0.4162449102918527,1.7564948176167376,0.0647974116051983,0.2034187479847968,0.0275590186134398,0.4912075858943302,-0.5395247723450566,-0.3486554764791274,-1.7461276516420765,0.4221416012909686,1.7593014533528402,0.5323995356176888,-0.5541352672699156,-0.4111190648697192,1.834659432870243,1.0221979007329296,-0.7281824000989756,1.3382216104005529,12.455909226853692,-1.2761331221210082,0.11092028508205,-1.03950482426529
0.66,-1.730560098454826,0.4053501007703911,1.749743148735386,0.0557724018618409,0.1962810708945735,0.0260793037113099,0.507590233656223,-0.5490710741132088,-0.3277996714363718,-1.7408036562858995,0.4166002486182695,1.755190262704143,0.552399535915712,-0.5670088587525549,-0.4141222920216496,1.4093328467046968,0.81913238809464,-0.4773150884076094,1.042790252137779,12.08415351984786,-1.285522512472332,0.1182547488453659,-1.0398928494113964
0.68,-1.7207907522503425,0.3948566142561728,1.7436679151042684,0.0479978139911079,0.1901021504678232,0.0248447317592048,0.5198426603691361,-0.5550997292113318,-0.3127264236232944,-1.730155665573546,0.4055175432728712,1.7469678814067486,0.5923995365117585,-0.5927560417178335,-0.4201287463255102,1.016943265725618,0.6126213356456522,-0.3014327549061502,0.7536623906538725,11.677775692288378,-1.294723520787313,0.1253613541333046,-1.0394486199940516
0.7000000000000001,-1.7102879500164447,0.3837097744412735,1.7375437510143017,0.0410060552802869,0.1847198518693793,0.0237523016398067,0.5295801290627089,-0.5593383208896638,-0.3006523847222925,-1.7195076748611922,0.3944348379274729,1.738745500109354,0.6323995371078049,-0.6185032246831121,-0.4261352006293709,0.8039999554677267,0.4868734346786418,-0.2119295839166035,0.6037019450500919,11.345476881445393,-1.303178456494454,0.1314818680430861,-1.0386428706339128
0.72,-1.6996245076058805,0.3724960608059149,1.7316209809542866,0.0353609692760569,0.1812218783952195,0.0228828831458987,0.5362239915964105,-0.5620497087714048,-0.2922186463757982,-1.706859684119036,0.3820647734338107,1.7302227960967669,0.6723995377038514,-0.6442504076483908,-0.4321416549332315,0.5536706514461136,0.3321931266850819,-0.1355693940870483,0.4216869173247178,11.095235958549893,-1.3095078576997756,0.1364201547279147,-1.0385145426364144
0.74,-1.6888468480570231,0.3612391195033796,1.7258527670843689,0.0309868197653551,0.1802521707543536,0.0222231324389328,0.5415240997570756,-0.563751769032308,-0.2850599620081767,-1.69421169337688,0.3696947089401484,1.7217000920841794,0.7123995382998979,-0.6699975906136694,-0.4381481092370922,0.4534173505770448,0.2650054080332531,-0.0851030130451568,0.3579342183810757,10.8113140717669,-1.3108127732652877,0.1398991204372933,-1.040244791389744
0.76,-1.6784966893375814,0.3505149257621944,1.7204965062088613,0.0277351676057374,0.1812459807042076,0.0217349165993333,0.5478977630510525,-0.5651326040277189,-0.2791409205498963,-1.6805637026198228,0.3566809648723542,1.7130272267139954,0.7523995388959442,-0.695744773578948,-0.4441545635409529,0.4403559380046506,0.3186831646988464,-0.0690417497705486,0.2959520729140186,10.8113140717669,-1.3094690525935522,0.1426835091129445,-1.044575617635583
0.78,-1.6674545197928308,0.3392014144393259,1.7149734491970985,0.0249861491541176,0.183418552285049,0.0213092136271181,0.5561372271360554,-0.5661962621774762,-0.2735197094297098,-1.6659157118478642,0.343023541230428,1.704204199986215,0.7923995394919907,-0.7214919565442266,-0.4501610178448135,0.5015429979705266,0.4119732042501434,-0.0531829074878642,0.2810605560093243,10.761714195079549,-1.307444288143792,0.1449032321210267,-1.0503350574323822
0.8,-1.6562312646109152,0.3278711785520601,1.7095559906793696,0.0228053660643334,0.1860236717692828,0.0209421833644247,0.5658593464524111,-0.566858466643898,-0.2685285256787708,-1.639647658436028,0.310891601330452,1.7012974637256129,0.6561372286261715,-0.5969355751689761,-0.2922240474289345,0.5474258716768027,0.4861059658177846,-0.0331102233210922,0.2495591875469494,10.7340554000848,-1.3054804182126372,0.1466680836273493,-1.056717269888852
0.8200000000000001,-1.6447411444231383,0.3164257407793228,1.7043737779800254,0.0177388179902258,0.1875905708420965,0.0203596255661474,0.5823663512855736,-0.5753728179313903,-0.2498823457021319,-1.639647658436028,0.310891601330452,1.7012974637256129,0.6561372286261715,-0.5969355751689761,-0.2922240474289345,1.315917374049451,0.8253502416581238,-0.4257175643746114,0.9323089988319474,10.709475460148496,-1.298403283941607,0.1504102694371366,-1.0575757154037335
0.84,-1.6335325222891606,0.3054809883051319,1.699781533851534,0.0107814790582625,0.187550725404872,0.0196454376057584,0.5965220785420005,-0.575981833149694,-0.2344810274858823,-1.639647658436028,0.310891601330452,1.7012974637256129,0.6561372286261715,-0.5969355751689761,-0.2922240474289345,1.046370054632507,0.7077863628213443,-0.0304507609151849,0.7700659108124799,11.62272488868257,-1.3017197858882257,0.1574861880775502,-1.066052885814727
0.86,-1.6214617783160286,0.2939942882448892,1.6952300594904186,0.0036895402921842,0.1865283919164021,0.0189284160250831,0.6096679038915376,-0.5726342164607535,-0.2216347581981752,-1.6330862861497664,0.3049222455787623,1.6983752232513236,0.6761372289241947,-0.6030834377672761,-0.2959649150287794,0.9341385018144926,0.6572912674768561,0.1673808344470229,0.6423134643853509,11.403503071644993,-1.3070510479038953,0.1645753205708057,-1.0729162639004286
0.88,-1.6091472058809049,0.2826022451592241,1.6908977077278493,-0.0022510746825275,0.1849562866891545,0.0183245001907026,0.6210466621722177,-0.5669836136772707,-0.2122303153412893,-1.6199635415772429,0.2929835340753828,1.692530742302745,0.7161372295202412,-0.6153791629638761,-0.3034466502284693,0.7903306227068583,0.5689379140340067,0.2825301391741419,0.4702221428442982,11.187930734463407,-1.3127068130923962,0.1703643049546177,-1.0778292237612055
0.9,-1.597253943359836,0.2718976368000043,1.6869313429671005,-0.006623488272523,0.183354130067607,0.017870880879283,0.6302485778612753,-0.5603869268338458,-0.2057455404980976,-1.6068407970047194,0.2810448225720032,1.6866862613541662,0.7561372301162876,-0.627674888160476,-0.3109283854281591,0.652387604161878,0.4600957844528797,0.3298343421712424,0.3242387421595827,10.84653230749609,-1.318768624730057,0.1752040718734957,-1.0814846865222725
0.92,-1.5845619099653998,0.2607707290869925,1.682870713284496,-0.0099471026629941,0.1820137065745533,0.0175085488746694,0.6384373675140336,-0.5528582466695706,-0.2007414812311596,-1.5917180524023935,0.2684913248087937,1.6804676936456031,0.7961372307123341,-0.639970613357076,-0.318410120627849,0.6098727534086511,0.4094394826379133,0.3764340082137607,0.2502029633468988,10.84653230749609,-1.3239762807007167,0.1787341457892252,-1.0844800232549356
0.94,-1.5717145372023476,0.2497986364368722,1.6788983459441431,-0.0120771301922336,0.1813112541334081,0.0172467134835707,0.6459226977399531,-0.5449357097166881,-0.1967854278055082,-1.5765953078000678,0.2559378270455842,1.67424912593704,0.8361372313083806,-0.6522663385536759,-0.3258918558275389,0.5797566710859432,0.3742665112959786,0.3961268476441237,0.1978026712825709,10.737277315655774,-1.3277445354335304,0.181045350893281,-1.0874592330150277
0.96,-1.5587161240848004,0.2389873844697977,1.674996411742085,-0.0131123843716986,0.1811409104427048,0.0170740553432439,0.6535792811794793,-0.5367463995351609,-0.1936094276091928,-1.5604725631828409,0.2430769361524596,1.6678435148484845,0.8761372319044269,-0.6645620637502759,-0.3333735910272287,0.5826127540285378,0.3828291719763066,0.4094655090763621,0.1588000098157696,10.646510836702872,-1.3301580244963758,0.1822161877926527,-1.0907545088641484
0.98,-1.546223437212107,0.2288718168635745,1.6713432415511824,-0.0130163986054745,0.1812156099493868,0.0169973352784646,0.6610653702327819,-0.5286046555802104,-0.1910967945565553,-1.5433498185507128,0.2299086521294202,1.661250860379937,0.9161372325004734,-0.6768577889468759,-0.3408553262269186,0.5671041544530343,0.3743044526651307,0.4070871977475243,0.1256316526318746,10.646510836702872,-1.3325711430589873,0.1823625836806572,-1.0944997505394147
1.0,-1.53291825447451,0.2183910115218262,1.6675454887287309,-0.0116400424548011,0.1813671420360296,0.0170180454472603,0.669059214027801,-0.5200280265749125,-0.1888287698603003,-1.513170168700468,0.2024415840845639,1.6617884018233546,0.761065371722898,-0.528344535700825,-0.2251264869679781,0.5970846668113847,0.3996921897509553,0.4288314502648938,0.1134012348127502,10.621025673654913,-1.3349046760115302,0.1812308333348599,-1.0985927278254046
1.02,-1.5194085313739245,0.2079465743192167,1.6638896906557528,-0.0131893398182108,0.1807637278181795,0.0168568654148028,0.6813227481376642,-0.523196886075242,-0.1768824512900326,-1.513170168700468,0.2024415840845639,1.6617884018233546,0.761065371722898,-0.528344535700825,-0.2251264869679781,0.8705608347193928,0.6131767054931625,-0.1584429750164706,0.5973159285133852,11.221231896281097,-1.3335333530409064,0.1823684757742069,-1.0982335797256713
1.04,-1.5063649016068092,0.1980315201140413,1.6606187081229822,-0.0184578241553417,0.1791968761284294,0.0164767250827256,0.6909591795363308,-0.5195600214500624,-0.168065529073668,-1.513170168700468,0.2024415840845639,1.6617884018233546,0.761065371722898,-0.528344535700825,-0.2251264869679781,0.6779117047457441,0.4818215699333272,0.1818432312589768,0.4408461108182299,11.013749804094914,-1.338259164495593,0.1884372344414369,-1.1044769808223642
1.06,-1.4924595291799438,0.187728803310703,1.657323944121996,-0.0246222568971041,0.177228051907462,0.0160765316029671,0.6989230655689841,-0.5108004686897325,-0.162021762430901,-1.505559514983239,0.1971581387275557,1.6595371369536749,0.7810653720209212,-0.5282925117249478,-0.2319324254502626,0.6646058240309,0.398194301632665,0.4379776380164957,0.3021883321383492,11.013749804094914,-1.3444833800687246,0.1953455290105134,-1.109207990065122
1.08,-1.4784180116795906,0.1776312495517801,1.6541176400644333,-0.0300472589921373,0.1755847319993163,0.015758226609528,0.7047133602562546,-0.4995023114374424,-0.1590320471636402,-1.490338207548781,0.1865912480135392,1.6550346072143152,0.8210653726169677,-0.5281884637731937,-0.2455443024148317,0.6521393011508387,0.2895147343635273,0.5649078626145054,0.1494857633630428,10.817447598049512,-1.351128641608272,0.2016877395986758,-1.1145672409244602
1.1,-1.464278243810543,0.1677762421071894,1.6509428259255003,-0.0342309943590492,0.1748361785307422,0.0155316034600477,0.7091044778803742,-0.486864091809194,-0.1585966945652816,-1.475116900114323,0.1760243572995227,1.6505320774749557,0.8610653732130141,-0.5280844158214395,-0.2591561793794008,0.6693206280356094,0.2195558812059794,0.6319109814124174,0.0217676299179292,10.517295749710684,-1.3555565778784648,0.2064521161403124,-1.1191068077607946
1.12,-1.4507690110322038,0.1586544983581779,1.647918138150675,-0.0370395722229369,0.1750536632904355,0.0153888091599431,0.7128243338794383,-0.4742409144291821,-0.1598162176250528,-1.4578955926500627,0.1654626689830939,1.6453489538873676,0.9010653738090606,-0.5279803678696853,-0.2727680563439699,0.6608123264481585,0.1859927999532051,0.6311588690005948,-0.0609761529885621,10.517295749710684,-1.3587786604953718,0.2101706877925369,-1.1238485458400844
1.14,-1.4364719032418214,0.1493133332367871,1.644701154024079,-0.038897558312232,0.1762253209640351,0.0152993241382535,0.7168039623229168,-0.46070947561579,-0.1618555528422127,-1.4406742851858023,0.1549009806666651,1.6401658302997797,0.9410653744051072,-0.5278763199179312,-0.286379933308539,0.712559062528617,0.1989814221739216,0.6765719406696041,-0.101966760857991,10.427022458899955,-1.360469192340584,0.2126660241531733,-1.12889327669121
1.16,-1.4220856566037965,0.1402478533469715,1.641437826837892,-0.0396061352250686,0.1780917110826379,0.0152802464029635,0.7217255182406189,-0.4466240023813037,-0.1644010950439847,-1.422452977706641,0.1443418935490302,1.6346424097880774,0.9810653750011537,-0.5277722719661769,-0.2999918102731081,0.7568058766809072,0.2460777958851079,0.7042736617243167,-0.1272771100886027,10.391417029271906,-1.3607333241782842,0.2139565828072763,-1.1347828789018948
1.18,-1.407590552128532,0.1314707622112327,1.6381200734628534,-0.0388570486106129,0.1802054109945288,0.0153698499547266,0.7275998397875384,-0.4320137356648361,-0.1672544446717323,-1.4032316702125784,0.1337854076301891,1.628778692352261,1.0210653755972,-0.5276682240144228,-0.3136036872376772,0.8001705306700099,0.2937160773459735,0.7305133358233795,-0.1426674813873776,10.373907400352437,-1.361004418583111,0.2138453610583812,-1.141053845999641
1.2,-1.393703257966147,0.1234034937083881,1.6349137825384328,-0.0365884193629909,0.182140460912373,0.0155821801963589,0.7339472562553752,-0.4181333876810069,-0.1701097391438441,-1.3712105601391549,0.1098700754279909,1.629757351229267,0.812660637419279,-0.4156049960533297,-0.1972460658232988,0.7763801621802792,0.3173708233918382,0.6940173991914628,-0.1427647236055915,10.368146236342,-1.3616938392083382,0.2120870932373889,-1.1480409470429835
1.22,-1.3788487584564246,0.1151315122716172,1.631620676818671,-0.0345748156061602,0.1816679243015536,0.0158834832123919,0.7513857816482619,-0.4093788519596608,-0.1583390722351003,-1.3712105601391549,0.1098700754279909,1.629757351229267,0.812660637419279,-0.4156049960533297,-0.1972460658232988,1.1393996917799256,0.8719262696443353,0.4377267860673023,0.5885333454371922,10.36813677354712,-1.3535700738023964,0.2095622307373763,-1.146728557395985
1.24,-1.3636534996418253,0.1070451431269643,1.6285704106825774,-0.0341974877624106,0.1763963107038972,0.0162478627984541,0.7664565644078588,-0.3996032824516415,-0.1474313231449096,-1.3712105601391549,0.1098700754279909,1.629757351229267,0.812660637419279,-0.4156049960533297,-0.1972460658232988,1.0507964151152642,0.7535391379798473,0.4887784754009666,0.5453874545095313,11.381083820971073,-1.368419473882394,0.2111473400680923,-1.1556316972055385
1.26,-1.3482201167098162,0.099162001286296,1.625699657618866,-0.0347353295554523,0.1683099164147015,0.0166605941619084,0.7756560936718118,-0.3891798019021137,-0.1401349691920093,-1.3630839537649622,0.1057140254674576,1.6277848905710337,0.8296727969456271,-0.4123232481310284,-0.2032443900536121,0.7850430982607173,0.4599764631976477,0.5211740274763871,0.3648176976450173,11.197092502450689,-1.3835065771026425,0.2133293073676681,-1.158594040304427
1.28,-1.333441771669924,0.0918720521111193,1.6230755753187076,-0.0357092042267642,0.1597991981062775,0.0170702748409406,0.7792664489386464,-0.3787267751965092,-0.1364177449197297,-1.3468307410165763,0.097401925546391,1.6238399692545675,0.8636971159983233,-0.4057597522864258,-0.2152410385142387,0.5833484995079413,0.1805177633417309,0.5226513352802276,0.1858612136139775,10.750730032397769,-1.398898870464779,0.2158239575901808,-1.1565413494829104
1.3,-1.317858775708691,0.084418523019729,1.6203613053835677,-0.0369140221645656,0.1513862056020244,0.0174949723587918,0.7786304309033255,-0.3671862987019623,-0.1353230867304376,-1.3305775282681909,0.0890898256253244,1.6198950479381018,0.8977214350510195,-0.3991962564418232,-0.2272376869748653,0.5804855579896622,-0.0318009017660436,0.5770238247273463,0.0547329094646054,10.750730032397769,-1.4125286623459288,0.2182218080127597,-1.1515650584585642
1.32,-1.302329314410751,0.0772031276870019,1.6176410622998574,-0.0379716029953658,0.1446061817107928,0.0178942817322671,0.7741916206855205,-0.3549663484683144,-0.1368535501999247,-1.3126230995671704,0.0811059004964879,1.6153502941986044,0.9317457541037156,-0.3926327605972206,-0.2392343354354919,0.6545466719301897,-0.2219405108902505,0.6109975116823929,-0.0765231734743535,10.571651835862212,-1.4238159480628878,0.2202457235189488,-1.1458712335072736
1.34,-1.2869262600380074,0.0702394840642531,1.6148730802687148,-0.0385056386954045,0.1405780315668299,0.0182445007798103,0.7663306151529405,-0.3421212170692484,-0.1398496892798818,-1.29466867086615,0.0731219753676515,1.610805540459107,0.965770073156412,-0.386069264752618,-0.2512309838961185,0.7677396336469976,-0.3930502766289978,0.6422565699533006,-0.1498069539978552,10.42194814960112,-1.4316422987507404,0.2215130653493368,-1.141802354867371
1.36,-1.2724529261168538,0.0638673708862007,1.6121808550782006,-0.0382260228148098,0.1400184581119943,0.0185182574332508,0.7580132220370825,-0.3294008812303181,-0.1433956000006491,-1.2758636341888123,0.0653021376349301,1.605960870508094,0.9997943922091082,-0.3795057689080154,-0.2632276323567452,0.7803195738582828,-0.4158696557928998,0.6360167919465143,-0.177295536038366,10.35655623034745,-1.432393516329067,0.2215952583522713,-1.1403909735093485
1.38,-1.25736965831427,0.0574220435257306,1.6092712663322783,-0.0368698005960528,0.1422275213329688,0.0187840878846916,0.7510672213973156,-0.3159128704767521,-0.147390256966651,-1.256207989535157,0.0576463872983237,1.6008162843455656,1.0338187112618042,-0.3729422730634129,-0.2752242808173717,0.7844275671659896,-0.3473000319883457,0.6744005376782991,-0.1997328483000937,10.289601846791811,-1.4297314488506996,0.2205134043629688,-1.1428877044165515
1.4,-1.242402356930176,0.0512447542699499,1.6062829058640269,-0.0342891031941566,0.1463433110003196,0.019078935755182,0.7463222274326338,-0.3028233778221007,-0.1512503400248313,-1.2198162972444042,0.041626400001893,1.6019017534839457,0.8339760082306019,-0.3002226927976902,-0.1544876548975711,0.7224092103806051,-0.2372496982340932,0.6544746327325712,-0.1930041529090168,10.29783585314908,-1.425727380755359,0.2183530031619223,-1.1481575624784277
1.42,-1.2274246587385635,0.045317863142235,1.6034178264220955,-0.0309885773454128,0.1499344160510274,0.019457750959723,0.7514148262679705,-0.2907659873528591,-0.1351094185729565,-1.2198162972444042,0.041626400001893,1.6019017534839457,0.8339760082306019,-0.3002226927976902,-0.1544876548975711,1.039043518266948,0.2546299417668374,0.6028695234620796,0.8070460725937395,10.29783585314908,-1.4154584320682084,0.2148027460365621,-1.1524541878721626
1.44,-1.2131049510392289,0.0398942213355155,1.600992918342673,-0.0278130830891075,0.1516501886027273,0.0198847537814238,0.7555440092834266,-0.2808039587318658,-0.1210305148982499,-1.2198162972444042,0.041626400001893,1.6019017534839457,0.8339760082306019,-0.3002226927976902,-0.1544876548975711,0.886718240624225,0.206459150772803,0.4981014310496634,0.7039451837353328,11.41977120329193,-1.4172187991188296,0.2129781695264321,-1.1715566117007303
1.46,-1.197959133318842,0.034379079168743,1.5987044150519092,-0.024681359653839,0.152394996165726,0.020355336751579,0.7587315359534971,-0.2712878714787783,-0.1086838643620852,-1.211476537162098,0.0386241730739161,1.60035687693497,0.8505577655972592,-0.2970846572618779,-0.1559071344837551,0.7955438742504402,0.1593763335035247,0.4758043626543751,0.6173325268082327,11.41977120329193,-1.4191938974066365,0.2110434859908695,-1.1861885880831344
1.48,-1.1827612463504849,0.0290458102101878,1.5966375162220294,-0.0218249561616289,0.1525933385622974,0.0208232908553871,0.7608441215867863,-0.2625508153164123,-0.0987295932182958,-1.1947970169974862,0.0326197192179623,1.5972671238370186,0.8837212803305737,-0.2908085861902531,-0.1587460936561232,0.6706092052126875,0.1056292816644599,0.4368528081183015,0.4977135571894712,11.276745812070658,-1.4211589537595757,0.2091801823103112,-1.1980817252192546
1.5,-1.1675316494483454,0.0238797880118447,1.594746314857161,-0.0192662146054547,0.1526730704335903,0.0212746482694161,0.7620263418880823,-0.2544898847933527,-0.0908956490701396,-1.178117496832874,0.0266152653620085,1.5941773707390672,0.9168847950638882,-0.2845325151186283,-0.1615850528284912,0.5651259298926703,0.0591110150647999,0.4030465261529808,0.3916972074078123,11.145056204989489,-1.4227227692280675,0.2075335456617775,-1.207402124032772
1.52,-1.1530482196272542,0.0191159911696435,1.5930793633426557,-0.0171077121339728,0.1529184364661596,0.0216824251200966,0.7625335061166072,-0.2473559060465384,-0.0849755825175886,-1.1597798009315965,0.0209246150596359,1.5909456696824973,0.9500483097972028,-0.2782564440470036,-0.1644240120008593,0.4642145417296989,0.0253582114262462,0.3566989373407145,0.2960033276275475,11.035370309435166,-1.4238195937911649,0.2059591789993216,-1.215691294663798
1.54,-1.1377947137876052,0.0142432275367213,1.5914410798083145,-0.0151151708529979,0.1535453032319066,0.0220876038022828,0.7628431217185825,-0.24029530982683,-0.0791913857344898,-1.1414421050303185,0.0152339647572633,1.5877139686259274,0.9832118245305173,-0.2719803729753788,-0.1672629711732274,0.4566311783714422,0.0154807800987644,0.3530298109854182,0.2892098391549386,10.94906150071165,-1.4239918161319065,0.2045621122021705,-1.2229337137658236
1.56,-1.1225306409101916,0.0095087621409263,1.5899142094810237,-0.013364274642653,0.1545134652234383,0.0224729687392492,0.7636034792204731,-0.2335154160899282,-0.0738129371698025,-1.122275321260708,0.0097002162316814,1.5844112935900485,1.0163753392638315,-0.2657043019037541,-0.1701019303455954,0.4343754469849456,0.0380178750945314,0.3389946868450899,0.2689224282343652,10.932960832604294,-1.4232737473792303,0.2033548165805224,-1.2301691999943631
1.58,-1.1072462338442723,0.004906417867004,1.588490705915329,-0.011815608475245,0.155610285114852,0.0228447683712912,0.7648340254674166,-0.227076250683693,-0.0688220971241723,-1.1022794496227644,0.0043233694828901,1.5810376445748602,1.0495388539971462,-0.2594282308321293,-0.1729408895179635,0.4119635285913957,0.061527312347176,0.3219582703117618,0.2495420022815102,10.917032337913952,-1.4225541196593467,0.2023999661791899,-1.2369797039048378
1.6,-1.0926993330876766,0.0006498793719688,1.5872271092651118,-0.0105565380765992,0.1566270193536784,0.0231853085128059,0.766370805720203,-0.2213172480026277,-0.0644518291405792,-1.0690045325709014,-0.0064473946671805,1.5850496010591204,0.8286014586339205,-0.1975525073671618,-0.0999909062847625,0.3695505637740612,0.0768390126393181,0.2879501340532664,0.2185133991796546,10.903220833783053,-1.422112526288196,0.2016653546638144,-1.2443850998534964
1.62,-1.0772837830064117,-0.0037643828118829,1.5860056483982925,-0.0111283225041132,0.1555810334069798,0.0234360510940065,0.7752115316496493,-0.2200074171372498,-0.057820466976366,-1.0690045325709014,-0.0064473946671805,1.5850496010591204,0.8286014586339205,-0.1975525073671618,-0.0999909062847625,0.5564374538266614,0.4420362964723145,0.0654915432688918,0.3315681082106614,10.888350368299143,-1.4184616588090233,0.2024779544288959,-1.2447367550615644
1.64,-1.0617034539287666,-0.0081391137704235,1.5849024511789114,-0.0147039441893605,0.1504063064114664,0.0235402969151591,0.7816880552598152,-0.2168857214628519,-0.0529095151453398,-1.0690045325709014,-0.0064473946671805,1.5850496010591204,0.8286014586339205,-0.1975525073671618,-0.0999909062847625,0.4353383449779339,0.3238261805082965,0.1560847837198967,0.2455475915513077,11.054555709048143,-1.4285076668639536,0.2077428506356097,-1.2465646489799656
1.66,-1.0460515672505235,-0.0124049631598043,1.5838676468717736,-0.0194799296103161,0.1429735647315844,0.0236358598043368,0.7827966000779598,-0.209641437913648,-0.0507796063488397,-1.0607185179845622,-0.0084229197408521,1.5840496919962728,0.8413549452672213,-0.1916477587038556,-0.1062246681168805,0.3815921488857915,0.0554272409072298,0.3622141774601961,0.1064954398250064,10.735594134375788,-1.4408636759831912,0.2140297491333103,-1.243369450188193
1.68,-1.031209752439961,-0.0162978460080391,1.5828992436199154,-0.0237662856158976,0.135515191063568,0.0237999601755476,0.7792947020015328,-0.2005732724897264,-0.0512432430587488,-1.044146488811884,-0.0123739698881954,1.5820498738705775,0.8668619185338229,-0.1798382613772431,-0.1186921917811166,0.4865949889077816,-0.1750949038213489,0.4534082711960804,-0.0231818354954536,10.735594134375788,-1.4543433931740632,0.2203078329231236,-1.2373514553208884
1.7,-1.015698724146729,-0.0201975944545478,1.5818489718310125,-0.027576137330607,0.1285477705828908,0.0240454393064532,0.7718378547330723,-0.1899587074978644,-0.0538460197587771,-1.0275744596392054,-0.0163250200355386,1.5800500557448822,0.8923688918004244,-0.1680287640506306,-0.1311597154453527,0.6615285475733809,-0.372842363423026,0.5307282495930973,-0.1301388350014171,10.577956364146305,-1.4662368697362602,0.225629994163506,-1.230311823808696
1.72,-1.000373585975095,-0.0238771629577652,1.580726915635844,-0.0305592763875738,0.1235691666724795,0.0243269291055197,0.7608742699910368,-0.1786533688591816,-0.0582924181028743,-1.009727081803197,-0.0196855953165512,1.5774268614359752,0.917875865067026,-0.1562192667240182,-0.1436272391095887,0.8182012746957174,-0.5481792371017757,0.5652669319341413,-0.2223199172048575,10.450670653455743,-1.4760241080851997,0.2299390622739653,-1.2242450465439612
1.74,-0.9853021613965696,-0.0273262173125929,1.5795022677148296,-0.0327210262364576,0.1218742732903248,0.0245842495984325,0.7470973154080672,-0.1670010981525839,-0.0639362536163689,-0.9918797039671884,-0.0230461705975638,1.574803667127068,0.9433828383336276,-0.1444097693974057,-0.1560947627738248,0.9452946227293688,-0.6888477291484785,0.5826135353298845,-0.2821917756747314,10.355129422586288,-1.4800769205111084,0.2329099948146777,-1.2207270860536867
1.76,-0.9712321846002684,-0.0303814657877872,1.5782295664735293,-0.0340113986050868,0.1234185611661576,0.0247863601704862,0.7350408254981528,-0.1553322124123807,-0.0697452371207197,-0.9733946517995148,-0.0261115084454111,1.5718687847265551,0.9688898116002292,-0.1326002720707932,-0.1685622864380609,0.8877867603197378,-0.602824495495724,0.5834442870101583,-0.29044917521754,10.295822287286684,-1.4777235587359014,0.2348023858299621,-1.2198284885986015
1.78,-0.9566457054268046,-0.0333535305263449,1.5767701861213423,-0.0344155442768924,0.1273819869177709,0.02498920972245,0.7245670282079749,-0.142562030972978,-0.0758885030532811,-0.9542719253001763,-0.0288816088600931,1.5686222142344362,0.9943967848668308,-0.1207907747441807,-0.1810298101022969,0.8810755926553225,-0.5236898645088917,0.638509071970135,-0.3071632966280699,10.26257618442378,-1.4725477043027655,0.2355917937181117,-1.2223818404996785
1.8,-0.9422424682258832,-0.0360650512789689,1.5751905164849591,-0.0336022699187859,0.1328061698273078,0.0252311401159339,0.716563635809511,-0.1293404168153057,-0.0817632943815834,-0.920417354016406,-0.0404816320749938,1.5729757609686783,0.7811018326117568,-0.1161868769396748,-0.0817028318429921,0.8267081467622769,-0.4001696199231963,0.6610807078836156,-0.2937395664151166,10.257626390672158,-1.4662626107117855,0.2351505728433118,-1.227606893728156
1.82,-0.9286030999643814,-0.0383545036835643,1.573754978007572,-0.0304312570910045,0.1367852443723292,0.0256750045114732,0.7191909059532741,-0.1133060745794447,-0.069061894835784,-0.920417354016406,-0.0404816320749938,1.5729757609686783,0.7811018326117568,-0.1161868769396748,-0.0817028318429921,1.0311743666410889,0.1313635071881536,0.8017171117930523,0.6350699772899717,10.275317718886072,-1.4525058348852324,0.2311875452092854,-1.2306379442618145
1.84,-0.9141982685842748,-0.0404903642576361,1.5725088794537134,-0.0252824640712408,0.1382303819995667,0.0263584896592789,0.7209534785794491,-0.1014887976575777,-0.0563678130833593,-0.920417354016406,-0.0404816320749938,1.5729757609686783,0.7811018326117568,-0.1161868769396748,-0.0817028318429921,0.8716283721401488,0.0881286313087537,0.5908638460933501,0.6347040876212358,11.487896933829688,-1.4551959784490118,0.2272194374528044,-1.2484510603194343
1.86,-0.8997739879655182,-0.0424244968250484,1.5714907974410417,-0.0200430083212156,0.1378001439422045,0.0270903823007208,0.721243957800136,-0.0926090329008314,-0.0461917496158177,-0.9126063356902884,-0.0416435008443906,1.5721587326502484,0.7924087934925131,-0.1109118461330141,-0.0828656976009343,0.675438502027089,0.0145239610343406,0.443988237837313,0.5088031733770815,11.37575774380548,-1.4585079578515368,0.2227389333030599,-1.2613630393913118
1.88,-0.8853618372620768,-0.0442020199817087,1.570649082532637,-0.0153533071975576,0.1361974280437803,0.027792986248648,0.7198388873896062,-0.0855290475579851,-0.0384876534585864,-0.8969842990380532,-0.0439672383831841,1.5705246760133884,0.8150227152540259,-0.1003617845196928,-0.0851914291168187,0.5278577292067697,-0.0702535205264864,0.3539992671423159,0.3852048078615649,11.227943081852573,-1.4626124049235112,0.2187962793837116,-1.269538523101823
1.9,-0.8717143451159298,-0.0457715857606297,1.5699728031488678,-0.0115844181659335,0.1342349254502837,0.028403067011133,0.7167268414575056,-0.0799370028172881,-0.0330858915296674,-0.881362262385818,-0.0462909759219776,1.5688906193765286,0.8376366370155387,-0.0898117229063715,-0.0875171606327031,0.4187326897979772,-0.1556022966050285,0.2796022370348511,0.2700880964459498,11.094412406731864,-1.4672212049155149,0.215250568287312,-1.2749292296363162
1.92,-0.8574317420512823,-0.0473169918824404,1.569356099704956,-0.0083521487250096,0.1324288694308257,0.0289752378353437,0.7115797606960098,-0.0748286710434871,-0.0289385308285137,-0.8646095296455073,-0.048087210380105,1.5671402761638746,0.8602505587770515,-0.0792616612930502,-0.0898428921485875,0.4176963450344609,-0.2573540380747918,0.2554165886900473,0.2073680350576848,10.980400259856651,-1.4712125147384316,0.2124062720126918,-1.2783065379715834
1.94,-0.8432673809752457,-0.0487664053065505,1.56881431855579,-0.0058250337776679,0.1315783840923535,0.029477965339674,0.7052117813405656,-0.0702827219399189,-0.0254740154364797,-0.8478567969051964,-0.0498834448382324,1.5653899329512206,0.8828644805385643,-0.0687115996797289,-0.0921686236644719,0.4278424979628499,-0.3183989677722099,0.2272974551784129,0.173225769601696,10.891962487288763,-1.47240792643852,0.2101216430165131,-1.2806148273644111
1.96,-0.8292295187739869,-0.0501272265791979,1.5683369327539016,-0.0038759374589506,0.1317865300008584,0.0299257975641375,0.6990254180204415,-0.0659369218161262,-0.0224457457718325,-0.8305387161208478,-0.0514159277560268,1.5635814464506694,0.9054784023000768,-0.0581615380664076,-0.0944943551803563,0.4072084447993304,-0.3093181660062061,0.2172900061896319,0.1514134832323599,10.859662395768282,-1.471663257033273,0.2084750674402394,-1.2833477577550971
1.98,-0.8160032515405018,-0.051341718233654,1.5679366816030702,-0.0024374568496261,0.1327382922231573,0.0303139107359345,0.6936290492851295,-0.0620850112633861,-0.0198460410105842,-0.8126552872924615,-0.0526846591334882,1.561714816662221,0.9280923240615896,-0.0476114764530863,-0.0968200866962407,0.3560775030784079,-0.2698184367656009,0.1925955276370069,0.1299852380624197,10.837958881593297,-1.4699157601690518,0.2072143650624845,-1.286833332262324
2.0,-0.8021846133160352,-0.0525445603093192,1.5675665387234743,-0.0013871356890157,0.1342918796238344,0.0306840035281765,0.6886156855757098,-0.0583926133207624,-0.0173214901111304,-0.7813217990762453,-0.0544459687968233,1.566944379552541,0.7045673872891821,-0.0430411205040372,-0.0371202996688741,0.3359351704330399,-0.2506681854709813,0.1846198971311833,0.1262275449726901,10.814469276236196,-1.4674883131236076,0.2064884964249792,-1.2907491680296164
2.02,-0.7883367799229756,-0.0536501562106485,1.5672804998261072,-0.000162980844734,0.1325500423571476,0.0310631426965893,0.6964932843516771,-0.0525183937524706,-0.0112140763130253,-0.7813217990762453,-0.0544459687968233,1.566944379552541,0.7045673872891821,-0.0430411205040372,-0.0371202996688741,0.578497020979597,0.3938799387983638,0.2937109784145922,0.3053706899052499,11.102629135452844,-1.4558301945839454,0.2045046674985369,-1.2901819179825131
2.04,-0.7743588044270909,-0.0546514206444944,1.567108272297986,0.0015298175548103,0.1242310539939967,0.0314590221862819,0.6998796521392217,-0.0479851223996023,-0.0062751161773025,-0.7813217990762453,-0.0544459687968233,1.566944379552541,0.7045673872891821,-0.0430411205040372,-0.0371202996688741,0.3755374920481154,0.1693183893772265,0.2266635676434151,0.2469480067861436,11.102629135452844,-1.4739191097238076,0.2039810337605628,-1.2892158042237043
2.06,-0.7610902711115055,-0.055530114781124,1.567014209698036,0.0031254769719161,0.1130892383330946,0.0318040764334593,0.6961153655341691,-0.0447506530056876,-0.0038298742725366,-0.7742761252033535,-0.0548763800018636,1.5665731765558524,0.7067550548899927,-0.0392323423521674,-0.040575151400532,0.2766353822180558,-0.1882143302526284,0.1617234696957323,0.1222620952382947,10.793989424179928,-1.494364739933698,0.2031497363945369,-1.279818026314294
2.08,-0.7472700103487185,-0.0563988597109012,1.566942822016195,0.0044935155383756,0.1004459737234797,0.0321143709310192,0.6857027969000804,-0.0423026242815147,-0.0035279031074955,-0.7601847774575698,-0.0557372024119444,1.5658307705624748,0.7111303900916137,-0.0316147860484279,-0.047484854863848,0.5350364865560554,-0.5206284317044341,0.1224014362086439,0.0150985582520534,10.644269717921816,-1.5138614207441958,0.2023919749440244,-1.2648907114351091
2.1,-0.7337180437685507,-0.0572279315693036,1.566850207299729,0.0052605712201165,0.0888453705088204,0.0323651772049138,0.6699510468706997,-0.0406588496025723,-0.0057159724966208,-0.7460934297117863,-0.0565980248220251,1.5650883645690974,0.7155057252932348,-0.0239972297446883,-0.054394558327164,0.799386126716704,-0.7875875014690337,0.0821887339471225,-0.1094034694562661,10.509257087440346,-1.5298834554467826,0.2020550463415888,-1.2473762613411976
2.12,-0.7205228375738539,-0.0580296084018798,1.5666945222673905,0.0052227113142649,0.0795737048316557,0.0325609889066005,0.6504605056906012,-0.0394957263318694,-0.0097150607628359,-0.7317833152059215,-0.0570779694169189,1.564000473402554,0.7198810604948558,-0.0163796734409488,-0.0613042617904799,0.9965274183344704,-0.974527059004926,0.0581561635351422,-0.199954413310754,10.408782352659728,-1.5407182218278654,0.202366284679826,-1.230575408524718
2.14,-0.7083771596095813,-0.058771138734098,1.5664625078410912,0.0043266803042661,0.0737247126820198,0.0327013545349186,0.6290204009363158,-0.0385220713401758,-0.0144853927470876,-0.7174732007000568,-0.0575579140118127,1.5629125822360108,0.7242563956964768,-0.0087621171372092,-0.0682139652537959,1.0992976884783698,-1.0720052377142686,0.0486827495846799,-0.2385165992125844,10.362710458663967,-1.5481097167796003,0.2036208320268345,-1.214956997102297
2.16,-0.6960547698927265,-0.0595273447019643,1.5661159665789302,0.0025139531556853,0.0716057478708467,0.0328083750734136,0.6046016601500243,-0.037063519247895,-0.0199077355621732,-0.7030537028141517,-0.0578474196991129,1.5616519484828846,0.728631730898098,-0.0011445608334697,-0.0751236687171119,1.2528009392939363,-1.220937039314579,0.0729276046140439,-0.271117140754282,10.362710458663967,-1.5464687301772018,0.2054186613784535,-1.202801001097494
2.18,-0.6842112703623963,-0.0602429861406415,1.565661642278167,7.469629953257466e-05,0.0735074250406679,0.032880284863422,0.5814787265717202,-0.0343454241964583,-0.0252159618218613,-0.6885248215482059,-0.0579464864788197,1.5602185721431756,0.733007066099719,0.0064729954702698,-0.0820333721804278,1.1939800710222814,-1.1561466789152042,0.1359047525718314,-0.2654113129844048,10.33257396186582,-1.5383846647148345,0.2077159096632934,-1.1966103333190614
2.2,-0.6728042546410377,-0.0608857215664279,1.5651062992396652,-0.0023226123290517,0.0782872381507015,0.0329457769245226,0.5608034730591362,-0.0300781920621815,-0.0300288194085186,-0.6551373340338102,-0.0619602573504644,1.564400844187074,0.6056143999903613,-0.0218502482611303,-0.0412671033670379,1.0826344905447802,-1.0337626756291962,0.213361606713839,-0.2406428793328615,10.318737819010494,-1.5283389304900803,0.2099127563840043,-1.1952205562031777
2.22,-0.6623298784032832,-0.0613621631759543,1.5645669871488823,-0.0027679959128977,0.0848165702741454,0.0331199064487417,0.5432272116436898,-0.0210187004581667,-0.0264995947560882,-0.6551373340338102,-0.0619602573504644,1.564400844187074,0.6056143999903613,-0.0218502482611303,-0.0412671033670379,1.004309190581578,-0.8788130707723218,0.4529745802007445,0.1764612326215178,10.326762225494347,-1.5147310854341212,0.2102441727057903,-1.1998982962465017
2.24,-0.6516331999704464,-0.0616976024784128,1.5640719689737164,-0.0006298227209673,0.0931241002026282,0.0334824899715178,0.5277222173137989,-0.013205145945283,-0.0232633595054736,-0.6551373340338102,-0.0619602573504644,1.564400844187074,0.6056143999903613,-0.0218502482611303,-0.0412671033670379,0.8830765848626555,-0.7752497164945471,0.3906777256441851,0.1618117625307316,10.8385773736818,-1.502051771414184,0.2080334324687977,-1.2125565218633354
2.26,-0.6412131454223585,-0.0619011729126375,1.5636316358598583,0.003194153885563,0.1019941913657618,0.0339805490134764,0.5153828774691442,-0.0080411125647224,-0.0209417148624394,-0.6490811900339066,-0.0621787598330757,1.5639881731534035,0.6104415346740895,-0.0193512130740647,-0.0444773316760732,0.6788162166705257,-0.6169669922327314,0.2582016690280291,0.1160822321517072,10.770928996917974,-1.4901445515590654,0.2041746930994313,-1.2239234154431409
2.28,-0.6315125844010361,-0.0620291147568356,1.5632496286982631,0.006997546276367,0.1102462054159996,0.0344887208770866,0.506528924062694,-0.0056786164037055,-0.0194050666977632,-0.6369689020340994,-0.0626157647982983,1.5631628310860628,0.620095804041546,-0.0143531426999335,-0.0508977882941438,0.4645835947825057,-0.4426976703225116,0.1181248080508443,0.076832408233814,10.719693800449932,-1.4775005899944813,0.1998188937655758,-1.2355065419188829
2.3000000000000003,-0.6214566411037462,-0.0621302942364975,1.5628726611984411,0.0105243556174307,0.1182367738419285,0.0350064218038383,0.4997061995836123,-0.004509831376797,-0.0184157182906868,-0.6248566140342922,-0.0630527697635209,1.562337489018722,0.6297500734090024,-0.0093550723258023,-0.0573182449122144,0.3496227896861499,-0.3411362239540833,0.0584392513454256,0.0494674203538204,10.686148356259764,-1.4660331219468594,0.1959922576301831,-1.2458803013812638
2.32,-0.6115142492783509,-0.0622167780234337,1.5625093032308144,0.0133607337294226,0.1251741734841703,0.035478158550489,0.4949810251758212,-0.0041021428313674,-0.0180045567819637,-0.6122616125661121,-0.063239871210037,1.5611911241204777,0.6394043427764587,-0.0043570019516711,-0.063738701530285,0.2380259277913551,-0.2362587203895566,0.0203844272714765,0.020558075436154,10.638725460205931,-1.4562256716871933,0.1929463973215308,-1.2546179155624626
2.34,-0.6016480531570194,-0.0623003187459941,1.5621511887155268,0.0154776725293922,0.1308511612933544,0.035887683979811,0.4918815841185163,-0.0041141049900361,-0.0178406927297978,-0.5996666110979321,-0.063426972656553,1.5600447592222335,0.6490586121439152,0.00064106842246,-0.0701591581483556,0.155189637126157,-0.1549720528652431,-0.0005981079334338,0.0081932026082916,10.637405867529196,-1.448654752550689,0.1908185945002616,-1.261180176234937
2.36,-0.5923205533044141,-0.0623818535637427,1.5618115732705076,0.0169019621814856,0.1350098753100594,0.0362151042417204,0.4900779188812365,-0.004390406072268,-0.0179246904303334,-0.5868302528955656,-0.0634891223437158,1.5587378829085374,0.6587128815113716,0.0056391387965912,-0.0765796147664262,0.0913318973566933,-0.0901832618639908,-0.0138150541115933,-0.0041998850267795,10.637405867529196,-1.4426539178707098,0.1892933742732888,-1.266352981971222
2.38,-0.5825325908421403,-0.0624763831481342,1.5614489367857745,0.017751353189621,0.1381210341730366,0.0364870027550187,0.4887886815932342,-0.005016440046733,-0.0183511304608829,-0.5737525379590127,-0.0634263202715253,1.5572704951793896,0.6683671508788281,0.0106372091707224,-0.0830000713844968,0.0747646711625048,-0.0644618644001143,-0.0313016987232515,-0.0213220015274724,10.617523693212206,-1.4386438205116203,0.1885491135084355,-1.269663310606451
2.4,-0.5727671676547117,-0.0625864083858873,1.5610737283129268,0.0178200561747214,0.1400648425192895,0.0366751607663336,0.4877684495785161,-0.0059052820804824,-0.0191617425178922,-0.5580931567624785,-0.0627272051504708,1.5605313802627303,0.5180911035504887,0.0156087805649584,-0.0244929676815219,0.078867062703392,-0.0510116007359062,-0.0444421016874673,-0.0405306028504644,10.617523693212206,-1.4362206125894224,0.1886978663757254,-1.271154913492464
2.42,-0.5629756747063124,-0.0627423322816769,1.560778900706694,0.0161338242774166,0.1400631350251066,0.0366986099563893,0.4911980339249727,-0.0091869920029098,-0.010279149491721,-0.5580931567624785,-0.0627272051504708,1.5605313802627303,0.5180911035504887,0.0156087805649584,-0.0244929676815219,0.503567591473588,0.1714792173228313,-0.1640854961213699,0.4441296513085605,10.598836666522402,-1.4304943657830027,0.1901562358901012,-1.268435737833005
2.44,-0.5536197147391317,-0.0629331514118966,1.560656537532404,0.0126937627619185,0.1377150956366521,0.0365559038930579,0.4932764952012842,-0.0101723188573551,-0.0030588222304011,-0.5580931567624785,-0.0627272051504708,1.5605313802627303,0.5180911035504887,0.0156087805649584,-0.0244929676815219,0.3788931117339559,0.1039230638155752,-0.0492663427222664,0.3610163630659919,11.21390154641631,-1.434393227162347,0.1947413324614723,-1.2717905065298576
2.46,-0.5437499830418753,-0.0631194211019529,1.5606586265598856,0.0085731222480172,0.1333127609036919,0.0363608689714513,0.4933411105766099,-0.008282209117552,0.0028194247980307,-0.5529122457269736,-0.0625711173448212,1.560286450585915,0.5239515879419396,0.0197338246872967,-0.0257213351256497,0.3087494052726889,0.0032307687662824,0.0945054869901566,0.2939123514215951,11.095963005082012,-1.441722569898246,0.2000569260066874,-1.271690823068505
2.48,-0.5339122862514685,-0.0632488839341878,1.5607600428681867,0.0047459251870286,0.1277868468649019,0.0361989121625996,0.4901348781695339,-0.0047670515907371,0.0069671941435513,-0.5425504236559638,-0.0622589417335221,1.5597965912322846,0.5356725567248414,0.0279839129319732,-0.0281780700139053,0.3155956639045779,-0.1603116203538007,0.1757578763407434,0.2073884672760327,10.98323938102476,-1.450745299794241,0.2050539245717164,-1.268949916632878
2.5,-0.5241755587692536,-0.0632969206246128,1.5609263997323393,0.0015211899504348,0.1223351604145554,0.0361010877065098,0.4835844737230574,-0.0003184195688306,0.0094776007150707,-0.5321886015849541,-0.0619467661222229,1.5593067318786542,0.5473935255077431,0.0362340011766498,-0.0306348049021609,0.4153319950144643,-0.3275202223238238,0.2224316010953224,0.1255203285759696,10.877415046916212,-1.458758360981531,0.2092357289305376,-1.2646764293249404
2.52,-0.5146023837770669,-0.06325023971685,1.56112943300641,-0.0010695834956076,0.1180264190117797,0.0360648858950446,0.4739670350740383,0.0046471492724394,0.0107092573166147,-0.5212407310747992,-0.0612220860986899,1.558694035780611,0.5591144942906449,0.0444840894213264,-0.0330915397904165,0.5446764591690334,-0.4808719324509547,0.2482784420635086,0.0615828300771986,10.786181396639222,-1.464865199700344,0.2124681244211936,-1.2607369572557177
2.54,-0.5057118391449081,-0.0631109439817393,1.5613392331226748,-0.0029906641628396,0.1160223228686137,0.0360731478208191,0.4623851935217198,0.0096649828548344,0.0113177094360802,-0.5102928605646444,-0.0604974060751569,1.5580813396825677,0.5708354630735466,0.052734177666003,-0.035548274678672,0.6318384318504705,-0.5790920776159253,0.2508916791197499,0.0304226059732759,10.71722082946053,-1.467092742555876,0.2150258291351136,-1.2579942271934572
2.56,-0.4965922111522184,-0.0628574801885545,1.5615693123479182,-0.0044696653877533,0.1165700520826429,0.0361122327517422,0.4505114741667417,0.0153816294335544,0.0116407932434863,-0.4990519658349169,-0.059566473845507,1.557407225212318,0.5825564318564485,0.0609842659106796,-0.0380050095669276,0.659108569534224,-0.5936859677489054,0.2858323289359983,0.0161541903703024,10.690534533919164,-1.4633843023599524,0.2166653609416246,-1.2580266872737167
2.58,-0.4876929535763524,-0.0624835370371914,1.561804046349523,-0.005271124514279,0.1191480154112274,0.036185621461215,0.4402666146392797,0.0216909604542635,0.011805559698398,-0.487518046885617,-0.0584292894097402,1.5566716923698622,0.5942774006393502,0.0692343541553562,-0.0404617444551832,0.6016476390940442,-0.5122429763730979,0.315466551035457,0.0082383227455886,10.664317842582932,-1.4576370650976909,0.2175726326359894,-1.261215145093597
2.6,-0.4789788032351011,-0.0619777595256619,1.5620416622057465,-0.0051811899936412,0.1230130754236086,0.0363097362778179,0.4319067995290441,0.0284663155584773,0.011935711590054,-0.4656796228443884,-0.0613989890144782,1.562394324334443,0.4527750963802313,0.0463785877846859,0.0063829861617636,0.5380726832418189,-0.4179907555117795,0.3387677552106878,0.0065075945827977,10.653773504240236,-1.4507808637397457,0.2175058416459892,-1.2666846552914794
2.62,-0.4703485989786566,-0.0613265560622394,1.5623400528580595,-0.003870576755507,0.1257843743817527,0.0365208555145,0.431177540686272,0.0360930789414936,0.0178757446225382,-0.4656796228443884,-0.0613989890144782,1.562394324334443,0.4527750963802313,0.0463785877846859,0.0063829861617636,0.4847250008697808,-0.036462942138607,0.3813381691508169,0.2970016516242099,10.653738038020492,-1.4401988711832463,0.2156989756000598,-1.271876136710975
2.64,-0.4621679440039385,-0.0605774084846594,1.56272875207062,-0.001539050537215,0.1261093316640213,0.0368010854211926,0.4298254698616509,0.0422373546675806,0.0227221297194184,-0.4656796228443884,-0.0613989890144782,1.562394324334443,0.4527750963802313,0.0463785877846859,0.0063829861617636,0.3970757743184387,-0.0676035412310566,0.3072137863043458,0.2423192548440099,10.955932549460158,-1.4413415249615549,0.2134519865196906,-1.2792684210373009
