t,x,y,z,roll,pitch,yaw,v_x,v_y,v_z,ref_x,ref_y,ref_z,ref_v_x,ref_v_y,ref_v_z,a_com,a_x,a_y,a_z,thrust,wind_x,wind_y,wind_z
0.0,0.8419474839764578,-1.311917647709549,1.989661676298197,0.0148996819759792,0.1363623597787936,0.0260764349553652,0.0028029441308611,-0.005910611481462,0.0005528106532514,0.8420330620278959,-1.3121291906209984,1.989676314131896,-0.0972281991201292,0.0933958309621438,-0.0246809004708094,0.3282431396993247,0.1401472065430585,-0.2955305740731015,0.0276405326625719,10.547243993765733,-1.2845308889371476,0.1611275492375424,-1.162295562004276
0.02,0.8421831142652845,-1.3122608671773566,1.9895920864026104,0.0051495319633969,0.130636252859018,0.025349823700864,0.0200283059111308,-0.0242207785566025,-0.0077063930071911,0.8420330620278959,-1.3121291906209984,1.989676314131896,-0.0972281991201292,0.0933958309621438,-0.0246809004708094,1.3230549420615556,0.8612680890134827,-0.9155083537570264,-0.4129601830221277,10.546368295650607,-1.2751907155586557,0.1698655868646221,-1.1415351066761945
0.04,0.8426985833907557,-1.3127476756971304,1.9893227782302467,-0.011059095309195,0.1147078302428834,0.0243314197397984,0.0291277092314518,-0.0227746373016241,-0.0187826572760977,0.8420330620278959,-1.3121291906209984,1.989676314131896,-0.0972281991201292,0.0933958309621438,-0.0246809004708094,0.7203715976318686,0.4549701660160497,0.0723070627489214,-0.5538132134453299,10.107809352787626,-1.3100809385320924,0.1881596037612262,-1.1223598306343163
0.06,0.8432722927582705,-1.3131242409134276,1.988836602861065,-0.0275424256318422,0.0929535197581794,0.0237363208234342,0.0266853406972911,-0.0145688156339667,-0.0291855007785215,0.8410607800366946,-1.311195232311377,1.9894295051271875,-0.1172281994181524,0.113395831260167,-0.0297155010416073,0.6736464692885566,-0.1221184267080328,0.4102910833828671,-0.5201421751211934,9.857016768696669,-1.342906883176385,0.2049719879947943,-1.0926132853962434
0.08,0.843667409491094,-1.3132938580838078,1.9881916322334827,-0.0425578999557884,0.070608032780044,0.0236697616415379,0.0144389663739459,-0.0033877558458021,-0.0381756655114041,0.839116216054292,-1.309327315692134,1.9889358871177716,-0.1572282000141989,0.1533958318562135,-0.0397847021832031,0.9431500993722652,-0.6123187161672587,0.5590529894082332,-0.4495082366441262,9.84271492773678,-1.3726124105422923,0.2210758569904239,-1.0571008461616969
0.1,0.8437412088167949,-1.3132118542520002,1.9873339262383265,-0.0575947918646103,0.0481451112214929,0.0240268933375193,-0.0069309670688054,0.0113420921820892,-0.0471232246918455,0.8371716520718894,-1.307459399072891,1.9884422691083552,-0.1972282006102454,0.1933958324522599,-0.049853903324799,1.3726810386611166,-1.0684966721375728,0.7364924013945678,-0.4473779590220744,9.874145477670028,-1.394888765672411,0.2354918911218737,-1.0216341100919222
0.12,0.8433069379734695,-1.3127895642514045,1.9863000614808977,-0.0713786340263458,0.0288412937193318,0.0246618995611421,-0.035448976896851,0.0301224467679194,-0.0558318938927391,0.8332270880596845,-1.303591482423846,1.9874451910418596,-0.2372282012062918,0.2333958330483063,-0.0599231044663948,1.7619729865782647,-1.42590049140228,0.9390177292915112,-0.4354334600446783,9.917402377646797,-1.4088940737571698,0.2474753755284166,-0.9919565714447012
0.14,0.8423172886106638,-1.312003817737953,1.985155355446468,-0.0826914263849571,0.0145133452926489,0.0253654634409136,-0.0671060356698761,0.0513363917842248,-0.0642049442887919,0.8292825240474796,-1.299723565774801,1.9864481129753635,-0.2772282018023383,0.2733958336443529,-0.0699923056079907,1.9508387979587345,-1.5828529386512542,1.060697250815269,-0.4186525198026387,9.969973617073263,-1.4156749147244063,0.2578075685852989,-0.9661731624516918
0.16,0.8405915917368462,-1.310714183611461,1.983777145169756,-0.0923270014664499,0.0042388042193972,0.0260445018982795,-0.1037867718417637,0.0761892950938871,-0.0731355108440701,0.8243379600203735,-1.2948556491108547,1.9851993048803276,-0.3172282023983847,0.3133958342403993,-0.0800615067495865,2.259921584939012,-1.83403680859438,1.242645165483117,-0.4465283277639092,10.048976610598402,-1.4167729742380233,0.2657254270760315,-0.9467056154498854
0.18,0.8380995989333934,-1.308908295963621,1.9822207765957396,-0.0994810244084335,-0.0002862191587065,0.0264599745316889,-0.1433382247886775,0.1027489878197475,-0.0819704101121466,0.8183933959783664,-1.2889877324320071,1.983698766756752,-0.3572282029944311,0.3533958348364457,-0.0901307078911823,2.422700019080529,-1.9775726473456905,1.3279846362930203,-0.4417449634038263,10.048976610598402,-1.4111229692075464,0.2709864141881197,-0.9357856049797164
0.2,0.8348218360720161,-1.3065592001462574,1.9804929780642155,-0.1042250388404832,0.0010856741601204,0.026486659361029,-0.1816396612854393,0.1302399461048316,-0.0902187795362647,0.8309326876939594,-1.3037708465726334,1.978122256090132,-0.2433382262787936,0.2027489893098637,-0.1166064382231276,2.3931090778025736,-1.9150718248380896,1.3745479142542023,-0.412418471205906,10.094063085842208,-1.395621563768594,0.2740186110634655,-0.9318679393161248
0.22,0.8309878871869487,-1.3036930207575623,1.978720084977844,-0.1029922541455574,0.0078201629801754,0.0263527314727561,-0.2189570126889574,0.1678784506192627,-0.0956294692214597,0.8309326876939594,-1.3037708465726334,1.978122256090132,-0.2433382262787936,0.2027489893098637,-0.1166064382231276,2.6638868691847533,-1.865867570175904,1.8819252257215549,-0.2705344842597483,10.106887513198672,-1.3800173871044823,0.273307642927181,-0.9434413437915656
0.24,0.8262602424506855,-1.3000183483547116,1.976764989323518,-0.0960136230540165,0.0195928996325015,0.0261756618634958,-0.2510321624875808,0.1966039787405556,-0.0994460720215525,0.8309326876939594,-1.3037708465726334,1.978122256090132,-0.2433382262787936,0.2027489893098637,-0.1166064382231276,2.161329253830265,-1.6037574899311693,1.436276406064646,-0.190830140004642,10.364180510911863,-1.3556977123845355,0.2665038804228467,-0.957709412969437
0.26,0.8209628135729229,-1.2958440826056357,1.9747332665986184,-0.0879601931020465,0.0335622636192466,0.025961838155806,-0.2765094417269104,0.219186052557297,-0.1035706007713073,0.8284993054311716,-1.301743356679535,1.9769561917079008,-0.2633382265768169,0.2227489896078869,-0.1235336438453238,1.7146818602229714,-1.2738639619664789,1.1291036908370689,-0.206226437487738,10.300318699307354,-1.333802202047327,0.2596081713113189,-0.9764281004376028
0.28,0.8155166060990459,-1.2914959583947434,1.9727148517941664,-0.0808972287782132,0.0471057783462249,0.0257955188866671,-0.2951933371702944,0.2375039713450197,-0.1087122693439731,0.8236325409055957,-1.2976883768933376,1.9746240629434384,-0.3033382271728633,0.2627489902039334,-0.1373880550897162,1.3332955911612847,-0.9341947721692,0.915895939386134,-0.2570834286332888,10.20421425355471,-1.3127883918223997,0.2529038070644094,-0.9958234954597862
0.3,0.8094508858523286,-1.28656362924431,1.9704702512316248,-0.0746301147334433,0.0603118028878469,0.0257150514354546,-0.310122222115555,0.2548953614629665,-0.1155939180085193,0.8187657763800198,-1.2936333971071403,1.9722919341789755,-0.3433382277689097,0.3027489907999798,-0.1512424663341086,1.19654622172077,-0.7464442472630339,0.8695695058973413,-0.3440824332273099,10.10749413283338,-1.294800205948382,0.2474644144443727,-1.014564275851605
0.32,0.803129276780229,-1.2812971326001847,1.9680703310138143,-0.0696914641057614,0.0714838251934913,0.0257603071979462,-0.32127833083985,0.2711453220121346,-0.1241087391065333,0.8118990118246416,-1.2875784172911406,1.9692670848522933,-0.3833382283649562,0.3427489913960262,-0.165096877578501,1.0735713274498755,-0.5578054362147478,0.8124980274584054,-0.4257410549007023,10.019485914287545,-1.2815973723612746,0.2434476198678394,-1.0287127842238335
0.34,0.7969425578055084,-1.2759991040788898,1.9656215939149968,-0.0660875156920648,0.0797853243707956,0.025926574578017,-0.3294835698898472,0.2859482461971779,-0.1332687788237519,0.8050322472692634,-1.2815234374751412,1.9662422355256115,-0.4233382289610027,0.3827489919920728,-0.1789512888228934,0.9622354700341814,-0.4102619524998602,0.7401462092521655,-0.4580019858609285,9.94336783354538,-1.2715637769517791,0.2403115513145452,-1.039681918577941
0.36,0.7902722888438567,-1.270114481020832,1.9628468479832064,-0.0630300062721825,0.0861213218149012,0.0262303163030329,-0.3371548802803813,0.3017482151367257,-0.1437713815749396,0.797165482698984,-1.2744684576442404,1.9628710259178197,-0.4633382295570491,0.4227489925881192,-0.1928057000672858,1.0232212445847717,-0.3835655195267046,0.7899984469773857,-0.5251301375593833,9.858445845663482,-1.2655856360275652,0.2380088118922327,-1.0473067901422175
0.38,0.7834541866875014,-1.2639144360251784,1.9598556979625223,-0.060328061864295,0.0903165443121615,0.0266548688219394,-0.3443941670998137,0.317424687933415,-0.1548237765631317,0.7882987181138036,-1.2664134777984384,1.9591534560289172,-0.5033382301530955,0.4627489931841656,-0.2066601113116782,1.025078665242777,-0.3619643409716211,0.7838236398344689,-0.552619749409608,9.858445845663482,-1.2621539655188228,0.2361349442267586,-1.0518178724844
0.4,0.7764906967370854,-1.2574042631527471,1.9566401224277217,-0.0577889802790202,0.0928123079032978,0.027174102540979,-0.3517021436233605,0.3327404799300199,-0.1661803404071528,0.7662344783325108,-1.2480432016285077,1.952114509134366,-0.423455779586653,0.4174246894235311,-0.1898882391354679,1.0209695731206976,-0.3653988261773405,0.7657895998302439,-0.5678281922010531,9.8250772784304,-1.2602564520206203,0.2343044167710726,-1.054329128752425
0.42,0.7697081887254293,-1.2509289686083425,1.9534501065770704,-0.0552260614463479,0.0951434605234531,0.0276809494139573,-0.3615822980108434,0.3478720976863485,-0.1690371607114795,0.7662344783325108,-1.2480432016285077,1.952114509134366,-0.423455779586653,0.4174246894235311,-0.1898882391354679,0.914801520679963,-0.4940077193741427,0.7565808878164298,-0.142841015216337,10.326883943532266,-1.2560045550058196,0.2322887324405738,-1.0586231657022995
0.44,0.7623857021808851,-1.243829664795766,1.9500277112650413,-0.052890669794099,0.0983620942316478,0.0281475736435832,-0.3699963113092397,0.3614300614380312,-0.1731799914391615,0.7662344783325108,-1.2480432016285077,1.952114509134366,-0.423455779586653,0.4174246894235311,-0.1898882391354679,0.8242830935360702,-0.420700664919818,0.6778981875841333,-0.2071415363840964,10.326883943532266,-1.2508520122378195,0.2306434117908266,-1.064577639942332
0.46,0.7549110127577866,-1.2364649675946533,1.946500998775831,-0.0513883732120316,0.1015864992961379,0.0285559547358882,-0.3769983011105925,0.3745082744868426,-0.1792920948598956,0.7619999205366442,-1.2438689547342725,1.9502156267430115,-0.4392681020840209,0.4374246897215544,-0.1969011316499352,0.8022239804974974,-0.3500994900676402,0.6539106524405702,-0.3056051710367075,10.218706454181302,-1.2472651863153128,0.2298516669640808,-1.069218475818541
0.48,0.7476908900416843,-1.2292302356239535,1.9430235838648056,-0.0507629676779511,0.1042718057032254,0.0289058181428747,-0.3826639950261435,0.3864917393353638,-0.1864520649134322,0.7535308049449112,-1.2355204609458017,1.9464178619603016,-0.4708927470787566,0.4774246903176008,-0.2109269166788696,0.7532740014231167,-0.2832846957775498,0.5991732424260626,-0.3579985026768317,10.1164426488358,-1.244257823296261,0.2297819485004885,-1.0725517034934775
0.5,0.7399821153235264,-1.2213728515346822,1.9392050891638937,-0.051130908714753,0.1064566250563564,0.0292318624470947,-0.3879238499310629,0.3987054523722283,-0.1950732203132873,0.7450616893531782,-1.2271719671573311,1.9426200971775924,-0.5025173920734923,0.5174246909136473,-0.2249527017078041,0.7924095850570704,-0.2629927452459657,0.6106856518432235,-0.4310577699927542,9.980107758575286,-1.2422532489236118,0.2307058827707797,-1.0741306856876691
0.52,0.7321730952321673,-1.213271316968214,1.9352049253723556,-0.0527107840642401,0.107845309853226,0.0295105340475383,-0.3927890499625059,0.4109861753575721,-0.2045121210970971,0.7350113415117083,-1.2168234733390582,1.9381210431434364,-0.534142037068228,0.5574246915096938,-0.2389784867367386,0.8117560846635348,-0.2432600015721514,0.6140361492671886,-0.4719450391904883,9.980107758575286,-1.2413324398814536,0.2326719546339658,-1.074114044259408
0.54,0.7246656356860692,-1.205340025641138,1.931228443528056,-0.0552395376219373,0.1084291866110395,0.0297406768239673,-0.3973128870738314,0.4235758093220244,-0.2136047672640926,0.7249609936702385,-1.2064749795207852,1.9336219891092803,-0.5657666820629638,0.5974246921057402,-0.2530042717656731,0.8087647987624025,-0.2261918555662767,0.629481698222617,-0.4546323083497741,9.936468495074225,-1.241195717941855,0.235839821047095,-1.0733034857228174
0.56,0.7166648519945416,-1.1967044207396105,1.926854982607433,-0.0580448475449965,0.1084423208633458,0.0300070049316158,-0.4025824148275237,0.4393034408952962,-0.2232581157647271,0.7141200297039003,-1.1951264856876112,1.928772290449401,-0.5973913270576995,0.6374246927017866,-0.2670300567946075,0.9595747169009468,-0.2634763876846135,0.7863815786635919,-0.4826674250317256,9.939988963569704,-1.2424597426018784,0.2393019190099273,-1.072410930943892
0.58,0.7085529939983145,-1.1877383538063178,1.922289474237593,-0.0601987765935676,0.1081199307879973,0.0303400625643492,-0.4083716906327295,0.4563531788848068,-0.2327902911982347,0.7024884496126936,-1.1827779918395358,1.923571947163798,-0.6290159720524352,0.6774246932978331,-0.281055841823542,1.0186653625637645,-0.2894637902602887,0.8524868994755269,-0.4766087716753811,9.939988963569704,-1.2439773003166243,0.2421520083192867,-1.071588857870535
0.6,0.7003201634956951,-1.1784213617753838,1.917534274830622,-0.0613321320953182,0.1077037762090012,0.0307505833330677,-0.4146250945615497,0.4742733392539314,-0.2422400142649371,0.688134409466678,-1.1649206948620774,1.9106499596776816,-0.4559509455877828,0.5563531803749229,-0.2633831201872637,1.0601114026241467,-0.3126701964410117,0.8960080184562291,-0.4724861533351179,9.959577537469158,-1.2454519489811438,0.2439728052464006,-1.0713561181377156
0.62,0.6923057639252109,-1.1691768307884611,1.912920984289305,-0.0595001783928612,0.1099070146503008,0.0311832251271183,-0.4278163535941681,0.4970531298788107,-0.2428499455201687,0.688134409466678,-1.1649206948620774,1.9106499596776816,-0.4559509455877828,0.5563531803749229,-0.2633831201872637,1.3165297109399792,-0.6595629516309182,1.138989531243964,-0.0304965627615838,10.550017697678411,-1.2460681925526202,0.243577261529114,-1.0798831028403408
0.64,0.6836423253157425,-1.1590340411516125,1.9080504114928385,-0.0544814834471899,0.1163118022467899,0.0316213532099486,-0.4372439145722847,0.5153132459926799,-0.2442512700158632,0.688134409466678,-1.1649206948620774,1.9106499596776816,-0.4559509455877828,0.5563531803749229,-0.2633831201872637,1.0298961802413973,-0.4713780489058322,0.913005805693462,-0.0700662247847247,10.550017697678411,-1.2349754267316493,0.2390329866737348,-1.0912194542978253
0.66,0.674837404289577,-1.148575093462504,1.9031290228923732,-0.0490372121396248,0.1248756509872187,0.032001290943441,-0.4423645478939221,0.5295936252823734,-0.2479423273004056,0.6835749000108002,-1.159357163058328,1.908016128475809,-0.4654667965787935,0.576353180672946,-0.2695016859850694,0.7806632150773204,-0.2560316660818684,0.7140189644846751,-0.1845528642271193,10.42069408012776,-1.2247450577089385,0.234359144531211,-1.103594482099504
0.68,0.6659728063676286,-1.1378548554790513,1.898107849213712,-0.0441882128985828,0.1340522657847856,0.0323453249443429,-0.4435868776895875,0.5418454727047107,-0.2540176731675747,0.6744558810990445,-1.1482300994508297,1.902748466072064,-0.4844984985608148,0.6163531812689925,-0.281738817580681,0.6864977836732853,-0.0611164897832694,0.6125923711168657,-0.3037672933584534,10.273642880040825,-1.2147018861285892,0.2299372077883125,-1.1157226898862034
0.7000000000000001,0.6575609234900011,-1.127455236312522,1.8932071393715264,-0.0404040856851347,0.1422846340309156,0.0326636611553134,-0.4417235751849989,0.5524139799665052,-0.2615695937520472,0.6653368621872889,-1.1371030358433312,1.8974808036683184,-0.5035302005428361,0.656353181865039,-0.2939759491762926,0.656118789702725,0.0931651252294274,0.528425363089724,-0.377596029223623,10.060644424372184,-1.2066937530941348,0.2263804367985273,-1.1255371725936518
0.72,0.6487696087881324,-1.1162982224344509,1.8878791199105656,-0.03733026102418,0.1497236331488879,0.0330029243462613,-0.4374352056950217,0.5628723192004718,-0.270911431331192,0.6552662581764322,-1.1239759722060303,1.8916012846847925,-0.5225619025248575,0.6963531824610855,-0.3062130807719042,0.7332068292276297,0.2144184744988619,0.5229169616983276,-0.4670918789572403,10.060644424372184,-1.2014404430566707,0.2238247986907686,-1.1328179535765524
0.74,0.6400836391587102,-1.1049351199180824,1.8823564954935492,-0.035114553492317,0.155477593594141,0.0333529438618535,-0.4313912006459403,0.5730481571469657,-0.2809111518765014,0.6451956541655754,-1.1108489085687296,1.8857217657012664,-0.5415936045068789,0.7363531830571319,-0.3184502123675157,0.7747129886785671,0.3022002524540712,0.5087918973246952,-0.4999860272654727,9.994898798475331,-1.1987839740761548,0.222210443725505,-1.137876353201975
0.76,0.6315292439630906,-1.0933617006652965,1.8766313129303536,-0.0333564395513895,0.1593920666401525,0.0337352958767046,-0.4244830653868492,0.5837632432792885,-0.2911028534516058,0.6346492576051682,-1.0967218449165277,1.8795363184278504,-0.5606253064889002,0.7763531836531783,-0.3306873439631273,0.8160977033679535,0.3454067629545532,0.535754306616143,-0.5095850787552175,9.974871266703303,-1.198964523402325,0.2212239852638202,-1.141047926920262
0.78,0.6235334073334651,-1.0821674324098849,1.8710039749301453,-0.03176596827139,0.1615348563236714,0.034141063881651,-0.4176640188644762,0.5939726199447539,-0.3007292042188076,0.6236270684952104,-1.0815947812494249,1.873044942864544,-0.5796570084709215,0.8163531842492248,-0.3429244755587389,0.7800599279299715,0.3409523261186514,0.5104688332732699,-0.4813175383600931,9.982178185287012,-1.2013860368878284,0.2203272571266396,-1.142689517408804
0.8,0.6152544312167846,-1.0701776347691505,1.8648833403166571,-0.0300944876990201,0.1623630320911684,0.0346054115504408,-0.410703685044224,0.6044065924619405,-0.3108170081650523,0.6026502063902412,-1.052468801412647,1.855967514719205,-0.4407021286289329,0.69397262143487,-0.3039329240731625,0.8047947220201863,0.3480166910126064,0.5216986258593292,-0.5043901973122322,9.982178185287012,-1.205145681830977,0.2194489564144304,-1.1432664268257942
0.8200000000000001,0.6070864353948694,-1.0579530280538278,1.858688871670483,-0.0275611039091949,0.1633777039370166,0.0351149500317908,-0.406225156992971,0.6170232068367787,-0.3074674158225899,0.6026502063902412,-1.052468801412647,1.855967514719205,-0.4407021286289329,0.69397262143487,-0.3039329240731625,0.6900288773847016,0.2239264025626519,0.6308307187419093,0.1674796171231202,9.983770831376203,-1.2039979112723864,0.2175660374211695,-1.1470579388758322
0.84,0.5994253025971474,-1.0461388221727517,1.852883250336039,-0.0247193430974089,0.1655389063962876,0.0355880119844489,-0.4003014093181476,0.6260009691217567,-0.3039159832090844,0.6026502063902412,-1.052468801412647,1.855967514719205,-0.4407021286289329,0.69397262143487,-0.3039329240731625,0.5663560624042533,0.2961873837411699,0.448888114248902,0.1775716306752744,10.84054378955716,-1.2044902458982818,0.2154125218362646,-1.154487271908794
0.86,0.591499192622711,-1.0335331772313372,1.8468305155952425,-0.022237684859617,0.1681616075006874,0.0360350502652678,-0.3925478573879142,0.634197828493301,-0.3016252135015485,0.5982431851039519,-1.0455290751982984,1.8529281854784732,-0.4453097505818242,0.7139726217328932,-0.3045736680440335,0.5756598321592862,0.3876775965116708,0.409842968577212,0.1145384853767944,10.690360581537789,-1.205628614865632,0.2138305670451608,-1.161878653771924
0.88,0.5837418564408787,-1.020771247151132,1.840808966594622,-0.020529234516116,0.1704664550718256,0.0364275493865774,-0.3836092086122007,0.6417562820957541,-0.300655380834931,0.5894291425313732,-1.031649622769601,1.84684952699701,-0.4545249944876069,0.7539726223289397,-0.3058551559857754,0.5873036654858349,0.4469324387856743,0.3779226801226554,0.0484916333308743,10.62831560783252,-1.207751523358375,0.213108325166635,-1.1689864971962929
0.9,0.576171727613963,-1.0078636750284031,1.8347978265537608,-0.0197195712710581,0.1720336831830665,0.0367633030936748,-0.3739445796643719,0.6487568171874211,-0.3005136476767466,0.5806150999587946,-1.0177701703409037,1.8407708685155468,-0.4637402383933897,0.7939726229249862,-0.3071366439275174,0.5967257170530686,0.4832314473914384,0.3500267545833491,0.0070866579092221,10.590154879375405,-1.2106545190687732,0.213278800510826,-1.1743579240130986
0.92,0.5691626284846695,-0.9954760653324422,1.829085379734957,-0.020001185560507,0.1726410764272496,0.0370173940887559,-0.3644620887519937,0.6549942610847319,-0.3008048845299031,0.5713402951909268,-1.001890717882404,1.8346281356369964,-0.4729554822991724,0.8339726235210326,-0.3084181318692593,0.5676886452538743,0.4741245456189091,0.3118721948655423,-0.0145618426578286,10.590154879375405,-1.2147686795967807,0.21461933885926,-1.1785575252395009
0.94,0.561979755329903,-0.9823092900555984,1.8230694552551063,-0.0216158851367614,0.1722838466514961,0.0372054071212071,-0.3544090882785962,0.6614933597504307,-0.3007523215960181,0.562065490423059,-0.9860112654239044,1.828485402758446,-0.4821707262049551,0.8739726241170791,-0.3096996198110012,0.5985479614171237,0.5026500236698789,0.3249549332849377,0.0026281466942529,10.571085756444518,-1.2195656466161788,0.2173600025092068,-1.1809900416716768
0.96,0.5549974811210138,-0.9689949244948806,1.8170613006174183,-0.0242756760974918,0.1708203881570688,0.0373419867376536,-0.3444537548354247,0.6698482331497057,-0.3000712617780959,0.5525603045575467,-0.9691318129505032,1.822310632681352,-0.4913859701107378,0.9139726247131256,-0.3109811077527432,0.6507234742158703,0.4977666721585727,0.4177436699637493,0.0340529908961079,10.63749855374499,-1.2250101015978163,0.2210963503334559,-1.1832814933281175
0.98,0.5485453228344882,-0.9561676450617436,1.811372157879397,-0.0267726311865529,0.1683329248802823,0.0375030616506923,-0.3353391186723836,0.6798798454598103,-0.2988168027247135,0.5428247375943898,-0.9512523604622012,1.8161038254057147,-0.5006012140165205,0.953972625309172,-0.3122625956944851,0.6805944193157044,0.4557318081520545,0.5015806155052316,0.0627229526691225,10.63749855374499,-1.2326570204899416,0.2251998979025617,-1.1859827809137122
1.0,0.5419329779360442,-0.942448985177148,1.805414765642827,-0.0288271336799642,0.1645240354859323,0.0377493761504799,-0.326518161987209,0.6913459977191053,-0.2969550755300334,0.531778366900869,-0.9221736527887532,1.796431317743162,-0.3645764765719302,0.7798798469499264,-0.2852107284585778,0.7292940981224157,0.4410478342587315,0.5733076129647519,0.0930863597340042,10.679768512588453,-1.2421021099528795,0.2287709725365823,-1.1880060632484055
1.02,0.53547668464225,-0.9284339719004574,1.7995419177875795,-0.0282094414898712,0.1599767050691661,0.0382024371684644,-0.3197331744422078,0.7090078708243422,-0.2901573061835102,0.531778366900869,-0.9221736527887532,1.796431317743162,-0.3645764765719302,0.7798798469499264,-0.2852107284585778,1.005220729068799,0.3392493772500615,0.8830936552618462,0.3398884673261576,11.057260426209725,-1.251088743103659,0.2296465330252861,-1.1946633215263736
1.04,0.5291420348962668,-0.9141004049633554,1.7938176788958111,-0.0241543879424176,0.1553633328021057,0.0388716834786382,-0.3142136367490632,0.7227373947273552,-0.2826090812640864,0.531778366900869,-0.9221736527887532,1.796431317743162,-0.3645764765719302,0.7798798469499264,-0.2852107284585778,0.8305733296700227,0.275976884657228,0.6864761951506482,0.3774112459711931,11.057260426209725,-1.2616759165616314,0.2269241962176161,-1.1992544395161544
1.06,0.5232127724361942,-0.9002780183794618,1.7885154665642928,-0.0194619302040133,0.1510841171356601,0.0395257067271161,-0.3103321745283993,0.7314732798565008,-0.2758963488874016,0.5281326021351497,-0.9143748543192538,1.7935792104585762,-0.3704239481518396,0.7998798472479496,-0.2824895136053507,0.5840424083939878,0.1940731110331967,0.4367942564572791,0.3356366188342369,11.055645306120825,-1.271810574285504,0.2228245007992695,-1.2035833683905166
1.08,0.517035794725501,-0.8855775196528812,1.783066700348457,-0.0150391998652085,0.1469417898329635,0.0401312052089986,-0.3077295640472632,0.7381948779569367,-0.2693655049000935,0.5208410726037112,-0.8987772573802553,1.7878749958894045,-0.3821188913116582,0.839879847843996,-0.2770470838988964,0.4863264991928316,0.130130524056804,0.3360799050217966,0.3265421993654066,11.016912874451918,-1.2803540356412546,0.2190274663700512,-1.2070065604782243
1.1,0.510894643428285,-0.8707584531757638,1.777742208306611,-0.0116424990170411,0.1434794552266768,0.0406211103278147,-0.3066369419463068,0.7436263479351035,-0.2634179576505685,0.5135495430722725,-0.8831796604412567,1.782170781320233,-0.3938138344714769,0.8798798484400425,-0.2716046541924421,0.4064111448538226,0.0546311050478171,0.2715734989083396,0.2973773624762504,10.982388002194057,-1.287191653039086,0.2161572371845241,-1.2100009960521574
1.12,0.5047616198742143,-0.8558380157237666,1.7725325928495783,-0.0093042799355668,0.1410196459766686,0.0410003426187174,-0.3068042273635291,0.7484170434706019,-0.257851574277789,0.5056732663828429,-0.8655820634724559,1.776738688236384,-0.4055087776312955,0.919879849036089,-0.2661622244859878,0.3672988292161275,-0.0083642708611136,0.2395347767749189,0.2783191686389741,10.951753821023884,-1.291813489397621,0.2143576147153984,-1.212861909702175
1.14,0.498924648721204,-0.8415799455024269,1.7676858848504038,-0.0080649470178084,0.1398377884137878,0.0412647439061315,-0.3075239764078168,0.7523776951882063,-0.2526218480066639,0.4977969896934134,-0.847984466503655,1.7713065951525353,-0.4172037207911142,0.9598798496321356,-0.2607197947795335,0.3299804448214033,-0.0359874522143838,0.1980325858802201,0.2614863135562584,10.933538851252706,-1.2934197963437488,0.2133454480887321,-1.2161802918517244
1.16,0.4927699208781503,-0.8264860089507577,1.7626914758573091,-0.0077026778971892,0.1396184905185689,0.0414565351301554,-0.3078258207996006,0.756855571795626,-0.2471039568870715,0.4896283394249884,-0.8293868695199531,1.7660105628113478,-0.4288986639509328,0.9998798502281818,-0.2552773650730793,0.3556318720102432,-0.0150922195891911,0.2238938303709858,0.2758945559796166,10.931946033701934,-1.293453585361439,0.2133685236877719,-1.2207380678077382
1.18,0.4866154504088317,-0.8112991736182477,1.75780790986263,-0.0081067521901073,0.1400697276147524,0.0415792655125028,-0.3075368571310569,0.761646145991395,-0.2415457159419964,0.481167315577568,-0.8097892725213499,1.7608505912128216,-0.4405936071107514,1.0398798508242282,-0.249834935366625,0.3671755150143289,0.0144481834271875,0.2395287097884502,0.2779120472537533,10.937494449905898,-1.2930807869566736,0.2142095042480437,-1.2258015409972531
1.2,0.4804733023175129,-0.7960112947447839,1.7530361542934976,-0.0090940396281344,0.1408665045374419,0.0416491678903204,-0.30665015929364,0.7669257298307262,-0.2359243830041968,0.4712386075522789,-0.7732168663186779,1.74573062406553,-0.3433432559698153,0.8595256079354983,-0.2214051127572964,0.3881353583770642,0.0443348918708425,0.2639791919665568,0.2810666468899797,10.94526263647731,-1.2926303381434947,0.2157793972332776,-1.2316807718838485
1.22,0.4746546003635984,-0.7813286518888226,1.7486105590584915,-0.0086038099707725,0.1418199478168813,0.0418046892487874,-0.3058113955288528,0.7776075003372538,-0.2302178264662465,0.4712386075522789,-0.7732168663186779,1.74573062406553,-0.3433432559698153,0.8595256079354983,-0.2214051127572964,0.6069772098853194,0.0419381882393599,0.5340885253263816,0.2853278268975148,10.956247946834992,-1.29264231725298,0.2160027939168197,-1.241864628218628
1.24,0.468557699088753,-0.7656909724915315,1.744071644617912,-0.0060641696059499,0.1428193343383206,0.0420986807251163,-0.3038955887968607,0.785421624594245,-0.2239746894586135,0.4712386075522789,-0.7732168663186779,1.74573062406553,-0.3433432559698153,0.8595256079354983,-0.2214051127572964,0.5091846743425286,0.0957903365996049,0.390706212849562,0.3121568503816535,10.998612475550544,-1.2927987627423387,0.2136626219810406,-1.249417362174413
1.26,0.4625065489933695,-0.7499283091184981,1.7396555947139494,-0.0031091610129911,0.1434773824183416,0.0424110381317959,-0.3013664243947005,0.7904477539289227,-0.2179584250942938,0.4678051749925808,-0.764621610239323,1.7435165729379571,-0.350504535737567,0.8791015003243189,-0.2173769921203564,0.4118679568849875,0.1264582201080111,0.251306466733886,0.3008132182159853,11.016162135797458,-1.2937161606763756,0.2109558239950718,-1.2559897997481075
1.28,0.456807829971452,-0.7348782410921237,1.7355694137341988,-0.0008388085091792,0.1436452712534041,0.0426588879364679,-0.298702566727005,0.7937225342130328,-0.2124774081618362,0.4609383098731844,-0.7474310980806129,1.7390884706828114,-0.3648270952730704,0.9182532851019602,-0.2093207508464764,0.3459113694171631,0.133192883384775,0.163739014205505,0.274050846622878,11.00668125024913,-1.295199749279966,0.2086685399925767,-1.26191379713367
1.3,0.450863993513353,-0.7189778009275145,1.7313799977380453,0.0006249057278859,0.1432851438276301,0.0428418850165366,-0.295895757782873,0.7962769872819941,-0.2067586263884725,0.4540714447537881,-0.730240585921903,1.7346603684276654,-0.3791496548085738,0.9574050698796016,-0.2012645095725964,0.343175872919929,0.1403404472065994,0.1277226534480646,0.2859390886681856,10.998993131411224,-1.2972751573536432,0.2074128513783872,-1.2664118200833223
1.32,0.4449749407341534,-0.7030339292967063,1.727305606248829,0.0008162099582872,0.1423708062829575,0.0429233816730904,-0.2932230218693403,0.7981099417945713,-0.2009653067913556,0.4464884516576166,-0.711092484524311,1.7306350782362134,-0.3934722143440772,0.9965568546572428,-0.1932082682987164,0.3319103473191331,0.1336367956766337,0.0916477256288572,0.2896659798558451,11.012622033488697,-1.2997788851583192,0.2075732411167558,-1.2695853275119149
1.34,0.439137300747078,-0.6870575629539988,1.7233499569616595,-0.0005887666059474,0.1408906170569544,0.042885039203928,-0.2907456453660707,0.7996033619192293,-0.1948766022841445,0.4389054585614452,-0.6919443831267189,1.7266097880447615,-0.4077947738795806,1.0357086394348842,-0.1851520270248364,0.3370460672661016,0.1238688251634811,0.0746710062329014,0.3044352253605525,11.012622033488697,-1.3024299919015514,0.2093964511097449,-1.2715055955950314
1.36,0.4336327821799648,-0.6718403092678396,1.7197101452244263,-0.0032698486701936,0.1389777754374234,0.0427538797277654,-0.2888949230003632,0.802418241581828,-0.1885709213230462,0.4309644014768861,-0.6718174871096858,1.7227859038851565,-0.422117333415084,1.0748604242125257,-0.1770957857509564,0.3574574561154092,0.0925361182853745,0.1407439831299317,0.3152840480549188,11.034414039301735,-1.3058562676107213,0.2130331143305823,-1.2738426774848244
1.38,0.4278687466731958,-0.6557371433705621,1.7160146056657155,-0.0064957606453131,0.1365495941532055,0.0425935566720069,-0.2877041340412924,0.8078354775531524,-0.1812895539340727,0.4226652804039394,-0.6507117964732118,1.7191634257573984,-0.4364398929505874,1.1140122089901667,-0.1690395444770764,0.4576645468224046,0.0595394479535382,0.2708617985662243,0.3640683694486724,11.06777806302307,-1.3099722368423876,0.2172442243466993,-1.276297086589012
1.4,0.4221186648160673,-0.6395078232153005,1.712471148099655,-0.0093266775037725,0.1338763365726381,0.0424686075935213,-0.2874649370040064,0.8147561175267874,-0.1734002979616803,0.4134835399711312,-0.6153453694929045,1.706950127969012,-0.3206248745860884,0.8654792189223999,-0.1643228217152111,0.524863869649195,0.0119598518643043,0.3460319986817506,0.3944627986196214,11.153951392663656,-1.3146127133626793,0.2210635066920249,-1.279123941980499
1.42,0.4163115455008577,-0.6229214539777721,1.7090447320992208,-0.0046405817586479,0.1323198906354681,0.0428521493766969,-0.2929614435726048,0.8393501119257409,-0.1695717253164143,0.4134835399711312,-0.6153453694929045,1.706950127969012,-0.3206248745860884,0.8654792189223999,-0.1643228217152111,1.2744941285216669,-0.2748253284299229,1.2296997199476745,0.1914286322633018,11.153951392663656,-1.324070381439821,0.2174774460745852,-1.2924947566654548
1.44,0.4107045655410534,-0.6068744966047748,1.705862248930672,0.0060951015113462,0.1326840317087205,0.0436199225793993,-0.296725942525399,0.8476316334591503,-0.165612615545537,0.4134835399711312,-0.6153453694929045,1.706950127969012,-0.3206248745860884,0.8654792189223999,-0.1643228217152111,0.496058467954551,-0.1882249476397091,0.4140760766704665,0.1979554885438619,10.944309324874666,-1.3227869877983178,0.204187769976681,-1.2981472864654076
1.46,0.4047424001315886,-0.5899107331009112,1.7025840908093035,0.0180286013682051,0.1342360003664619,0.0444606815784689,-0.2991428011344825,0.848143016560004,-0.1624879594418422,0.4102772912252703,-0.6066905773036805,1.70530689975186,-0.3272090226950476,0.8770079671962494,-0.1609294752714388,0.1991619565736455,-0.1208429304541736,0.0255691550426873,0.1562328051847417,10.937730806658692,-1.320087454662193,0.1898798361445565,-1.3046992340355446
1.48,0.398746792682105,-0.5729887940474336,1.6993547221565162,0.0285170513086668,0.1363802199635113,0.0452014187301418,-0.3001975169870515,0.8441884285094742,-0.1606694763237702,0.4038647937335486,-0.5893809929252325,1.7020204433175556,-0.3403773189129661,0.9000654637439484,-0.1541427823838942,0.2239312005380594,-0.0527357926284527,-0.1977294025264919,0.0909241559035989,10.869453748840897,-1.3164754437313229,0.1771416887471841,-1.3099863340121976
1.5,0.392743726515416,-0.5561767826808712,1.6961511822594806,0.0368110339852319,0.1386189335938683,0.0457835006239778,-0.3000239675112408,0.8376928528245605,-0.1597748434798101,0.3974522962418268,-0.5720714085467845,1.6987339868832514,-0.3535456151308844,0.9231229602916472,-0.1473560894963496,0.3279595661986695,0.0086774737905387,-0.3247787842456828,0.0447316421980037,10.804735421581428,-1.3127975696599488,0.1674039637598983,-1.3133721923766044
1.52,0.3870543485447725,-0.5403393950719332,1.6931211111851685,0.042658945818922,0.1404981195529916,0.0461750401182121,-0.2988835605015102,0.8301899997484865,-0.1592161816103123,0.3903813839392091,-0.5536089493409516,1.6957868650933243,-0.3667139113488028,0.9461804568393464,-0.1405693966088049,0.3804781055245712,0.0570203504865279,-0.3751426538037006,0.0279330934748925,10.76769603603134,-1.3092338975752174,0.1596626784786699,-1.315378208981178
1.54,0.3810966950805876,-0.5238273561890378,1.6899430319773237,0.04691412070387,0.1419841253203532,0.0464182812068835,-0.2969564754358043,0.8217270004156593,-0.1586057712878398,0.3833104716365914,-0.5351464901351186,1.6928397433033973,-0.3798822075667212,0.9692379533870452,-0.1337827037212603,0.4350534890093454,0.096354253285294,-0.4231499666413618,0.0305205161236235,10.760864364451663,-1.3064608632937422,0.1542777300023531,-1.3159006960130908
1.56,0.3751815027566763,-0.5074832671904429,1.686780244809614,0.0496408365499985,0.1428769099916311,0.0465085671475795,-0.2946942743243291,0.8133336641998423,-0.1576767457641717,0.3759103519285258,-0.5161075935155932,1.690062288835659,-0.3930505037846396,0.9922954499347444,-0.1269960108337157,0.4371176475622173,0.113110055573759,-0.4196668107908474,0.0464512761834054,10.79047030026686,-1.3047374806295349,0.1507372015444267,-1.3155240755358737
1.58,0.3693139101784546,-0.491309257394905,1.683641627645238,0.0511650420426928,0.1431937456771028,0.0464669202844043,-0.2922503795154234,0.8047094775598059,-0.1562181967450232,0.3681810248150121,-0.4964922594823753,1.6874545016901092,-0.406218800002558,1.0153529464824431,-0.120209317946171,0.4540830933883078,0.1221947404452888,-0.4312093320018195,0.0729274509574259,10.821448453227276,-1.3037245928574086,0.14869737379465,-1.31400645407301
1.6,0.363785198920347,-0.4761072082118676,1.6806924557918683,0.0515310623868287,0.1430205513619349,0.0463104078691371,-0.2899080425711119,0.7960920540066471,-0.1542817310218862,0.3547013912026834,-0.4510737835169147,1.6758307178079868,-0.2979513584315618,0.8133449677612196,-0.131339003811583,0.4568819063831145,0.1171168472155703,-0.4308711776579432,0.0968232861568482,10.821448453227276,-1.3033303461942274,0.1478878709479962,-1.3116740294014997
1.62,0.3579475692970493,-0.4601196925569502,1.6776158675204342,0.0559709272623828,0.1440847927126504,0.0464767302406103,-0.2937063522469673,0.800757020174645,-0.1537046515005135,0.3547013912026834,-0.4510737835169147,1.6758307178079868,-0.2979513584315618,0.8133449677612196,-0.131339003811583,0.3021675301726232,-0.1899154837927658,0.233248308399897,0.0288539760686351,10.855677269020816,-1.3081991313119286,0.1427387510454327,-1.3196795390362044
1.64,0.3520577287348557,-0.4441623019880558,1.6745486980491529,0.0647247128961904,0.1475446677997728,0.0470685351852521,-0.294711628900458,0.7941648027373458,-0.1530280381253193,0.3547013912026834,-0.4510737835169147,1.6758307178079868,-0.2979513584315618,0.8133449677612196,-0.131339003811583,0.3351332479409387,-0.050263832674538,-0.3296108718649604,0.0338306687597128,10.728799871186313,-1.3001581540528924,0.1321050816362601,-1.3205329289340628
1.66,0.3464731684886942,-0.42918808620158,1.6716466196828863,0.0730381027915167,0.1519245183773131,0.0477063986819732,-0.2928964859007004,0.7825055707808671,-0.1525062320295412,0.3517218776183678,-0.4429403338393025,1.6745173277698708,-0.2990915542147894,0.8150720658015023,-0.1263631652248949,0.5905605716735022,0.09075714998788,-0.5829615978239333,0.0260903047889018,10.778965666471777,-1.2911419654487457,0.1209618203433883,-1.322627703239356
1.68,0.3406592467615961,-0.4136964936480075,1.6686024202247984,0.0804703711493519,0.156788553430709,0.048312668499678,-0.2884294999356045,0.7674457250226001,-0.1519303147176093,0.3457628504497366,-0.4266734344840781,1.6718905476936392,-0.3013719457812448,0.8185262618820678,-0.1164114880515188,0.7859462427948549,0.2233492982547935,-0.752992287913351,0.028795865596598,10.778965666471777,-1.2825027230509467,0.1115329772105682,-1.3243843048359478
1.7,0.3349590810458784,-0.3985255898795697,1.6655722149539374,0.0861433397519772,0.1612160031095903,0.0487621453146826,-0.2817327536774258,0.7506791291205626,-0.1510861962147758,0.3398038232811053,-0.4104065351288537,1.6692637676174076,-0.3036523373477002,0.8219804579626332,-0.1064598108781428,0.9037113541328876,0.3348373129089366,-0.8383297951018776,0.0422059251416709,10.801037070939856,-1.2752833009614009,0.104318451793154,-1.3252236280631944
1.72,0.3294130757345841,-0.3837018049799677,1.6625657281846224,0.0899800376828711,0.1646841443989711,0.0489910260353827,-0.2732702526510067,0.7329965493793342,-0.1495719805869234,0.3337307765341513,-0.393966925969601,1.6671345713998449,-0.3059327289141555,0.8254346540431986,-0.0965081337047667,0.9830823959550344,0.4231250513209578,-0.8841289870614166,0.0757107813926211,10.885514837645133,-1.2702401458741202,0.0995758707449686,-1.3249315052913462
1.74,0.3243126945434124,-0.3699503503797428,1.6597452821681618,0.0921174113997995,0.1668376924251315,0.0489834458805657,-0.2641486782826098,0.7157894022815551,-0.1473561587859441,0.3276577297871973,-0.3775273168103483,1.6650053751822818,-0.3082131204806109,0.8288888501237641,-0.0865564565313906,0.9800496115713976,0.4560787184198417,-0.8603573548889576,0.1107910900489658,10.885514837645133,-1.26730123533392,0.0965082710450525,-1.3235759686806146
1.76,0.3191360708820894,-0.3558293320832165,1.6568316735021982,0.0929408747683186,0.1678426357346225,0.0487373330207351,-0.2540834880446102,0.6973499313963263,-0.1440535211862056,0.3215276732510819,-0.3610013527490815,1.6631249708940534,-0.3104935120470662,0.8323430462043295,-0.0766047793580145,1.063284482358237,0.5032595118999811,-0.9219735442614396,0.1651318799869253,10.94101722780306,-1.2666294744448523,0.0952197705527722,-1.3207894652395076
1.78,0.3141636816729465,-0.3420842241485834,1.65399528583176,0.092063467134247,0.167588806737049,0.0482331925959315,-0.2437377104241374,0.6782564875503986,-0.1396766977105046,0.3153406069258052,-0.3443890337858006,1.6614933585351592,-0.3127739036135216,0.835797242284895,-0.0666531021846384,1.107645358640705,0.5172888810236406,-0.9546721922963852,0.2188411737850518,11.004529642340458,-1.2671518449717525,0.0958007457787605,-1.3168221581352204
1.8,0.3094008967827614,-0.3287236325657862,1.6512600452803556,0.0891506493754356,0.1659992323823755,0.0474483765866554,-0.2332026931253898,0.6592167208144172,-0.1340095772096005,0.3019767961517396,-0.3081713997710635,1.6470114509462348,-0.2627568987835171,0.6536083687862365,-0.1140965355280543,1.124294847468026,0.5267508649373781,-0.95198833679907,0.2833560250452005,11.06965898098133,-1.2691505007756192,0.0986624996122519,-1.3119566317216869
1.82,0.3050657111398931,-0.3162322554820815,1.648690844073591,0.0889245491774646,0.1625643863338299,0.0466995162791301,-0.2237634113593433,0.6549414375210952,-0.1368273430718387,0.3019767961517396,-0.3081713997710635,1.6470114509462348,-0.2627568987835171,0.6536083687862365,-0.1140965355280543,0.5369308427334256,0.4719640883023263,-0.213764164666097,-0.1408882931119057,11.13647948207381,-1.279568009916771,0.098620461475444,-1.3149092828400806
1.84,0.3006853990108252,-0.3032316859581507,1.6459372322811356,0.0931550715117957,0.1563628190890632,0.0459558026439498,-0.2152406649703959,0.644348380843683,-0.1382570238176943,0.3019767961517396,-0.3081713997710635,1.6470114509462348,-0.2627568987835171,0.6536083687862365,-0.1140965355280543,0.6835459801949223,0.4261373194473686,-0.5296528338706141,-0.0714840372927835,10.534630433075108,-1.2914949226700194,0.09333281063739,-1.3025788114123806
1.86,0.296443019880643,-0.2905146242706178,1.6431776878062063,0.0985464363841227,0.148603679998032,0.0450807406510734,-0.2097842134049364,0.6277579859127035,-0.1376002827903032,0.2993492271639045,-0.3016353160832011,1.6458704855909545,-0.2665607364553931,0.6486787450334041,-0.1089805030915642,0.8738497817547564,0.2728225782729784,-0.8295197465489734,0.0328370513695538,10.66784122559875,-1.302668592169001,0.0863980748209649,-1.28830577255644
1.88,0.2922771575915621,-0.2781675569255076,1.6404491859378965,0.1033017444303592,0.1404079379772188,0.0440450549818617,-0.2073298719933005,0.6079841637821352,-0.1352326257276664,0.2940940891882341,-0.2885631487074764,1.6435885548803932,-0.274168411799145,0.6388194975277393,-0.0987484382185841,1.0032866407244725,0.1227170705817903,-0.9886911065284164,0.1183828531318445,10.7820327750278,-1.3113479077221346,0.0803232031813995,-1.2739077109605808
1.9,0.2883393374398366,-0.2668224321020486,1.6379156730136557,0.1066893817456077,0.1329694464013151,0.042960425613732,-0.2074352617992946,0.5875396712998086,-0.1315221860640105,0.2888389512125638,-0.2754909813317516,1.6413066241698322,-0.2817760871428969,0.6289602500220745,-0.088516373345604,1.038936646731584,-0.005269490299703,-1.0222246241163302,0.1855219831827945,10.87662692167396,-1.317661300340501,0.075124795231905,-1.259147804462879
1.92,0.2841708844081567,-0.2553071852682629,1.6353390715157796,0.1090185884273914,0.1260106787801196,0.04178077829101,-0.2095249635891483,0.5652887710902079,-0.126234758865179,0.2832034294697059,-0.2629117763313101,1.63953629670292,-0.2893837624866488,0.6191010025164096,-0.0782843084726238,1.1482881825690203,-0.1044850894926854,-1.1125450104800316,0.2643713599415717,10.960676432478976,-1.3214093184305489,0.0713130509819198,-1.24552058362175
1.94,0.2799394541760181,-0.244247668410908,1.632878201706445,0.1099815887083549,0.1203590153787386,0.0406187032587113,-0.2136149758144061,0.5420632981125768,-0.1200741285866948,0.277567907726848,-0.2503325713308686,1.637765969236008,-0.2969914378304008,0.6092417550107448,-0.0680522435996437,1.2187125999036932,-0.204500611262888,-1.1612736488815556,0.3080315139242124,11.036860367546067,-1.3235570419395752,0.0692238725524138,-1.2336058243023516
1.96,0.2758245663410288,-0.2341814026241639,1.6306611441944354,0.1092829483810996,0.1167384346299393,0.0395807724906737,-0.2193786817883191,0.518998078869262,-0.113565057478245,0.2717421941003962,-0.2379998475180688,1.6362514433909203,-0.3045991131741526,0.5993825075050799,-0.0578201787266636,1.2324697278135852,-0.2881852986956493,-1.153260962165742,0.3254535554224897,11.08163555414376,-1.3227438875652495,0.0689351831454177,-1.222550086980129
1.98,0.2713620643182952,-0.2240602622280575,1.628469063341981,0.106475885301179,0.1153522689933825,0.0386046909033267,-0.226390709874515,0.494685862330226,-0.1059074641029641,0.2657262885903507,-0.2259136048929105,1.6349927191676576,-0.3122067885179045,0.5895232599994151,-0.0475881138536835,1.3218274728796122,-0.3506014043097985,-1.215610826951799,0.3828796687640426,11.12726642710004,-1.3160774773578818,0.0708022606723618,-1.2143786294119834
2.0,0.2667708989219625,-0.2144007586110338,1.626440467142362,0.102014387316442,0.1162011811858624,0.0377492098022354,-0.2321334856438798,0.472960062090518,-0.097259591132774,0.2600425288245694,-0.1993259691115463,1.6231736901368328,-0.241534049396698,0.4678979126042404,-0.0976874061684415,1.2039264683748787,-0.2871387884682386,-1.0862900119853995,0.432393648509504,11.164418896652933,-1.3066822801012108,0.0743899573610314,-1.2107406521673232
2.02,0.262036723929117,-0.2051110643816421,1.6244685862060837,0.097860300246749,0.1193495865921038,0.0371406431142542,-0.2407367324251787,0.4569393215712574,-0.1010193954272359,0.2600425288245694,-0.1993259691115463,1.6231736901368328,-0.241534049396698,0.4678979126042404,-0.0976874061684415,0.9284612408416166,-0.4301623390649434,-0.8010370259630306,-0.1879902147230917,10.352203095173536,-1.3103181283789374,0.0786956812137696,-1.213074044870686
2.04,0.2574066902477032,-0.1965812056848181,1.622517044388195,0.0947452708404366,0.1243263255425212,0.0368006338560031,-0.2458745452400758,0.4416929013769288,-0.1041467516616855,0.2600425288245694,-0.1993259691115463,1.6231736901368328,-0.241534049396698,0.4678979126042404,-0.0976874061684415,0.8194980266603771,-0.2568906407448557,-0.7623210097164268,-0.1563678117224805,10.352203095173536,-1.2942412770117464,0.0813745455158295,-1.2075081572189672
2.06,0.2524628195006066,-0.1879142079089717,1.620415577072834,0.0919158861832711,0.1304120030588124,0.0365361053817085,-0.2479691062537467,0.4258277172608221,-0.1057645246187917,0.2576271883306025,-0.1946469899855039,1.6221968160751483,-0.2445627173011346,0.4625403226590434,-0.096043394581537,0.8042208064622255,-0.1047280506835474,-0.7932592058053384,-0.0808886478553115,10.451933000785177,-1.2793947016918532,0.0836114210549835,-1.204682157488861
2.08,0.2475103202272354,-0.1795616338383116,1.6182981563705618,0.0893682303749162,0.136419531337357,0.0362661515002938,-0.24705331500538,0.4102622696415762,-0.1059074479187192,0.2527965073426685,-0.185289031733419,1.6202430679517796,-0.2506200531100077,0.4518251427686491,-0.0927553714077279,0.7796509800348695,0.0457895624183385,-0.7782723809622916,-0.0071461649963723,10.54438546569054,-1.2673090150023412,0.0854973062998636,-1.2034964677790596
2.1,0.242846197575039,-0.1719114681332678,1.616294255074897,0.0871099879465054,0.1414316102821672,0.0359445793718379,-0.2439326166624459,0.3958392674163915,-0.1050261075674772,0.2479658263547345,-0.1759310734813342,1.6182893198284107,-0.2566773889188809,0.4411099628782549,-0.0894673482339189,0.7391524067301719,0.1560349171467037,-0.7211501112592361,0.0440670175620973,10.62192625906755,-1.2573729204874666,0.0873470214659293,-1.2028879158079924
2.12,0.2380181385509323,-0.1641499042745398,1.614211470417915,0.0848755086705883,0.1455805031492515,0.0355062515525386,-0.2390159852623068,0.381116104519865,-0.103260343079719,0.2428322785763569,-0.1671088742237692,1.6164999728637324,-0.2627347247277541,0.4303947829878607,-0.0861793250601098,0.7811253328191247,0.2458315700069532,-0.7361581448263238,0.0882882243879099,10.684668715336556,-1.2506066628741763,0.0890846300963807,-1.2022746654825902
2.14,0.2333001030727765,-0.1566784996610355,1.612167270302974,0.0827644553687638,0.1483744499988657,0.0349535304725336,-0.2330798110552845,0.3668066738856462,-0.1012364142260043,0.2376987307979793,-0.158286674966204,1.614710625899054,-0.2687920605366273,0.4196796030974665,-0.0828913018863008,0.7811758081516219,0.2968087103511166,-0.71547153171094,0.1011964426857386,10.7370142805039,-1.2469273459201002,0.0906352730669962,-1.2011837790161697
2.16,0.2287061016068346,-0.1494911248349185,1.6101660393131887,0.0806825431411068,0.1497803430721452,0.0342840130894076,-0.2267558485235088,0.3527382654324691,-0.0989705137452648,0.2324137496243798,-0.1497323552058988,1.613003479513721,-0.2748493963455004,0.4089644232070723,-0.0796032787124917,0.7794981133674128,0.3161981265887847,-0.7034204226588542,0.1132950240369704,10.76107764779772,-1.245468009650936,0.0922391049823362,-1.1989957116580496
2.18,0.2244584870356788,-0.1429202440466806,1.6083099538689911,0.078677461641902,0.1499660106693904,0.0335531717561038,-0.2207974367142715,0.3397220039766414,-0.0965027867541066,0.2269773350555586,-0.1414459149428534,1.6113785337077329,-0.2809067321543736,0.3982492433166781,-0.0763152555386827,0.7263184736701525,0.2979205904618628,-0.6508130727913869,0.1233863495579142,10.76107764779772,-1.2455913169973731,0.0938169655265501,-1.1960599972430148
2.2,0.2201063722560819,-0.1362657313974813,1.6064106301237469,0.0765570871595799,0.149108102874447,0.0327038129792849,-0.2148016379886846,0.3264860692514594,-0.0935301074940405,0.2134186151999652,-0.1259341438478485,1.603484814531286,-0.2170566215013214,0.3188825158428533,-0.0949879734734422,0.741580057023944,0.2997899362793446,-0.6617967362590987,0.1486339630033036,10.77638791645495,-1.246747334275611,0.0953380033701331,-1.1923261815260906
2.22,0.2158176915307899,-0.1298723834846551,1.6045279156759211,0.074351595947326,0.1486349451457191,0.0318831805948371,-0.2143885879827338,0.313659790499764,-0.0951109936039937,0.2134186151999652,-0.1259341438478485,1.603484814531286,-0.2170566215013214,0.3188825158428533,-0.0949879734734422,0.6464967861796602,0.0206525002975396,-0.6413139375847698,-0.0790443054976601,10.792620297037502,-1.2548339393395629,0.0975508859693631,-1.1896709398312886
2.24,0.2117546066091371,-0.1240278780640434,1.6027080096329298,0.072242466853781,0.1497036332907967,0.0312200254930187,-0.2131324758302934,0.3022426888798657,-0.0963110576309165,0.2134186151999652,-0.1259341438478485,1.603484814531286,-0.2170566215013214,0.3188825158428533,-0.0949879734734422,0.5774257112549376,0.062805607622024,-0.570855080994917,-0.0600032013461419,10.532570792573097,-1.2499509174191812,0.0989458081972087,-1.1844946183404907
2.26,0.2075196037344094,-0.1181038387682846,1.6007760834691909,0.070153997177524,0.1517332532954462,0.0305988200186283,-0.2102871329265879,0.2907957691329575,-0.0967886409447038,0.211248048984952,-0.12274531868942,1.6025349347965516,-0.2163084584587314,0.3147146182160957,-0.0946850108173093,0.5902457830290503,0.1422671451852722,-0.5723459873454073,-0.0238791656893652,10.532570792573097,-1.2449604323978236,0.1003377727742294,-1.1811662256914224
2.28,0.2033572841827828,-0.1124044020675847,1.598841085123596,0.0682270817241638,0.1541199505672633,0.0300154587141003,-0.2059866793318553,0.2797516611021107,-0.0966650019835262,0.2069069165549256,-0.1163676683725629,1.6006351753270829,-0.2148121323735514,0.3063788229625804,-0.0940790855050435,0.5926244804051407,0.2150226797366317,-0.5522054015423411,0.0061819480588802,10.601815929240727,-1.24050680453555,0.101598363764618,-1.1792982388257922
2.3000000000000003,0.1992948905324079,-0.1069218817728621,1.5969138979781232,0.0664495954952601,0.1564024397064131,0.0294372805920406,-0.2004419112558347,0.2690762333977198,-0.0960613791795202,0.2025657841248992,-0.1099900180557059,1.598735415857614,-0.2133158062883713,0.2980430277090652,-0.0934731601927778,0.6022324513384567,0.2772384038010278,-0.5337713852195475,0.0301811402003013,10.601815929240727,-1.237216169017726,0.1026843553854601,-1.1782689298279203
2.32,0.1955475988186902,-0.1019080382614103,1.5950977311518508,0.0648860413004537,0.1581898074283471,0.0288741110264482,-0.1943050678790056,0.2592507935861418,-0.0951421894392426,0.1982994679991317,-0.1040291575015246,1.5968659526537583,-0.2118194802031913,0.2897072324555499,-0.092867234880512,0.5810443698662457,0.3068421688414591,-0.4912719905788981,0.0459594870138815,10.626990473300792,-1.2350965135896903,0.1037330659909569,-1.1774068890987646
2.34,0.1917344430073281,-0.0968278066152105,1.593206099295906,0.0633938755833018,0.1595083683382336,0.0282597038988648,-0.1873522886143639,0.2493219274344788,-0.0940612446182978,0.1940331518733643,-0.0980682969473433,1.594996489449903,-0.2103231541180112,0.2813714372020347,-0.0922613095682463,0.6084652090842962,0.3476389632320845,-0.4964433075831512,0.0540472410472406,10.647873714523485,-1.2345013399506124,0.1046573075183539,-1.1765323070548876
2.36,0.1880636672591094,-0.0919441175736421,1.591337280249282,0.0620563717618474,0.1601794365022041,0.0276207557318842,-0.1801188289186953,0.2395852508199676,-0.0928622195479252,0.1898042438997264,-0.0923158312744998,1.593142174378854,-0.2088268280328312,0.2730356419485195,-0.0916553842559805,0.6094330803784185,0.3616729847834274,-0.4868338307255568,0.0599512535186259,10.652985044989691,-1.2348826681720164,0.1053898916211765,-1.1752258277315382
2.38,0.1845384900816301,-0.0872533713810578,1.589494102356837,0.0608159582433783,0.1601867298251595,0.0269545040200161,-0.1728534438047279,0.2300302657517838,-0.0915042625068903,0.1856127440782179,-0.0867717604829943,1.5913030074406116,-0.2073305019476511,0.2646998466950042,-0.0910494589437148,0.6040024996487413,0.3632692556983702,-0.4777492534091904,0.0678978520517487,10.66556739491898,-1.2361731175614714,0.1060460654312448,-1.1737926186378005
2.4,0.1813222660157424,-0.0829724351466218,1.5877697627043472,0.0596977048838933,0.1596408247168814,0.0262998827219506,-0.1661428750611631,0.2211204327441758,-0.0900633335790495,0.1758958178913937,-0.0757518580934686,1.5849188892314925,-0.180412595659094,0.2023710134658265,-0.0797124763279438,0.5623458305630531,0.3355284371782424,-0.4454916503804029,0.0720464463920399,10.672309174975451,-1.2379857839491435,0.1065965008680957,-1.1724385610746255
2.42,0.1781004874543269,-0.0786232469668205,1.5859990394260588,0.0593341391380419,0.1577166437813581,0.0255956729581573,-0.1563462250227229,0.2141078182499088,-0.0870170795566379,0.1758958178913937,-0.0757518580934686,1.5849188892314925,-0.180412595659094,0.2023710134658265,-0.0797124763279438,0.6213509024495165,0.4898325019220079,-0.3506307247133494,0.1523127011205764,10.672309174975451,-1.236836580467702,0.1058868431964763,-1.1705293238766716
2.44,0.175075689800524,-0.0744187197582275,1.5842949826736377,0.0603187519892344,0.1533180937191781,0.0248423371918608,-0.1468352274668374,0.2065845091607329,-0.0835186898539633,0.1758958178913937,-0.0757518580934686,1.5849188892314925,-0.180412595659094,0.2023710134658265,-0.0797124763279438,0.6310665271409905,0.4755498777942749,-0.3761654544587933,0.1749194851337329,10.782438511494547,-1.2449140562446277,0.104148664817266,-1.16809989520969
2.46,0.172216117005486,-0.0703748096142611,1.5826655853300635,0.0623321403370586,0.1468265802607535,0.0240285689369258,-0.1400396144415761,0.1980979641852966,-0.0795629585561231,0.1740916919348027,-0.0737281479588103,1.584121764468213,-0.1819244260299672,0.196839163008635,-0.0773541190921545,0.5784669655864442,0.3397806512630635,-0.4243272487718136,0.1977865648920072,10.79724709643051,-1.256178693107478,0.1015461426664846,-1.163820222619117
2.48,0.169591892966008,-0.0667073574063059,1.5811942781846515,0.064709365722429,0.1398008410581162,0.0232201802862563,-0.1367685908521097,0.1882561964899812,-0.0754927113594496,0.1704834400216208,-0.0696807276894938,1.5825275149416542,-0.1849480867717136,0.1857754620942521,-0.0726374046205759,0.5570612599468524,0.1635511794733229,-0.4920883847657722,0.2035123598336789,10.79724709643051,-1.266596629213606,0.0981199012016662,-1.15649728322486
2.5,0.166865732209164,-0.0630659175925202,1.5797316259313978,0.0669642807346208,0.1324458122696152,0.022337918762656,-0.1362280260781031,0.176448461954796,-0.070959544809199,0.166875188108439,-0.0656333074201772,1.5809332654150954,-0.18797174751346,0.1747117611798692,-0.0679206901489973,0.6329778908078332,0.0270282387003301,-0.5903867267592622,0.2266583275125258,10.80814142897907,-1.2746257926597406,0.094817708949768,-1.1482862322008478
2.52,0.1641229986325687,-0.0596707675951541,1.5783614763260236,0.0686447745033762,0.1258359244638384,0.0214537818228469,-0.1382062143982384,0.1637555579578938,-0.0662606344965112,0.1631157531581698,-0.0621390721965799,1.5795748516121153,-0.1909954082552065,0.1636480602654862,-0.0632039756774187,0.6839276259794944,-0.0989094160067663,-0.6346451998451088,0.2349455156343903,10.822070715007612,-1.2800058152080214,0.0920479834653771,-1.139970214750633
2.54,0.1613153066541417,-0.0565379479585996,1.5770868949146593,0.0695260713588906,0.120608094486691,0.0206055223847826,-0.1425518930259271,0.1502950241449785,-0.0614133971596985,0.1593563182079006,-0.0586448369729825,1.5782164378091357,-0.1940190689969529,0.1525843593511033,-0.0584872612058401,0.7476071880726841,-0.2172839313844363,-0.6730266906457657,0.2423618668406356,10.822070715007612,-1.283113866187816,0.0902136900640043,-1.1327137689312117
2.56,0.1585464379529064,-0.0538193099150946,1.5759664795966568,0.0693118011499594,0.1176020003103208,0.0198677206594471,-0.1487192590947323,0.1367262625133168,-0.0567500267327151,0.1555212917390877,-0.0554271942722447,1.576975941867945,-0.1970427297386993,0.1415206584367204,-0.0537705467342615,0.7808564531697996,-0.3083683034402595,-0.6784380815830854,0.23316852134917,10.831702714493986,-1.2830720399929345,0.0894115272164576,-1.1266781697386985
2.58,0.1554964423061857,-0.0512375645604945,1.5748835197352222,0.0676927666274154,0.11703534560854,0.0191853368697064,-0.1556272892548866,0.1223142662056184,-0.0517794444799876,0.1516106737517312,-0.0524861440943664,1.575853363788544,-0.2000663904804457,0.1304569575223374,-0.0490538322626829,0.836859017693305,-0.3454015080077158,-0.720599815384916,0.2485291126363753,10.841518207251283,-1.2762739286496958,0.0898891462157764,-1.1227385082810966
2.6,0.1523243744942929,-0.0489379032761788,1.5739001361979426,0.0645778733609306,0.1186074509964235,0.01855548124634,-0.1609910448465668,0.1088425745960401,-0.0467821013791896,0.1477150778434413,-0.0451218512502136,1.5722945475112229,-0.150904608358366,0.1182339319929874,-0.0485708295941806,0.7668601354516287,-0.2681877795840073,-0.6735845804789156,0.2498671550399001,10.834575810689785,-1.268258770727785,0.0918343812578275,-1.1220600025756955
2.62,0.1490254610953608,-0.0469432720237109,1.5729714256288918,0.0587012555551755,0.1225789792785293,0.017890957725317,-0.1680725653129338,0.0929803715629297,-0.0462268361079526,0.1477150778434413,-0.0451218512502136,1.5722945475112229,-0.150904608358366,0.1182339319929874,-0.0485708295941806,0.8690019227548267,-0.354076023318349,-0.7931101516555218,0.0277632635618519,10.82363692131912,-1.2624471970996465,0.096995897532765,-1.123113561223808
2.64,0.1457915127641274,-0.045274845623434,1.5721019454655314,0.0515352483731406,0.1283890449360231,0.0172553892943669,-0.1716488919290071,0.0837505782509225,-0.0453103150119721,0.1477150778434413,-0.0451218512502136,1.5722945475112229,-0.150904608358366,0.1182339319929874,-0.0485708295941806,0.4970392528930292,-0.1788163308036647,-0.4614896656003598,0.0458260547990231,10.563596507646253,-1.248567469482744,0.1036995701841445,-1.125606871214561
