t,x,y,z,roll,pitch,yaw,v_x,v_y,v_z,ref_x,ref_y,ref_z,ref_v_x,ref_v_y,ref_v_z,a_com,a_x,a_y,a_z,thrust,wind_x,wind_y,wind_z
0.0,-1.5001847975812976,-2.467225678590217,1.7505965670245156,0.0141871246868897,0.1365192994022426,0.0261320659033369,0.0057812478759126,-0.0069199445977303,0.0075990350415628,-1.500006943798485,-2.467479228291347,1.750831809833968,0.105748725164032,0.0921313230263783,-0.0668083155704063,0.5896053633603182,0.2890623937956327,-0.3459972298865154,0.3799517520781411,10.550091431064176,-1.285113307112995,0.1621894009722272,-1.1674598238891456
0.02,-1.5001542448668257,-2.4675901780650285,1.7506302367681466,0.0046554923438083,0.1387647753986368,0.0254919674278047,-0.002540090802413,-0.0253983051001448,-0.0047369539557146,-1.500006943798485,-2.467479228291347,1.750831809833968,0.105748725164032,0.0921313230263783,-0.0668083155704063,1.1862452410837585,-0.4160669339162869,-0.9239180251207288,-0.6167994498638733,10.549152253538525,-1.291589624998452,0.1727810912768302,-1.1581113983416813
0.04,-1.5002721893625988,-2.4681080027768907,1.7503457885996607,-0.0114531959054273,0.1446063000721254,0.0243723127303212,-0.0083789945498816,-0.0246030685837754,-0.0232830783588854,-1.500006943798485,-2.467479228291347,1.750831809833968,0.105748725164032,0.0921313230263783,-0.0668083155704063,0.9729901444350014,-0.2919451873734266,0.0397618258184743,-0.9273062201585414,9.454700972436513,-1.2822046727805494,0.1892731561416005,-1.1538529324608142
0.06,-1.500468181177341,-2.468523612351317,1.749689877543546,-0.0280541572374472,0.1521593775825249,0.0231113580776464,-0.0105796592668777,-0.0165829637632131,-0.0413189404091325,-1.4989494565468449,-2.4665579150610832,1.750163726678264,0.1257487254620552,0.1121313233244015,-0.0816882619810623,0.9930474893289096,-0.1100332358498068,0.4010052410281135,-0.9017931025123538,9.454700972436513,-1.2715904741449378,0.2050739888247811,-1.14801622421937
0.08,-1.5006649179050369,-2.468730484271814,1.748750054185,-0.0432740192985966,0.1599412835896342,0.0218369975432634,-0.0097922005997606,-0.0052718282028772,-0.0567473239220462,-1.4968344820435642,-2.464715288600556,1.7488275603668555,0.1657487260581017,0.152131323920448,-0.1114481548023743,0.9573360129001982,0.0393729333558534,0.5655567780167932,-0.7714191756456847,9.514734585899532,-1.2625826207230284,0.2212476374431793,-1.145213952331879
0.1,-1.5008303489785069,-2.4686696145887748,1.7474570331555008,-0.0581591006362696,0.1682144861069383,0.0204695265909601,-0.0065502449516525,0.0109033011098652,-0.0717101154776245,-1.4947195075402837,-2.462872662140028,1.7474913940554475,0.2057487266541481,0.1921313245164944,-0.1412080476236862,1.113586790335544,0.1620977824054091,0.8087564656371232,-0.7481395777789172,9.618302992516874,-1.255838754884579,0.2364384625642712,-1.1450732060224709
0.12,-1.5009080688560128,-2.468237901552897,1.7458786448234285,-0.0711070648865251,0.1762764924983133,0.0191601287484512,-0.0011822605076134,0.0311660927295522,-0.0854106686911414,-1.4906045330072004,-2.459030035649698,1.7446672331029738,0.2457487272501946,0.2321313251125409,-0.1709679404449982,1.2520993766178388,0.2683992222019528,1.0131395809843515,-0.6850276606758444,9.711193468051531,-1.2516638389286303,0.2493182744935964,-1.147473033219161
0.14,-1.5008654101034176,-2.467426693593791,1.7441313165351435,-0.0813593249252233,0.1836082276012302,0.0180196830943211,0.0055622375279595,0.0528739187977855,-0.0978467963656742,-1.4864895584741176,-2.455187409159368,1.7418430721505,0.2857487278462411,0.2721313257085874,-0.2007278332663101,1.2955454815422325,0.3372249017786508,1.085391303411667,-0.621806383726637,9.803920409483908,-1.2495471180780466,0.2610256927457694,-1.152200444148372
0.16,-1.5006665557250791,-2.4661075246673567,1.7420389224006445,-0.09000924334066,0.1909248257907043,0.0169567397388507,0.0141390669040722,0.0777868380558768,-0.1107031397837833,-1.4813745839261334,-2.4503447826541374,1.7382749138774936,0.3257487284422875,0.3121313263046338,-0.2304877260876221,1.4658624715431894,0.4288414688056333,1.245645962904565,-0.6428171709054554,9.863732982543295,-1.2493094567771987,0.2708065075746719,-1.158885678571166
0.18,-1.500281085280589,-2.4642696594840543,1.739694267805397,-0.0962859348211821,0.1978146136239739,0.0160730800955045,0.0241361222282428,0.104358488650954,-0.1230837873041184,-1.475259609363248,-2.444502156134005,1.7339627582839543,0.3657487290383339,0.3521313269006802,-0.260247618908934,1.5486075709521845,0.4998527662085298,1.3285825297538572,-0.6190323760167538,9.908119176368928,-1.2504483181399373,0.2783869520123564,-1.1669211590936817
0.2,-1.499681522919845,-2.4618893096197474,1.7371082097792745,-0.1003097697863259,0.204280855383211,0.0153815598568561,0.0354619372955846,0.1317657339051608,-0.1348856284112153,-1.499074279169177,-2.4590517350515064,1.733540078440191,0.1241361237183589,0.2043584901410701,-0.1775335430025608,1.595865464944516,0.5662907533670893,1.370362262710341,-0.5900920553548447,9.96024008297536,-1.2523724134666558,0.2836490187771481,-1.1760490076714578
0.22,-1.498886064330219,-2.4590118356530035,1.734461468480678,-0.099021973844734,0.210049384808631,0.0151339686925463,0.0478881870294507,0.1686387231495555,-0.142801193573213,-1.499074279169177,-2.4590517350515064,1.733540078440191,0.1241361237183589,0.2043584901410701,-0.1775335430025608,1.985374769470168,0.6213124866933046,1.843649462219736,-0.3957782580998867,10.012651967233978,-1.2537101627582885,0.2846126749616521,-1.194047681934693
0.24,-1.4977790134600648,-2.4553182159539606,1.7315296252148762,-0.0917949882225995,0.2157373914714431,0.0153705380679736,0.0622966334561592,0.1976404315862298,-0.1499179609600241,-1.499074279169177,-2.4590517350515064,1.733540078440191,0.1241361237183589,0.2043584901410701,-0.1775335430025608,1.6578229690735786,0.720422321335427,1.450085421833716,-0.3558383693405539,10.34100461322396,-1.2583458349679686,0.2788391144162673,-1.2078861274807966
0.26,-1.4963733682388336,-2.4511213048683547,1.728455144584057,-0.0833663288838843,0.221037660067175,0.0157848703608902,0.0776421680059032,0.2203549338011688,-0.1572161747914068,-1.4978329179319934,-2.4570081501500955,1.7317647430101657,0.1441361240163821,0.2243584904390933,-0.1884234941422493,1.4183599389950694,0.7672767274871972,1.135725110746949,-0.3649106915691355,10.320079151475513,-1.262643706823292,0.2713039655485932,-1.222987407432507
0.28,-1.4947465071842287,-2.4467497622173813,1.7253937372943164,-0.0758352630973989,0.2257380589636791,0.0162222023687175,0.0929118359972577,0.2387325641852642,-0.1647100234590486,-1.495350195457626,-2.4529209803472742,1.7282140721501142,0.1841361246124286,0.2643584910351397,-0.2102033964216263,1.2520561358762434,0.7634833995677264,0.9188815192047686,-0.3746924333820928,10.28975317586628,-1.2669313984350208,0.2640487248075482,-1.236664185062098
0.3,-1.49271383153871,-2.4417933343259794,1.722010860933331,-0.068982071847963,0.2303610237104964,0.016675622592976,0.1096252287283655,0.2560290071655521,-0.1732488431946409,-1.492867472983259,-2.448833810544453,1.724663401290063,0.2241361252084751,0.3043584916311862,-0.2319832987010033,1.2761425065716017,0.8356696365553911,0.8648221490143965,-0.4269409867796156,10.259526144024676,-1.2708229570288598,0.2577906093939082,-1.2487071880533058
0.32,-1.4903401320240115,-2.436506217650656,1.7184514399671007,-0.0633911198044632,0.2346761266286153,0.0170985474948604,0.1269781301440905,0.272032176336848,-0.1823118190802842,-1.4883847504790897,-2.442746640711829,1.720023735316043,0.2641361258045215,0.3443584922272326,-0.2537632009803803,1.2642805691110812,0.8676450707862506,0.8001584585647925,-0.4531487942821613,10.229912345849698,-1.2739290586552277,0.2530068636067413,-1.2588980863221415
0.34,-1.4877572400560006,-2.4311949589981614,1.7149002168003964,-0.0591445535876689,0.2385092628613122,0.0174702644214338,0.1440946776022288,0.2864399787352182,-0.1910894382000149,-1.48390202797492,-2.436659470879205,1.7153840693420228,0.304136126400568,0.3843584928232791,-0.2755431032597573,1.2016733793425758,0.8558273729069116,0.7203901199185098,-0.4388809559865356,10.213692290563811,-1.2761889505630806,0.2491521003406114,-1.2692699598905923
0.36,-1.4846807338859098,-2.4253063430185327,1.7109800442535887,-0.055424492274382,0.2422819320632234,0.0178486145224566,0.1627221994830218,0.3016634969107096,-0.2004904273863022,-1.4784193054558492,-2.4295723010316808,1.7101999058110184,0.3441361269966144,0.4243584934193256,-0.2973230055391342,1.291432029511846,0.9313760940396544,0.7611759087745723,-0.4700494593143645,10.216771075652105,-1.2788251502896215,0.2461977618958551,-1.2792862880754712
0.38,-1.481225038631447,-2.41911533912134,1.7068721895812091,-0.0521044005984326,0.245802237439703,0.0182343465080665,0.1819770071800652,0.3166318958532702,-0.2098502017460152,-1.4719365829218771,-2.4214851311692547,1.7044712447230297,0.3841361275926608,0.464358494015372,-0.3191029078185112,1.3061450555149945,0.9627403848521662,0.7484199471280262,-0.4679887179856512,10.223004469437,-1.2812540982765526,0.2437668836520291,-1.2882203352852653
0.4,-1.4775796676688702,-2.412960475934969,1.702797118118167,-0.0491541004113818,0.2489265210442346,0.0186155733735264,0.2008342004403276,0.3304408589953659,-0.2186582583621453,-1.4721261882724437,-2.4032837443286765,1.6963796794939086,0.2819770086701813,0.4166318973433863,-0.2372239459208533,1.2488625445456347,0.9428596630131194,0.6904481571047894,-0.4404028308065064,10.238496374093302,-1.2831799009370308,0.2414189439353787,-1.2976570421582183
0.42,-1.473266247245741,-2.4061833028478783,1.69847064676987,-0.045814944995189,0.2506054327184202,0.0191268617431382,0.2296646984226063,0.346315319516201,-0.2127544061015413,-1.4721261882724437,-2.4032837443286765,1.6963796794939086,0.2819770086701813,0.4166318973433863,-0.2372239459208533,1.6718639165978562,1.441524899113937,0.7937230260417538,0.2951926130302013,10.255482411349476,-1.277885350708099,0.2377706112137485,-1.3004785985781364
0.44,-1.468373194982852,-2.3991132459223934,1.694283152643578,-0.0425583218533622,0.2494015065402262,0.0197715490457425,0.2579449577828974,0.3599340467293647,-0.2064519509204421,-1.4721261882724437,-2.4032837443286765,1.6963796794939086,0.2819770086701813,0.4166318973433863,-0.2372239459208533,1.600752746133567,1.4140129680145552,0.6809363606581853,0.3151227590549615,11.315264208588816,-1.287418535310907,0.2368622499010935,-1.3198890515420487
0.46,-1.4632146096230458,-2.392154977377142,1.6904039227497445,-0.0400478776178723,0.2459264149702391,0.0204400195704854,0.2834380143132279,0.3719663649591615,-0.2021945040971111,-1.4693064181857418,-2.3991174253552425,1.6940074400347,0.3019770089682045,0.4366318976414094,-0.2426986947558209,1.4254810299467495,1.2746528265165258,0.601615911489839,0.2128723411665492,11.232029221027917,-1.2997819042846068,0.2363974886959918,-1.335646578345852
0.48,-1.4572893982244508,-2.3845899270459063,1.686395631824397,-0.0380755095625573,0.2402728592894529,0.0211698965619815,0.3072942905228223,0.3839925863949741,-0.1988809421285403,-1.4636668780123383,-2.390784787408375,1.6892629611162828,0.341977009564251,0.4766318982374559,-0.2536481924257561,1.3460419844224905,1.1928138104797177,0.6013110717906306,0.1656780984285372,11.129957222084158,-1.3159513554891504,0.2367297262367065,-1.347559948041816
0.5,-1.4509269471580253,-2.376790861161204,1.6824408775734387,-0.0368846700115947,0.2336656642641239,0.0218753846972982,0.3274826952164078,0.3954120873648876,-0.1967340720007899,-1.4580273378389346,-2.3824521494615074,1.6845184821978658,0.3819770101602974,0.5166318988335024,-0.2645976900956913,1.1646734926786009,1.0094202346792758,0.5709750484956755,0.1073435063875222,11.045691387997069,-1.3309812933243057,0.2375929235373594,-1.3547269871524663
0.52,-1.444540695515884,-2.3691754315937352,1.6787141381603912,-0.0366194568461583,0.227373387996032,0.0224851532158833,0.343603565597688,0.4057449155055755,-0.1956532293924675,-1.450387797635729,-2.372119511484837,1.679226528395952,0.4219770107563438,0.5566318994295488,-0.2755471877656266,0.9589291162267862,0.8060435190640092,0.5166414070343961,0.0540421304161195,10.963411481282492,-1.3447438892236314,0.2392148373347671,-1.358687717961809
0.54,-1.4375155173212752,-2.360950092239198,1.674810702037184,-0.0374427322944351,0.2214478091288737,0.0230320799825888,0.3578839187327432,0.4163450308244728,-0.1947585636840536,-1.4427482574325226,-2.361786873508167,1.6739345745940382,0.4619770113523904,0.5966319000255953,-0.2864966854355618,0.8903529597378956,0.7140176567527606,0.5300057659448604,0.0447332854206977,10.889022672204192,-1.3571528881208843,0.2420627820032995,-1.3611700801598206
0.56,-1.4302261738814486,-2.3525006800711434,1.6709218576677105,-0.0391838575496168,0.2167570556247203,0.023484369311735,0.3701899094834173,0.4281079718412526,-0.1941837157152343,-1.4341087172144156,-2.350454235516596,1.668368883350376,0.5019770119484368,0.6366319006216417,-0.297446183105497,0.8516669535492918,0.6152995375337034,0.5881470508389913,0.0287423984409646,10.866599073344332,-1.3667003029858664,0.2459427973283583,-1.364433270817386
0.58,-1.4227094736103008,-2.343801184767536,1.667041492183801,-0.0412356787697052,0.2136791217152816,0.0238693963526648,0.3807922316901007,0.4412754905878628,-0.1938891307557695,-1.4244691769814073,-2.338121597510124,1.6625294546649656,0.5419770125444833,0.6766319012176881,-0.3083956807754322,0.8453986728387486,0.5301161103341723,0.6583759373305104,0.0147292479732399,10.835544086210575,-1.3733604688006191,0.249974148029011,-1.3691757069015118
0.6,-1.4153826418509616,-2.335278034800746,1.6633580194398998,-0.0428603868138841,0.2125313061033486,0.0241978774074357,0.3900666151281381,0.4550898880647374,-0.1938821670950103,-1.4036698620257957,-2.3217374102381427,1.6573470356460125,0.4807922331802168,0.541275492077979,-0.2222954527581803,0.8319432286781853,0.463719171901869,0.6907198738437315,0.0003481830379598,10.835544086210575,-1.3765722563573235,0.2536536694506505,-1.3756623377139363
0.62,-1.4074454854608456,-2.3259481788633383,1.6595588593022303,-0.0418329804942505,0.2125759385773898,0.0246904819253786,0.4033630961556887,0.4766095210202392,-0.185610364463296,-1.4036698620257957,-2.3217374102381427,1.6573470356460125,0.4807922331802168,0.541275492077979,-0.2222954527581803,1.3307082033954376,0.66482405137753,1.0759816477750872,0.4135901315857143,10.82322773804026,-1.374223253781376,0.2537604188083519,-1.3847114074248157
0.64,-1.3996567956137411,-2.3167197766138066,1.6561050128452603,-0.0374793079874674,0.2132357557485832,0.0253714056009165,0.4158796360449342,0.4929672717255372,-0.1784957871660838,-1.4036698620257957,-2.3217374102381427,1.6573470356460125,0.4807922331802168,0.541275492077979,-0.2222954527581803,1.0895606787299168,0.6258269944622752,0.8178875352649023,0.3557288648606063,11.43216209070215,-1.3776680851237122,0.2501654180011432,-1.4012519478257128
0.66,-1.3912008405565557,-2.306726852433945,1.652594327774702,-0.0320802461398099,0.2145550151206784,0.0261226785032145,0.4291349518312041,0.5053345947863065,-0.173060880571856,-1.3988619396939934,-2.316324655317363,1.655124081118431,0.5007922334782401,0.5612754923760022,-0.2279767171586625,0.9462984280489316,0.6627657893134936,0.6183661530384632,0.2717453297113911,11.306386911799564,-1.3781178158140164,0.2448904503811668,-1.4157449782737148
0.68,-1.3824769073575307,-2.29651653805896,1.649170289066196,-0.0272626918465522,0.2163093337805812,0.0268212765608218,0.4426844872775517,0.5152279876075847,-0.1696459417787081,-1.389246095030389,-2.305499145475804,1.650678172063267,0.5407922340742864,0.6012754929720486,-0.2393392459596269,0.8560533559435656,0.6774767723173813,0.4946696410639106,0.1707469396573943,11.1829515907084,-1.3772406520790257,0.2402324099756706,-1.4275208462877031
0.7000000000000001,-1.3739341191707175,-2.2866471994669477,1.64596623106907,-0.023607677323839,0.2181853571554747,0.0274169573978293,0.455938381970655,0.5233731291121035,-0.1678234860749345,-1.3796302503667848,-2.294673635634244,1.6462322630081034,0.5807922346703329,0.6412754935680951,-0.2507017747605913,0.7831513255060034,0.6626947346551643,0.4072570752259419,0.0911227851886839,11.078628498345097,-1.375479551722098,0.2363305688593812,-1.438074740890612
0.72,-1.3646658179607876,-2.2760984068207,1.6426200181965205,-0.020797161233702,0.220249334498262,0.0279710549489996,0.4702462228813414,0.5312567396494713,-0.16696183636669,-1.368014405673378,-2.281848125762882,1.6412182275128917,0.6207922352663794,0.6812754941641416,-0.2620643035615556,0.8179365300103149,0.7153920455343216,0.3941805268683873,0.0430824854122213,11.002443320500788,-1.373805874259746,0.2337450266268188,-1.447628232384834
0.74,-1.3551055473189106,-2.2653961153970847,1.6392852037656498,-0.0190117493171755,0.2222975025136883,0.0284543912125342,0.4851134827503249,0.5387150191891297,-0.1665960491900173,-1.3563985609799716,-2.26902261589152,1.6362041920176795,0.6607922358624259,0.721275494760188,-0.27342683236252,0.831858085796777,0.7433629934491731,0.3729139769829193,0.0182893588336355,10.950697282615693,-1.3723800900324028,0.2324933821546125,-1.4557874231553756
0.76,-1.3457375539938086,-2.255086588235155,1.6361204565838066,-0.018049940762652,0.2239547680332046,0.0288671809150023,0.5002197640112805,0.5461557355574252,-0.1665655116938907,-1.3437827162716638,-2.255197106005257,1.630906093302444,0.7007922364584722,0.7612754953562344,-0.2847893611634843,0.8419693078539013,0.7553140630477823,0.3720358184147787,0.0015268748063318,10.935601325220889,-1.370923448160526,0.2321819106614753,-1.46398649058948
0.78,-1.335560399826559,-2.2440807321260965,1.632787680516505,-0.0175742140472803,0.2251028644403834,0.0292736204276813,0.5166681325108893,0.5540443311240365,-0.1667247285840271,-1.3301668715484547,-2.2403715961040924,1.625323931367184,0.7407922370545187,0.8012754959522809,-0.2961518899644487,0.912145981094288,0.8224184249804367,0.3944297783305628,-0.0079608445068227,10.935601325220889,-1.3707736316177204,0.232642288937794,-1.4712349689844952
0.8,-1.3250506042609942,-2.232915053985116,1.6294496785995622,-0.0175368230423321,0.2254872882874416,0.0296612228581656,0.5334183165240767,0.5621282061905785,-0.1670732208681236,-1.3097269932010145,-2.2163785155698945,1.6244514440873037,0.6166681340010054,0.6540443326141526,-0.1934586094466208,0.9301063748829648,0.8375092006593698,0.4041937533270978,-0.0174246142048209,10.936824682131371,-1.3716849011690075,0.233642544293921,-1.4772248036331577
0.8200000000000001,-1.314148396915322,-2.2215269351028963,1.626205027521615,-0.0160342433773306,0.2239570169761267,0.0301820019404055,0.5561247976618472,0.5758386318976623,-0.1568307233056325,-1.3097269932010145,-2.2163785155698945,1.6244514440873037,0.6166681340010054,0.6540443326141526,-0.1934586094466208,1.4216793019586271,1.135324056888526,0.6855212853541903,0.5121248781245521,10.935500725871862,-1.3699452744729872,0.232589670408685,-1.4829878234970033
0.84,-1.3033746337332628,-2.2104910717187107,1.6233174867572029,-0.0128245585206229,0.2196232551056356,0.0308323258469958,0.5764781564796102,0.5848201158897509,-0.1477590983609479,-1.3097269932010145,-2.2163785155698945,1.6244514440873037,0.6166681340010054,0.6540443326141526,-0.1934586094466208,1.2012708364496545,1.0176679408881506,0.4490741996044323,0.4535812472342332,11.719457851096196,-1.3803802044738076,0.2297341795601069,-1.491544435609768
0.86,-1.2916566494070645,-2.198724675105834,1.6204399203226807,-0.0095907815361635,0.213001798875448,0.0315033171486282,0.5938046057678789,0.5914067394219962,-0.1405408103915298,-1.3035603118610044,-2.209838072243753,1.6225168579928373,0.6366681342990286,0.6740443329121758,-0.1988053856191395,0.9946018496161132,0.8663224644134326,0.3293311766122631,0.3609143984709018,11.569997806802348,-1.3931616669239015,0.2267440506679922,-1.4941326933495227
0.88,-1.2796397481350588,-2.18684331677044,1.617679440753205,-0.0071990038437729,0.2057005422644075,0.0320905002836153,0.6067843254733346,0.5966490146983275,-0.1358304454444041,-1.2912269491809845,-2.19675718559147,1.6186476858039047,0.676668134895075,0.7140443335082223,-0.209498937964177,0.7384817391786715,0.6489859852727875,0.2621137638165682,0.2355182473562866,11.39601566426063,-1.4052012407608852,0.2247380459064796,-1.493391871597744
0.9,-1.2680194336061936,-2.1754673932465494,1.615124278344062,-0.005889509881727,0.1991471535329158,0.0325562260097288,0.6156728983513382,0.6007440584806227,-0.1333550552758333,-1.2788935865009643,-2.183676298939187,1.6147785136149724,0.7166681354911215,0.7540443341042687,-0.2201924903092144,0.5047367330429612,0.4444286439001799,0.2047521891147596,0.1237695084285395,11.226486935252067,-1.4168306838573488,0.2238134310164196,-1.4904198444256849
0.92,-1.255636843911855,-2.1634166901510827,1.612469485622761,-0.0058243767993423,0.1934708990176102,0.0329354464013425,0.6219196181153971,0.604239715498255,-0.1323174056663392,-1.264560223791142,-2.1685954122571016,1.610374663808788,0.756668136087168,0.7940443347003152,-0.2308860426542519,0.3616553694737864,0.3123359882029441,0.1747828508816107,0.0518824804747033,10.974781823420926,-1.4270191206407212,0.2246511211130483,-1.4866091230172005
0.94,-1.2431602403484872,-2.1513004450058784,1.6098258252373274,-0.0074411028362355,0.18998335813512,0.0331833516229428,0.6252906607239908,0.6073835059630085,-0.1321256005313645,-1.2502268610813194,-2.1535145255750163,1.605970814002604,0.7966681366832145,0.8340443352963617,-0.2415795949992894,0.2306736654076057,0.1685521304296833,0.1571895232376774,0.0095902567487385,10.974781823420926,-1.433849616303699,0.2276596854511867,-1.4830054590710016
0.96,-1.230630044758288,-2.1391052736776626,1.6071806498142165,-0.0105015803998995,0.1893549327778615,0.0333131218077149,0.6279237655826063,0.6123946463607038,-0.1324389530452044,-1.2348934983565958,-2.1374336388780297,1.6012996253877936,0.8366681372792608,0.874044335892408,-0.2522731473443269,0.2834738042562706,0.1316552429307782,0.2505570198847673,-0.0156676256919979,10.92572877110706,-1.43310174446088,0.2320966616322544,-1.4832778887952582
0.98,-1.2186621016171717,-2.127398850417481,1.604659998778488,-0.0136154254351579,0.190789316660847,0.0334010275699874,0.6319513126629831,0.6196087183497198,-0.1329039284728865,-1.218560135616971,-2.1203527521661423,1.5963610979643574,0.8766681378753073,0.9140443364884544,-0.2629666996893643,0.4137637378254155,0.201377354018839,0.3607035994507956,-0.0232487713841045,10.88802041459894,-1.4295062676471697,0.2371222491614814,-1.486327596129441
1.0,-1.2059625301707269,-2.1149138715973588,1.6019970630834417,-0.0164723277237299,0.1935452857563829,0.0335010616660684,0.6379856143693047,0.6284680940814359,-0.1333808036912419,-1.1870645359840224,-2.0964184144999947,1.5980148023548435,0.7319513141530992,0.7196087198398359,-0.1494422113292317,0.5364903200723145,0.3017150853160788,0.4429687865858067,-0.0238437609177688,10.884105134919082,-1.4245284985726006,0.2416258102942489,-1.491308490130453
1.02,-1.1930669100366935,-2.102159007322854,1.5994580863533447,-0.0161383856415217,0.1958583600176244,0.033826873778272,0.6514275809033055,0.6457867694970563,-0.119775188386076,-1.1870645359840224,-2.0964184144999947,1.5980148023548435,0.7319513141530992,0.7196087198398359,-0.1494422113292317,1.2900927779475555,0.6720983267000435,0.8659337707810189,0.6802807652582926,10.896706369579078,-1.4160003014859333,0.2414945943009713,-1.4951617124101286
1.04,-1.1805647478292451,-2.0897616831354457,1.5973090758723711,-0.0120095564504917,0.1966776043089217,0.0344212776648808,0.6638192291673193,0.6575269550752664,-0.1071648772126922,-1.1870645359840224,-2.0964184144999947,1.5980148023548435,0.7319513141530992,0.7196087198398359,-0.1494422113292317,1.0611371871716406,0.6195824132006866,0.5870092789105052,0.6305155586691924,11.924301427736282,-1.4162875015778058,0.236865659853292,-1.5080415240255125
1.06,-1.16716118364681,-2.0765344146027167,1.5952817155371763,-0.0067958906426256,0.1967075529475043,0.0351070149230399,0.6757962739633995,0.6644834202182369,-0.0963470833559404,-1.1797450228424915,-2.0892223273015964,1.5965203802415513,0.7519513144511224,0.739608720137859,-0.1527498679005007,0.878730153772834,0.5988522398040097,0.3478232571485273,0.5408896928375866,11.782160424656468,-1.4170288144573284,0.230582651060221,-1.5167585505074268
1.08,-1.1535297908874549,-2.0632000031159268,1.593443088140169,-0.0023128422641535,0.1963078382375665,0.0357291497779126,0.6866742364281815,0.6687543827235655,-0.0881628849593204,-1.1651059965594297,-2.0748301529047994,1.5935315360149669,0.7919513150471689,0.7796087207339055,-0.1593651810430388,0.7133587658085638,0.5438981232391005,0.2135481252664273,0.4092099198310029,11.602274752954145,-1.4180659183590798,0.2251067605152391,-1.5226524162271649
1.1,-1.139691985334366,-2.049796600571644,1.591742271192451,0.00089558777713,0.1958063871414085,0.0362466923525289,0.6965492170848828,0.6717253106300757,-0.0823161271090764,-1.1504669702763677,-2.060437978508003,1.590542691788382,0.8319513156432153,0.819608721329952,-0.1659804941855769,0.592718805495692,0.4937490328350669,0.1485463953255106,0.2923378925121976,11.43118638989381,-1.4191134410036523,0.221457338251438,-1.526730423985964
1.12,-1.1263700957338825,-2.0370131530913453,1.5902202681673714,0.0027663245975529,0.1954462324331364,0.0366435604953898,0.705244248946094,0.6739295419035013,-0.0782572374341635,-1.133827943963503,-2.044045804081404,1.5872230819046704,0.8719513162392618,0.8596087219259985,-0.1725958073281149,0.4922824391732379,0.4347515930605616,0.1102115636712808,0.2029444837456484,11.292501605128564,-1.420118812382786,0.2192726390817455,-1.5299183723614524
1.14,-1.112173589375909,-2.0235189392083885,1.5886936145454822,0.0032964332245105,0.1953716401277653,0.0369510988980793,0.7139711566958129,0.6755359598409478,-0.0746412076194817,-1.1171889176506389,-2.0276536296548047,1.5839034720209588,0.9119513168353084,0.8996087225220449,-0.179211120470653,0.4791011612449923,0.4363453874859424,0.0803208968723268,0.1808014907340865,11.189759208752548,-1.42074160261307,0.219111208674373,-1.5320801398623818
1.16,-1.097798848597442,-2.0099875884929164,1.5872349800827508,0.0023572668154567,0.195532520679673,0.0371489751199437,0.723084025596401,0.6776305419495856,-0.0714164009090334,-1.0995498913228734,-2.010261455213304,1.580418479308684,0.9519513174313546,0.9396087231180912,-0.1858264336131911,0.4945478544309007,0.4556434450294022,0.1047291054318888,0.1612403355224174,11.15639257935527,-1.420181079528254,0.2207953464545226,-1.5339235100471609
1.18,-1.0839702267372169,-1.997087297067084,1.5859070859571935,0.0003239590269275,0.1956470673398302,0.0372523271591843,0.7320810417059938,0.6802921407847218,-0.0685192463024994,-1.0809108649802066,-1.991869280756903,1.5767681037678454,0.991951318027401,0.9796087237141377,-0.1924417467557291,0.4909783906895286,0.4498508054796402,0.1330799417568084,0.1448577303266994,11.134830385196436,-1.4197210696755882,0.224275968578319,-1.5355761810503137
1.2,-1.0692280386683843,-1.9834361502736548,1.5845680592359863,-0.0025545259542346,0.1955794653140865,0.0373070563227247,0.7416330338895405,0.6849289692579037,-0.0655374771400111,-1.047366174651917,-1.963072690027848,1.5824811236420686,0.8279600302104035,0.7802921422748379,-0.1038377475961586,0.5514337682410612,0.4775996091773371,0.231841423659096,0.1490884581244127,11.12662765188452,-1.4192495113667554,0.2288401579969836,-1.5372372574509638
1.22,-1.0542573261411792,-1.9695995292587316,1.5833444800196133,-0.0030481729011856,0.1943636934683529,0.0375301142472513,0.7550557302360834,0.6977588973243024,-0.0566564815298012,-1.047366174651917,-1.963072690027848,1.5824811236420686,0.8279600302104035,0.7802921422748379,-0.1038377475961586,1.0291354556483674,0.6711348173271459,0.6414964033199355,0.4440497805104942,11.122704981281458,-1.4164586350119168,0.2297492640902273,-1.5397226627404046
1.24,-1.0390288980488334,-1.955546341328675,1.5822913848326734,-0.0002754780278238,0.191223472534966,0.0379738627247339,0.7668939869240047,0.7066331365651182,-0.0492218121692046,-1.047366174651917,-1.963072690027848,1.5824811236420686,0.8279600302104035,0.7802921422748379,-0.1038377475961586,0.8279051153570401,0.5919128343960633,0.4437119620407881,0.3717334680298327,11.390418731467436,-1.4224691193113732,0.2267726695153827,-1.5402393055255932
1.26,-1.0243666333037669,-1.9420715596718277,1.58139781463017,0.0033323925101708,0.1871485646776315,0.0384380065105545,0.7757754306110837,0.7112107121005851,-0.0451851356301618,-1.039086574349813,-1.9552697686050995,1.581442746166107,0.8471358279112855,0.8002921425728611,-0.1109014478548904,0.5388158248198524,0.4440721843539497,0.2288787767733446,0.2018338269521413,11.390418731467436,-1.430415245105304,0.2219890468421248,-1.537161711760468
1.28,-1.008779606079938,-1.9278236145346996,1.5805135483907016,0.0065833512352028,0.1824715389247377,0.0388553671330327,0.7822227606296392,0.7134946279345429,-0.0435648038239797,-1.0225273737456049,-1.939663925759603,1.5793659912141838,0.8854874233130494,0.8402921431689075,-0.1250288483723541,0.3514605634594595,0.3223665009277787,0.1141957916978908,0.0810165903091034,11.184845043310816,-1.4388787723442176,0.2178903556916445,-1.5319157579288651
1.3,-0.9930970356611132,-1.9135434898216297,1.579635291733647,0.0087206917453261,0.1783789433830257,0.03917185813627,0.785505400846111,0.714624186294758,-0.0444369981811795,-1.0059681731413967,-1.9240580829141056,1.5772892362622606,0.9238390187148132,0.880292143764954,-0.1391562488898178,0.1789717287496865,0.1641320108235866,0.0564779180107555,-0.0436097178599884,11.00962556594368,-1.4466127954055683,0.2153345799658798,-1.526165131342592
1.32,-0.977381829081144,-1.899251644113363,1.5787170949432168,0.0094551609421463,0.1760059977803488,0.0393880006771402,0.785803575535234,0.7147709123262982,-0.0473260315966642,-0.9874913927671004,-1.9064522400388069,1.5745061112844645,0.9621906141165772,0.9202921443610004,-0.1532836494072815,0.1454041845112491,0.0149087344561482,0.00733630157701,-0.1444516707742371,10.858602540512038,-1.4519470242369608,0.2147283921784741,-1.521492774145362
1.34,-0.9624596787835604,-1.88567825195926,1.5777816844521098,0.0085138190922936,0.176071755301256,0.0394918935494206,0.785277037902687,0.7142788208816948,-0.05101254265041,-0.9690146123928042,-1.888846397163508,1.571722986306668,1.0005422095183412,0.960292144957047,-0.1674110499247452,0.1878147998543395,-0.0263268816273476,-0.024604572230169,-0.1843255526872918,10.750468736353469,-1.4519768944545266,0.216340615506679,-1.520923910659104
1.36,-0.9467459751951336,-1.871389593937684,1.5767172500294813,0.0057987884009688,0.1780742943563665,0.0394895014954359,0.7863408487197846,0.7149091260129592,-0.0552561299958266,-0.9495790421334638,-1.8702405542733076,1.5685866763159348,1.038893804920105,1.000292145553093,-0.1815384504422089,0.2210034590863418,0.0531905408548805,0.0315152565632192,-0.2121793672708261,10.688312636698356,-1.4481375263960596,0.2203831914201409,-1.523455042525904
1.38,-0.9309913515574644,-1.8570582200995207,1.575569296590108,0.0022372907983645,0.1811996106099783,0.0394233162230881,0.7892487127932043,0.7183915247899184,-0.0593228742808945,-0.9291846819890792,-1.850634711368206,1.5650971813122654,1.077245400321869,1.0402921461491397,-0.1956658509596726,0.3046357816778293,0.1453932036709848,0.1741199388479608,-0.2033372142533972,10.666836983986286,-1.4430256472512326,0.2253624440261716,-1.527043360534908
1.4,-0.9151587328592826,-1.842634442643792,1.5743443133156754,-0.001119440574373,0.1847066443148268,0.039359040987995,0.7939798599044223,0.7237666633310247,-0.0629828535671759,-0.8915289159178041,-1.8211386438600248,1.5726031528760631,0.8365217079075308,0.8183915262800345,-0.0695586560622699,0.4020923889483655,0.2365573555609013,0.2687569270553136,-0.1829989643140687,10.682007148428056,-1.437568941373426,0.2303898778058068,-1.530967857733084
1.42,-0.8998348864318262,-1.8287417833595128,1.5732976134105563,-0.0014517955586358,0.1832840946330125,0.0394960097204985,0.8178801113133539,0.7370904066365991,-0.0469201018655405,-0.8915289159178041,-1.8211386438600248,1.5726031528760631,0.8365217079075308,0.8183915262800345,-0.0695586560622699,1.5864710407941325,1.1950125704465795,0.6661871652787199,0.8031375850817711,10.710294388415605,-1.428110294913911,0.2305245491395227,-1.533656057174331
1.44,-0.8832682074482503,-1.8138955953656624,1.5725309822639708,0.0016838442795621,0.1734471848298988,0.0398697693021663,0.8363540176444874,0.7463394570691957,-0.0306475728040415,-0.8915289159178041,-1.8211386438600248,1.5726031528760631,0.8365217079075308,0.8183915262800345,-0.0695586560622699,1.3149385452308555,0.923695316556672,0.4624525216298303,0.8136264530749476,12.237300224147477,-1.4475654241281024,0.2269937440727964,-1.5260351247796844
1.46,-0.8664312068560269,-1.798920647351877,1.5720468942066002,0.0058696231057888,0.1588324678334063,0.0402415101761075,0.8455342803791597,0.7505283894329935,-0.0187409434176708,-0.8831636988387288,-1.812954728597225,1.5719075663154407,0.845976306930396,0.8383915265780577,-0.071605812418545,0.7803720291797897,0.4590131367336159,0.2094466181898902,0.5953314693185366,11.616881024473514,-1.470746884959795,0.2218546694011031,-1.506976527153464
1.48,-0.850355363002852,-1.7846503718368802,1.5717557723184552,0.0091694787311935,0.1434219081343515,0.040463377534707,0.845744692476036,0.7516675721636369,-0.0124159785861095,-0.8664332646805782,-1.7965868980716242,1.5705163931941952,0.8648855049761267,0.8783915271741042,-0.0757001251310952,0.3215089060383666,0.0105206048438166,0.0569591365321697,0.3162482415780634,11.616881024473514,-1.496462326731259,0.2173533051042017,-1.484282513051263
1.5,-0.8335063063169836,-1.7696202707743136,1.5715400838871745,0.01139912825825,0.1279299600163242,0.0405547701488487,0.8387910085219045,0.751542217170783,-0.0096598406340149,-0.8497028305224276,-1.7802190675460234,1.5691252200729495,0.8837947030218573,0.9183915277701508,-0.0797944378436453,0.374051235859328,-0.347684197706577,-0.0062677496426966,0.1378068976047316,11.27206621962796,-1.5202969370856454,0.2145876948942324,-1.4623947857525816
1.52,-0.8168599820259805,-1.7546050799096058,1.5713366595093117,0.0120444640313497,0.1149482543090938,0.040529906358679,0.826242937546792,0.7503002623180801,-0.0108049307476724,-0.8320269364619904,-1.7618512369906203,1.5675293313160767,0.9027039010675878,0.9583915283661972,-0.0838887505561955,0.6330635205510738,-0.6274035487556229,-0.0620977426351421,-0.0572545056828746,10.784175530253378,-1.539217301359207,0.2139268692852854,-1.4440853582705302
1.54,-0.8013149891469854,-1.74037140772843,1.571105297798478,0.0108233134265081,0.1058933526413655,0.0404133045116982,0.8108137349860418,0.7483547861331055,-0.0134891081214703,-0.8143510424015533,-1.7434834064352174,1.565933442559204,0.9216130991133183,0.9983915289622436,-0.0879830632687457,0.7890658676894036,-0.77146012803751,-0.0972738092487324,-0.1342088686898946,10.784175530253378,-1.553814654149913,0.2157309932215259,-1.4291377553946698
1.56,-0.7852926629953284,-1.7254165758568472,1.5708007220097722,0.0076432084044568,0.1004563805071065,0.0402168818037266,0.7921418614176412,0.7476974076183033,-0.0168472616795785,-0.796202418389973,-1.7241155758649132,1.564235195984517,0.940522297159049,1.03839152955829,-0.0920773759812958,0.949141986725242,-0.9335936784200304,-0.0328689257401093,-0.16790767790541,10.697983050496989,-1.5616503318054278,0.2200273872219972,-1.4206352753739946
1.58,-0.7696557869602884,-1.710441264339853,1.5704298046700444,0.0037012597121151,0.0996484855445341,0.0400156974752362,0.7729820120093948,0.7500489666361763,-0.0200744952524384,-0.7775810644272493,-1.7037477452797078,1.5624345915920168,0.9594314952047795,1.0783915301543363,-0.096171688693846,0.9785763839565812,-0.9579924704123222,0.1175779508936492,-0.161361678642995,10.679564845492678,-1.5609782503844625,0.2249010815004203,-1.420621065670309
1.6,-0.7551356673897117,-1.6961508864642554,1.5700243964657972,0.0001573748383334,0.1023401450902518,0.0398500399111455,0.7568205018673285,0.7540651205029028,-0.0224488005006717,-0.7310066863598186,-1.6729388160080445,1.5694260799074224,0.7916014599559432,0.8500489681262924,-0.0271221908258577,0.8410725702415938,-0.8080755071033119,0.2008076933363245,-0.1187152624116658,10.675751781954204,-1.5551931669494905,0.2297906912604505,-1.425721869337622
1.62,-0.740092979303879,-1.6809354750479806,1.5696452584631024,-0.0006122465130819,0.1058246430753597,0.0398741719970498,0.7484792329337362,0.7664126571531262,-0.0148420561222151,-0.7310066863598186,-1.6729388160080445,1.5694260799074224,0.7916014599559432,0.8500489681262924,-0.0271221908258577,0.8365120871665656,-0.4170634466796163,0.6173768325111739,0.3803372189228297,10.710548147402733,-1.5436729491410413,0.2305429216243622,-1.4378260124911078
1.64,-0.7252060612348987,-1.6655182550026173,1.5694311223277986,0.0022249636216855,0.1078318073180719,0.0401460680023912,0.7405349269463105,0.7743318527446027,-0.0070541271486186,-0.7310066863598186,-1.6729388160080445,1.5694260799074224,0.7916014599559432,0.8500489681262924,-0.0271221908258577,0.6827838130325216,-0.3972152993712841,0.3959597795738234,0.389396448679825,11.316700136752845,-1.5408457692314816,0.2269255151503204,-1.4415457358721984
1.66,-0.7104830959902572,-1.649992811014816,1.5693497480990124,0.0060906816877403,0.1088908085197346,0.0404821529189845,0.7321095133013543,0.7777413126944812,-0.0014728245697775,-0.7230906717602591,-1.6644383263267817,1.569154857999164,0.7953253495452529,0.8700489684243156,-0.0285317299405416,0.5332985812727656,-0.4212706822478096,0.1704729974939256,0.2790651289420547,11.316700136752845,-1.5392104781478766,0.2221520689832779,-1.4440614533095568
1.68,-0.6966581445339997,-1.635209195749381,1.5693557534742564,0.0091247000920377,0.1094105144689692,0.0407461604743025,0.7235429419974695,0.7785502193073209,0.0018263613052789,-0.7072586425611402,-1.6474373469642556,1.5686124141826467,0.8027731287238723,0.910048969020362,-0.0313508081699093,0.4607740803555767,-0.4283285651942414,0.040445330641986,0.1649592937528235,11.182522387997778,-1.537957178389253,0.217932932455822,-1.4460862762805191
1.7,-0.6822867863155102,-1.6196425347239496,1.5694136552911078,0.0110924614583253,0.1097747044102795,0.0409280187818225,0.7140247019394818,0.7783171937417745,0.0037203884091519,-0.6914266133620214,-1.6304363676017295,1.5680699703661296,0.8102209079024917,0.9500489696164084,-0.034169886399277,0.485382667041908,-0.4759120028993868,-0.0116512782773192,0.0947013551936519,11.05884239306215,-1.537031851329987,0.2153615475869227,-1.4474421360308884
1.72,-0.6681102742390655,-1.604090882258413,1.569494772436613,0.0114358077670821,0.1102072270035174,0.040989690963664,0.7041310730416236,0.777172851379785,0.0043025396695259,-0.6752221952039715,-1.6114353882094017,1.567386572638144,0.8176686870811111,0.990048970212455,-0.0369889646286448,0.4988294104699848,-0.4946814448929082,-0.0572171180994784,0.029107563018699,10.96467974339066,-1.5363137444824326,0.2149192135167666,-1.4481567446633372
1.74,-0.6548269921095676,-1.5893430986149322,1.569579184283598,0.0099076234355524,0.1108238608011417,0.0409164474574252,0.6946441244738502,0.7755856404936656,0.0045567040856324,-0.6590177770459217,-1.5924344088170734,1.5667031749101583,0.8251164662597305,1.0300489708085014,-0.0398080428580125,0.4811081766999209,-0.4743474283886717,-0.0793605443059675,0.0127082208053242,10.88159680370518,-1.535179074697895,0.2170113351023923,-1.44890843710356
1.76,-0.6410374532809887,-1.573834678259451,1.5696740414064458,0.0065125602408438,0.1117058804448798,0.0407141720793536,0.6848347426905267,0.77586298057282,0.0049218804474219,-0.6426271644084064,-1.572433429409844,1.5659493002264389,0.8325642454383498,1.0700489714045478,-0.0426271210873802,0.4910046900634287,-0.4904690891661734,0.0138670039577182,0.0182588180894747,10.88159680370518,-1.5326212653844926,0.2214824092302965,-1.4506081697249291
1.78,-0.6274421884884753,-1.5582855327218446,1.569779575451259,0.0026249769959299,0.1127649104259599,0.0404767219165196,0.6752290663730756,0.7791258094592686,0.0056079808229137,-0.6260503572914256,-1.5514324499877137,1.565124948586985,0.8400120246169692,1.1100489720005942,-0.045446199316748,0.5083940489008862,-0.4802838158725564,0.1631414443224288,0.0343050187745896,10.886713951742422,-1.5302171914093847,0.2263788531136037,-1.451871807362649
1.8,-0.6147020722410905,-1.5434354640849488,1.5698950369569706,-0.0007305859700812,0.1138779028583025,0.0402733322629191,0.6663591969101877,0.783803165932587,0.006506151237041,-0.5936807351698216,-1.519329242248881,1.5700599744924046,0.6839870348062769,0.8791258109493847,0.0091943699473071,0.5033859303754364,-0.4434934731443907,0.233867823665923,0.0449085207063657,10.906420032532878,-1.5276881418408428,0.2311017161038533,-1.4533602954479194
1.82,-0.6014280759771193,-1.5276185781718368,1.5701161726920392,-0.0011550217052787,0.1139527731316186,0.0402751440669449,0.6615888645515136,0.7967847661122992,0.0159945473168515,-0.5936807351698216,-1.519329242248881,1.5700599744924046,0.6839870348062769,0.8791258109493847,0.0091943699473071,0.838611462784584,-0.2385166179337094,0.6490800089856086,0.4744198039905237,10.923842160909771,-1.5220409297191018,0.2313773747519169,-1.4585566553652836
1.84,-0.5882504763951103,-1.51158927204644,1.5705344415881095,0.0022192398330811,0.1118323651975395,0.0405332414276051,0.6562505784592455,0.804935362172776,0.0252613649378904,-0.5936807351698216,-1.519329242248881,1.5700599744924046,0.6839870348062769,0.8791258109493847,0.0091943699473071,0.6723158174651969,-0.2669143046134026,0.4075298030238372,0.4633408810519443,11.518254036613143,-1.5254015121410152,0.2272687097643344,-1.4574391778177718
1.86,-0.5758461465163555,-1.4962630459093829,1.5710807323875455,0.0062645521411064,0.1083384974597856,0.0408111696654089,0.6495984891269345,0.8079478372901722,0.0317927382562643,-0.5868408648217588,-1.5105379841393871,1.5701519181918775,0.6857386284929171,0.8991258112474079,0.0099116477721858,0.4898574696836413,-0.3326044666155492,0.1506237558698109,0.3265686659186965,11.425356901227133,-1.530895615590672,0.2216430139651355,-1.454094352392192
1.88,-0.5629472417545651,-1.4800984618208584,1.5717692944484338,0.0097441296581619,0.1037965311247641,0.0410153529615264,0.6404338644225119,0.8085567273873119,0.0366347678768331,-0.5731611241256332,-1.4929554679203996,1.570335805590824,0.6892418158661977,0.9391258118434544,0.0113462034219432,0.519149169241783,-0.4582312352211293,0.0304445048569856,0.2421014810284408,11.14244195012725,-1.537499823813253,0.2170204136963423,-1.4488332339538847
1.9,-0.550258989358237,-1.4639352782497113,1.5725345181610424,0.0118890554573369,0.0992487801681101,0.0411022163873119,0.6286469859386082,0.8079979194675165,0.0395756432959359,-0.5594813834295077,-1.4753729517014118,1.57051969298977,0.6927450032394782,0.9791258124395008,0.0127807590717006,0.6080532849105843,-0.5893439241951848,-0.0279403959897672,0.1470437709551394,11.031400024605318,-1.5442396766424196,0.2141658654098252,-1.4425760128118623
1.92,-0.5378358471632545,-1.4477943548306582,1.5733422328472757,0.0124022823224224,0.0957767154100901,0.0410741633680588,0.6141664964017074,0.806438296422627,0.0410621557963247,-0.5456264833647181,-1.4557904354526217,1.570775308171204,0.6962481906127587,1.0191258130355472,0.014215314721458,0.7319950831191724,-0.7240244768450421,-0.0779811522444773,0.0743256250194421,11.031400024605318,-1.549566873415982,0.2134678599997212,-1.436860075405951
1.94,-0.5263226614960883,-1.432495852917662,1.5741330732492862,0.0110277552632301,0.0944268407315133,0.0409381808924974,0.5985744284966121,0.8043198019075373,0.0421144112448562,-0.5317715832999286,-1.4362079192038315,1.571030923352638,0.6997513779860393,1.0591258136315935,0.0156498703712154,0.7885236871783423,-0.7796033952547632,-0.1059247257544859,0.0526127724265756,10.942379513472588,-1.5511641624309038,0.2151950904573644,-1.434116659163406
1.96,-0.5145193964255903,-1.416420410324889,1.574989010812524,0.007726476801378,0.0952509712275553,0.040690363331033,0.5828014836558747,0.8038496344513255,0.0434352723752767,-0.5178291035508069,-1.4156254029401405,1.5713224024253158,0.7032545653593197,1.09912581422764,0.0170844260209728,0.791756781643962,-0.7886472420368718,-0.0235083728105878,0.0660430565210212,10.942379513472588,-1.5472846981670607,0.2192805877586152,-1.436394018221414
1.98,-0.5030177681583812,-1.4003185496484931,1.5758774006151968,0.0038080269394767,0.0977225285870237,0.0404084284542601,0.5683543385036474,0.806492595246843,0.0453586134034688,-0.5037990441173534,-1.3940428866615482,1.5716497453892375,0.7067577527326003,1.1391258148236865,0.0185189816707301,0.7406154290974764,-0.7223572576113668,0.1321480397758756,0.0961670514096072,10.948474010063364,-1.5418406181309003,0.223989039987606,-1.4402928785124938
2.0,-0.4917887066701856,-1.3841426791199376,1.5768113808533386,0.0002016568162084,0.1012050799331719,0.0401437194241738,0.5554563913631531,0.8109486732040965,0.0479632029803129,-0.4746000512331988,-1.3599939198861513,1.5781453312853702,0.5725547858543878,0.9064925967369593,0.0668729751277263,0.6946178050984408,-0.6448973570247152,0.2228038978626723,0.1302294788422052,10.983456390698848,-1.534934871271979,0.228616429785224,-1.445844337574051
2.02,-0.4813150415498787,-1.3686027382621953,1.5778224876943752,-0.0001318569475258,0.1041190117729807,0.0401010301374282,0.5475964200618332,0.8232798196062697,0.0583259381689972,-0.4746000512331988,-1.3599939198861513,1.5781453312853702,0.5725547858543878,0.9064925967369593,0.0668729751277263,0.8961341989905832,-0.3929985650659939,0.6165573201086627,0.5181367594342133,11.025296405352492,-1.5233618943676035,0.2287828858379113,-1.456710886423345
2.04,-0.4704476166030932,-1.3520484678083988,1.579104999949437,0.0031321682673128,0.1059359384337677,0.0403059479206516,0.5395110691369749,0.8310036787359005,0.0693378159884702,-0.4746000512331988,-1.3599939198861513,1.5781453312853702,0.5725547858543878,0.9064925967369593,0.0668729751277263,0.7846852116350366,-0.4042675462429146,0.3861929564815403,0.5505938909736486,11.573586534066637,-1.5195548446788951,0.2243111657865498,-1.4621479146676
2.06,-0.4597443437991679,-1.3353954936008656,1.5805945485982011,0.0072936770157467,0.1068623964183085,0.040566563669511,0.5311683993934772,0.8338386124171597,0.0789955276221121,-0.4688745033746549,-1.3509289939187816,1.5788140610366477,0.5733948753245359,0.9264925970349824,0.0711758474725778,0.6536596618745762,-0.4171334871748866,0.1417466840629599,0.4828855816820993,11.547246085953702,-1.517095426420804,0.2188705370855351,-1.4663567984918868
2.08,-0.4497350207408666,-1.3195519737178787,1.5821735964380528,0.0104589220144102,0.107238809277337,0.0407488142925487,0.522821897975587,0.8340854382137125,0.0867376219799667,-0.4574234076575671,-1.3327991419840426,1.5801515205392018,0.5750750542648321,0.9664925976310288,0.0797815921622808,0.5693527771483392,-0.4173250708945086,0.0123412898276387,0.3871047178927299,11.46027446572316,-1.5150725128207234,0.2141621492540112,-1.4697180651552897
2.1,-0.4393745697494802,-1.3028806346750044,1.5839849559156458,0.0124654251575515,0.1073881769877602,0.0408380056321376,0.513633058182177,0.8332967966354138,0.0939492244439232,-0.4459723119404794,-1.314669290049303,1.5814889800417564,0.5767552332051282,1.0064925982270752,0.0883873368519838,0.5853715537718748,-0.4594419896705004,-0.039432078914936,0.3605801231978227,11.377213009201114,-1.5132994297235594,0.211248293798673,-1.4721503615414484
2.12,-0.4292015272227794,-1.2862332080235646,1.5859328673562425,0.0128399401196197,0.1075020688514528,0.040806798258453,0.5041242298246448,0.831672048647524,0.1004539992614488,-0.4344372072763768,-1.294539438084762,1.583256726778796,0.5784354121454244,1.0464925988231215,0.0969930815416867,0.5817424648929176,-0.4754414178766097,-0.0812373993944903,0.3252387408762776,11.323641104324452,-1.5118063104969834,0.2105159129053358,-1.4737008679061148
2.14,-0.4197149946048124,-1.2704553582944618,1.5879030879659044,0.0112585561245407,0.1077245069795346,0.0406407116095843,0.4949516853628929,0.8295554734859788,0.1066150467148321,-0.4229021026122743,-1.2744095861202205,1.5850244735158356,0.5801155910857205,1.086492599419168,0.1055988262313897,0.562525483956342,-0.4586272230875932,-0.1058287580772587,0.3080523726691694,11.29304583717112,-1.5097494480919122,0.2124554573488213,-1.4751340146292058
2.16,-0.409917236348626,-1.2538719761095392,1.5901072364641142,0.0077832892218272,0.108130331606214,0.0403418904293957,0.4853153179345518,0.8294318431534838,0.1134934145545437,-0.4113249934746643,-1.2532797341407775,1.587007363870118,0.5817957700260168,1.1264926000152145,0.1142045709210927,0.5920025460491807,-0.4818183714170559,-0.006181516624748,0.3439183919855787,11.29304583717112,-1.5065259342206587,0.216890761360409,-1.4776367981208016
2.18,-0.4003118718736119,-1.2372547414666677,1.5924544762421735,0.0038583788219417,0.108703553078675,0.0400150319210631,0.4757333225337662,0.8323856257649692,0.1209020997798467,-0.3997058798635469,-1.2311498821464335,1.5892053978416427,0.5834759489663129,1.1664926006112608,0.1228103156107957,0.623354001238887,-0.479099770039279,0.1476891305742689,0.3704342612651491,11.318131266860291,-1.5032329592868825,0.2219805646473771,-1.4802268516509736
2.2,-0.3908968358295195,-1.2205579363801171,1.5949550816674394,0.0003740366043302,0.1094310863983637,0.0397215956249369,0.4662943294905511,0.8370474672200232,0.1287753416853633,-0.3765252057469236,-1.195635460178419,1.598499581231166,0.4794784199679144,0.9323856272550852,0.1146412143884623,0.6572961538087411,-0.4719496521607552,0.2330920727526997,0.3936620952758297,11.353803282224362,-1.499952095263422,0.2262964377285809,-1.4830414821846805
2.22,-0.3821373202795765,-1.2045197536971657,1.5974005254070571,0.0003076773187191,0.1102463696362031,0.0396694141214064,0.4563234485188965,0.8495898256354304,0.1282481302892534,-0.3765252057469236,-1.195635460178419,1.598499581231166,0.4794784199679144,0.9323856272550852,0.1146412143884623,0.801572164292814,-0.4985440485827275,0.6271179207703592,-0.0263605698054961,11.384874528110233,-1.498563639091966,0.2266175684350681,-1.4875262304536108
2.24,-0.3731197780982092,-1.1874449952999764,1.5999561280858865,0.0038706675912056,0.1112911615533779,0.0398646879536786,0.4460347660022102,0.8566817721198308,0.1273700519376894,-0.3765252057469236,-1.195635460178419,1.598499581231166,0.4794784199679144,0.9323856272550852,0.1146412143884623,0.6263459795876605,-0.5144341258343149,0.3545973242200184,-0.0439039175781988,10.861014688668549,-1.496902767456239,0.2215949721352006,-1.488768166766855
2.26,-0.3643045728637972,-1.1702847157698018,1.6024887555793297,0.0080651917834192,0.1126138328420133,0.0401010747532835,0.436085853513999,0.8590515653958907,0.1259292193749351,-0.3717304215472444,-1.186311603905868,1.5996459933750506,0.480227439454744,0.9523856275531084,0.1133890373101855,0.5164125732959022,-0.497445624410564,0.1184896638029953,-0.0720416281377145,10.825324979802645,-1.4945853415092916,0.2159443202757357,-1.4905187396874129
2.28,-0.3561104792072076,-1.1539639746608994,1.6048625440391662,0.0112216930025824,0.1141186477735859,0.0402667083910857,0.4270147255858864,0.8591317784405378,0.1240113954990678,-0.3621408531478862,-1.1676638913607664,1.6019388176628198,0.4817254784284033,0.992385628149155,0.1108846831536317,0.4635996237044461,-0.4535563964056271,0.0040106522323557,-0.0958911937933654,10.825324979802645,-1.4915666567433652,0.2111224654035318,-1.4926085227470125
2.3000000000000003,-0.3476659481174678,-1.1367921865421222,1.6073186095952177,0.0132356074177033,0.115908235777445,0.0403491197750195,0.4179821324508737,0.8583024183825959,0.1216817207154853,-0.3525512847485278,-1.1490161788156648,1.604231641950589,0.4832235174020626,1.0323856287452011,0.108380328997078,0.4682492964374022,-0.4516296567506378,-0.0414680028970937,-0.1164837391791226,10.793899958150178,-1.4882254125557022,0.2081337844504637,-1.494605529506478
2.32,-0.339395910289256,-1.1196440879682552,1.6097271091499428,0.0136739824199705,0.1178278638942291,0.0403201729215444,0.4095391921402115,0.8567282593621282,0.1192832793075412,-0.3428868144004866,-1.1283684662407607,1.6063992485305307,0.4847215563757219,1.0723856293412477,0.1058759748405242,0.4458523827974473,-0.4221470155331058,-0.0787079510233879,-0.1199220703972089,10.77844894224836,-1.485067717389025,0.2073073427425153,-1.4960962086154797
2.34,-0.3312885154968866,-1.1025327385055992,1.612086699203542,0.0121651556136751,0.1197943563860219,0.0401525184541568,0.4016797784305566,0.8547041329874475,0.116792630726772,-0.3332223440524453,-1.1077207536658569,1.6085668551104724,0.4862195953493811,1.1123856299372945,0.1033716206839705,0.4244726192379105,-0.3929706854827464,-0.1012063187340317,-0.1245324290384562,10.775301982153906,-1.4817686595701929,0.2090405533936434,-1.49740847877726
2.36,-0.3237263582869586,-1.0863003720859985,1.6142839597876522,0.0090649857769173,0.1216159023099242,0.0398730081192263,0.3947637098695826,0.8544936319656042,0.1146350593436663,-0.3235204227300626,-1.0860730410760515,1.6106718528365,0.4877176343230404,1.1523856305333406,0.1008672665274167,0.3623928437948501,-0.3458034280487021,-0.0105250510921639,-0.1078785691552869,10.775301982153906,-1.4778535686871923,0.2132494877489095,-1.499265962513153
2.38,-0.3159028951655088,-1.0691851852264382,1.6165568659754694,0.0053034385441258,0.1233828596475072,0.0395396943331765,0.3879859926798397,0.8571455819896405,0.1127863011499127,-0.3137810504333384,-1.0634253284713453,1.6127142417086138,0.4892156732966997,1.192385631129387,0.098362912370863,0.3754603710549648,-0.3388858594871424,0.1325975012018143,-0.0924379096876787,10.788324865481629,-1.474392614185046,0.2182320423242763,-1.5007322634220146
2.4,-0.3082101472206739,-1.05199676614425,1.6187976419624743,0.0019117672799494,0.1249343520003716,0.0392294550093047,0.3816603474342868,0.8615184237971378,0.1114003672122178,-0.2965035955315168,-1.026327906126956,1.622196181032965,0.3809325503804737,0.9571455834797566,0.0828552792956313,0.3906928017177847,-0.3162822622776451,0.2186420903748653,-0.0692966968847456,10.814687739606596,-1.4715059072709151,0.2225175694005778,-1.5019530517841992
2.42,-0.3010008014438308,-1.0355085772350752,1.6208788812393595,0.0015007917754419,0.1255456459485177,0.0391288843548561,0.3775198620938535,0.8731435175528501,0.1076147651732548,-0.2965035955315168,-1.026327906126956,1.622196181032965,0.3809325503804737,0.9571455834797566,0.0828552792956313,0.6454014380229669,-0.207024267021666,0.5812546877856151,-0.1892801019481513,10.843023627838193,-1.4682705246742478,0.223080638464399,-1.5061683509770614
2.44,-0.2935003391115943,-1.0179631763787602,1.622978812582109,0.004650450216243,0.1246892259422144,0.0392650316801643,0.3726333089369064,0.8803443437982894,0.1025609245334241,-0.2965035955315168,-1.026327906126956,1.622196181032965,0.3809325503804737,0.9571455834797566,0.0828552792956313,0.5031689715828098,-0.2443276578473541,0.3600413122719637,-0.2526920319915353,10.678013471509985,-1.4712940882427945,0.218654407840562,-1.5030412015247894
2.46,-0.2861095157897802,-1.000324953817395,1.6249628138662684,0.0086739448392181,0.1227869144151816,0.0394431643015557,0.3665721957877029,0.8830340627223048,0.0960294885726381,-0.2926942700277121,-1.0167564502921589,1.6230247338259214,0.3795218619206005,0.9771455837777798,0.076869074924775,0.4653797809518097,-0.3030556574601745,0.1344859462007686,-0.3265717980392976,10.620147740413811,-1.4755218575940323,0.2132887318940476,-1.498803758177131
2.48,-0.2792152656280868,-0.9835466213606576,1.626711847951939,0.0117879587009974,0.120525317062273,0.0395430833422732,0.3593523080703298,0.8832654482296182,0.0884259366166546,-0.2850756190201026,-0.9976135386225634,1.624681839411834,0.3767004850008541,1.0171455843738264,0.0648966661830624,0.524390885341772,-0.3609943858686543,0.0115692753656693,-0.3801775977991785,10.528757073307132,-1.4805185009296384,0.2086205344383224,-1.493148482025444
2.5,-0.2721225997068311,-0.9658911236950593,1.6283867186541596,0.0138554130095883,0.1182547488849076,0.0395513759701985,0.3501718744716709,0.8825165316592181,0.0794276696787876,-0.2774569680124931,-0.9784706269529684,1.6263389449977466,0.3738791080811077,1.0571455849698728,0.0529242574413499,0.6438362465990763,-0.4590216799329472,-0.0374458285200052,-0.4499133468933456,10.44563284004562,-1.4851983057127824,0.205642253521635,-1.4864756483016828
2.52,-0.2652303022481685,-0.9482584693061388,1.6298745027230244,0.0144564105181408,0.1167403879521399,0.0394597728460558,0.3394356159875446,0.8809471308948962,0.0697869083656943,-0.269979385850871,-0.9573277152535709,1.6273974301465737,0.3710577311613613,1.0971455855659191,0.0409518486996373,0.7257316027517755,-0.5368129242063147,-0.0784700382160941,-0.4820380656546649,10.38269909140945,-1.488564638462845,0.2046394638402291,-1.4793342694253342
2.54,-0.2585602861246647,-0.93066372075797,1.6311655262290865,0.0132152209303465,0.1164434539492115,0.0392551702831334,0.3282327672891628,0.878813361959391,0.0597891589768969,-0.2625018036892488,-0.9361848035541732,1.6284559152954006,0.3682363542416149,1.1371455861619657,0.0289794399579247,0.7583069656645691,-0.560142434919092,-0.1066884467752604,-0.4998874694398723,10.344753560897516,-1.4891508329731702,0.2059329765737064,-1.4745472089793286
2.56,-0.2524281972754101,-0.9139776338480996,1.6322073315205032,0.0103754977197213,0.1171862401132629,0.0389595219347396,0.3179352670420015,0.8780838138416508,0.0503824757726272,-0.2550947559506203,-0.9140418918398748,1.6292150902256848,0.3654149773218685,1.177145586758012,0.0170070312162122,0.698313039943181,-0.5148750123580625,-0.0364774058870087,-0.4703341602134869,10.319300697009568,-1.487416316295613,0.20962189565694,-1.471894760122098
2.58,-0.2461776080206736,-0.8963974218612684,1.6331138550750348,0.0067269218507337,0.1187680811747943,0.0386109567279767,0.3077821935717992,0.8801254288296656,0.0407791598376132,-0.2477582426349855,-0.890898980110675,1.629674954937426,0.3625936004021221,1.2171455873540584,0.0050346224744996,0.7061812260289599,-0.5076536735101167,0.1020807494007403,-0.4801657967506975,10.319591245740412,-1.4844767684756772,0.2142489174646728,-1.4701627382302214
2.6,-0.2401213535149769,-0.8787554739985741,1.633832870635201,0.0033554974613968,0.1208866556284199,0.0382840306553037,0.2984635899032711,0.8839389726472803,0.0316212097733943,-0.2307884983420837,-0.8523911504197851,1.6351528130669155,0.3013793946434788,0.9670187116603808,0.0231549772110082,0.6805283611994027,-0.4659301834264023,0.1906771908807336,-0.4578975032109436,10.332721949994266,-1.4810297249107014,0.2185165931325499,-1.4692044221820395
2.62,-0.2342254607517913,-0.860912206082722,1.634471449683833,0.0042596461509782,0.1230525284966654,0.0382539595330886,0.291761481487621,0.8990580942947812,0.0332237302531455,-0.2307884983420837,-0.8523911504197851,1.6351528130669155,0.3013793946434788,0.9670187116603808,0.0231549772110082,0.8307739892640518,-0.3351054207825082,0.7559560823750477,0.0801260239875596,10.356793412751358,-1.4710721710012071,0.2169249972719366,-1.4771431610492118
2.64,-0.2287389439623449,-0.8437522316768152,1.6351161691164475,0.0098897714780698,0.1248046604130792,0.0385570982333796,0.2861407716019072,0.9055477577344592,0.0345047123733385,-0.2307884983420837,-0.8523911504197851,1.6351528130669155,0.3013793946434788,0.9670187116603808,0.0231549772110082,0.4340190847529227,-0.2810354942856891,0.3244831719838914,0.0640491060096504,10.967359293173104,-1.4697443639928984,0.2088569818915235,-1.4786780276740068
