t,x,y,z,roll,pitch,yaw,v_x,v_y,v_z,ref_x,ref_y,ref_z,ref_v_x,ref_v_y,ref_v_z,a_com,a_x,a_y,a_z,thrust,wind_x,wind_y,wind_z
0.0,-0.8184152702874135,1.0317237359966938,1.751360590033557,0.0132645860634525,0.1363006448728259,0.0259391543609382,0.0045334641104563,0.004291815946208,0.0025142907916466,-0.8182686768904459,1.031768580239959,1.751441780460146,0.0188955877966024,-0.0978373526571472,-0.0974060288088752,0.3365027456867185,0.2266732055228158,0.2145907973104026,0.1257145395823306,10.543340340649593,-1.2878305738609224,0.1632042434429214,-1.1679780234217572
0.02,-0.818420608528303,1.032037383086932,1.7511860400900736,0.022320129153651,0.1380054560080093,0.0266053170508428,-0.0048723366474087,0.0230750854940482,-0.0210910911432203,-0.8182686768904459,1.031768580239959,1.751441780460146,0.0188955877966024,-0.0978373526571472,-0.0974060288088752,1.5799480680503526,-0.4702900378932518,0.9391634773920096,-1.180269096743346,10.5435712226963,-1.3106839597504536,0.1556248896497839,-1.181896631113832
0.04,-0.8186124321974133,1.032522656447651,1.750461217517474,0.0373564265074504,0.1428704749883802,0.0277860988800719,-0.0133642459510481,0.0238248669314856,-0.0502229917622682,-0.8182686768904459,1.031768580239959,1.751441780460146,0.0188955877966024,-0.0978373526571472,-0.0974060288088752,1.517681067865752,-0.4245954651819728,0.0374890718718682,-1.4565950309523987,8.924977941795532,-1.302803272227271,0.139254681477194,-1.1664263598697673
0.06,-0.8189199877004429,1.0329306000304872,1.7492340074669517,0.0519829732513672,0.1495396800350887,0.029072481051935,-0.0182115343549762,0.0187889278811647,-0.0774834635640144,-0.8180797210124798,1.0307902067133876,1.750467720172057,0.0217386032513119,-0.1178373529551704,-0.1174060291068985,1.4071160309683075,-0.2423644201964058,-0.2517969525160443,-1.363023590087309,8.956574351769632,-1.289965085021095,0.1236014379739633,-1.1543896405107608
0.08,-0.8193078003181689,1.033221379490672,1.747390233475739,0.0668345143677712,0.1576018163375766,0.0305345801447487,-0.0199848427461903,0.0102356811551656,-0.10543498934487,-0.8177018092565478,1.0288334596602446,1.7485195995958795,0.027424634160731,-0.1578373535512169,-0.1574060297029449,1.4642322610194043,-0.0886654195607029,-0.4276623362999557,-1.397576289042779,8.996347410001363,-1.2769516386172102,0.1082513621539761,-1.1451198916379648
0.1,-0.8196976392220878,1.0333115715869856,1.7449973115562398,0.0809949718096821,0.1658848506596936,0.0320609667780883,-0.0186537212464618,-0.0010859814137096,-0.1324298091292561,-0.8173238975006157,1.0268767126071017,1.746571479019702,0.03311066507015,-0.1978373541472634,-0.1974060302989914,1.4651554720933138,0.0665560749864254,-0.5660831284437636,-1.3497409892193035,8.996347410001363,-1.2649886480035075,0.0941194815618473,-1.1361140107514074
0.12,-0.8200297805610285,1.033148060849852,1.7420739785668031,0.0944617025472465,0.1737164347480294,0.0335906164813807,-0.0144919245695216,-0.0149796410093154,-0.1585762741221298,-0.8166616841992127,1.0229199655241563,1.7426233584137223,0.0387966959795691,-0.2378373547433098,-0.2374060308950378,1.4949849164475963,0.2080898338470118,-0.6946829797802881,-1.3073232496436868,9.100964148354253,-1.2554910758323807,0.0817318224533214,-1.1283181725262603
0.14,-0.8202477834843227,1.032712952683058,1.7388101585520788,0.1066281730732098,0.1803215397627083,0.0349870245622752,-0.0086116324900439,-0.0303582769366372,-0.183695023671833,-0.8159994708978097,1.0189632184412112,1.7386752378077424,0.0444827268889882,-0.2778373553393563,-0.2774060314910843,1.5016922594741224,0.2940146039738807,-0.7689317963660935,-1.255937477485161,9.100964148354253,-1.2490325462613558,0.069640007261784,-1.1224746026004129
0.16,-0.8203399828867077,1.031916689523445,1.7348552157527135,0.1187937446145132,0.186136034648316,0.036338762713428,-0.0008652608648971,-0.0487136199036388,-0.2104991288211877,-0.8151951068236712,1.0140064713433647,1.7337271171868611,0.0501687577984072,-0.3178373559354027,-0.3174060320871307,1.6698689631590815,0.387318581257341,-0.917767148350078,-1.340205257467733,9.09468275071049,-1.2447017255518356,0.0584794235185611,-1.1152994649985917
0.18,-0.8202634075294374,1.0307305288453432,1.7303644649014147,0.1303208346011699,0.1906283270277765,0.0375155920803952,0.0081377089593163,-0.0692273529922945,-0.2372308381823276,-0.8142485919767972,1.008049724230617,1.7277789965510792,0.0558547887078263,-0.3578373565314491,-0.3574060326831771,1.7438828775585535,0.4501484912106772,-1.0256866544327856,-1.336585468056993,9.08704722892071,-1.2424699822009189,0.0481677085044563,-1.1068878941098403
0.2,-0.8199968578947564,1.0291021242036735,1.7253406515208505,0.1409051216077442,0.1937500573851386,0.0384518551302285,0.0179749347600246,-0.092592549482241,-0.2637886140815322,-0.8198565220814715,1.0272691611957283,1.7185029229922983,0.0280148838284961,-0.1692273544824107,-0.2996572376219009,1.8357688302045991,0.4918612900354153,-1.1682598244973246,-1.327888794960233,9.103721214247344,-1.2420459362504377,0.0394275211590085,-1.0972808459854075
0.22,-0.819479293103273,1.0269204534427645,1.7202641708093274,0.1448527111291747,0.1946161133635505,0.0385945603366806,0.0362543359260315,-0.1340010209077983,-0.2677381243417647,-0.8198565220814715,1.0272691611957283,1.7185029229922983,0.0280148838284961,-0.1692273544824107,-0.2996572376219009,2.271781593862342,0.9139700583003416,-2.070423571277865,-0.1974755130116218,9.125762591007517,-1.223136521910514,0.0352616815524318,-1.0774277669476808
0.24,-0.818549500214222,1.0238595785655675,1.7148914297439215,0.1412450131555911,0.1921365173263758,0.0376820951992272,0.0555000345799737,-0.1686402454621673,-0.2693322441683946,-0.8198565220814715,1.0272691611957283,1.7185029229922983,0.0280148838284961,-0.1692273544824107,-0.2996572376219009,1.982935962422899,0.9622849326971136,-1.7319612277184508,-0.0797059913314968,10.569535224735771,-1.2281512668949532,0.0387519809948189,-1.071659648482829
0.26,-0.8172598058395378,1.020187510142882,1.709469937906149,0.1346601356698051,0.1864840195335579,0.0361207570678031,0.0719195938473601,-0.1962419306732863,-0.2725496824997392,-0.8195763732431866,1.0255768876509044,1.7155063506160793,0.031990318802332,-0.1892273547804339,-0.3121425175098155,1.613851652448979,0.8209779633693192,-1.3800842605559458,-0.160871916567229,10.392295869686675,-1.23906239005738,0.0452133478813377,-1.0616834329505611
0.28,-0.8156874823026089,1.016012064871595,1.7039662848235817,0.1275912174139511,0.1788512112135533,0.0343018810137709,0.0840920358506546,-0.2197620597576193,-0.2775566948899844,-0.8190160755666167,1.0221923405612563,1.7095132058636413,0.0399411887500039,-0.2292273553764803,-0.3371130772856449,1.3476228974970388,0.6086221001647241,-1.176006454216652,-0.2503506195122601,10.392295869686675,-1.250405554380319,0.0516058934389855,-1.049583749828567
0.3,-0.8140078759007725,1.011636134138091,1.6986270452522798,0.1213148795113153,0.1708531736192046,0.0325632323759916,0.0918592638195989,-0.2397091515582853,-0.2841692462862774,-0.8184557778900468,1.018807793471608,1.7035200611112034,0.0478920586976758,-0.2692273559725268,-0.3620836370614742,1.120203260121087,0.3883613984472157,-0.9973545900333004,-0.330627569814651,10.226150195485388,-1.261964103427593,0.0577464918509947,-1.0352683707888704
0.32,-0.8121174884471448,1.0066395936888026,1.6928530266188724,0.1155399290505309,0.1625585203862258,0.0308617796296342,0.0965358722687633,-0.2589325701728405,-0.2929600635596422,-0.8174979367160933,1.0134232463521575,1.696278388369974,0.0558429286453477,-0.3092273565685732,-0.3870541968373034,1.0824612673797038,0.2338304224582199,-0.9611709307277574,-0.4395408636682391,10.071137340795758,-1.2721723522457693,0.0629389479904922,-1.020725055403679
0.34,-0.8101655432876544,1.001271446406472,1.6868924692751055,0.1107303321542794,0.1551056124725052,0.0293714238185538,0.0983629849921774,-0.2770544102035241,-0.3026353120259352,-0.8165400955421397,1.0080386992327068,1.6890367156287445,0.0637937985930196,-0.3492273571646197,-0.4120247566131328,1.0312005865570644,0.0913556361707035,-0.9060920015341812,-0.4837624233146487,9.866813048201948,-1.279709920101553,0.0670862358192794,-1.0066887840423857
0.36,-0.8081999040065857,0.995540353096373,1.680731566117157,0.1065172644156287,0.1489368587281842,0.0280989100185549,0.0980551300549828,-0.2950813868133309,-0.3129411956976369,-0.8153834826194944,1.001654152098355,1.6811707788931192,0.0717446685406914,-0.3892273577606661,-0.4369953163889621,1.0383615682982543,-0.0153927468597298,-0.9013488304903394,-0.5152941835850855,9.818728374302736,-1.284890117900246,0.070438178492161,-0.994686502030218
0.38,-0.8063574437521828,0.9897666409580632,1.6746820135984333,0.1027783767740978,0.1446583429365058,0.0270999879598872,0.0958572338627058,-0.311686217948216,-0.3233116208358197,-0.8140280979481573,0.9942696049491024,1.6726805781630982,0.0796955384883633,-0.4292273583567125,-0.4619658761647914,0.985008733764238,-0.1098948096138523,-0.8302415567442573,-0.5185212569091407,9.818728374302736,-1.287922533323317,0.0736571689980335,-0.9838167131050384
0.4,-0.8044805284094052,0.9833565864829272,1.66809442008945,0.0990614970423569,0.1423464376077688,0.0263044787417492,0.0918926922203262,-0.3283584455929907,-0.3349219931024141,-0.8015645820590475,0.9741823300606522,1.6585164325566424,0.1152921385423618,-0.4116862194383321,-0.3450769516421942,1.034989745410861,-0.1982270821189777,-0.8336113822387331,-0.5805186133297224,9.772898135970536,-1.2878284133819788,0.0766128741309652,-0.9755671579693742
0.42,-0.8026400036120094,0.9765897412986932,1.661522746933308,0.0953313574232851,0.1423487496021192,0.0257443532334756,0.0928351036428782,-0.3473964301567171,-0.3203586921883595,-0.8015645820590475,0.9741823300606522,1.6585164325566424,0.1152921385423618,-0.4116862194383321,-0.3450769516421942,1.1993985253569237,0.0471205711275984,-0.9518992281863204,0.7281650457027306,9.72014350223344,-1.2665038886294613,0.0781073232346839,-0.9674809806696464
0.44,-0.8007629136983544,0.9694612110423164,1.6552618722701684,0.0917973804517466,0.1438696568663003,0.0253425585663507,0.0950041688316961,-0.3645203704257255,-0.306631446224353,-0.8015645820590475,0.9741823300606522,1.6585164325566424,0.1152921385423618,-0.4116862194383321,-0.3450769516421942,1.1026915433227946,0.1084532594408958,-0.8561970134504215,0.6863622982003242,11.40808862297672,-1.2634755246978342,0.0803383857160031,-0.9747959346766676
0.46,-0.7989297374249328,0.9623839783011864,1.6495314087285309,0.0888896864125416,0.1460846721495768,0.0250589935431403,0.0979716355654358,-0.3796428481229948,-0.2972732345650643,-0.8004116606736238,0.9700654678662688,1.6550656630402203,0.119179119478293,-0.4316862197363554,-0.3494300178034691,0.9014867109119048,0.1483733366869841,-0.7561238848634633,0.467910582964437,11.159153973610955,-1.2603650915487032,0.0823348383321786,-0.9819936941450914
0.48,-0.7969296655049148,0.9546342963831402,1.6436615725296773,0.0863587871288599,0.1486715297158216,0.0248147380682229,0.1019595240659313,-0.3945749545362407,-0.2903446814597247,-0.7981058179027766,0.9618317434775024,1.6481641240073766,0.1269530813501554,-0.4716862203324018,-0.358136150126019,0.8468705697484055,0.1993944250247764,-0.7466053206622969,0.3464276552669787,10.92814341218218,-1.2574101911999247,0.0840070597155811,-0.9879754423478636
0.5,-0.7948417950713165,0.9465926252356393,1.637902861524784,0.0843588502028662,0.1511232864028946,0.0245909045893052,0.1066699153737166,-0.4088934174765665,-0.2859817398000996,-0.7957999751319293,0.9535980190887356,1.6412625849745326,0.1347270432220178,-0.5116862209284483,-0.3668422824485688,0.7846040835530278,0.2355195653892652,-0.7159231470162897,0.2181470829812543,10.753885296121553,-1.2549701094239938,0.0853186254897987,-0.992607851075015
0.52,-0.7926539941311883,0.9382705740104564,1.632209652287375,0.0828515066936272,0.1531750661275649,0.0243640034990543,0.1118838676713147,-0.422619755954449,-0.2836388439126883,-0.793105434267489,0.9433642946701668,1.6339257393255613,0.1425010050938802,-0.5516862215244948,-0.3755484147711186,0.7434494396229546,0.2606976148799053,-0.686316923894123,0.1171447943705661,10.612490858150522,-1.253294136129564,0.0862267603842732,-0.9957099678156676
0.54,-0.790474014481596,0.9301162464615124,1.626837611043104,0.0819796593510099,0.1546047930432636,0.0241422234200544,0.1172968303054682,-0.4351097102146372,-0.2819523487474712,-0.7904108934030486,0.9331305702515976,1.6265888936765898,0.1502749669657426,-0.5916862221205412,-0.3842545470936684,0.6858268510393801,0.2706481317076757,-0.6244977130094115,0.0843247582608536,10.50251209457383,-1.2515122307640032,0.086657315010543,-0.9974497507035888
0.56,-0.7880650321452317,0.921271754496916,1.6212139391585665,0.0815240771820616,0.1554983497544905,0.0238892269857229,0.1232831899692515,-0.4486614114075776,-0.280511529768556,-0.7875220034918117,0.9218968458181276,1.619034394719555,0.158048928837605,-0.6316862227165876,-0.3929606794162182,0.7442463748264325,0.299317983189163,-0.6775850596470179,0.0720409489457618,10.481468637793114,-1.2504067210425642,0.086664832460609,-0.998184795540793
0.58,-0.7855347163880572,0.9121509287062116,1.6156146792919577,0.0811850679578995,0.1557274324944323,0.023588805980724,0.1293663697469028,-0.4626576659244448,-0.2794710174784193,-0.7844387645337783,0.9096631213697562,1.6112622424544558,0.1658228907094674,-0.6716862233126341,-0.401666811738768,0.7648249514334596,0.3041589888825677,-0.6998127258433601,0.052025614506837,10.46611652549018,-1.2499764907620996,0.0865679132467248,-0.9979147775391964
0.6,-0.7828847317319071,0.9027469693957249,1.6100323314836336,0.0806839651236717,0.1553451603996351,0.0232266322368739,0.1352585908521935,-0.4769699462074698,-0.2788200665809686,-0.779066397900712,0.8890180454099893,1.6016411284180363,0.1614253277110847,-0.5626576674145609,-0.29256497049929,0.7745698379171354,0.2946110552645334,-0.7156140141512501,0.0325475448725354,10.446601222148274,-1.2501381197736985,0.0866074666214784,-0.9967974408028138
0.62,-0.7802519050257564,0.8934923631415788,1.6048608503685926,0.078419560736015,0.1548933615708764,0.0227518746426463,0.1416272622769096,-0.4955765237395671,-0.2655165204082965,-0.779066397900712,0.8890180454099893,1.6016411284180363,0.1614253277110847,-0.5626576674145609,-0.29256497049929,1.1871700004025978,0.3184335712358058,-0.9303288766048662,0.6651773086336021,10.42334152510739,-1.2409587276252567,0.0876764526872359,-0.9925697491272116
0.64,-0.7773510198066613,0.8834236601831489,1.599685740391752,0.0745145434216818,0.1546967688287472,0.0221746202012567,0.1481189861507105,-0.5100901936230827,-0.2528470196178623,-0.779066397900712,0.8890180454099893,1.6016411284180363,0.1614253277110847,-0.5626576674145609,-0.29256497049929,1.016495625445773,0.3245861936900449,-0.72568349417578,0.6334750395217109,11.281970711866052,-1.2408471857351122,0.0905513239978339,-0.9967159416842508
0.66,-0.7743231378261751,0.8730942682406421,1.594733558528645,0.0707702353321254,0.1546183082673508,0.0216258051687348,0.1543461915636457,-0.5221726339524916,-0.2430021529219476,-0.7774521446236011,0.8833914687358437,1.5987154787130435,0.1678371193039211,-0.5826576677125841,-0.2951837611034641,0.839173480022077,0.3113602706467572,-0.6041220164704431,0.4922433347957361,11.11591979354489,-1.2414983601633924,0.0932868804683605,-1.0000932465314878
0.68,-0.7713336882106145,0.8630718942290686,1.5901898039372908,0.0677992792652153,0.1545343329801685,0.0211521552832056,0.1600126861741081,-0.5323485099743008,-0.2357866789303999,-0.7742236380693794,0.8721383153875525,1.5928641793030578,0.1806607024895939,-0.6226576683086306,-0.3004213423118124,0.6850559811145598,0.2833247305231198,-0.5087938010904625,0.3607736995773838,10.947928000035972,-1.2421158354340087,0.0956821502721076,-1.00271667115811
0.7000000000000001,-0.7680734453578457,0.8523217827727015,1.5855379654199109,0.0654338172809837,0.1543864948363244,0.0207099196293627,0.1656915649730752,-0.542252866179935,-0.2298603025397562,-0.7709951315151578,0.8608851620392612,1.587012879893072,0.1934842856752666,-0.662657668904677,-0.3056589235201606,0.6431715816658484,0.2839439399483542,-0.4952178102817062,0.2963188195321833,10.814073470099174,-1.2427811591011355,0.0974186067793072,-1.0044738814912504
0.72,-0.7647025298200102,0.8413791273568721,1.5809888753440111,0.063874187083153,0.1541649356837128,0.0203255392154227,0.1710933297964268,-0.5516023343834391,-0.2254082633242081,-0.7671254458016524,0.8476320086611677,1.580899701422669,0.2063078688609394,-0.7026576695007235,-0.3108965047285089,0.5839783216693761,0.270088241167582,-0.4674734101752065,0.2226019607774076,10.712595956385483,-1.2434784311732496,0.0984204352587436,-1.0055757640000418
0.74,-0.7612255796958931,0.8302562942758533,1.5765209399148197,0.063261154870664,0.1538653150546672,0.0200073772110753,0.1763141967528903,-0.560352705461764,-0.2216091631616196,-0.7632557600881471,0.8343788552830742,1.5747865229522655,0.2191314520466122,-0.74265767009677,-0.3161340859368572,0.5437361672513072,0.2610433478231755,-0.437518553916244,0.1899550081294221,10.62820244642444,-1.243809438293252,0.0986377418173989,-1.006104705669019
0.76,-0.7578257873471371,0.8195213864112445,1.5723424321590158,0.0634189680923873,0.153474072796364,0.0197531916271565,0.181266689169193,-0.5692091176946126,-0.2184207302374471,-0.7590654847949999,0.8201257018900795,1.5685424049516536,0.2319550352322849,-0.7826576706928163,-0.3213716671452055,0.531811346446354,0.2476246208151344,-0.4428206116424305,0.1594216462086267,10.596105190518756,-1.244091811402146,0.0981140119197666,-1.006338976884417
0.78,-0.7541466004666003,0.8080353044251903,1.5680061403884231,0.0640833442196969,0.1529074939745769,0.0195125252144812,0.1863573432463429,-0.5789446864291492,-0.2153873416680098,-0.754554619922211,0.8048725484821837,1.562167347420833,0.2447786184179577,-0.8226576712888628,-0.3266092483535537,0.5698629302983362,0.2545327038574935,-0.4867784367268313,0.151669428471865,10.57326281645237,-1.2444963875758588,0.0971270884388076,-1.006230865352711
0.8,-0.7503673295598423,0.7963473558870281,1.563726694925421,0.0649911931985126,0.1521720671913316,0.0192789653393353,0.1912754295303702,-0.5893548498345942,-0.2127182470484622,-0.7448287333042831,0.7790880701037328,1.5572367733050227,0.2343781605857632,-0.6789446879192653,-0.2068017349663377,0.5909381120584912,0.2459043142013658,-0.5205081702722492,0.1334547309773809,10.535555575973376,-1.244965598707589,0.0959812503467483,-1.005801593385047
0.8200000000000001,-0.7466784739350246,0.784985842152552,1.559834269090219,0.0641716808510894,0.151716005672726,0.0189572630186314,0.1969199623348123,-0.6057031396526269,-0.1963862790733579,-0.7448287333042831,0.7790880701037328,1.5572367733050227,0.2343781605857632,-0.6789446879192653,-0.2068017349663377,1.189391134672112,0.2822266402221079,-0.8174144909016356,0.8165983987552111,10.535555575973376,-1.234637390053276,0.0956565854069918,-1.0019518619611074
0.84,-0.7426758682677893,0.7727206600617342,1.556089640436866,0.0606755728025161,0.1518573531257008,0.0184822480378907,0.2030802183687308,-0.6193555138086055,-0.1790915353254051,-0.7448287333042831,0.7790880701037328,1.5572367733050227,0.2343781605857632,-0.6789446879192653,-0.2068017349663377,1.143945186411499,0.3080128016959213,-0.6826187077989321,0.8647371873976419,11.416846786923088,-1.2327405213866882,0.0981889849315604,-1.0082291550392029
0.86,-0.738549696169165,0.7602280514597578,1.552664506316371,0.056657865624024,0.1523793354383644,0.0180037568738216,0.209276910492062,-0.629190011464424,-0.1642925304311347,-0.7424849516984254,0.7722986232245401,1.5551687559553593,0.2439823240536472,-0.6989446882172885,-0.2050846136260033,0.9409129652554136,0.3098346061665605,-0.4917248827909226,0.739950244713522,11.416846786923088,-1.2322621932865871,0.1012392208976258,-1.0142821387875869
0.88,-0.7345143792377127,0.7481997324610565,1.549664315267603,0.0533605124711301,0.1530287875473197,0.0176027035668498,0.2152102533804989,-0.6366200875016371,-0.1522729018993034,-0.7377973884867102,0.7587197294661548,1.5510327212560326,0.2631906509894154,-0.738944688813335,-0.2016503709453345,0.7662931191680943,0.2966671444218458,-0.3715038018606564,0.6009814265915653,11.260191603769272,-1.2320166405932655,0.1040769004287326,-1.0199436545502296
0.9,-0.7301443110275446,0.7353970673181437,1.5467369946944118,0.0507737109141312,0.1537456374160166,0.0172522684619283,0.2214969956645203,-0.6434187333859848,-0.1411768548622046,-0.7331098252749949,0.7451408357077696,1.5468966865567058,0.2823989779251835,-0.7789446894093814,-0.1982161282646656,0.7226115385460707,0.3143371142010714,-0.3399322942173821,0.5548023518549369,11.13134286181321,-1.2319606859915884,0.1061520277287988,-1.0250622136501342
0.92,-0.7256479548615333,0.7224650033938697,1.5440166162631888,0.0491780587849237,0.1544113369832463,0.0169762206533732,0.2278286907847579,-0.649575594582876,-0.1314842650190472,-0.7274618457164912,0.7295619419195819,1.5429323639914123,0.3016073048609516,-0.8189446900054279,-0.1947818855839968,0.6556363335743038,0.316584756011877,-0.3078430598445592,0.4846294921578703,11.039008139595351,-1.2321672720054635,0.1073108906675792,-1.0301759219565243
0.94,-0.7210234969716429,0.7094172002166991,1.5414840491474076,0.0487551755138456,0.1549543566515895,0.0167829444056743,0.2342975414825854,-0.6550863212613348,-0.1222692139454536,-0.7218138661579875,0.7139830481313942,1.538968041426119,0.3208156317967198,-0.8589446906014744,-0.191347642903328,0.6267601298830365,0.3234425348913772,-0.2755363339229433,0.4607525536796789,10.962064409909544,-1.2320405138518091,0.1074723573482788,-1.0348425920545183
0.96,-0.7165072136575761,0.6969134558191352,1.5392463058747543,0.0493375761507283,0.1552569884689993,0.0166627834275378,0.2407450810548182,-0.6608765814630304,-0.113751018532377,-0.7156856784260897,0.6974041543283055,1.5350895749278424,0.3400239587324879,-0.8989446911975207,-0.1879134002226591,0.6075720797448817,0.3223769786116409,-0.2895130100847798,0.4259097706538331,10.938522298838508,-1.2320419227577226,0.1066236082221615,-1.0393052341045936
0.98,-0.7116196091959427,0.6836267036970354,1.5370646856792665,0.0507167595109949,0.1552520334691572,0.0165775759846801,0.2476429930337857,-0.6675449056397247,-0.1048648336222984,-0.7090772825207975,0.6798252605103156,1.5312969644965826,0.359232285668256,-0.9389446917935672,-0.1844791575419903,0.653857819505082,0.3448955989483734,-0.3334162088347137,0.444309245503928,10.938522298838508,-1.2322215776998842,0.10502206627116,-1.0429535013687043
1.0,-0.7065939008130194,0.670196812862515,1.535059288088645,0.0525933610525866,0.1548755894935545,0.0165101444346164,0.2545341706887678,-0.6751439476515257,-0.0961263015838783,-0.6992374595442534,0.6502494584150491,1.5318214439981517,0.3099683029958199,-0.7675449071298408,-0.1166699041864492,0.673787264565264,0.3445588827491047,-0.379952100590053,0.4369266019210047,10.940468237118694,-1.2326505732603188,0.1030471585896998,-1.0458623584358924
1.02,-0.7014511700914772,0.6565488910129983,1.5332228939549275,0.0528264345559874,0.1547320157844513,0.0163423544575336,0.2594278189272,-0.6888230501169909,-0.0879528342480426,-0.6992374595442534,0.6502494584150491,1.5318214439981517,0.3099683029958199,-0.7675449071298408,-0.1166699041864492,0.8334734633330829,0.2446824119216123,-0.6839551232732555,0.4086733667917841,10.926117315998454,-1.2340210554151287,0.1024648956907005,-1.0475374205684842
1.04,-0.6964788416549903,0.6433561122770594,1.5316193341785274,0.0507332077790211,0.1554075309578317,0.0160702201505712,0.2638597846412281,-0.6990997523389839,-0.0812576213340227,-0.6992374595442534,0.6502494584150491,1.5318214439981517,0.3099683029958199,-0.7675449071298408,-0.1166699041864492,0.6520713239629081,0.221598285701402,-0.5138351110996531,0.3347606457009947,10.926117315998454,-1.2326027420225742,0.1041885251830132,-1.0509735817879895
1.06,-0.6911493974430851,0.6292846851494801,1.5300572184346033,0.0475210232297703,0.1568037150808519,0.0157551544433058,0.2689452853716687,-0.7072042171761743,-0.075359025916926,-0.6961377765142952,0.6425740093437508,1.530654744956287,0.3224333649882268,-0.787544907427864,-0.1190309182992794,0.5620011029152037,0.2542750365220281,-0.4052232418595203,0.2949297708548383,10.848351012573405,-1.230744530776245,0.1069852002263807,-1.054540423336093
1.08,-0.6857129884877902,0.6150811713540905,1.5285994084986494,0.0446182208544246,0.1586569907395229,0.0154895661598303,0.2745430054221365,-0.712912845476366,-0.0707349368946975,-0.6899384104543789,0.6272231112011539,1.528321346872558,0.3473634889730405,-0.8275449080239105,-0.1237529465249397,0.4618038168926637,0.2798860025233912,-0.2854314150095849,0.2312044511114247,10.699789633806176,-1.2294127194307791,0.1095917220647393,-1.0586559330739649
1.1,-0.6804389837284924,0.6014935586862694,1.5272905632558484,0.042641663549898,0.1606278841017822,0.0153062945545539,0.2804050866866016,-0.7173223180287892,-0.0672896696707329,-0.6837390443944624,0.6118722130585571,1.525987948788829,0.3722936129578542,-0.8675449086199569,-0.1284749747506,0.4052076973179657,0.2931040632232567,-0.2204736276211594,0.1722633611982292,10.699789633806176,-1.2283207134554677,0.1113763980987632,-1.0625490292862736
1.12,-0.6747613433034498,0.5871074664431167,1.5259768799569955,0.0415868903430391,0.1627589611536105,0.0151930080859289,0.2871121088543862,-0.7211606838754405,-0.0643000187638792,-0.6762931721353054,0.594521314886158,1.523418449293817,0.3972237369426679,-0.9075449092160034,-0.1331970029762604,0.4142922014615559,0.3353511083892313,-0.1919182923325657,0.1494825453426863,10.64609214833581,-1.227279115558357,0.1123035034030687,-1.066115580745184
1.14,-0.6689434594341392,0.5726520062666958,1.524717926045341,0.0419409658054363,0.1648163034796112,0.0151813812872098,0.2943887849782813,-0.7243356164688218,-0.0617741507691431,-0.6688472998761482,0.5771704167137588,1.520848949798805,0.4221538609274816,-0.94754490981205,-0.1379190312019207,0.4165639852153905,0.3638338061947521,-0.1587466296690654,0.1262933997368043,10.59179792598752,-1.226521702613145,0.1118917058396176,-1.069656457360308
1.16,-0.662970907216361,0.558125289350542,1.523506057244448,0.0436765546525076,0.1665768903178822,0.0152603337118319,0.3024935685725924,-0.728288953951052,-0.0595451491826414,-0.6607781745173708,0.5588195185264585,1.5181613995981516,0.4470839849122953,-0.9875449104080962,-0.142641059427581,0.4644481737278341,0.405239179715558,-0.1976668741115073,0.1114500793250844,10.59179792598752,-1.226042797942089,0.110248331654652,-1.0728645408347606
1.18,-0.6571408211424236,0.5442399177813866,1.522395478334324,0.0462028608891034,0.1677708136284678,0.0153807576453533,0.3107536821862695,-0.7333314534206165,-0.0574770881735549,-0.652085796058973,0.5394686203242571,1.5153557986918564,0.4720141088971089,-1.0275449110041426,-0.1473630876532413,0.4948059067672777,0.4130056806838533,-0.2521249734782238,0.1034030504543256,10.58363305086914,-1.2262395676491744,0.1076139060259409,-1.075509556712027
1.2,-0.6508316490622387,0.5294985216657458,1.521268894427815,0.0489844805619612,0.168442614285748,0.015492073459394,0.3196911221411469,-0.7405713723160116,-0.0552836945777906,-0.6416031370331101,0.5075733451103558,1.5195216239256464,0.3693213961323736,-0.7879851836640609,-0.0648329071641729,0.5854597211270763,0.4468719977438695,-0.3619959447697551,0.1096696797882143,10.588209653719789,-1.2268821062360171,0.1048230187646569,-1.077019897022819
1.22,-0.6442893261284084,0.5143854218508943,1.5202550653402978,0.044518876759818,0.1673546832136064,0.0150185460019559,0.3341956628253095,-0.7673820826206897,-0.0455937841428563,-0.6416031370331101,0.5075733451103558,1.5195216239256464,0.3693213961323736,-0.7879851836640609,-0.0648329071641729,1.5992891012391668,0.7252270342081285,-1.3405355152339091,0.4844955217467143,10.597404762200313,-1.2193837007234036,0.1079655532979456,-1.077305909119661
1.24,-0.6374607642192114,0.4989030666899655,1.5194485097158836,0.0323809492433773,0.1632120026213181,0.0139282147148733,0.3476213897998473,-0.7781418601218237,-0.0354881978910601,-0.6416031370331101,0.5075733451103558,1.5195216239256464,0.3693213961323736,-0.7879851836640609,-0.0648329071641729,0.9976795955631702,0.6712863487268933,-0.5379888750566997,0.5052793125898125,11.198015542645408,-1.2256730985476576,0.1196438480203135,-1.0723649451968642
1.26,-0.6307607423735104,0.4840996584009133,1.5188443729069834,0.0201041670669202,0.1572154902957795,0.0128714853408385,0.3566097265058691,-0.7795254913312977,-0.0285785009377178,-0.6379099230717864,0.4996934932737152,1.518873294854005,0.3810349389215944,-0.7989159297127498,-0.0663040709622965,0.5710703635535561,0.4494168353010891,-0.0691815604736967,0.3454848476671138,10.847354137878028,-1.2379897277643048,0.1325069897704494,-1.065389402639281
1.28,-0.6235690348625782,0.4685438754586431,1.5183233684308086,0.008701335505442,0.1501468444273539,0.0119703798487526,0.3617935387106988,-0.7761384903394984,-0.0240124475480523,-0.6305234951491389,0.483933789600434,1.517576636710721,0.404462024500036,-0.8207774218101276,-0.0692463985585437,0.3846834031078841,0.2591906102414831,0.1693500495899613,0.2283026694832718,10.847354137878028,-1.249942440584061,0.1438088968492626,-1.05752416833777
1.3,-0.6163140891428089,0.4530881685983861,1.517865244981196,-0.0003844377763692,0.1434842052786848,0.0113432825207902,0.3632764839398796,-0.7699261554981128,-0.0221403487942569,-0.6231370672264914,0.4681740859271527,1.5162799785674377,0.4278891100784776,-0.8426389139075053,-0.0721887261547909,0.3327798990256403,0.0741472614590427,0.3106167420692807,0.0936049376897696,10.662923329907244,-1.2605345000612775,0.1528243365757387,-1.0499258077150255
1.32,-0.6090635829671563,0.4377737274873156,1.5174227055003822,-0.0070859249311954,0.1381677119096716,0.010961924461446,0.3615120819570073,-0.762202079161668,-0.0222806347204453,-0.6145792850249219,0.4513213076490027,1.514836204044342,0.4513161956569193,-0.8645004060048831,-0.0751310537510381,0.3962137988178754,-0.0882200991436182,0.3862038168222392,-0.0070142963094169,10.502833112301232,-1.2691260976606014,0.1592309782109946,-1.0432362744354458
1.34,-0.6022382574811803,0.4233774454588048,1.5169888750082932,-0.0113790614522612,0.1353866135379446,0.0107745835363669,0.3570218937964796,-0.7540891829996348,-0.0233685867888095,-0.6060215028233523,0.4344685293708525,1.5133924295212462,0.4747432812353609,-0.886361898102261,-0.0780733813472853,0.4668096870137088,-0.2245094080263826,0.4056448081016628,-0.0543976034182132,10.393761740469929,-1.2745637729685086,0.1638248766428935,-1.0386088592725744
1.36,-0.5951519359905754,0.4083844180855907,1.5165060816281462,-0.0142865254076395,0.1354219577142057,0.0106821253082236,0.352217921759159,-0.745883796155196,-0.0248841018909156,-0.5968780434823217,0.417069213790268,1.5118750968082442,0.4981703668138025,-0.9082233901996388,-0.0810157089435325,0.4814127818903437,-0.2401986018660318,0.4102693422219416,-0.075775755105301,10.322409452034664,-1.273273953312405,0.1666913057475514,-1.039447114146038
1.38,-0.588143412239758,0.393556832082758,1.5159911900770648,-0.0159250403479835,0.1377653690006491,0.0106603102271,0.3491791580017429,-0.7375369671698911,-0.0265443180275303,-0.5871489070018301,0.399123360907249,1.510284205905336,0.5215974523922441,-0.9300848822970164,-0.0839580365397796,0.4518294946757733,-0.1519381878708037,0.4173414492652405,-0.0830108068307355,10.322409452034664,-1.270434004999368,0.1683498528837618,-1.0428032616226708
1.4,-0.5815215246352314,0.3796279835573631,1.5154722541440382,-0.0163924093578937,0.1412893353177534,0.0107057490901226,0.3482147336175644,-0.7292345847644672,-0.0280124869796793,-0.5706844543396709,0.3566799837242634,1.5146639741756884,0.4226253647502285,-0.7296383747797711,-0.0247312363523212,0.4243088146348871,-0.048221219208927,0.4151191202711957,-0.0734084476074529,10.32811134648182,-1.2664008234822366,0.1690831330534359,-1.0483696366288682
1.42,-0.5745372800819457,0.3649443495923942,1.5149739914221192,-0.0219013153604079,0.1456284288955026,0.0104000511158321,0.3504900472276978,-0.7366016106647718,-0.0213767281983502,-0.5706844543396709,0.3566799837242634,1.5146639741756884,0.4226253647502285,-0.7296383747797711,-0.0247312363523212,0.5086339972028114,0.1137656805066722,-0.368351295015229,0.3317879390664571,10.32811134648182,-1.2571942269259386,0.1742363221121967,-1.0527811259975308
1.44,-0.567492867371051,0.3502605185838939,1.5146122008146257,-0.0326855005282773,0.1501790471794308,0.0097073227685815,0.3539623937813173,-0.7306242247721394,-0.0152777378683567,-0.5706844543396709,0.3566799837242634,1.5146639741756884,0.4226253647502285,-0.7296383747797711,-0.0247312363523212,0.460933877425027,0.1736173276809721,0.2988692946316207,0.3049495164996745,10.85010545246496,-1.2535820071106674,0.1850530445669858,-1.0594677900705125
1.46,-0.5603681018939373,0.3357833577957449,1.5143488619863883,-0.0435936545568886,0.1546997292890137,0.0089855935023937,0.3584539142470503,-0.7174441733067893,-0.0113896493375493,-0.5664582006921686,0.3493835999764657,1.5144166618121653,0.4373146060999256,-0.7280586563017472,-0.0243686200172794,0.7228498204101091,0.2245760232866517,0.6590025732675031,0.1944044265403686,10.765650479562282,-1.2524645528396432,0.1957954050988776,-1.0665264822209286
1.48,-0.55350717844961,0.3223153859148448,1.5141545579881166,-0.052418789807621,0.1587546050031553,0.0084033885866956,0.3635933952059628,-0.7012722848812554,-0.0092650730414491,-0.558005693397164,0.3347908324808703,1.5139220370851187,0.4666930887993198,-0.7248992193456991,-0.0236433873471957,0.855070266429746,0.2569740479456267,0.8085944212766982,0.1062288148050099,10.663425138493947,-1.2524486355157565,0.2057156394975453,-1.0732099647686868
1.5,-0.5461714638995608,0.3084896980198508,1.513984063351133,-0.0596772225461676,0.1626452658283868,0.0079471298192066,0.3697742627064835,-0.6824389372852392,-0.0079289738011967,-0.5495531861021594,0.3201980649852749,1.5134274123580724,0.496071571498714,-0.7217397823896511,-0.0229181546771121,0.9933318502786016,0.3090433750260329,0.9416673798008092,0.0668049620126219,10.594995135335012,-1.2533560804516384,0.2137141377200077,-1.079404100622522
1.52,-0.5387039984730599,0.2950543129561844,1.5138346780631875,-0.0648603991438217,0.1660713266802612,0.0076680591445903,0.3767105072240653,-0.6623879817189674,-0.0070800069623229,-0.5396317546721852,0.3057632693374819,1.5129690492645302,0.5254500541981083,-0.718580345433603,-0.0221929220070284,1.0616885746557194,0.3468122258790923,1.0025477783135894,0.0424483419436878,10.564371231531368,-1.254968262952323,0.2197481366193693,-1.0850371928052762
1.54,-0.5310899729275271,0.2820282289763936,1.5137045377263172,-0.068087251108715,0.1689667722536108,0.0075723231604842,0.3843564422629923,-0.641729547583166,-0.0059570293302002,-0.5297103232422109,0.2913284736896889,1.512510686170988,0.5548285368975026,-0.715420908477555,-0.0214676893369448,1.1028285251173269,0.382296751946351,1.032921706790069,0.0561488816061377,10.556459891671691,-1.25714927905609,0.2237597444008084,-1.0901688575447055
1.56,-0.5237062997363445,0.2700391235901981,1.5136058982687273,-0.0695712608622878,0.1711096075672534,0.0076492009218536,0.3924484054680795,-0.621662771525813,-0.0044673340041754,-0.5190544297447518,0.276972663965797,1.5120704538941978,0.5842070195968967,-0.7122614715215071,-0.0207424566668611,1.08440601484502,0.4045981602543574,1.0033388028676538,0.0744847663012381,10.588114029710596,-1.2601490400154984,0.2264607669794688,-1.0956449595240625
1.58,-0.5157633009990622,0.2578332691529336,1.5135374772889478,-0.069447181286198,0.1726119712460077,0.0079193187563883,0.4013896245797357,-0.6001541825592807,-0.0024194420817082,-0.5076640741798077,0.2626958401658064,1.5116483524341595,0.6135855022962909,-0.7091020345654591,-0.0200172239967775,1.1691435539102832,0.4470609555828092,1.0754294483266147,0.1023945961233614,10.626489907765972,-1.2637848268131384,0.2274880305089077,-1.1007030147995964
1.6,-0.5076388494213463,0.2460621611661804,1.5135152950925306,-0.0672926481855839,0.1733246874616783,0.0084045428976986,0.4105464046930584,-0.5782604038712054,0.0001371043951476,-0.4956938197700754,0.2278255600249696,1.5134165051848625,0.4442264881272992,-0.5692074807942202,-0.001137513810653,1.1934405066597231,0.4578390056661358,1.0946889344037647,0.1278273238427954,10.66581833519831,-1.2683335358964156,0.2266021232759353,-1.1060411025365446
1.62,-0.4992236810202128,0.2346419811637087,1.513535635735754,-0.065546583480502,0.1698848238894246,0.0091515574775218,0.4297993115471602,-0.5640705330057497,0.0017870463495513,-0.4956938197700754,0.2278255600249696,1.5134165051848625,0.4442264881272992,-0.5692074807942202,-0.001137513810653,1.1986963397415633,0.9626453427050902,0.7094935432727822,0.0824970977201826,10.702912083370393,-1.2693047568299036,0.2262208993242276,-1.1115860103893949
1.64,-0.490917034750791,0.2240730914924033,1.5135929940881132,-0.0655128488656421,0.1609238578360133,0.010133883469538,0.4427864751807955,-0.5490477058122495,0.004259929854975,-0.4956938197700754,0.2278255600249696,1.5134165051848625,0.4442264881272992,-0.5692074807942202,-0.001137513810653,1.0005834659887034,0.6493581816817667,0.7511413596750116,0.1236441752711845,10.684782573755,-1.2911189461037078,0.2278813800285063,-1.1028452324781135
1.66,-0.4819822472440491,0.2132673949347108,1.5137072388511374,-0.0664136859131293,0.1484708152620176,0.0113236705880834,0.4493640151523324,-0.5322820571777542,0.0070734140470884,-0.4912515548888024,0.2221334852170274,1.513405130046756,0.4527938608368119,-0.5630181404412081,-0.0008811281564419,0.9114092103876696,0.3288769985768436,0.8382824317247628,0.1406742096056721,10.691004324004098,-1.3135424779279026,0.2305622855604778,-1.0911421874314344
1.68,-0.4729879686287531,0.202807745329635,1.5138733708405625,-0.0677784738686762,0.1353446825999785,0.0125596071854435,0.4492985230691793,-0.5145296643913561,0.0093892817093334,-0.4823670251262564,0.210749335601143,1.513382379770543,0.4699286062558374,-0.550639459735184,-0.0003683568480198,0.895146610735568,-0.0032746041576575,0.8876196393199087,0.1157933831122499,10.65732221302096,-1.3344272937019783,0.2335845835871716,-1.0780610849945669
1.7,-0.4640579134059692,0.1927148207459317,1.514076311355712,-0.069070588738594,0.1234446198312908,0.0137527397356648,0.4436123923337168,-0.4957525527461903,0.010802827159884,-0.4734824953637104,0.1993651859852586,1.51335962949433,0.4870633516748628,-0.5382607790291598,0.0001444144604022,0.9835015445038244,-0.284306536773124,0.9388555822582884,0.0706772725275294,10.603395687993723,-1.3515438418969277,0.2363847493992156,-1.0676699323369616
1.72,-0.4557205815836664,0.1834834259248585,1.5142877420516017,-0.0697835731562083,0.1143740842158839,0.0147933352392385,0.4343665138980744,-0.4770459690312477,0.0113870225230672,-0.4637412283302132,0.1885999704046754,1.513362517783538,0.5041980970938882,-0.5258820983231356,0.0006571857688242,1.0437478461692706,-0.462293921782117,0.9353291857471302,0.0292097681591594,10.549197517657376,-1.364990887855,0.2385769856793542,-1.058705335911354
1.74,-0.4471650332024521,0.1741548783735095,1.5145174722370822,-0.0696228418476576,0.1079235464995252,0.0157512966728609,0.4215245206451711,-0.4568970748232218,0.0115367939584377,-0.4539999612967159,0.1778347548240922,1.513365406072746,0.5213328425129137,-0.5135034176171115,0.0011699570772463,1.1946936427351202,-0.6420996626451653,1.0074447104012922,0.0074885717685251,10.507698111018726,-1.3751524300771625,0.2398568581528996,-1.0539662013335076
1.76,-0.4388967212143534,0.1652363570576835,1.5147471887803108,-0.0680981862595544,0.1056440467081354,0.0165203310785205,0.406325072217807,-0.4362059440358685,0.0114360610009726,-0.443830325627743,0.1673790062611596,1.5133811136446649,0.538467587931939,-0.5011247369110873,0.0016827283856684,1.2837019444600253,-0.7599724213682046,1.0345565393676648,-0.0050366478732521,10.49631840114489,-1.377863671473262,0.2396437839713952,-1.0556272320443238
1.78,-0.43131213174283,0.1571442885559565,1.5149661445128624,-0.0651736856371178,0.1071779126702141,0.0171066270394551,0.3932722499950757,-0.4171087347990402,0.011642570184758,-0.4332323213232945,0.1572327247158776,1.5134096404992938,0.5556023333509645,-0.4887460562050631,0.0021954996940905,1.1566354380880095,-0.6526411111365676,0.9548604618414142,0.0103254591892675,10.491822867181329,-1.3752195117193924,0.2377819763631145,-1.0613740410515131
1.8,-0.4235676078139552,0.1489920094488626,1.515208292217383,-0.0612998896420397,0.1115236035234575,0.0176143598418274,0.3822478239343121,-0.3993442545909074,0.0125898895551032,-0.4116485192430762,0.1362888518160045,1.5155482730221004,0.4139883267118563,-0.3912188482558855,0.0324447290471104,1.0464369797362585,-0.5512213030381796,0.8882240104066408,0.0473659685172581,10.499790520894749,-1.3693367589585772,0.2349551608044063,-1.0709186512529536
1.82,-0.4159409969699837,0.1411896715335087,1.5155219210775086,-0.0570683236519072,0.1155322430496112,0.0181839784096644,0.3810000727367642,-0.3820147062563227,0.0189716388521808,-0.4116485192430762,0.1362888518160045,1.5155482730221004,0.4139883267118563,-0.3912188482558855,0.0324447290471104,0.9254686010644024,-0.0623875598773943,0.8664774167292361,0.3190874648538802,10.530840047913443,-1.3546511268903452,0.2310931117046815,-1.0781215922005902
1.84,-0.4083334403345877,0.1337147797199818,1.5159812501704153,-0.0528102691415337,0.1169625441442077,0.0189134457931669,0.3795760435288332,-0.3664244386326286,0.0265898496970645,-0.4116485192430762,0.1362888518160045,1.5155482730221004,0.4139883267118563,-0.3912188482558855,0.0324447290471104,0.8705191557923229,-0.0712014603965527,0.7795133811847071,0.3809105422441891,10.920355430687778,-1.3570912108858455,0.2288016746693336,-1.0910144023821808
1.86,-0.4011428348987894,0.1268910174057346,1.5165599120572528,-0.0490422198285009,0.1167076527296284,0.0196724438231142,0.3772795093467692,-0.3526739963160062,0.0339227849440095,-0.4075086359759576,0.1323766633334456,1.5158727203125717,0.4181315420552125,-0.3860408709472546,0.0366051608195808,0.787592331869787,-0.1148267091031968,0.6875221158311184,0.3666467623472499,10.920355430687778,-1.3606073234974276,0.226666147091718,-1.1014678494332977
1.88,-0.3936330985763718,0.1199806844285022,1.5173191303536595,-0.0454557578603789,0.1153266102788273,0.0204930166656205,0.3736900331795576,-0.3391100482745001,0.0415980921660873,-0.3992288694417205,0.1245522863683279,1.5165216148935137,0.4264179727419248,-0.3756849163299927,0.0449260243645218,0.7996489332528017,-0.1794738083605807,0.6781974020753062,0.3837653611038896,10.934120538409845,-1.3650997963200933,0.2248555491869587,-1.1105883714615843
1.9,-0.3862101043309097,0.1133339404939795,1.5182297153941815,-0.0422675994991898,0.1133834432734265,0.0213018336764198,0.3686659117566584,-0.3262648908064512,0.0490553825733503,-0.3909491029074834,0.1167279094032102,1.517170509474456,0.434704403428637,-0.3653289617127308,0.0532468879094627,0.7839818981795125,-0.2512060711449604,0.6422578734024409,0.3728645203631458,10.935634996716544,-1.3698179959721408,0.2234348799416178,-1.1183863885302725
1.92,-0.3789049019816645,0.1069369737487158,1.5192867374040968,-0.0394559244048815,0.1115337456467161,0.0220705946943443,0.3620336883710434,-0.3140686653956737,0.0562579988061427,-0.3822550148389106,0.1094213301689556,1.5182354472326451,0.4429908341153493,-0.3549730070954689,0.0615677514544037,0.7820038073821627,-0.3316111692807488,0.6098112705388764,0.360130811639624,10.935634996716544,-1.3742364122365789,0.2221637149719238,-1.1258249704422816
1.94,-0.3721010824867837,0.1010805912556407,1.520424002651101,-0.0370992716801557,0.1104478813873215,0.0227448939100365,0.3545676075168031,-0.3029916910690361,0.0630784575115075,-0.3735609267703379,0.1021147509347009,1.5193003849908344,0.4512772648020616,-0.344617052478207,0.0698886149993446,0.7499339646039305,-0.3733040427120138,0.5538487163318812,0.3410229352682363,10.93158485773165,-1.3762710867673622,0.2209806636722516,-1.1329166180322747
1.96,-0.3650935053795943,0.0951401929101022,1.5217614734567677,-0.0348739417849946,0.1102010245626388,0.023397940922562,0.3466626645830667,-0.2916593159017323,0.0703000931178889,-0.3646596779345973,0.0950670705658779,1.5205733443376472,0.4595636954887738,-0.3342610978609451,0.0782094785442856,0.7795236855758606,-0.3952471466868223,0.5666187583651894,0.361081780319071,10.93956489951961,-1.3763100429268238,0.2199055889019216,-1.140547797698776
1.98,-0.3582420933410776,0.0894229925635211,1.5232436215383651,-0.0328273993970189,0.1107796761360981,0.0240057353957278,0.3389932446555395,-0.2806637631375571,0.0775337903717363,-0.355551268331689,0.0882782890624864,1.5220543252730834,0.4678501261754861,-0.3239051432436833,0.0865303420892265,0.7616570070819828,-0.3834709963763616,0.5497776382087621,0.3616848626923713,10.950115605082829,-1.3754208569547277,0.2190000202084045,-1.1486041599980854
2.0,-0.3518706018200526,0.0841919518413451,1.5247859168094284,-0.0310032666004427,0.1119440750462621,0.0245519988888661,0.3321739646182409,-0.2705561244938744,0.084433337131243,-0.3412924311083006,0.0753898044066433,1.527120311056952,0.3436006003433067,-0.2496948679555435,0.0724597703622484,0.7004831987010537,-0.3409640018649268,0.5053819321841319,0.3449773379753336,10.95824205173176,-1.373664245624767,0.2181224143107526,-1.1577521060778475
2.02,-0.3452689729997322,0.0788584085436919,1.5264607902403975,-0.0301217562309329,0.1124235762073545,0.0250748649940288,0.3282856125530189,-0.263121854867142,0.0822119071082028,-0.3412924311083006,0.0753898044066433,1.527120311056952,0.3436006003433067,-0.2496948679555435,0.0724597703622484,0.4339423867673469,-0.1944176032610989,0.3717134813366218,-0.1110715011520081,10.96830736917309,-1.3770692699167522,0.2185307992736803,-1.1635960140285102
2.04,-0.3387509385928473,0.0736765041907289,1.5280753786589898,-0.0309290785212268,0.1110072160677152,0.0255362100402049,0.3235571716611253,-0.2553064116662498,0.0794384908546334,-0.3412924311083006,0.0753898044066433,1.527120311056952,0.3436006003433067,-0.2496948679555435,0.0724597703622484,0.4773131660924171,-0.2364220445946835,0.3907721600446084,-0.1386708126784715,10.38732938040448,-1.3794992328991775,0.2201664203698505,-1.1613923463649736
2.06,-0.3323435682346465,0.0686601366149979,1.5296399934043754,-0.0330884350477645,0.1083730191290018,0.0259456852783036,0.3172813346594659,-0.2466154477503501,0.0771648685548921,-0.3378564251048676,0.0728928557270878,1.5278449087605743,0.3445220714808602,-0.2435010889191408,0.0714449663603509,0.5479241330256165,-0.31379185008297,0.434548195794987,-0.1136811149870631,10.412472544446246,-1.3830764412678735,0.2230869040705339,-1.158088440564028
2.08,-0.3263914738642863,0.0640737143759205,1.531086366249944,-0.0358218775433176,0.1054321533535912,0.0263120024410779,0.3094621583550997,-0.2364339928202613,0.0751961434989947,-0.3309844130980015,0.067898958367977,1.5292941041678194,0.3463650137559671,-0.2311135308463354,0.0694153583565557,0.6493793593076167,-0.3909588152183063,0.5090727465044395,-0.0984362527948708,10.412472544446246,-1.38757340533991,0.227031196516293,-1.1549371445245742
2.1,-0.3203075197142106,0.0594738519503511,1.5325692135144613,-0.0385106644380189,0.1026820437087957,0.0267105902881345,0.2992092369551184,-0.2241260831943983,0.0732001858483153,-0.3241124010911353,0.0629050610088661,1.5307432995750645,0.348207956031074,-0.21872597277353,0.0673857503527606,0.8071413809487044,-0.5126460699990676,0.6153954812931502,-0.0997978825339723,10.426080037415886,-1.391549282455658,0.2307643364956149,-1.1520418629561788
2.12,-0.3144497817111972,0.0551303154530283,1.534012974082515,-0.0406236345023253,0.1011666917646141,0.0271103390537509,0.287047356619274,-0.210952917618867,0.0712846481066338,-0.3171482419705138,0.0585305415533955,1.5320910145821198,0.3500508983061809,-0.2063384147007246,0.0653561423489654,0.901544382467619,-0.6080940167922211,0.6586582787765651,-0.0957768870840716,10.437020828353525,-1.393187926995194,0.2336483767587774,-1.1504642720832672
2.14,-0.3091161590682378,0.0512540982100521,1.5353471818611817,-0.0419410989600156,0.1013546953010385,0.0274750062687114,0.2752307766110091,-0.1978594965993554,0.0692590201539131,-0.3101840828498923,0.0541560220979249,1.533438729589175,0.3518938405812878,-0.1939508566279192,0.0633265343451703,0.8876547832473464,-0.5908290004132455,0.654671050975579,-0.1012813976360389,10.448159076160664,-1.3912428596669235,0.2357369241704636,-1.150595581220558
2.16,-0.3037354189328514,0.0474489794573559,1.5367090127558627,-0.0424138252401248,0.102978620936738,0.0278619401756585,0.2636491486255337,-0.1834216993582464,0.06702900045954,-0.3031738501723932,0.0500911915942744,1.5347357043961354,0.3537367828563947,-0.1815632985551138,0.0612969263413751,0.9321441463188704,-0.5790813992737703,0.7218898620554511,-0.111500984718655,10.434426339725178,-1.387666352699767,0.2368476821315819,-1.1530366246131587
2.18,-0.29857461197711,0.043938676398115,1.5380266188865734,-0.0416249189028082,0.1056699601984033,0.0282896644345572,0.2531899931970499,-0.1684549266627446,0.0648480862520214,-0.2961175439380163,0.0463360500424441,1.5359819390030007,0.3555797251315016,-0.1691757404823084,0.05926731833758,0.9194490252000836,-0.5229577714241873,0.7483386347750864,-0.1090457103759288,10.436207330366416,-1.3832957580873282,0.2366805303158806,-1.1574976864797757
2.2,-0.2936094146086855,0.0407291638767127,1.5393024904556736,-0.0393019202216516,0.1090432105708313,0.0287957494973365,0.2440290513451641,-0.1534738403957692,0.0628484609530301,-0.2859151123172575,0.0355159300649777,1.5412690231991746,0.279844296270933,-0.1461324731042997,0.0745889147884722,0.8836774053473337,-0.4580470925942881,0.7490543133487723,-0.0999812649495647,10.436207330366416,-1.3788328123352935,0.2350587796935244,-1.1631551515166192
2.22,-0.2890584558655709,0.037975379753485,1.5405240923800103,-0.0349238183087295,0.1129932599051908,0.0294031933674733,0.2357753046963379,-0.1382412104282707,0.0658713893128154,-0.2859151123172575,0.0355159300649777,1.5412690231991746,0.279844296270933,-0.1461324731042997,0.0745889147884722,0.8793398736241541,-0.4126873324413097,0.7616314983749247,0.1511464179892674,10.448439931738903,-1.3708972272073294,0.2307832094482682,-1.1712602692798773
2.24,-0.2844164160401083,0.0353334842138346,1.5418805002112606,-0.0292464588137144,0.1179389191532055,0.0301022281003507,0.2290928251236514,-0.1269498398887387,0.0695871081953936,-0.2859151123172575,0.0355159300649777,1.5412690231991746,0.279844296270933,-0.1461324731042997,0.0745889147884722,0.6818305301076116,-0.334123978634325,0.5645685269765984,0.1857859441289078,10.782682305280105,-1.3641670658687166,0.2255189020264626,-1.1826927444730746
2.26,-0.2798862271485939,0.0328891554924353,1.5433120589903042,-0.0238415289994091,0.1231768836481548,0.0307896727357832,0.224440543841806,-0.1180694025528829,0.0733616430119341,-0.2831166693545482,0.0340546053339348,1.5420149123470592,0.2851751568857096,-0.1416679823926107,0.0765370804957624,0.535614136955767,-0.2326140640922708,0.4440218667927924,0.1887267408270269,10.79214193534608,-1.3572550658619476,0.2204685505324,-1.1944135050129907
2.28,-0.2754289646833573,0.030605638204786,1.5448191714500057,-0.019170061978355,0.1282605243750237,0.0314429574454577,0.2216284465585369,-0.1106174676227671,0.0771271120604106,-0.2775197834291295,0.0311319558718488,1.5435066906428287,0.2958368781152628,-0.1327390009692327,0.0804334119103428,0.440505341875337,-0.1406048641634558,0.3725967465057864,0.1882734524238254,10.79214193534608,-1.3512337326411772,0.2163716342527436,-1.205274319914149
2.3000000000000003,-0.2712315167754173,0.028565433926006,1.5463200970915882,-0.0154823666295229,0.1326551818488483,0.0320270715096672,0.2203996806046461,-0.1043907166236476,0.0806492440557683,-0.2719228975037109,0.0282093064097628,1.5449984689385985,0.306498599344816,-0.1238100195458547,0.0843297433249231,0.3629314934226537,-0.061438297694541,0.3113375499559749,0.1761065997678834,10.802022774359102,-1.3459438046063066,0.2129054263137441,-1.2161419164721328
2.32,-0.2668263160248563,0.0265401988134194,1.547971624954481,-0.0123348533420775,0.1366447695719697,0.0326028906249347,0.2202408550542133,-0.0983871824663332,0.0842984511722725,-0.2657929255168146,0.0257331060188457,1.5466850638050968,0.3171603205743692,-0.1148810381224767,0.0882260747395034,0.3513700346951045,-0.0079412775216392,0.3001767078657201,0.1824603558252077,10.811182770803498,-1.3418934517255638,0.2102717674312571,-1.2262030242525717
2.34,-0.2624141668153096,0.0246307629720219,1.549696908340571,-0.0098468714551809,0.1398943360701638,0.0331394380373775,0.2210062015071091,-0.092786699352645,0.0880371864080169,-0.2596629535299183,0.0232569056279286,1.5483716586715952,0.3278220418039225,-0.1059520566990987,0.0921224061540838,0.3388558228165196,0.0382673226447902,0.2800241556844107,0.1869367617872229,10.821161479284456,-1.3389380916623024,0.2083547154259717,-1.2353505059738226
2.36,-0.2579781173838099,0.0228316619531024,1.5514977107060834,-0.0078717065725553,0.1423318457464981,0.0336420300961096,0.222518698488961,-0.087341791029123,0.0918353621357319,-0.2532664385122831,0.0210039297725959,1.5501556618234582,0.3384837630334757,-0.0970230752757207,0.0960187375686641,0.3404438743400783,0.0756248490925939,0.2722454161760992,0.1899087863857486,10.853709524146325,-1.3372827154353284,0.20707157020952,-1.243295523610649
2.38,-0.253731954342646,0.0212215822919289,1.5532789308652544,-0.0063367871163921,0.1438936052003658,0.0340935189051649,0.2243177383435357,-0.0823936969800724,0.0954577854994997,-0.2466033804639091,0.0189741784528477,1.552037073260686,0.3491454842630289,-0.0880940938523427,0.0999150689832445,0.3195392391513476,0.0899519927287345,0.2474047024525298,0.1811211681883896,10.853709524146325,-1.3368249938461871,0.2061296351015469,-1.25076234603089
2.4,-0.2492246833910706,0.019625026025861,1.5552284009436932,-0.0050704528119224,0.1448290142543238,0.0345387290835382,0.2262737789921309,-0.0775332091060232,0.0992922942757393,-0.2425160674254692,0.0171018974429252,1.5580518201402294,0.2354019643036115,-0.0680611175312533,0.0740410207931265,0.3246301547445764,0.0978020324297598,0.2430243937024637,0.1917254388119786,10.864372562286915,-1.337201116772018,0.2055606019390367,-1.2571817058403076
2.42,-0.2446500697519476,0.0181400836951802,1.5571601890688556,-0.0036691835768981,0.1437816487078066,0.0349905384665106,0.2310717996460188,-0.0713476533881983,0.0932226494963827,-0.2425160674254692,0.0171018974429252,1.5580518201402294,0.2354019643036115,-0.0680611175312533,0.0740410207931265,0.4952844876457878,0.2399010326943937,0.3092777858912425,-0.3034822389678261,10.874344133490013,-1.3424473123420346,0.2051097589060928,-1.2613673326597392
2.44,-0.2402210922100554,0.0168349655965159,1.558866547069723,-0.0019888117876734,0.1395919045409333,0.0354387354286347,0.234510897178517,-0.0664353007482175,0.0867877018190219,-0.2425160674254692,0.0171018974429252,1.5580518201402294,0.2354019643036115,-0.0680611175312533,0.0740410207931265,0.4397929964993021,0.1719548766249148,0.2456176319990406,-0.3217473838680422,10.258396868423006,-1.353027767062545,0.204035922085351,-1.2555945128997017
2.46,-0.2355276989817525,0.0155510111180185,1.5605351714020936,-0.0002595020497661,0.1330096255484327,0.03588811022143,0.2342500616488345,-0.0622453793145838,0.0804562363182554,-0.2401620477824331,0.0164212862676127,1.5587922303481607,0.2376188094956267,-0.0651946016414894,0.0697576678518518,0.3798385584066072,-0.0130417764841267,0.2094960716816852,-0.3165732750383232,10.274607746702712,-1.3656612473279324,0.2029223717120855,-1.2464337657572768
2.48,-0.2308817660467015,0.0143427992154383,1.5620802744638338,0.0012115513309531,0.1258227250250506,0.0362936975261108,0.2301178815710433,-0.0588014864599441,0.0743959576424128,-0.2354540084963608,0.0150600639169876,1.5602730507640232,0.242052499879657,-0.0594615698619618,0.0611909619693025,0.4051613500150477,-0.2066090038895629,0.1721946427319834,-0.3030139337921331,10.274607746702712,-1.3763694453446873,0.2018228603682689,-1.2349834775431534
2.5,-0.2263546355902909,0.0131960169121862,1.5635050590253288,0.0022410152243559,0.1193145179067663,0.0366464405310891,0.2227558182178019,-0.0560176959025348,0.0684068421758622,-0.2307459692102886,0.0136988415663626,1.5617538711798855,0.2464861902636874,-0.0537285380824341,0.0526242560867532,0.494517367633169,-0.3681031676620691,0.1391895278704643,-0.2994557733275261,10.274536179387724,-1.3841793210333706,0.2010584266269013,-1.223556084074776
2.52,-0.2222171995863033,0.0121534198472447,1.5647477125966631,0.0026764008998774,0.1146524653158645,0.0369310057619462,0.213076535014856,-0.053825549750265,0.062714414502157,-0.2258162454050149,0.0126242708047139,1.5628063563016208,0.2509198806477177,-0.0479955063029065,0.044057550204204,0.5720527967244532,-0.483964160147296,0.109607307613491,-0.2846213836852608,10.265812757106689,-1.3896877277598587,0.2007813755060199,-1.2124861227557728
2.54,-0.2180855941636707,0.0110985608660226,1.5659352558390398,0.0024697020569557,0.1123513304743613,0.037179318672449,0.2005640639057271,-0.0517366832120701,0.0563302681154651,-0.2208865215997411,0.0115497000430652,1.5638588414233558,0.2553535710317481,-0.0422624745233788,0.0354908443216547,0.7100750343412435,-0.6256235554564449,0.1044433269097467,-0.3192073193345957,10.238124302769393,-1.3900244507204895,0.2010195993018234,-1.2032436716859158
2.56,-0.2142065611220295,0.0100878247672698,1.5669919454461447,0.0015967988577356,0.1131724267724293,0.0373789460065649,0.1884133474867183,-0.0493802999418962,0.0496737428614906,-0.2158459555348666,0.0106184550759047,1.5646971588980272,0.2597872614157784,-0.0365294427438511,0.0269241384391054,0.7026766327193549,-0.6075358209504375,0.1178191635086964,-0.3328262626987242,10.238124302769393,-1.3842234454518687,0.2016155192118195,-1.1967460030831645
2.58,-0.2107279431510766,0.0091768359353258,1.567871847641926,0.0002849697178371,0.1161094175832196,0.0375278720418061,0.1786661557117703,-0.046596143216584,0.0432881885583023,-0.2106945472103913,0.0098305359032324,1.5653213087256348,0.2642209517998088,-0.0307964109643235,0.0183574325565561,0.599029590103195,-0.4873595887473977,0.1392078362656063,-0.3192777151594161,10.210009322450787,-1.3760519664577402,0.2028375457254348,-1.193159156737091
2.6,-0.2072429814812761,0.008282673950238,1.568666741102738,-0.0014098409500341,0.1206236465517868,0.0376491043390337,0.1706074277262497,-0.0429248611947233,0.0365350396440559,-0.2017946353654881,0.0068470287744966,1.5700362570698412,0.1922205816218856,-0.0311655409715512,0.0280758398959855,0.5568357672748742,-0.4029363992760312,0.1835641010930377,-0.3376574457123218,10.195094390322993,-1.3668254774933088,0.2044740981448873,-1.19237043218551
2.62,-0.2038742676434503,0.0074782394622501,1.569385276033446,-0.0029784629540549,0.1254265844129096,0.0377628553334428,0.1668581415931589,-0.0377258914763699,0.0359479859741195,-0.2017946353654881,0.0068470287744966,1.5700362570698412,0.1922205816218856,-0.0311655409715512,0.0280758398959855,0.3218348359466697,-0.1874643066545417,0.259948485917667,-0.0293526834968159,10.186176085472653,-1.352941701582301,0.2054860387479414,-1.193067699345218
2.64,-0.2007284982517443,0.006815923284896,1.5700616015283138,-0.0040097034062617,0.1294670099104317,0.0378910497205599,0.1644979633157583,-0.0322995374183112,0.0352271246327602,-0.2017946353654881,0.0068470287744966,1.5700362570698412,0.1922205816218856,-0.0311655409715512,0.0280758398959855,0.2980578842187802,-0.1180089138700282,0.2713177029029363,-0.036043067067968,10.572188394855402,-1.3485445039378627,0.2071146185102666,-1.1992826209191991
