t,x,y,z,roll,pitch,yaw,v_x,v_y,v_z,ref_x,ref_y,ref_z,ref_v_x,ref_v_y,ref_v_z,a_com,a_x,a_y,a_z,thrust,wind_x,wind_y,wind_z
0.0,-2.473267715817728,2.444176077727457,3.0053490119167243,0.0123826724980265,0.1363648033023428,0.0259462720695158,0.0056555273059778,0.0046629058199256,0.0178505257252627,-2.47309161829551,2.4442154497300748,3.005891862479116,0.006358445421973,-0.0977992696074605,-0.081967786691746,0.9648431847487232,0.2827763652988925,0.2331452909962828,0.8925262862631357,10.550936756785632,-1.2878526798957546,0.1644760770955324,-1.178825693815969
0.02,-2.4732177719967257,2.444525309522489,3.0054685141150905,0.021829995781992,0.1369679172324633,0.0266184643809397,-0.0003107758394204,0.0246078634857878,-0.0058223901003476,-2.47309161829551,2.4442154497300748,3.005891862479116,0.006358445421973,-0.0977992696074605,-0.081967786691746,1.5762336860394917,-0.2983151572699161,0.9972478832931108,-1.1836457912805158,10.5510021318878,-1.3085829340725423,0.1568689476412392,-1.1914786230342562
0.04,-2.4732819638846566,2.4450143308121595,3.005092204899888,0.0361640895828109,0.1385501586737267,0.027645957120469,-0.0059379916314807,0.0253965850503741,-0.0325231033224419,-2.47309161829551,2.4442154497300748,3.005891862479116,0.006358445421973,-0.0977992696074605,-0.081967786691746,1.364931981680202,-0.281360789603012,0.0394360782293132,-1.3350356611047152,9.201364545294382,-1.306901968369223,0.1405320079223575,-1.1746360801930429
0.06,-2.4734529701717305,2.44547444149198,3.0041483945437526,0.0515569710727213,0.1410795150958201,0.0287848816555872,-0.0106913002264301,0.0202064650659509,-0.0604130824194662,-2.4730280338412904,2.4432374570340003,3.0050721846121986,0.0064673155408294,-0.1177992699054837,-0.1019677869897692,1.4382126251740237,-0.2376654297474705,-0.2595059992211613,-1.3944989548512157,8.998769542943137,-1.3007735681018124,0.1240967697535329,-1.1566082837703682
0.08,-2.4737049486453566,2.4457932979473185,3.002656230890871,0.0663647499448832,0.1441902875015122,0.0299271483153259,-0.014102277383034,0.0116221241657749,-0.0874032029105338,-2.4729008649328508,2.441281471641851,3.003432828878364,0.0066850557785423,-0.1577992705015302,-0.1419677875858156,1.4263522338255494,-0.1705488578301968,-0.4292170450087983,-1.349506024553379,9.00913213347212,-1.2942728970766542,0.1095016740617059,-1.1422253207498851
0.1,-2.474010418986278,2.445910627424558,3.0006325266727107,0.0804613201999317,0.1475796941404358,0.0310561044308261,-0.0161395985338072,0.0002413020675331,-0.1136154893904761,-2.4727736960244115,2.4393254862497016,3.001793473144529,0.0069027960162551,-0.1977992710975767,-0.1819677881818621,1.4324434994178517,-0.1018660575386604,-0.5690411049120878,-1.3106143239971175,9.084019707984226,-1.2873839405580696,0.0952894667559871,-1.1282278679172806
0.12,-2.474325765521652,2.445786638093656,2.998230349971645,0.0932006879576028,0.1508181963358139,0.0320999251738971,-0.0168631554667385,-0.0129710747243524,-0.1379337288276419,-2.4726356401040865,2.43536950082775,2.998154117380892,0.007120536253968,-0.2377992716936231,-0.2219677887779085,1.3842572055522002,-0.0361778466465638,-0.6606188395942812,-1.2159119718582876,9.084019707984226,-1.2807339561885316,0.0822348379229069,-1.1140107855007724
0.14,-2.4746628632913046,2.445361037969672,2.995196667255437,0.1059501392530336,0.1540637884995748,0.0331490462244008,-0.0167261445173564,-0.0291616516064292,-0.1641907881601161,-2.472497584183761,2.4314135154057985,2.9945147616172543,0.0073382764916808,-0.2777992722896696,-0.261967789373955,1.5423899608754617,0.0068505474691039,-0.8095288441038406,-1.312852966623712,9.113509330817578,-1.2758055089416436,0.0702534989657769,-1.101237457615465
0.16,-2.4749874849215763,2.444587855598884,2.9916346853773184,0.1180509419005639,0.157001870493976,0.0341256656582148,-0.0156814764082013,-0.0476009842885717,-0.1907025164800334,-2.472354084757493,2.4264575299689457,2.989875405838716,0.0075560167293937,-0.317799272885716,-0.3019677899700014,1.615527823754607,0.0522334054577538,-0.921966634107126,-1.3255864159958637,9.07257091344036,-1.2717157300780804,0.0591309053114717,-1.0897935948760518
0.18,-2.475282709689596,2.4434231219688707,2.987541748984082,0.1295310111196802,0.1595176214188479,0.0350064684262575,-0.0138714120536366,-0.068192094898775,-0.2172698412140624,-2.4722051418252824,2.420501544517192,2.9842360500452765,0.0077737569671066,-0.3577992734817624,-0.3419677905660478,1.68307227463101,0.0905032177282345,-1.0295555305101654,-1.328366236701449,9.064404454349642,-1.2688542212120055,0.0493327445733875,-1.0793253411987769
0.2,-2.475523750686801,2.441909940520898,2.983160973101115,0.1397014507910552,0.1614766812076499,0.0357260537093371,-0.0115892601735973,-0.0901306091905342,-0.2425239941524141,-2.475976280292278,2.440013517223932,2.976678256923379,-0.0115511634200135,-0.1681920963888912,-0.3172698427041785,1.6765133962833028,0.1141075940019698,-1.096925714587959,-1.262707646917588,9.065530146962374,-1.266383592649647,0.0400134287139914,-1.0673886927875815
0.22,-2.4757027101942866,2.439681525650563,2.9781750366126496,0.1448816865469781,0.1633786911154848,0.0360559330261276,-0.0062517489354954,-0.1295596225204485,-0.2536132644247255,-2.475976280292278,2.440013517223932,2.976678256923379,-0.0115511634200135,-0.1681920963888912,-0.3172698427041785,2.065253031446627,0.2668755619050937,-1.9714506664957152,-0.554463513615569,9.07153545978872,-1.2517709060926991,0.0357538157989825,-1.0491545170637495
0.24,-2.475767367023392,2.4367392082262533,2.97299002328995,0.1438634706879387,0.165307107045268,0.0359322452137559,-0.0004675806704537,-0.1621702054431385,-0.2644718028590637,-2.475976280292278,2.440013517223932,2.976678256923379,-0.0115511634200135,-0.1681920963888912,-0.3172698427041785,1.7427095125163248,0.2892084132520846,-1.6305291461344988,-0.5429269217169103,10.119364287219469,-1.2493338166835777,0.0368652818509047,-1.044650263226946
0.26,-2.475720185495436,2.4333779878686093,2.9678347974463435,0.1398510131130091,0.1669417569635747,0.0355524366248897,0.00513856466225,-0.1891985276501544,-0.2774969183123077,-2.476091791926478,2.438331596260044,2.973505558496337,-0.0110871136932889,-0.1881920966869144,-0.3372698430022017,1.52611655795683,0.2803072666351875,-1.351416110350795,-0.6512557726622015,9.94915190860138,-1.247764723116315,0.0409800054007259,-1.0406204141777764
0.28,-2.4755568572222537,2.4293381675048416,2.962118805556029,0.1346755678272538,0.1682942269018305,0.0350161854298977,0.0108755334229411,-0.2131601977531404,-0.2935066965167009,-2.4763228151948784,2.4349677543322654,2.9671601616422536,-0.0101590142398397,-0.2281920972829609,-0.3772698435982481,1.4691727628493372,0.286848438034559,-1.1980835051492986,-0.80048891021966,9.759886687892504,-1.2474551524134512,0.0460622722525512,-1.0360110680297063
0.3,-2.475281487576031,2.4248468371863057,2.956058636496715,0.1296710771490888,0.1692246372890238,0.0344205025353205,0.0163420706256778,-0.2347220532518107,-0.3117878463034674,-2.476553838463279,2.4316039124044875,2.96081476478817,-0.0092309147863904,-0.2681920978790073,-0.4172698441942946,1.4396154686761276,0.2733268601368321,-1.0780927749335172,-0.9140574893383212,9.590998911041424,-1.248001928386138,0.0510342967449892,-1.0298591107425437
0.32,-2.4749009063211127,2.419942683827533,2.949609967545135,0.1252514147358819,0.1697536552394009,0.0338028111747284,0.0214163742432304,-0.2546958846777511,-0.3321406091147204,-2.4767384567590067,2.426240070446908,2.952469367904284,-0.0083028153329412,-0.3081920984750537,-0.457269844790341,1.4482208508080807,0.2537151808776302,-0.998691571297018,-1.017638140562649,9.450324461528908,-1.2484802759274023,0.0551687176885399,-1.0232168710066392
0.34,-2.474448009944364,2.4149237255380243,2.943097520949646,0.1216972720875564,0.1699548156274965,0.0332155698775679,0.0259829741387731,-0.2727247318875934,-0.3523501940078037,-2.476923075054734,2.4208762284893277,2.9441239710203986,-0.0073747158794919,-0.3481920990711002,-0.4972698453863875,1.3732447777732033,0.2283299947771344,-0.9014423604921136,-1.0104792446541666,9.331375655232478,-1.2481345844455345,0.0587465484266688,-1.0156069318893834
0.36,-2.4738800053941503,2.409270023845506,2.935818893953228,0.1183908196195724,0.1699241761183713,0.0325916643766336,0.0305501930922251,-0.291638598269932,-0.3744639898469099,-2.477084490864126,2.414512386516846,2.9347785741216112,-0.0064466164260427,-0.3881920996671467,-0.5372698459824339,1.472764235130153,0.2283609476726029,-0.9456933191169304,-1.105689791955311,9.271879911912038,-1.2478308026509903,0.0618351849784419,-1.0075419303667386
0.38,-2.4732230588115804,2.40324095927008,2.928091218495923,0.1152252859288174,0.1697015466526173,0.0319495212625396,0.0348896527561724,-0.3102176809095787,-0.3971944326684706,-2.4772227041871813,2.407148544529464,2.924433177207923,-0.0055185169725934,-0.4281921002631931,-0.5772698465784804,1.4838179241150913,0.2169729831973606,-0.9289541319823348,-1.1365221410780362,9.216641244130187,-1.2478420234671557,0.0647436633727538,-0.9992536362436284
0.4,-2.472482216190428,2.396845936309479,2.9199019128193218,0.112067839768827,0.1693372098004527,0.0312879948083941,0.0389564430467508,-0.3282260781344637,-0.4205602957850115,-2.471478576173772,2.3877300752246007,2.9082314968625,0.0548082062873422,-0.4102176823996948,-0.4971944341585868,1.4889633248150511,0.2033395145289225,-0.9004198612442532,-1.1682931558270435,9.1743521797207,-1.247478460251989,0.0673412564835356,-0.9920474904832992
0.42,-2.471706176864377,2.3904250913674905,2.9119205892075044,0.1093321447280247,0.170232688927728,0.0308135914008134,0.0429385834510793,-0.3467943951185504,-0.4184511808685015,-2.471478576173772,2.3877300752246007,2.9082314968625,0.0548082062873422,-0.4102176823996948,-0.4971944341585868,0.9553640713784872,0.1991070202164223,-0.9284158492043336,0.1054557458255001,9.130801303685985,-1.240480879745426,0.0699756152718591,-0.9777254383661308
0.44,-2.4707959515813216,2.3833026156095034,2.9035376823956045,0.1071876013301209,0.1733348163101343,0.0305949684318413,0.0481103824860964,-0.3646082925729165,-0.4203390123860416,-2.471478576173772,2.3877300752246007,2.9082314968625,0.0548082062873422,-0.4102176823996948,-0.4971944341585868,0.9322638516159112,0.2585899517508559,-0.8906948727183062,-0.0943915758770036,10.599683775694755,-1.2376730194385226,0.071293814871146,-0.9824699233563704
0.46,-2.469767040353275,2.3758276375703464,2.8950538464594544,0.1057285823879103,0.1776741841757468,0.0305467650102953,0.0547435336609164,-0.3820389657880625,-0.4279441301007328,-2.470930494110898,2.383627898400604,2.9032595525209137,0.0587919169935762,-0.430217682697718,-0.51719443445661,1.0070562033664423,0.331657558740999,-0.8715336607572982,-0.3802558857345622,10.24078843948064,-1.2336777967837662,0.0720216455803626,-0.98800755070228
0.48,-2.4686526506833864,2.368409253000125,2.886813461561486,0.1047772400909474,0.1821274383811582,0.0305566242375991,0.062342146882428,-0.3979873109767119,-0.4390847999772,-2.4698343299851517,2.3754235447526098,2.893315663837742,0.0667593384060442,-0.4702176832937644,-0.5571944350526564,1.0442738654716883,0.379930661075582,-0.797417259432473,-0.5570334938233584,9.949373159764946,-1.2293312229385691,0.0725136441532756,-0.9927651538991852
0.5,-2.4673126100656915,2.360281122594726,2.877878305578507,0.1043148631196596,0.1866094976447346,0.030574106862893,0.0713365307496985,-0.4139978598526779,-0.4539889573640588,-2.4687381658594045,2.367219191104616,2.88337177515457,0.0747267598185121,-0.5102176838898109,-0.5971944356487029,1.1825507641046218,0.4497191933635233,-0.800527443798299,-0.7452078693429426,9.561128517336329,-1.225687378499824,0.0726266966136783,-0.9961011129170264
0.52,-2.465783730462514,2.351837518109186,2.868617249328121,0.1045221931259076,0.1905326035148085,0.0305727033279032,0.0811341654843151,-0.42959282034057,-0.4714691413705182,-2.4672436306630345,2.35701483742682,2.8714278864415963,0.0826941812309801,-0.5502176844858574,-0.6371944362447494,1.2695996139645334,0.4898817367308301,-0.7797480243946026,-0.8740092003229671,9.561128517336329,-1.2230652414748393,0.0722334228113302,-0.9976676413674448
0.54,-2.464050590904153,2.343083500365469,2.8589934152286247,0.1054502733133291,0.1936698694340986,0.0305335221249787,0.0916688198963315,-0.44510609731364,-0.4900272238128572,-2.465749095466664,2.346810483749024,2.859483997728622,0.0906616026434481,-0.5902176850819039,-0.6771944368407958,1.3191314661174338,0.5267327206008205,-0.7756638486534989,-0.9279041221169516,9.432444353510618,-1.2214799956605111,0.0713259052792388,-0.9972057827090712
0.56,-2.4622025190837418,2.3344675321214154,2.849500412806538,0.1066561701158863,0.1958050521093694,0.0304241755306162,0.1022792084202634,-0.4609969678532662,-0.5082849563940857,-2.4640553747349823,2.335606130056326,2.8465401090007467,0.098629024055916,-0.6302176856779502,-0.7171944374368422,1.3214054167283396,0.5305194261965955,-0.7945435269813145,-0.9128866290614212,9.361992862892292,-1.220355022103674,0.070062647698264,-0.9947142857749236
0.58,-2.460037742265949,2.3250639081143896,2.8391255310970505,0.1077654955653173,0.1971275708060718,0.0301918833239467,0.1135818270853716,-0.4784893861725403,-0.528253927882497,-2.4621624684679886,2.323401776348728,2.83259622025797,0.106596445468384,-0.6702176862739967,-0.7571944380328887,1.442648354286582,0.5651309332554102,-0.8746209159637031,-0.9984485744205684,9.361992862892292,-1.2203147580926343,0.0689445451164999,-0.9908653947742724
0.6,-2.4576469908498475,2.3153005460798104,2.828344508585725,0.1082527231351966,0.197545360291162,0.0298101952837158,0.1248501033577468,-0.4968872952005895,-0.5488414554046601,-2.4543586509116806,2.3011394388057624,2.8127128347029258,0.1375857444367367,-0.5784893876626565,-0.6282539293726132,1.4910595194615577,0.5634138136187627,-0.919895451402461,-1.0293763761081542,9.321121198034234,-1.2211061619112735,0.0683742802714932,-0.9855746228125416
0.62,-2.4549852004304413,2.305101526679372,2.8174358584875936,0.1066887561458864,0.1975450162012659,0.0292330097466736,0.1407715558851831,-0.521499357735988,-0.5409291207904757,-2.4543586509116806,2.3011394388057624,2.8127128347029258,0.1375857444367367,-0.5784893876626565,-0.6282539293726132,1.5181002205689436,0.7960726263718125,-1.2306031267699218,0.3956167307092195,9.28924174720487,-1.2154724661703904,0.0693406168390804,-0.9740807707254532
0.64,-2.452166203119829,2.294985242116751,2.807194126222261,0.1031669328727465,0.1974583415668611,0.0285321868629095,0.1551192024396445,-0.5416207331088078,-0.5375573305100374,-2.4543586509116806,2.3011394388057624,2.8127128347029258,0.1375857444367367,-0.5784893876626565,-0.6282539293726132,1.2470902916799216,0.7173823277230706,-1.0060687686409886,0.1685895140219162,11.002052582884062,-1.218885605448316,0.0720922412675347,-0.9747327947365728
0.66,-2.4489136203831667,2.2839618749879267,2.796427917271316,0.0988686952722401,0.1970645846132244,0.027726183346447,0.169283983980176,-0.5594713790984962,-0.5394679049631951,-2.452982793467313,2.295354544929136,2.8064302954091995,0.1423865279070097,-0.5984893879606796,-0.6482539296706363,1.143390673699524,0.7082390770265747,-0.892532299484422,-0.0955287226578838,10.60691325668995,-1.2210226514155276,0.0752414900412396,-0.9755285749900416
0.68,-2.4453878489727816,2.272603979147028,2.785570548224638,0.0946590143077621,0.1961695066758701,0.0268847421679843,0.1825006253759399,-0.5753339370352066,-0.5463502267739783,-2.450231078578579,2.2837847571758827,2.7938652168217475,0.1519880948475557,-0.6384893885567261,-0.6882539302666828,1.088194269865102,0.6608320697881948,-0.7931278968355215,-0.3441160905391593,10.25990255585657,-1.2234142759317927,0.0784081060285624,-0.9738059558239546
0.7000000000000001,-2.4416076940725997,2.260945690129803,2.774527948827106,0.0908002887969595,0.1945961138877677,0.0260147777421356,0.1947854448774867,-0.5897105301769585,-0.5575190149449573,-2.447479363689844,2.2722149694226297,2.781300138234295,0.1615896617881018,-0.6784893891527726,-0.7282539308627293,1.098117764355503,0.6142409750773375,-0.718829657087594,-0.5584394085489497,9.743953460984812,-1.2263759209610707,0.0811909559938607,-0.970206732041131
0.72,-2.437798060951125,2.249615216237489,2.7637996010509096,0.0875636081489786,0.1923662733549339,0.0251643456240846,0.2055417922845384,-0.6023030116550583,-0.5711925801185876,-2.444247570454082,2.258645181639574,2.7667350596170404,0.1711912287286478,-0.718489389748819,-0.7682539314587757,1.0738202641445531,0.5378173703525848,-0.6296240739049885,-0.6836782586815193,9.743953460984812,-1.230261235188212,0.0837694742658284,-0.964318178196694
0.74,-2.43357714304204,2.237439191641443,2.752209724132282,0.0846953935386653,0.1892291021015963,0.0242529570526168,0.2158705582882518,-0.6146959086132863,-0.5871227979909965,-2.44101577721832,2.2450753938565184,2.7521699809997857,0.1807927956691938,-0.7584893903448655,-0.8082539320548222,1.1336215678513923,0.5164383001856745,-0.6196448479113992,-0.7965108936204446,9.558587917452314,-1.23474524180359,0.0858813845927151,-0.9563433646180944
0.76,-2.4291594622994084,2.2250119721232573,2.740286832248528,0.0821043444536663,0.1852960118352984,0.0233103421183859,0.2252574669981788,-0.6273063305405886,-0.6043160928406279,-2.437543944809045,2.230505606058562,2.73660490236763,0.1903943626097399,-0.7984893909409119,-0.8482539326508686,1.1648456808730625,0.4693454354963475,-0.6305210963651164,-0.8596647424815695,9.388147609676707,-1.2396709060067177,0.0877256879498003,-0.946886100276248
0.78,-2.4245668250410723,2.2123352347325755,2.7280086568673747,0.0794798277531992,0.1805971545816831,0.0223221434452026,0.2333795436582173,-0.6395986064669207,-0.622585639429708,-2.433832073226255,2.214935818245704,2.720039823720573,0.1999959295502859,-0.8384893915369583,-0.888253933246915,1.173503844573159,0.4061038330019265,-0.6146137963166043,-0.9134773294540044,9.31411192181804,-1.2451253895151178,0.0895063565298358,-0.9365305912681672
0.8,-2.4200707631352256,2.200069507917025,2.715995634301826,0.0768969838692765,0.1756537431690064,0.0213604145610027,0.2393146168163181,-0.6507890086984915,-0.6409776405494279,-2.412897847858161,2.180355304409229,2.696879374895889,0.2648415313026513,-0.7395986079570368,-0.7225856409198241,1.116597399114975,0.2967536579050397,-0.5595201115785431,-0.9196000559859918,9.236015591691284,-1.2513845154134495,0.0914508889313932,-0.9245687402673858
0.8200000000000001,-2.415225868610525,2.1869097899365277,2.703270174950444,0.0740444104797455,0.1717817227365086,0.0204641637447273,0.2447989953721095,-0.6645411073619802,-0.629028812549154,-2.412897847858161,2.180355304409229,2.696879374895889,0.2648415313026513,-0.7395986079570368,-0.7225856409198241,0.95127955456543,0.2742189277895712,-0.6876049331744349,0.597441400013693,11.19899438050834,-1.252511484371046,0.0935863006808027,-0.904879512310314
0.84,-2.4102941395117887,2.173494454153922,2.690783997513416,0.0714609581835382,0.1714479402270126,0.0198674060476265,0.2484536647683991,-0.676322270013101,-0.6207673738305072,-2.412897847858161,2.180355304409229,2.696879374895889,0.2648415313026513,-0.7395986079570368,-0.7225856409198241,0.7423000934768468,0.1827334698144778,-0.5890581325560362,0.4130719359323409,10.699257052940084,-1.2518825431807126,0.0948427535216135,-0.9099001599464392
0.86,-2.4052789178887326,2.1598540520999485,2.6783776062875724,0.0693901022462198,0.1738196014838591,0.0195090406579387,0.2532135843688068,-0.6871901630337254,-0.6202769169751312,-2.410249432545135,2.172959318329659,2.689653518486691,0.2711339288315381,-0.75959860825506,-0.7425856412178473,0.5937349603086121,0.2379959800203862,-0.5433946510312204,0.0245228427687982,10.699257052940084,-1.2492758975031284,0.0958068395632905,-0.9158205066198314
0.88,-2.4004126598391844,2.146701897343181,2.666546057484737,0.0678265505650116,0.177443121061968,0.019295867625755,0.2589866098054189,-0.6967599204334823,-0.625178156003751,-2.404952601919082,2.158167346170518,2.6752018056682947,0.2837187238893117,-0.7995986088511065,-0.7825856418138938,0.6101848560019318,0.2886512718306033,-0.4784878699878481,-0.2450619514309915,10.27627352570198,-1.2457416640002297,0.0966450061767673,-0.9214641337648722
0.9,-2.395158890032792,2.132670171796148,2.653947779271128,0.066705141833629,0.1818763634620358,0.0191531538446306,0.2662275411876506,-0.7059236705456683,-0.6345871606761497,-2.399655771293029,2.1433753740113777,2.660750092849898,0.2963035189470853,-0.8395986094471529,-0.8225856424099403,0.7498912793298698,0.362046569111582,-0.4581875056092976,-0.4704502336199345,9.96889754129552,-1.242217415780756,0.0971691955302733,-0.9262090679923424
0.92,-2.389748711244492,2.118462917525963,2.6411237554380693,0.06633438560926,0.1863693602797426,0.019071305452066,0.2745252190840309,-0.7143845146758508,-0.6474840813999029,-2.393729700914087,2.1265834018224345,2.6442983800016995,0.3088883140048589,-0.8795986100431994,-0.8625856430059867,0.8757395532093106,0.4148838948190181,-0.4230422065091277,-0.6448460361876573,9.733900546172665,-1.2391335456027015,0.0971662135052155,-0.929668130612736
0.94,-2.3841605017534944,2.104092049595462,2.628023321014207,0.0669319478565243,0.190504205048755,0.0190401810577538,0.2839334147456733,-0.722405327578648,-0.6619088266282357,-2.3878036305351453,2.1097914296334914,2.627846667153501,0.3214731090626325,-0.919598610639246,-0.9025856436020332,0.9498958628867336,0.470409783082118,-0.4010406451398551,-0.7212372614166407,9.557045207774536,-1.2366622899143154,0.0964743362710846,-0.9313399116482244
0.96,-2.3786662996519894,2.0902818694661387,2.6153017376849204,0.0682082590889076,0.1938066861601844,0.0190261598385927,0.2939195390374901,-0.7308952014872052,-0.6764761011490383,-2.38156294027976,2.091999457429647,2.610394954290401,0.334057904120406,-0.9595986112352922,-0.9425856441980796,0.9798037103410564,0.4993062145908389,-0.4244936954278633,-0.7283637260401321,9.49475851419902,-1.234965778842933,0.0951592428802467,-0.9317170844830984
0.98,-2.372671724119728,2.0755635497979066,2.6016017395725792,0.0699264672309141,0.1964230156571706,0.0189867138719896,0.3049923141649707,-0.7405069842272906,-0.6927911403757612,-2.375007630147929,2.0732074852109017,2.5919432414123995,0.3466426991781796,-0.9995986118313386,-0.982585644794126,1.096783047639621,0.5536387563740336,-0.480589137004267,-0.8157519613361419,9.45536468258797,-1.234423702860096,0.0935552578974465,-0.9307448946779262
1.0,-2.366451082427444,2.0606425979534992,2.5875652829617986,0.071655658223241,0.1980490871581072,0.0188848101164456,0.3164278979602816,-0.7510554820209844,-0.710010788493771,-2.3574221084114795,2.038538200586542,2.5669621825537914,0.3415107016614421,-0.8405069857174067,-0.7927911418658773,1.1603444141193804,0.571779189765545,-0.5274248896846911,-0.86098240590049,9.362043965112209,-1.2348898658333758,0.0919646413941497,-0.9281396118778218
1.02,-2.3599388365600404,2.045437538172307,2.573524119972386,0.0717349017590596,0.198990456338528,0.0186227913813145,0.3342102457024345,-0.7683150562354333,-0.6932131104364497,-2.3574221084114795,2.038538200586542,2.5669621825537914,0.3415107016614421,-0.8405069857174067,-0.7927911418658773,1.496885751656026,0.8891173871076435,-0.8629787107224451,0.8398839028660621,9.362043965112209,-1.229405443919931,0.091540680222411,-0.9166178108940076
1.04,-2.3534269184393835,2.030693043030093,2.560462278930613,0.0697518261696564,0.1994503577077757,0.0182041399061343,0.3502915466756293,-0.7827166132414012,-0.6826354729951037,-2.3574221084114795,2.038538200586542,2.5669621825537914,0.3415107016614421,-0.8405069857174067,-0.7927911418658773,1.2019770162394792,0.8040650486597412,-0.7200778502983951,0.5288818720672994,11.439632362832526,-1.230837685881183,0.092688321436622,-0.9230011637336012
1.06,-2.346253263358181,2.014899593647172,2.5468614695907927,0.0662692065577406,0.1993143256495749,0.0176324109080927,0.3660945757005157,-0.7954027053380857,-0.6782648763736142,-2.354007001394865,2.030133130729368,2.5590342711351326,0.3488143791607364,-0.8605069860154299,-0.8127911421639005,1.0365504978952278,0.7901514512443197,-0.6343046048342238,0.2185298310744765,10.952470513251685,-1.2326999333602862,0.0951062208288855,-0.9267091069990232
1.08,-2.3387764205787565,1.998884911984518,2.53327715635107,0.0624891266201973,0.198346473743104,0.0169999175660124,0.3807139140512091,-0.8053544589440725,-0.6803281684325039,-2.347176787361636,2.01332299101502,2.543178448297815,0.363421734159325,-0.9005069866114763,-0.8527911427599469,0.8902522504417004,0.73096691753467,-0.4975876802993439,-0.1031646029444832,10.528818519045672,-1.235669762627849,0.0977540117932781,-0.9273563236496032
1.1,-2.331413035115621,1.983503727989806,2.5202859675996314,0.0591725849555103,0.1964849154241132,0.0163773443284191,0.3935676246588584,-0.8132598916751165,-0.6870293786641497,-2.3403465733284072,1.996512851300672,2.527322625460497,0.3780290891579135,-0.9405069872075228,-0.8927911433559934,0.8255603576041112,0.6426855303824641,-0.3952716365521969,-0.3350605115822913,10.17520097412853,-1.2399044855477312,0.1003805019387819,-0.9250255455062502
1.12,-2.323411192277377,1.9671630948924057,2.50643353702544,0.0562132393313026,0.1934158590400778,0.0157154445450028,0.4058047759056612,-0.820445317754821,-0.6980173851504824,-2.332785991545249,1.977702711556521,2.5094668025933777,0.3926364441565021,-0.9805069878035692,-0.93279114395204,0.8973774360988168,0.6118575623401401,-0.3592713039852258,-0.5494003243166345,9.891217360031078,-1.245493337416358,0.1026043034754114,-0.9200770499152549
1.14,-2.315177637455098,1.950686084997564,2.4923370731105896,0.0538820144762593,0.1891861600546902,0.0150557938007632,0.4167918614538938,-0.8269834232637178,-0.7111252180027773,-2.3252254097620906,1.9588925718123704,2.491610979726258,0.4072437991550907,-1.0205069883996158,-0.9727911445480864,0.9155301122482944,0.5493542774116317,-0.3269052754448387,-0.6553916426147444,9.656476586493229,-1.2518155345312687,0.1043097588752359,-0.912358785134694
1.16,-2.30673938645569,1.934074521905594,2.47796003847695,0.051889651065268,0.1838415337106023,0.0143835517413434,0.426183621138252,-0.8337981929855739,-0.7258543253706433,-2.317299644103968,1.939082432053319,2.472755156844237,0.4218511541536792,-1.0605069889956622,-1.0127911451441327,0.9375404527069596,0.469587984217909,-0.3407384860928064,-0.7364553683933017,9.445206827223956,-1.2580341027025317,0.1056287585628206,-0.9028936051408472
1.18,-2.298571544144272,1.918168535309345,2.464015419560073,0.0500437562870464,0.1781286347228957,0.0137385774902209,0.4329246781830954,-0.8400997636503078,-0.7412150516839741,-2.30900869457088,1.9182722922793665,2.452899333947314,0.4364585091522678,-1.1005069895917086,-1.052791145740179,0.8959681297310728,0.3370528522421673,-0.3150785332366956,-0.7680363156665371,9.445206827223956,-1.2645916303493006,0.1069390220177999,-0.8915401177474666
1.2,-2.289858887223554,1.901300843463145,2.4490059964782622,0.0481162989351932,0.1719293490905456,0.0130774256113326,0.4377897234630931,-0.8462743964119097,-0.7589638966104452,-2.276925310235117,1.8761635471268296,2.4269546669758744,0.4720030032162832,-0.940099765140424,-0.8412150531740902,0.970587774934595,0.2432522639998879,-0.3087316380800953,-0.8874422463235554,9.34821140249278,-1.27081374139701,0.1082088001928101,-0.8795417877690367
1.22,-2.281045601057968,1.8842827418640955,2.433972943073184,0.0457346299695746,0.1670402254287593,0.0124742137306686,0.4433032253603392,-0.8549708401762287,-0.7416845497382756,-2.276925310235117,1.8761635471268296,2.4269546669758744,0.4720030032162832,-0.940099765140424,-0.8412150531740902,1.0057368761829009,0.2756750948623043,-0.4348221882159497,0.8639673436084794,9.23906931309375,-1.271639938088223,0.1096812921634719,-0.8598991131396317
1.24,-2.2721478576504053,1.867116954528812,2.4192844690939443,0.0432344371445566,0.1653190869970835,0.0120327178268209,0.4463073776346921,-0.8611678807418709,-0.7286593292469126,-2.276925310235117,1.8761635471268296,2.4269546669758744,0.4720030032162832,-0.940099765140424,-0.8412150531740902,0.7366895742243423,0.1502076137176428,-0.3098520282821093,0.6512610245681505,11.46745177106095,-1.273882203677084,0.1112109662865576,-0.864047199860552
1.26,-2.263640611964437,1.8507080383893284,2.405484301511202,0.0413288228402037,0.1662387840027627,0.0117724199458965,0.4493210792571522,-0.8658944318678247,-0.7246237090379495,-2.2722052802029538,1.8667625494754252,2.4185425164441336,0.4798186682229208,-0.9600997654384472,-0.8612150534721134,0.3453581962487095,0.1506850811230059,-0.2363275562976885,0.2017810104481543,10.89784678594424,-1.272954805490229,0.1124685640224174,-0.869890520647171
1.28,-2.254614286510616,1.833348128730358,2.390978069230633,0.0399741681196842,0.1688227643840388,0.011621751631873,0.4533212152682556,-0.869901304199409,-0.7264897356416216,-2.262765220138628,1.847960554172617,2.401718215380652,0.4954499982361959,-1.0000997660344937,-0.9012150540681598,0.2980694938875614,0.2000068005551719,-0.2003436165792183,-0.0933013301836038,10.408930674189833,-1.2710402544883057,0.113305184802066,-0.875755545323604
1.3,-2.245499528062548,1.8159180627116007,2.376375787549372,0.0395774220232579,0.1722889128161803,0.0115833127631284,0.4581280152962369,-0.8730478926735775,-0.7336350104658432,-2.2533251600743025,1.8291585588698085,2.38489391431717,0.5110813282494711,-1.04009976663054,-0.9412150546642064,0.4584247425925734,0.2403400013990642,-0.1573294237084244,-0.3572637412110835,10.056955935220683,-1.2688127256005366,0.1134702262882845,-0.8809046596954905
1.32,-2.2367432968307663,1.7993074118055383,2.3623352647125144,0.0403469018630555,0.1758867621151759,0.0116495461852275,0.4634479804268755,-0.8754498000067645,-0.743960287800709,-2.243103533509313,1.8083565635371976,2.366069613223886,0.5267126582627462,-1.0800997672265864,-0.9812150552602528,0.5930483535731315,0.2659982565319296,-0.1200953666593507,-0.5162638667432884,9.792832037423976,-1.2661123492728092,0.1127330118718268,-0.885200182516519
1.34,-2.22740712326806,1.78177572119358,2.3473282049239548,0.0426524389644816,0.1796474454465494,0.0118365392317264,0.4699811007545576,-0.8777778137401407,-0.7562646216451103,-2.232881906944324,1.7875545682045868,2.3472453121306014,0.5423439882760214,-1.120099767822633,-1.0212150558562991,0.7062186993298205,0.3266560163841053,-0.1164006866688105,-0.6152166922200664,9.599530354130366,-1.2633241557853243,0.1108053206603978,-0.8880637112388169
1.36,-2.217927380800474,1.7641733564522482,2.332065286635516,0.0460165843948249,0.1830555436976902,0.0120986345944726,0.4777200059525991,-0.8825964825978063,-0.7694478541590373,-2.2222694971290027,1.7657525728570749,2.327421011022416,0.5579753182892965,-1.1600997684186791,-1.0612150564523457,0.8014172489102838,0.3869452599020773,-0.2409334428832787,-0.6591616256963473,9.530129207454593,-1.2607695773190315,0.1080498184609674,-0.8900773919697381
1.38,-2.208282439869357,1.746452722047814,2.316529995685196,0.0492996503602773,0.1857849102670327,0.0123381653483315,0.4863608232888926,-0.8891980153101583,-0.7834154813057127,-2.2112663040633493,1.742950577494662,2.30659670989933,0.5736066483025717,-1.2000997690147257,-1.1012150570483918,0.8850685940931166,0.4320408668146702,-0.3300766356175988,-0.6983813573337716,9.496759782586196,-1.2585950610592878,0.1054682597714582,-0.8915539777895466
1.4,-2.198954421690952,1.729486077335774,2.301504708402663,0.051970037410331,0.187602012678049,0.0125058468584989,0.4950480652610776,-0.8963395141680686,-0.7974814120951897,-2.183964398704912,1.701992821282306,2.2773592216199106,0.5295844464752424,-0.9891980168002744,-0.8834154827958288,0.900443762812517,0.4343620986092533,-0.3570749428955133,-0.7032965394738522,9.46559988579702,-1.25708227192715,0.103127845416764,-0.8918619808778607
1.42,-2.188896121331722,1.7114105595257596,2.285725579112317,0.0526937858961635,0.1888388468179025,0.0125084673536944,0.5106375863202574,-0.9104153637014378,-0.777953150794763,-2.183964398704912,1.701992821282306,2.2773592216199106,0.5295844464752424,-0.9891980168002744,-0.8834154827958288,1.4339767225781628,0.7794760529589856,-0.7037924766684633,0.9764130650213364,11.6580269082242,-1.2514753164087165,0.1023669270077995,-0.8796880107106394
1.44,-2.178522512720912,1.69307602479776,2.2703412645593097,0.0507390562197002,0.1895340151170913,0.012302939924552,0.5258017793630616,-0.922109400861176,-0.762013163474169,-2.183964398704912,1.701992821282306,2.2773592216199106,0.5295844464752424,-0.9891980168002744,-0.8834154827958288,1.2457793258774472,0.7582096521402126,-0.5847018579869079,0.7969993660296992,11.6580269082242,-1.2524858049279783,0.1037335267491674,-0.8879596540645559
1.46,-2.167858745947554,1.6745335285625988,2.255182297264948,0.0471921210450967,0.1895122014375843,0.0119611815438764,0.5397046853869413,-0.931065900070158,-0.7546075468910847,-2.17866855424016,1.6921008411143037,2.2685250667919523,0.5382291711125123,-1.0091980170982977,-0.903415483093852,0.9060254286787168,0.6951453011939834,-0.4478249604491058,0.3702808291542181,11.142733562966896,-1.2542027735348955,0.1062799105222664,-0.8942179683839079
1.48,-2.1574832292935078,1.6567839812908254,2.240853524752328,0.0435730464790624,0.1887011479690566,0.0115968832307102,0.5516808126352706,-0.9368313831172204,-0.7540230482590926,-2.168076865310655,1.672316880778298,2.2508567571360354,0.5555186203870524,-1.049198017694344,-0.9434154836898984,0.6652256333097437,0.5988063624164652,-0.2882741523531185,0.0292249315996029,10.263102359008371,-1.2568706002938483,0.1092755587183371,-0.897120349847064
1.5,-2.1463292117464285,1.638000701439973,2.225728093105482,0.0401795368743542,0.1869448592996947,0.0112227183753259,0.5629779783272336,-0.9412330949901598,-0.7587769328662111,-2.15748517638115,1.6525329204422925,2.233188447480119,0.5728080696615923,-1.0891980182903906,-0.9834154842859448,0.6511536664679081,0.564858284598152,-0.2200855936469681,-0.2376942303559226,9.945993000896124,-1.260118007048881,0.1119716442329202,-0.8968394238451912
1.52,-2.1349633313637524,1.6191411957707833,2.210452829719882,0.03746804602917,0.1841949036121307,0.0108779640140048,0.5729478447536093,-0.944650379853458,-0.7684652406470501,-2.146029014987918,1.6307489600764846,2.2135201377944,0.5900975189361322,-1.129198018886437,-1.0234154848819914,0.7157851983188903,0.4984933213187825,-0.1708642431649032,-0.4844153890419533,9.687324010200427,-1.2639045294821074,0.1140430901459578,-0.8938322921226783
1.54,-2.123992061550416,1.601167446858109,2.1957392378235707,0.0355592323711197,0.1806482150810859,0.0105819746568656,0.5813180244972634,-0.9473233116662764,-0.7798177251310955,-2.1345728535946864,1.608964999710677,2.193851828108681,0.6073869682106722,-1.1691980194824836,-1.063415485478038,0.717780219457088,0.4185089871827085,-0.1336465906409234,-0.5676242242022678,9.687324010200427,-1.2683094396189798,0.1156548583944312,-0.8875315047793465
1.56,-2.112283061380896,1.5821884676250415,2.180000419349656,0.0339974825695889,0.1759420495519232,0.0102869477665761,0.5889792772966402,-0.9504203410248088,-0.7935169938612022,-2.122684455969591,1.586181039329968,2.173183518408061,0.6246764174852121,-1.20919802007853,-1.1034154860740844,0.7999317924724114,0.3830626399688397,-0.1548514679266144,-0.684963436505337,9.561084573238986,-1.273479559030094,0.116891735653168,-0.8793526181105874
1.58,-2.100440077679409,1.5631483947598788,2.163969945409393,0.0326599266353311,0.1703933735716424,0.009998864822079,0.594677683420914,-0.9533977316674755,-0.8088804785373288,-2.110363822112632,1.5623970789343578,2.15151520869254,0.6419658667597521,-1.2491980206745763,-1.1434154866701307,0.8327264688806542,0.2849203062136873,-0.1488695321333444,-0.7681742338063291,9.452212760897057,-1.2793974741654817,0.1179575622352498,-0.8696873768428137
1.6,-2.088506989962758,1.5440512414733154,2.147612447828366,0.0314821040371641,0.1644732757834485,0.0097294132666647,0.598161027344332,-0.9561318836950952,-0.8260522734974649,-2.070706193508364,1.515478508176505,2.1235259214825266,0.6433565099616225,-1.0533977331575917,-0.8977510411503392,0.8866789361881582,0.174167196170899,-0.1367076013809864,-0.858589748006805,9.348080464322264,-1.2849484375011817,0.118838860407261,-0.859839292021948
1.62,-2.077091975360655,1.5258240820638014,2.1321322696648357,0.0297154773591093,0.1598965030321346,0.0094796053043772,0.6031441412646975,-0.9618895027503848,-0.8025744215831093,-2.070706193508364,1.515478508176505,2.1235259214825266,0.6433565099616225,-1.0533977331575917,-0.8977510411503392,1.2340898792648598,0.2491556960182772,-0.2878809527644688,1.1738925957177793,9.240737195530528,-1.282724110818963,0.1197850125188089,-0.8371148988373481
1.64,-2.065001337281214,1.5065512769838656,2.1162817304967056,0.0274094075081743,0.1578099317655327,0.0092878430076373,0.6056528240075244,-0.9650458465558298,-0.7842894344258293,-2.070706193508364,1.515478508176505,2.1235259214825266,0.6433565099616225,-1.0533977331575917,-0.8977510411503392,0.9362114486912452,0.1254341371413447,-0.157817190272258,0.914249357864,11.795648873830032,-1.285878389072495,0.1215618993509493,-0.8427339198547968
1.66,-2.0534754653682743,1.4882003946565647,2.101469976306848,0.0256302324645898,0.158215323719222,0.0092147818275697,0.6077337484817583,-0.96661980641449,-0.775735279903429,-2.064272628408748,1.504944530844929,2.114548411071023,0.6530922752697642,-1.0733977334556148,-0.9155251536729412,0.4471609215294884,0.1040462237116957,-0.0786979929330133,0.4277077261200135,11.176362786015488,-1.2864535436644793,0.1231314250407599,-0.8503239275086215
1.68,-2.041293732028369,1.4688619146119932,2.085988727193126,0.0245144675793856,0.1602079575715863,0.0092412622896621,0.6104781606625801,-0.9672133201172262,-0.7731274911185744,-2.051405498209516,1.4838765761817772,2.0965933902480165,0.6725638058860477,-1.1133977340516614,-0.9510733787181456,0.1916025774878321,0.1372206090410888,-0.029675685136804,0.130389439242734,10.276340881601756,-1.2856014861063538,0.1241397596827584,-0.8571209509807957
1.7,-2.029051228649712,1.4495226112424746,2.0704982633648643,0.0246137683709241,0.1631139300492461,0.0093842005508288,0.6138018877852481,-0.9668854926122364,-0.7760366958930182,-2.0385383680102827,1.4628086215186251,2.078638369425009,0.6920353365023311,-1.1533977346477078,-0.9866216037633496,0.2214616517516833,0.166186356133402,0.0163913752494915,-0.1454602387221892,10.276340881601756,-1.2841397315155767,0.1242593520784862,-0.8629861694675964
1.72,-2.016734784896769,1.430195890335997,2.054908819218701,0.0262950575721621,0.1664270716724245,0.0096582510848416,0.6178011239802534,-0.9660500360272736,-0.7827652935477182,-2.024697661280236,1.4397406668256711,2.0589059373497425,0.7115068671186144,-1.193397735243754,-1.0221698288085537,0.3935921246913884,0.1999618097502653,0.0417728292481323,-0.3364298827350009,9.99605822589183,-1.282144042099128,0.1232076281233641,-0.8680667278372001
1.74,-2.004950585587659,1.4118474369628324,2.039962293142603,0.029522513953805,0.169627660294925,0.0100462226132218,0.6225190344316546,-0.9659892065639962,-0.7902278757586599,-2.010856954550189,1.416672712132717,2.0391735052744755,0.7309783977348979,-1.2333977358398007,-1.0577180538537578,0.4414536003537264,0.2358955225700565,0.0030414731638728,-0.3731291105470879,9.796038656994824,-1.2799408056930268,0.1207849319256711,-0.871537117634195
1.76,-1.992437537215072,1.3925009359425258,2.0240685703021466,0.0335866035892495,0.1727393543730844,0.0105077393609078,0.628594735389441,-0.9688121762951926,-0.7987849593682681,-1.996529459554736,1.3926047574248617,2.0185523675730783,0.7504499283511813,-1.273397736435847,-1.093266278898962,0.5433851767704061,0.3037850478893211,-0.1411484865598167,-0.4278541804804081,9.746909210823103,-1.277519497738128,0.1177807774304275,-0.8744384413882943
1.78,-1.979792328755704,1.373078688276109,2.007996517835284,0.0374572378532831,0.1752672656019429,0.0109482003495656,0.635601544760445,-0.9732608564954116,-0.8079895133731974,-1.981715176293875,1.367536802702105,1.997042524245551,0.7699214589674648,-1.3133977370318934,-1.1288145039441662,0.6196974009850876,0.3503404685501976,-0.2224340100109523,-0.4602277002464627,9.717623094408737,-1.2755457846451468,0.1150513512768279,-0.8763327786950219
1.8,-1.9676440218085096,1.3545350928683282,1.9925500820100108,0.0406697870111211,0.1769561361592445,0.0113149307566923,0.6427649133706996,-0.9784030351113469,-0.8174822231605737,-1.9480122515176816,1.3244156454513385,1.967597042166624,0.7001723367798122,-1.0732608579855278,-0.8421267474649561,0.6478182420091184,0.3581684305127341,-0.2571089307967567,-0.4746354893688187,9.654097961630214,-1.2741530323492165,0.1125525180981276,-0.8773350441918635
1.82,-1.954619202605108,1.3348222682932995,1.9765423878444044,0.0414497566120473,0.1777997212845768,0.0114855391832725,0.6597071799875076,-0.9920095896574036,-0.7804230417788793,-1.9480122515176816,1.3244156454513385,1.967597042166624,0.7001723367798122,-1.0732608579855278,-0.8421267474649561,2.14800002875416,0.8471133308403989,-0.6803277273028374,1.85295906908472,9.654097961630214,-1.2629686378107374,0.1115115197268962,-0.8648831964004392
1.84,-1.9412456619982408,1.3148587249893595,1.961310371963448,0.0386203082507884,0.1774947788583727,0.0113634529015981,0.6765721516658202,-1.003173322763972,-0.7452357377611114,-1.9480122515176816,1.3244156454513385,1.967597042166624,0.7001723367798122,-1.0732608579855278,-0.8421267474649561,2.02928717202852,0.843248583915629,-0.5581866553284187,1.7593652008883964,12.906489558349676,-1.2646963914443918,0.1138232458987881,-0.8782915909917709
1.86,-1.9275510506827307,1.2947222776829754,1.9466876514661813,0.0340385596538381,0.1758696546705073,0.0110845850500529,0.6919145234467287,-1.009545439508282,-0.7187460000560357,-1.941010528149884,1.3136830368714831,1.9591757746919745,0.7130864951836856,-1.093260858283551,-0.8489541942833079,1.5634084937648605,0.7671185890454235,-0.3186058372155131,1.324486885253784,12.361739929785472,-1.2678746153235143,0.1174374334004748,-0.8881964867564219
1.88,-1.914271642972432,1.2755087162340666,1.9332177476606331,0.0297236736866984,0.1728976002574158,0.0107977918499118,0.7050196416611955,-1.0126518287328772,-0.7004356555078451,-1.9270070814142877,1.2922178197117726,1.9423332397426756,0.7389148119914325,-1.1332608588795976,-0.8626090879200113,1.1365105530782396,0.6552559107233402,-0.1553194612297526,0.9155172274095292,11.350657304387823,-1.2730294244270235,0.1213574327150427,-0.8934916832641169
1.9,-1.9000429340916405,1.2552396295623724,1.9193584941013209,0.0258724967510086,0.1681308155382201,0.010526760365479,0.7169485357579656,-1.0141827200825564,-0.6866818870558442,-1.9130036346786912,1.270752602552062,1.9254907047933765,0.7647431287991794,-1.173260859475644,-0.8762639815567148,0.9135210579506854,0.5964447048385058,-0.0765445674839604,0.6876884226000468,10.996882158099652,-1.2799755778767434,0.1247950335946201,-0.8946502084058022
1.92,-1.8856053691215988,1.2349513832339818,1.9057212089572984,0.0229429995468406,0.1618902113405575,0.0103148543740589,0.7258110679058681,-1.014709927299812,-0.6779028316415749,-1.8977087721027075,1.2472873853625492,1.907965425162242,0.7905714456069263,-1.2132608600716903,-0.8899188751934183,0.6242880695026602,0.4431266073951279,-0.0263603608627871,0.4389527707134633,10.996882158099652,-1.2888023338013046,0.1275590647075319,-0.8920849193070112
1.94,-1.8710260306833164,1.2146605198344749,1.892231253669227,0.0210073001836184,0.1549689508455126,0.0101852777758678,0.7314332012189476,-1.014606843239348,-0.6714843822806678,-1.882413909526724,1.2238221681730364,1.890440145531108,0.8163997624146732,-1.253260860667737,-0.9035737688301216,0.4266599978674169,0.281106665653974,0.0051542030232054,0.3209224680453593,10.69631820509403,-1.2965549298164378,0.129375075637147,-0.8866984270372056
1.96,-1.8570959980386743,1.1953817309896788,1.879518946269692,0.0198245449045355,0.1483197346866219,0.0101263877969965,0.734428163948199,-1.0147789911230929,-0.6669488684834277,-1.8664733390305464,1.1993569509686224,1.872573493559056,0.84222807922242,-1.2932608612637833,-0.9172286624668252,0.2718930030749107,0.1497481364625685,-0.0086073941872322,0.2267756898620021,10.46420864488482,-1.304007693145867,0.1306949125807908,-0.8800675176489152
1.98,-1.8423950079977407,1.1750863983233777,1.8662162221671077,0.0191168250126036,0.1416052454004319,0.0101229821402398,0.7353302449981797,-1.0147585995376562,-0.6636153946199153,-1.849887060614176,1.173891733749307,1.8543654692460865,0.8680563960301669,-1.3332608618598296,-0.9308835561035288,0.1726717553351701,0.0451040524990342,0.0010195792718215,0.1666736931756229,10.46420864488482,-1.31073628151161,0.1315578643802859,-0.8730806879929536
2.0,-1.827698153745368,1.1547930386894625,1.852963701196544,0.0189793166947429,0.1354783788627294,0.0101809291818561,0.7341641378981715,-1.0146007574605649,-0.6618580138919857,-1.805628495747832,1.1243484683464946,1.8330354524361117,0.7899730824927914,-1.1147586010277724,-0.6930796394624446,0.1057486041620425,-0.0583053550004097,0.0078921038545676,0.0878690363964762,10.367699020159309,-1.3166077203917144,0.1319631754373323,-0.8662100108504037
2.02,-1.812998602686964,1.1344610593539566,1.839985588386086,0.018220953475343,0.1298815657338822,0.0102139441881491,0.7358562336802911,-1.0183512289917944,-0.634754063703088,-1.805628495747832,1.1243484683464946,1.8330354524361117,0.7899730824927914,-1.1147586010277724,-0.6930796394624446,1.370723659864272,0.0846047891059798,-0.1875235765614769,1.3551975094448887,10.269693408394232,-1.3146624415375674,0.1322251531164217,-0.8515520943787043
2.04,-1.799024488198217,1.1150974032844152,1.828153962466289,0.0165683792264576,0.125163556123294,0.0102066450843972,0.7348651159654542,-1.0197284148336665,-0.6121775307586118,-1.805628495747832,1.1243484683464946,1.8330354524361117,0.7899730824927914,-1.1147586010277724,-0.6930796394624446,1.1320101534005034,-0.0495558857418421,-0.0688592920935926,1.128826647223807,11.97820243904698,-1.321421520448762,0.1340859383942305,-0.8543429764932083
2.06,-1.78436501670061,1.0947059430535897,1.8161053173691732,0.0148991314450651,0.1214970563254936,0.0102428465015539,0.7309626181234014,-1.019378465171278,-0.5941317392728194,-1.7977287649229037,1.113200882336217,1.826104656041487,0.8009016499917138,-1.1347586013257955,-0.6989724884309504,0.9233127104645152,-0.1951248921026438,0.0174974831194107,0.902289574289622,11.563064818392377,-1.326632870280532,0.1358794943591365,-0.8566130108355957
2.08,-1.7698095755454768,1.0743366369670533,1.8043626192706927,0.0140137483652858,0.1198405062656618,0.0103764336122935,0.7248358635817375,-1.0176611771006263,-0.5812492696721934,-1.781929303273048,1.0909057103156614,1.8122430632522384,0.8227587849895585,-1.174758601921842,-0.7107581863679622,0.7184083493084803,-0.3063377270831946,0.0858644035325761,0.6441234800313,10.8966300724569,-1.3291684819941685,0.1370172746301285,-0.859733574993723
2.1,-1.7553804974860865,1.0540141622805603,1.7928317547502737,0.0145367659532946,0.1202805790911669,0.0106446871118717,0.718647763896282,-1.014923525732002,-0.5724725438571261,-1.766129841623192,1.068610538295106,1.7983814704629892,0.8446159199874032,-1.2147586025178885,-0.7225438843049738,0.5541169298219777,-0.3094049842727708,0.1368825684312291,0.4388362907533638,10.8966300724569,-1.3291687240475796,0.1370549550892632,-0.8642076115811761
2.12,-1.7417804848360183,1.0347631682205394,1.7820149940150614,0.0167539072064236,0.1221611288948644,0.0110456023189665,0.7134493645322507,-1.0119113272234108,-0.5665771333978818,-1.749237523223444,1.0443153662447482,1.7839305927768898,0.8664730549852478,-1.2547586031139348,-0.7343295822419855,0.4208698144500457,-0.2599199682015662,0.1506099254295567,0.2947705229622122,10.6735354843795,-1.3275925343727444,0.1356818793081148,-0.8697816874750021
2.14,-1.727558625511512,1.0145444130432086,1.7707437011466889,0.0207754707786729,0.1252177507050468,0.0116114934518083,0.7092018549738202,-1.0106757109242095,-0.5608926847172806,-1.732345204823696,1.0200201941943905,1.7694797150907902,0.8883301899830925,-1.2947586037099814,-0.7461152801789973,0.3601424783686302,-0.2123754779215281,0.0617808149600551,0.2842224340300625,10.529576569407254,-1.324746234961235,0.1329093995910363,-0.8756374087501441
2.16,-1.7134036569378024,0.9943152896481828,1.7595854344327515,0.0252303079846335,0.1288694644938195,0.012232203353687,0.706660150966708,-1.0123955174265924,-0.5552367487336649,-1.7149064580490017,0.9947250221291316,1.7547341949562654,0.9101873249809372,-1.3347586043060278,-0.757900978116009,0.3217437082374985,-0.1270852003556088,-0.085990325119134,0.2827967991807845,10.507939086173792,-1.3207842673868022,0.129730228285001,-0.8820743280052185
2.18,-1.699282468861632,0.9740324705963688,1.7485399672512312,0.0293285062440277,0.1326005827720093,0.0128429782929798,0.7056826329623455,-1.015758194794152,-0.5496099314278253,-1.6969212828993614,0.9684298500489714,1.7396940323733154,0.932044459978782,-1.374758604902074,-0.7696866760530208,0.3313767248934618,-0.048875900218126,-0.1681338683779842,0.2813408652919791,10.524731628230256,-1.316921050611926,0.1269344310717474,-0.8882285519986556
2.2,-1.6858727371611313,0.9546908845720362,1.7381485880702192,0.0326490524476199,0.1358811290822398,0.0133853197145389,0.7059585734055225,-1.019930976456421,-0.5445114587198338,-1.6639983372135148,0.9232445608566612,1.72105947067984,0.7717425725256198,-1.1157581962842682,-0.5632702729290613,0.3297069679400328,0.0137970221588512,-0.2086390831134488,0.2549236353995787,10.524731628230256,-1.3132580860274008,0.1244417942422254,-0.8942457808637326
2.22,-1.6716952978897763,0.9341631742729424,1.7275381115016593,0.0332738978931305,0.1384258339276123,0.013731958546107,0.711919950420195,-1.0318983845713934,-0.5156120232282089,-1.6639983372135148,0.9232445608566612,1.72105947067984,0.7717425725256198,-1.1157581962842682,-0.5632702729290613,1.5921167079048872,0.2980688507336237,-0.5983704057486161,1.444971774581244,10.519142918989928,-1.3050142506933198,0.123882995365271,-0.8903765378689241
2.24,-1.6573960287741096,0.9134302915505282,1.7175161887548618,0.0302193904975978,0.1397188855667497,0.0137821944425556,0.7175772528954784,-1.0402764844330334,-0.488366572837131,-1.6639983372135148,0.9232445608566612,1.72105947067984,0.7717425725256198,-1.1157581962842682,-0.5632702729290613,1.453024600274499,0.2828651237641699,-0.4189049930820032,1.3622725195538947,11.84872020765306,-1.3052296365647047,0.1267257683895253,-0.9009620462878244
2.26,-1.6429964431620685,0.892582434277863,1.7079780488252967,0.0258186172174303,0.140115041834652,0.0137162681775038,0.7218131317548165,-1.043756058128747,-0.4678560706526625,-1.6562809114882586,0.9120869788938184,1.7154267679505493,0.7849545604382747,-1.1357581965822914,-0.5660023412293085,1.0615210816017435,0.2117939429669091,-0.1739786847856805,1.0255251092234212,11.84872020765306,-1.3067959508404805,0.1305603639568393,-0.9093473504116142
2.28,-1.6292466263353704,0.8727411494208338,1.699272159240324,0.0219849690142893,0.1399683880019159,0.0136722477741121,0.7250645150797116,-1.044646295423503,-0.4506959012359179,-1.640846060037746,0.8897718149681331,1.704161362491968,0.8113785362635845,-1.175758197178338,-0.5714664778298029,0.8744075571176122,0.1625691662447526,-0.0445118647377951,0.8580084708372293,11.501382275635478,-1.308705225371888,0.1343736724814583,-0.9160337705229205
2.3000000000000003,-1.6147221195997352,0.8518549970384867,1.6903997393786965,0.0188785445838472,0.1395631441292813,0.0136943336515276,0.7271683737908486,-1.044100967539444,-0.4375695935479667,-1.625411208587234,0.8674566510424477,1.6928959570333868,0.8378025120888942,-1.2157581977743843,-0.5769306144302973,0.6652510005560421,0.1051929355568526,0.0272663942029405,0.65631538439756,11.222056083070129,-1.3104839790379252,0.1374305809227161,-0.9211289701571528
2.32,-1.600165518335606,0.830987972273112,1.6817556436094612,0.0168741241230142,0.1391429682221995,0.0138008333225694,0.7283592104336063,-1.0428302891405368,-0.427623901870946,-1.608655158345456,0.84314148708696,1.681357344744781,0.864226487914204,-1.255758198370431,-0.5823947510307916,0.5048502214457867,0.0595418321378826,0.0635339199453688,0.4972845838510376,10.80865166980493,-1.3119424459005624,0.1395712951194732,-0.9244604485973892
2.34,-1.585591577539885,0.8101548983264096,1.673292393059774,0.0161347097577765,0.1388866518857353,0.0140034959262813,0.7290030629273979,-1.0407754332990524,-0.4191956998622484,-1.5918991081036782,0.8188263231314724,1.6698187324561748,0.8906504637395137,-1.2957581989664773,-0.587858887631286,0.4349470302877644,0.0321926246895809,0.1027427920742174,0.4214101004348797,10.73709745270844,-1.3126553250306014,0.1406081769576525,-0.927207156366721
2.36,-1.5717340602449947,0.790397834650382,1.665400157899552,0.0165852975860794,0.1387870419796315,0.0142808147160535,0.7296559497143417,-1.0391214301286933,-0.4119910712669672,-1.5744824584662676,0.7935111591610835,1.658143516752557,0.9170744395648236,-1.3357581995625236,-0.5933230242317804,0.3710413078084009,0.0326443393471875,0.0827001585179565,0.3602314297640602,10.73709745270844,-1.3130460991058537,0.1406803677773288,-0.930113227594518
2.38,-1.557133465912612,0.7696313574352869,1.657234718245466,0.018139473363718,0.1387318615116971,0.0146485618212744,0.7303675599952938,-1.0377058043384764,-0.4049593270233079,-1.5564052094332244,0.7671959951757935,1.646331697633926,0.9434984153901332,-1.37575820015857,-0.5987871608322748,0.3604019030128727,0.0355805140476062,0.0707812895108461,0.351587212182966,10.69260011615188,-1.313310579758288,0.1398145353479548,-0.932849705395619
2.4,-1.5425182210729969,0.7488855991252792,1.6492038779765648,0.0206678581366925,0.138653046459486,0.0150810667049945,0.7311113022066557,-1.037162000550257,-0.3984814046905884,-1.5206150879128475,0.7177460672183631,1.6369867518943004,0.8056896143218281,-1.1154388590955946,-0.3940157233214184,0.3271557457304881,0.0371871105680932,0.0271901894109527,0.3238961166359744,10.635121938918928,-1.31367473445529,0.1381264343583035,-0.935486617896856
2.42,-1.5285802025566433,0.7290514822028994,1.6418888579741653,0.0197437350052359,0.1382164226924002,0.0152507688649616,0.7361252089824342,-1.049713246657924,-0.3706747656000886,-1.5206150879128475,0.7177460672183631,1.6369867518943004,0.8056896143218281,-1.1154388590955946,-0.3940157233214184,1.5458672465001029,0.2506953387889254,-0.6275623053833335,1.390331954524987,10.635121938918928,-1.3066906073045328,0.1386788219066023,-0.9294376287114388
2.44,-1.5138092187727912,0.7079878602654924,1.6347810901977726,0.0135523004160934,0.1371871001726394,0.0150666345824735,0.7405636823216339,-1.0548127137043322,-0.3418500889313588,-1.5206150879128475,0.7177460672183631,1.6369867518943004,0.8056896143218281,-1.1154388590955946,-0.3940157233214184,1.4803433679361426,0.2219236669599888,-0.2549733523204089,1.441233833436492,12.002727197723289,-1.3069062771183433,0.1443013689823968,-0.9364651783954676
2.46,-1.498967137394058,0.6869018646364771,1.6281972700678755,0.0064434246981041,0.1359463512731296,0.0148384554877874,0.7433314538942385,-1.0534012502741057,-0.3182119420585146,-1.5125581917696291,0.7065916786274071,1.633046594661086,0.8207540251871349,-1.1309854700470183,-0.3918270025810405,1.1920725398178766,0.1383885786302274,0.0705731715113344,1.1819073436422078,12.002727197723289,-1.3097012005665332,0.1509974016609558,-0.9437170622654792
2.48,-1.484086909497399,0.6658846294265377,1.6220310170671783,0.0002463085471554,0.1348259421186603,0.0146979705593756,0.744557363729255,-1.0486455410771782,-0.2995879209278705,-1.4964443994831926,0.6842829014454953,1.6251662801946578,0.8508828469177486,-1.1620786919498656,-0.3874495611002846,0.9630339920844,0.0612954917508234,0.2377854598463624,0.9312010565322048,11.658258276242124,-1.312643819778724,0.1567628978111386,-0.9495673243976916
2.5,-1.4699391040568484,0.6460248166646703,1.6164827224768377,-0.0042653523976641,0.1341017262642904,0.0146779237979196,0.7446625312377516,-1.04245422582597,-0.285377937344441,-1.480330607196756,0.6619741242635834,1.6172859657282297,0.8810116686483623,-1.1931719138527128,-0.3830721196195288,0.7750275449718315,0.0052583754248325,0.3095657625604153,0.7104991791714782,11.37166357152546,-1.31515783168574,0.1616467580204196,-0.954835748008359
2.52,-1.4550516636144388,0.6252546709154561,1.6109094352373146,-0.007499974893746,0.133853264295024,0.0147728231752318,0.7441048761072586,-1.0351712778856237,-0.2728076786170633,-1.462710373823789,0.6381106859865291,1.6096245233358388,0.911140490378976,-1.22426513575556,-0.378694678138773,0.7269176611205233,-0.0278827565246497,0.3641473970173114,0.628512936368883,11.158705693354024,-1.316697934264617,0.1651724974561199,-0.9595249514484432
2.54,-1.440177783075994,0.6046358470261811,1.6055757003784783,-0.0092216105662142,0.1341989235258707,0.0149768261383383,0.743374899868588,-1.0273173363531944,-0.2612282139367125,-1.4450901404508216,0.6142472477094748,1.6019630809434482,0.9412693121095898,-1.2553583576584075,-0.3743172366580172,0.7005377669821463,-0.0364988119335329,0.3926970766214621,0.5789732340175407,11.019600032540438,-1.3169511457420051,0.1672544372957408,-0.9636981874930696
2.56,-1.4253136807936355,0.5841735934707355,1.60046817262666,-0.0095144772038791,0.1350018209646012,0.0152809743464738,0.7431364002492075,-1.0194943148786657,-0.2501124494030366,-1.426716686534589,0.5896064788848494,1.5944110745880766,0.9713981338402036,-1.2864515795612548,-0.3699397951772614,0.6797366553076144,-0.0119249809690247,0.3911510737264478,0.5557882266837955,10.97689690493462,-1.31641722498809,0.168223370489341,-0.9686408523548672
2.58,-1.4111917809610357,0.5648793776985132,1.5958201371242131,-0.0085222007636804,0.1359454950567671,0.01565944301905,0.7434242775802091,-1.0120288412215896,-0.239719009075578,-1.4075900120750913,0.5641883795126528,1.5869685042697237,1.0015269555708173,-1.317544801464102,-0.3655623536965056,0.6399995549268774,0.0143938665500831,0.3732736828537919,0.5196720163729296,10.958524338409916,-1.3157447877883948,0.1680040520911453,-0.9739153199075632
2.6,-1.3963158176713375,0.5447193138832922,1.5911407997619604,-0.0061013044292036,0.1369450928470466,0.0161551115287774,0.744186623191956,-1.0045527093582705,-0.2287655637103771,-1.3740205670820251,0.5142779356374336,1.5838341866704342,0.8208586385611967,-1.0337216182741114,-0.2331418679582734,0.6641755864188476,0.0381172805873464,0.3738065931659595,0.5476722682600466,10.95480963227874,-1.3152642867148905,0.1665481649878527,-0.97940313755871
2.62,-1.381384089829617,0.5244707208054594,1.5867576651922928,-0.0097645533529681,0.137119629299366,0.0162352527689013,0.7489291319647011,-1.0179144364703998,-0.2096841755411524,-1.3740205670820251,0.5142779356374336,1.5838341866704342,0.8208586385611967,-1.0337216182741114,-0.2331418679582734,1.1886194884646668,0.2371254386372534,-0.6680863556064676,0.954069408461232,11.535973788870251,-1.3119441672211467,0.170102146189431,-0.98063400994336
2.64,-1.3671214940281151,0.5051258857898735,1.5829420804723071,-0.0202476923323842,0.1360847783787261,0.0158572097483137,0.7520195464036931,-1.016522518607295,-0.1929614206713885,-1.3740205670820251,0.5142779356374336,1.5838341866704342,0.8208586385611967,-1.0337216182741114,-0.2331418679582734,0.8531392429969618,0.1545207219495969,0.0695958931552387,0.8361377434881939,11.352597822855389,-1.3125968116001985,0.180034010220125,-0.9824658928921072
2.66,-1.3520664389786998,0.4848963000726937,1.579231596912,-0.0321937240967247,0.1344598316256527,0.0154487193031314,0.7531763859098578,-1.0063006211516614,-0.1791564435835427,-1.365811980696413,0.5039407194546925,1.5815027679908515,0.8363455107573942,-1.0380601736846158,-0.2318264397348125,0.8608177182662732,0.057841975308237,0.5110948727816811,0.6902488543922919,11.352597822855389,-1.3161634784862897,0.1916376369401013,-0.9844760263134268
